[
  {
    "service_request": "2022-957057",
    "request_type": "Traffic Signals/Signs/Striping/Streetlights",
    "request_reason": "Street Name Sign Damaged or Missing",
    "date_created": "2022-12-29T02:05:20.000",
    "date_modified": "2022-12-29T02:05:20.000",
    "request_status": "Pending",
    "responsible_agency": "Department of Public Works",
    "final_address": "3923 Odin St",
    "address_councildis": "D",
    "status": "Pending",
    "rowid": "957057",
    "final_x": "3688517.89129",
    "final_y": "554021.437528",
    "longitude": "-90.04511161117644",
    "latitude": "30.017151650081914",
    "geocoded_column": {
      "latitude": "30.017151650081914",
      "longitude": "-90.04511161117644"
    }
  },
  {
    "service_request": "2022-957056",
    "request_type": "Trash/Recycling",
    "request_reason": "Missed Trash Pick-Up",
    "date_created": "2022-12-29T00:49:24.000",
    "date_modified": "2022-12-29T00:49:25.000",
    "request_status": "Pending",
    "responsible_agency": "Department of Sanitation",
    "final_address": "8336 Belfast St",
    "address_councildis": "A",
    "status": "Assigned to Contractor",
    "contractor": "Richards Disposal",
    "rowid": "957056",
    "final_x": "3664841.04768",
    "final_y": "533000.807364",
    "longitude": "-90.12062403281487",
    "latitude": "29.960062711363086",
    "geocoded_column": {
      "latitude": "29.960062711363086",
      "longitude": "-90.12062403281487"
    }
  },
  {
    "service_request": "2022-957055",
    "request_type": "Trash/Recycling",
    "request_reason": "MIssed Recycling Pick-Up",
    "date_created": "2022-12-29T00:39:13.000",
    "date_modified": "2022-12-29T00:39:14.000",
    "request_status": "Pending",
    "responsible_agency": "Department of Sanitation",
    "final_address": "1301 General Taylor St",
    "address_councildis": "B",
    "status": "Assigned to Contractor",
    "contractor": "Richards Disposal",
    "rowid": "957055",
    "final_x": "3672844.37032",
    "final_y": "520291.135864",
    "longitude": "-90.09578468200387",
    "latitude": "29.924879936904606",
    "geocoded_column": {
      "latitude": "29.924879936904606",
      "longitude": "-90.09578468200387"
    }
  },
  {
    "service_request": "2022-957054",
    "request_type": "Traffic Signals/Signs/Striping/Streetlights",
    "request_reason": "Street Light Outage/Malfunction",
    "date_created": "2022-12-29T00:14:16.000",
    "date_modified": "2022-12-29T00:14:16.000",
    "request_status": "Pending",
    "responsible_agency": "Department of Public Works",
    "final_address": "3923 Odin St",
    "address_councildis": "D",
    "status": "Assigned to Contractor",
    "contractor": "Legacy Professional Services",
    "rowid": "957054",
    "final_x": "3688517.89129",
    "final_y": "554021.437528",
    "longitude": "-90.04511161117644",
    "latitude": "30.017151650081914",
    "geocoded_column": {
      "latitude": "30.017151650081914",
      "longitude": "-90.04511161117644"
    }
  },
  {
    "service_request": "2022-957053",
    "request_type": "Trash/Recycling",
    "request_reason": "Return Trash Cart",
    "date_created": "2022-12-29T00:13:54.000",
    "date_modified": "2022-12-29T00:13:55.000",
    "request_status": "Pending",
    "responsible_agency": "Department of Sanitation",
    "final_address": "2800 N Rampart St Apt A",
    "address_councildis": "C",
    "status": "Assigned to Contractor",
    "contractor": "IV Waste",
    "rowid": "957053",
    "final_x": "3687629.5222",
    "final_y": "535846.525063",
    "longitude": "-90.04856236738604",
    "latitude": "29.967204597332156",
    "geocoded_column": {
      "latitude": "29.967204597332156",
      "longitude": "-90.04856236738604"
    }
  },
  {
    "service_request": "2022-957052",
    "request_type": "Trash/Recycling",
    "request_reason": "Missed Trash Pick-Up",
    "date_created": "2022-12-29T00:05:20.000",
    "date_modified": "2022-12-29T00:05:20.000",
    "request_status": "Pending",
    "responsible_agency": "Department of Sanitation",
    "final_address": "4114 Vendome Pl",
    "address_councildis": "B",
    "status": "Assigned to Contractor",
    "contractor": "Richards Disposal",
    "rowid": "957052",
    "final_x": "3668768.88391",
    "final_y": "530585.875778",
    "longitude": "-90.10830226274658",
    "latitude": "29.95330755444614",
    "geocoded_column": {
      "latitude": "29.95330755444614",
      "longitude": "-90.10830226274658"
    }
  },
  {
    "service_request": "2022-957051",
    "request_type": "Trash/Recycling",
    "request_reason": "MIssed Recycling Pick-Up",
    "date_created": "2022-12-28T22:42:03.000",
    "date_modified": "2022-12-28T22:42:03.000",
    "request_status": "Pending",
    "responsible_agency": "Department of Sanitation",
    "final_address": "1108 Milan St",
    "address_councildis": "B",
    "status": "Assigned to Contractor",
    "contractor": "Richards Disposal",
    "rowid": "957051",
    "final_x": "3671681.31124",
    "final_y": "519663.417016",
    "longitude": "-90.09947742280646",
    "latitude": "29.923188399219377",
    "geocoded_column": {
      "latitude": "29.923188399219377",
      "longitude": "-90.09947742280646"
    }
  },
  {
    "service_request": "2022-957049",
    "request_type": "Traffic Signals/Signs/Striping/Streetlights",
    "request_reason": "Street Light Outage/Malfunction",
    "date_created": "2022-12-28T22:31:08.000",
    "date_modified": "2022-12-28T22:31:09.000",
    "request_status": "Pending",
    "responsible_agency": "Department of Public Works",
    "final_address": "2612 Peace Ct",
    "address_councildis": "D",
    "status": "Assigned to Contractor",
    "contractor": "Legacy Professional Services",
    "rowid": "957049",
    "final_x": "3686608.3942",
    "final_y": "541037.2475",
    "longitude": "-90.05160372923636",
    "latitude": "29.981508705583945",
    "geocoded_column": {
      "latitude": "29.981508705583945",
      "longitude": "-90.05160372923636"
    }
  },
  {
    "service_request": "2022-957048",
    "request_type": "Trash/Recycling",
    "request_reason": "Order Recycling Cart",
    "date_created": "2022-12-28T22:23:57.000",
    "date_modified": "2022-12-28T22:23:57.000",
    "request_status": "Pending",
    "responsible_agency": "Department of Sanitation",
    "final_address": "2469 Athis St",
    "address_councildis": "D",
    "status": "Pending",
    "rowid": "957048",
    "final_x": "3685713.83222",
    "final_y": "554442.547608",
    "longitude": "-90.05395642014705",
    "latitude": "30.018395931660475",
    "geocoded_column": {
      "latitude": "30.018395931660475",
      "longitude": "-90.05395642014705"
    }
  },
  {
    "service_request": "2022-957047",
    "request_type": "Trash/Recycling",
    "request_reason": "Replace Trash Cart",
    "date_created": "2022-12-28T22:22:39.000",
    "date_modified": "2022-12-28T22:22:40.000",
    "request_status": "Pending",
    "responsible_agency": "Department of Sanitation",
    "final_address": "2469 Athis St",
    "address_councildis": "D",
    "status": "Assigned to Contractor",
    "contractor": "IV Waste",
    "rowid": "957047",
    "final_x": "3685713.83222",
    "final_y": "554442.547608",
    "longitude": "-90.05395642014705",
    "latitude": "30.018395931660475",
    "geocoded_column": {
      "latitude": "30.018395931660475",
      "longitude": "-90.05395642014705"
    }
  },
  {
    "service_request": "2022-957046",
    "request_type": "Trash/Recycling",
    "request_reason": "Missed Trash Pick-Up",
    "date_created": "2022-12-28T22:15:42.000",
    "date_modified": "2022-12-28T22:15:42.000",
    "request_status": "Pending",
    "responsible_agency": "Department of Sanitation",
    "final_address": "7322 Cohn St",
    "address_councildis": "A",
    "status": "Assigned to Contractor",
    "contractor": "Richards Disposal",
    "rowid": "957046",
    "final_x": "3665130.43808",
    "final_y": "528792.665792",
    "longitude": "-90.11985092521078",
    "latitude": "29.94848326571452",
    "geocoded_column": {
      "latitude": "29.94848326571452",
      "longitude": "-90.11985092521078"
    }
  },
  {
    "service_request": "2022-957044",
    "request_type": "Trash/Recycling",
    "request_reason": "Order Recycling Cart",
    "date_created": "2022-12-28T22:13:33.000",
    "date_modified": "2022-12-28T22:13:33.000",
    "request_status": "Pending",
    "responsible_agency": "Department of Sanitation",
    "final_address": "3706 Carondelet St",
    "address_councildis": "B",
    "status": "Pending",
    "rowid": "957044",
    "final_x": "3672944.28769",
    "final_y": "521472.880121",
    "longitude": "-90.0954289740758",
    "latitude": "29.92812638630955",
    "geocoded_column": {
      "latitude": "29.92812638630955",
      "longitude": "-90.0954289740758"
    }
  },
  {
    "service_request": "2022-957042",
    "request_type": "Trash/Recycling",
    "request_reason": "Missed Trash Pick-Up",
    "date_created": "2022-12-28T21:24:17.000",
    "date_modified": "2022-12-28T21:24:18.000",
    "request_status": "Pending",
    "responsible_agency": "Department of Sanitation",
    "final_address": "7425 Panola St",
    "address_councildis": "A",
    "status": "Assigned to Contractor",
    "contractor": "Richards Disposal",
    "rowid": "957042",
    "final_x": "3665324.136",
    "final_y": "529646.448513",
    "longitude": "-90.11921077342282",
    "latitude": "29.950825250032867",
    "geocoded_column": {
      "latitude": "29.950825250032867",
      "longitude": "-90.11921077342282"
    }
  },
  {
    "service_request": "2022-957041",
    "request_type": "Trash/Recycling",
    "request_reason": "MIssed Recycling Pick-Up",
    "date_created": "2022-12-28T21:21:22.000",
    "date_modified": "2022-12-28T21:21:23.000",
    "request_status": "Pending",
    "responsible_agency": "Department of Sanitation",
    "final_address": "200 N Norman C Francis Pkwy, New Orleans, Louisiana, 70119",
    "status": "Assigned to Contractor",
    "rowid": "957041",
    "longitude": "0.0",
    "latitude": "0.0",
    "geocoded_column": {
      "latitude": "0.0",
      "longitude": "0.0"
    }
  },
  {
    "service_request": "2022-957040",
    "request_type": "Trash/Recycling",
    "request_reason": "Order Trash Cart",
    "date_created": "2022-12-28T21:16:28.000",
    "date_modified": "2022-12-28T21:16:29.000",
    "request_status": "Pending",
    "responsible_agency": "Department of Sanitation",
    "final_address": "144 12Th St",
    "address_councildis": "A",
    "status": "Assigned to Contractor",
    "contractor": "IV Waste",
    "rowid": "957040",
    "final_x": "3665732.84314",
    "final_y": "547751.868818",
    "longitude": "-90.11731358722105",
    "latitude": "30.000597191905037",
    "geocoded_column": {
      "latitude": "30.000597191905037",
      "longitude": "-90.11731358722105"
    }
  },
  {
    "service_request": "2022-957039",
    "request_type": "Traffic Signals/Signs/Striping/Streetlights",
    "request_reason": "Traffic Signal Malfunctioning/Damaged",
    "date_created": "2022-12-28T21:14:52.000",
    "date_modified": "2022-12-28T21:14:52.000",
    "request_status": "Pending",
    "responsible_agency": "Department of Public Works",
    "final_address": "ALMONASTER EXIT & LOUISA ST",
    "address_councildis": "D",
    "status": "Pending",
    "rowid": "957039",
    "final_x": "3691616.37",
    "final_y": "548707.81",
    "longitude": "-90.0355118769075",
    "latitude": "30.002444991540617",
    "geocoded_column": {
      "latitude": "30.002444991540617",
      "longitude": "-90.0355118769075"
    }
  },
  {
    "service_request": "2022-957038",
    "request_type": "Trash/Recycling",
    "request_reason": "Replace Trash Cart",
    "date_created": "2022-12-28T21:05:52.000",
    "date_modified": "2022-12-28T21:05:53.000",
    "request_status": "Pending",
    "responsible_agency": "Department of Sanitation",
    "final_address": "13000 Calais St",
    "address_councildis": "E",
    "status": "Assigned to Contractor",
    "contractor": "Waste Pro",
    "rowid": "957038",
    "final_x": "3723862.29203",
    "final_y": "560290.037149",
    "longitude": "-89.9331972896639",
    "latitude": "30.03324780261271",
    "geocoded_column": {
      "latitude": "30.03324780261271",
      "longitude": "-89.9331972896639"
    }
  },
  {
    "service_request": "2022-957036",
    "request_type": "Trash/Recycling",
    "request_reason": "Order Trash Cart",
    "date_created": "2022-12-28T20:42:10.000",
    "date_modified": "2022-12-28T20:42:10.000",
    "request_status": "Pending",
    "responsible_agency": "Department of Sanitation",
    "final_address": "3126 Washington Ave",
    "address_councildis": "B",
    "status": "Assigned to Contractor",
    "contractor": "Richards Disposal",
    "rowid": "957036",
    "final_x": "3672763.17217",
    "final_y": "527192.489343",
    "longitude": "-90.09580571314653",
    "latitude": "29.94385883435624",
    "geocoded_column": {
      "latitude": "29.94385883435624",
      "longitude": "-90.09580571314653"
    }
  },
  {
    "service_request": "2022-957035",
    "request_type": "Trash/Recycling",
    "request_reason": "Order Recycling Cart",
    "date_created": "2022-12-28T20:40:38.000",
    "date_modified": "2022-12-28T20:40:38.000",
    "request_status": "Pending",
    "responsible_agency": "Department of Sanitation",
    "final_address": "4953 Sherwood Dr",
    "address_councildis": "E",
    "status": "Pending",
    "rowid": "957035",
    "final_x": "3717949.94777",
    "final_y": "558209.214555",
    "longitude": "-89.95195994303565",
    "latitude": "30.02772369722936",
    "geocoded_column": {
      "latitude": "30.02772369722936",
      "longitude": "-89.95195994303565"
    }
  },
  {
    "service_request": "2022-957034",
    "request_type": "Roads/Drainage",
    "request_reason": "Street Subsidence (Sinking)",
    "date_created": "2022-12-28T20:37:48.000",
    "date_modified": "2022-12-28T20:37:48.000",
    "request_status": "Pending",
    "responsible_agency": "Department of Public Works",
    "final_address": "5137 Macarthur Blvd",
    "address_councildis": "C",
    "status": "Pending",
    "rowid": "957034",
    "final_x": "3702972.2538",
    "final_y": "519895.981624",
    "longitude": "-90.00069605124534",
    "latitude": "29.92286429953381",
    "geocoded_column": {
      "latitude": "29.92286429953381",
      "longitude": "-90.00069605124534"
    }
  },
  {
    "service_request": "2022-957033",
    "request_type": "Trash/Recycling",
    "request_reason": "Illegal Dumping",
    "date_created": "2022-12-28T20:37:38.000",
    "date_modified": "2022-12-28T20:37:38.000",
    "request_status": "Pending",
    "responsible_agency": "Department of Sanitation",
    "final_address": "2028 Camp St",
    "address_councildis": "B",
    "status": "Pending",
    "rowid": "957033",
    "final_x": "3679094.39887",
    "final_y": "522698.36985",
    "longitude": "-90.0759720103262",
    "latitude": "29.931311953968205",
    "geocoded_column": {
      "latitude": "29.931311953968205",
      "longitude": "-90.0759720103262"
    }
  },
  {
    "service_request": "2022-957032",
    "request_type": "Trash/Recycling",
    "request_reason": "Missed Trash Pick-Up",
    "date_created": "2022-12-28T20:27:08.000",
    "date_modified": "2022-12-28T20:27:09.000",
    "request_status": "Pending",
    "responsible_agency": "Department of Sanitation",
    "final_address": "600 Audubon St, New Orleans, Louisiana, 70118",
    "status": "Assigned to Contractor",
    "rowid": "957032",
    "longitude": "0.0",
    "latitude": "0.0",
    "geocoded_column": {
      "latitude": "0.0",
      "longitude": "0.0"
    }
  },
  {
    "service_request": "2022-957031",
    "request_type": "Trash/Recycling",
    "request_reason": "Missed Trash Pick-Up",
    "date_created": "2022-12-28T20:26:48.000",
    "date_modified": "2022-12-28T20:26:48.000",
    "request_status": "Pending",
    "responsible_agency": "Department of Sanitation",
    "final_address": "619 Red Allen Way",
    "address_councildis": "C",
    "status": "Assigned to Contractor",
    "contractor": "Richards Disposal",
    "rowid": "957031",
    "final_x": "3687290.72022",
    "final_y": "528688.790912",
    "longitude": "-90.04988549279143",
    "latitude": "29.947533736736727",
    "geocoded_column": {
      "latitude": "29.947533736736727",
      "longitude": "-90.04988549279143"
    }
  },
  {
    "service_request": "2022-957030",
    "request_type": "Trash/Recycling",
    "request_reason": "Order Recycling Cart",
    "date_created": "2022-12-28T20:21:59.000",
    "date_modified": "2022-12-28T20:21:59.000",
    "request_status": "Pending",
    "responsible_agency": "Department of Sanitation",
    "final_address": "118 Sherwood Forest Dr",
    "address_councildis": "A",
    "status": "Pending",
    "rowid": "957030",
    "final_x": "3673159.32744",
    "final_y": "541112.239628",
    "longitude": "-90.09407962805462",
    "latitude": "29.982121712343066",
    "geocoded_column": {
      "latitude": "29.982121712343066",
      "longitude": "-90.09407962805462"
    }
  },
  {
    "service_request": "2022-957029",
    "request_type": "Property Maintenance",
    "request_reason": "Property Maintenance",
    "date_created": "2022-12-28T19:55:13.000",
    "date_modified": "2022-12-28T19:55:13.000",
    "request_status": "Pending",
    "responsible_agency": "Department of Code Enforcement",
    "final_address": "1001 Howard Ave",
    "address_councildis": "B",
    "status": "Pending",
    "rowid": "957029",
    "final_x": "3678909.42094",
    "final_y": "528062.176767",
    "longitude": "-90.07637021252258",
    "latitude": "29.94606622969476",
    "geocoded_column": {
      "latitude": "29.94606622969476",
      "longitude": "-90.07637021252258"
    }
  },
  {
    "service_request": "2022-957028",
    "request_type": "Trash/Recycling",
    "request_reason": "Missed Trash Pick-Up",
    "date_created": "2022-12-28T19:53:58.000",
    "date_modified": "2022-12-28T19:53:58.000",
    "request_status": "Pending",
    "responsible_agency": "Department of Sanitation",
    "final_address": "2237 Audubon Street ",
    "address_councildis": "A",
    "status": "Assigned to Contractor",
    "contractor": "Richards Disposal",
    "rowid": "957028",
    "final_x": "3666600.19975",
    "final_y": "529519.826945",
    "longitude": "-90.11518584741388",
    "latitude": "29.950439841751784",
    "geocoded_column": {
      "latitude": "29.950439841751784",
      "longitude": "-90.11518584741388"
    }
  },
  {
    "service_request": "2022-957027",
    "request_type": "Trash/Recycling",
    "request_reason": "Missed Trash Pick-Up",
    "date_created": "2022-12-28T19:47:01.000",
    "date_modified": "2022-12-28T19:47:02.000",
    "request_status": "Pending",
    "responsible_agency": "Department of Sanitation",
    "final_address": "7409 Spruce St",
    "address_councildis": "A",
    "status": "Assigned to Contractor",
    "contractor": "Richards Disposal",
    "rowid": "957027",
    "final_x": "3665199.88064",
    "final_y": "529277.096833",
    "longitude": "-90.1196154634946",
    "latitude": "29.94981327211562",
    "geocoded_column": {
      "latitude": "29.94981327211562",
      "longitude": "-90.1196154634946"
    }
  },
  {
    "service_request": "2022-957026",
    "request_type": "Trash/Recycling",
    "request_reason": "MIssed Recycling Pick-Up",
    "date_created": "2022-12-28T19:45:05.000",
    "date_modified": "2022-12-28T19:45:06.000",
    "request_status": "Pending",
    "responsible_agency": "Department of Sanitation",
    "final_address": "2700 Marengo St",
    "address_councildis": "B",
    "status": "Assigned to Contractor",
    "contractor": "Richards Disposal",
    "rowid": "957026",
    "final_x": "3671510.59201",
    "final_y": "524888.211452",
    "longitude": "-90.09983877599038",
    "latitude": "29.93755995796886",
    "geocoded_column": {
      "latitude": "29.93755995796886",
      "longitude": "-90.09983877599038"
    }
  },
  {
    "service_request": "2022-957025",
    "request_type": "Trash/Recycling",
    "request_reason": "Missed Trash Pick-Up",
    "date_created": "2022-12-28T19:44:35.000",
    "date_modified": "2022-12-28T19:44:35.000",
    "request_status": "Pending",
    "responsible_agency": "Department of Sanitation",
    "final_address": "329 Lowerline St",
    "address_councildis": "A",
    "status": "Assigned to Contractor",
    "contractor": "Richards Disposal",
    "rowid": "957025",
    "final_x": "3661536.41658",
    "final_y": "523552.803195",
    "longitude": "-90.13137236076453",
    "latitude": "29.93417947531416",
    "geocoded_column": {
      "latitude": "29.93417947531416",
      "longitude": "-90.13137236076453"
    }
  },
  {
    "service_request": "2022-957024",
    "request_type": "Trash/Recycling",
    "request_reason": "Missed Trash Pick-Up",
    "date_created": "2022-12-28T19:44:28.000",
    "date_modified": "2022-12-28T19:44:28.000",
    "request_status": "Pending",
    "responsible_agency": "Department of Sanitation",
    "final_address": "1323 Fern St",
    "address_councildis": "A",
    "status": "Assigned to Contractor",
    "contractor": "Richards Disposal",
    "rowid": "957024",
    "final_x": "3662928.53837",
    "final_y": "528222.335552",
    "longitude": "-90.12682223784354",
    "latitude": "29.94697897602701",
    "geocoded_column": {
      "latitude": "29.94697897602701",
      "longitude": "-90.12682223784354"
    }
  },
  {
    "service_request": "2022-957023",
    "request_type": "Trash/Recycling",
    "request_reason": "Missed Trash Pick-Up",
    "date_created": "2022-12-28T19:42:45.000",
    "date_modified": "2022-12-28T19:42:46.000",
    "request_status": "Pending",
    "responsible_agency": "Department of Sanitation",
    "final_address": "5900 Wright Rd",
    "address_councildis": "E",
    "status": "Assigned to Contractor",
    "contractor": "Waste Pro",
    "rowid": "957023",
    "final_x": "3713651.31218",
    "final_y": "561752.654815",
    "longitude": "-89.96540949802723",
    "latitude": "30.037608534794327",
    "geocoded_column": {
      "latitude": "30.037608534794327",
      "longitude": "-89.96540949802723"
    }
  },
  {
    "service_request": "2022-957022",
    "request_type": "Trash/Recycling",
    "request_reason": "Missed Trash Pick-Up",
    "date_created": "2022-12-28T19:33:23.000",
    "date_modified": "2022-12-28T19:33:24.000",
    "request_status": "Pending",
    "responsible_agency": "Department of Sanitation",
    "final_address": "7930 Sycamore St",
    "address_councildis": "A",
    "status": "Assigned to Contractor",
    "contractor": "Richards Disposal",
    "rowid": "957022",
    "final_x": "3664709.90784",
    "final_y": "530572.133186",
    "longitude": "-90.12111928080861",
    "latitude": "29.953388464323652",
    "geocoded_column": {
      "latitude": "29.953388464323652",
      "longitude": "-90.12111928080861"
    }
  },
  {
    "service_request": "2022-957020",
    "request_type": "Trash/Recycling",
    "request_reason": "Missed Trash Pick-Up",
    "date_created": "2022-12-28T19:13:05.000",
    "date_modified": "2022-12-28T19:13:05.000",
    "request_status": "Pending",
    "responsible_agency": "Department of Sanitation",
    "final_address": "1607 Pine St",
    "address_councildis": "A",
    "status": "Assigned to Contractor",
    "contractor": "Richards Disposal",
    "rowid": "957020",
    "final_x": "3664824.95968",
    "final_y": "527862.477375",
    "longitude": "-90.12084653058926",
    "latitude": "29.945934439308413",
    "geocoded_column": {
      "latitude": "29.945934439308413",
      "longitude": "-90.12084653058926"
    }
  },
  {
    "service_request": "2022-957019",
    "request_type": "Trash/Recycling",
    "request_reason": "Missed Trash Pick-Up",
    "date_created": "2022-12-28T19:07:41.000",
    "date_modified": "2022-12-28T19:07:42.000",
    "request_status": "Pending",
    "responsible_agency": "Department of Sanitation",
    "final_address": "232 Walnut St",
    "address_councildis": "A",
    "status": "Assigned to Contractor",
    "contractor": "Richards Disposal",
    "rowid": "957019",
    "final_x": "3661375.88966",
    "final_y": "521348.299513",
    "longitude": "-90.13195211035314",
    "latitude": "29.928122410687646",
    "geocoded_column": {
      "latitude": "29.928122410687646",
      "longitude": "-90.13195211035314"
    }
  },
  {
    "service_request": "2022-957018",
    "request_type": "Trash/Recycling",
    "request_reason": "MIssed Recycling Pick-Up",
    "date_created": "2022-12-28T19:06:24.000",
    "date_modified": "2022-12-28T19:06:25.000",
    "request_status": "Pending",
    "responsible_agency": "Department of Sanitation",
    "final_address": "10 Avoyelles Pl",
    "address_councildis": "E",
    "status": "Assigned to Contractor",
    "contractor": "Waste Pro",
    "rowid": "957018",
    "final_x": "3725616.91347",
    "final_y": "564466.947489",
    "longitude": "-89.92749064488848",
    "latitude": "30.044673511796",
    "geocoded_column": {
      "latitude": "30.044673511796",
      "longitude": "-89.92749064488848"
    }
  },
  {
    "service_request": "2022-957017",
    "request_type": "Trash/Recycling",
    "request_reason": "Repair Recycling Cart",
    "date_created": "2022-12-28T19:05:10.000",
    "date_modified": "2022-12-28T19:05:10.000",
    "request_status": "Pending",
    "responsible_agency": "Department of Sanitation",
    "final_address": "4227 Iberville St",
    "address_councildis": "A",
    "status": "Pending",
    "rowid": "957017",
    "final_x": "3670690.68916",
    "final_y": "539253.059338",
    "longitude": "-90.1019399054036",
    "latitude": "29.977082779845503",
    "geocoded_column": {
      "latitude": "29.977082779845503",
      "longitude": "-90.1019399054036"
    }
  },
  {
    "service_request": "2022-957016",
    "request_type": "Trash/Recycling",
    "request_reason": "MIssed Recycling Pick-Up",
    "date_created": "2022-12-28T19:02:16.000",
    "date_modified": "2022-12-28T19:02:16.000",
    "request_status": "Pending",
    "responsible_agency": "Department of Sanitation",
    "final_address": "702 Washington Ave",
    "address_councildis": "B",
    "status": "Assigned to Contractor",
    "contractor": "Richards Disposal",
    "rowid": "957016",
    "final_x": "3677804.5339",
    "final_y": "519561.826295",
    "longitude": "-90.08015224693371",
    "latitude": "29.92272633588398",
    "geocoded_column": {
      "latitude": "29.92272633588398",
      "longitude": "-90.08015224693371"
    }
  },
  {
    "service_request": "2022-957014",
    "request_type": "Trash/Recycling",
    "request_reason": "Missed Trash Pick-Up",
    "date_created": "2022-12-28T18:47:16.000",
    "date_modified": "2022-12-28T18:47:17.000",
    "request_status": "Pending",
    "responsible_agency": "Department of Sanitation",
    "final_address": "2826 St Louis St",
    "address_councildis": "B",
    "status": "Assigned to Contractor",
    "contractor": "Richards Disposal",
    "rowid": "957014",
    "final_x": "3675510.69416",
    "final_y": "536673.702343",
    "longitude": "-90.08680537811563",
    "latitude": "29.969847118498013",
    "geocoded_column": {
      "latitude": "29.969847118498013",
      "longitude": "-90.08680537811563"
    }
  },
  {
    "service_request": "2022-957013",
    "request_type": "Trash/Recycling",
    "request_reason": "Missed Trash Pick-Up",
    "date_created": "2022-12-28T18:40:47.000",
    "date_modified": "2022-12-28T18:40:47.000",
    "request_status": "Pending",
    "responsible_agency": "Department of Sanitation",
    "final_address": "7903 Plum St",
    "address_councildis": "A",
    "status": "Assigned to Contractor",
    "contractor": "Richards Disposal",
    "rowid": "957013",
    "final_x": "3662757.28013",
    "final_y": "528177.268416",
    "longitude": "-90.1273644637923",
    "latitude": "29.946860013110612",
    "geocoded_column": {
      "latitude": "29.946860013110612",
      "longitude": "-90.1273644637923"
    }
  },
  {
    "service_request": "2022-957012",
    "request_type": "Parks & Parkways",
    "request_reason": "Tree Stump (removal, grind)",
    "date_created": "2022-12-28T18:38:42.000",
    "date_modified": "2022-12-28T18:38:42.000",
    "request_status": "Pending",
    "responsible_agency": "Department of Parks & Parkway",
    "final_address": "7220 Queensway Dr",
    "address_councildis": "E",
    "status": "Pending",
    "rowid": "957012",
    "final_x": "3718565.95948",
    "final_y": "570154.607335",
    "longitude": "-89.9495575704403",
    "latitude": "30.06054820883946",
    "geocoded_column": {
      "latitude": "30.06054820883946",
      "longitude": "-89.9495575704403"
    }
  },
  {
    "service_request": "2022-957011",
    "request_type": "Roads/Drainage",
    "request_reason": "Pothole",
    "date_created": "2022-12-28T18:35:47.000",
    "date_modified": "2022-12-28T18:35:47.000",
    "request_status": "Pending",
    "responsible_agency": "Department of Public Works",
    "final_address": "2815 St Claude Ave",
    "address_councildis": "C",
    "status": "Pending",
    "rowid": "957011",
    "final_x": "3687880.94134",
    "final_y": "536395.510151",
    "longitude": "-90.04774893386045",
    "latitude": "29.968706360800535",
    "geocoded_column": {
      "latitude": "29.968706360800535",
      "longitude": "-90.04774893386045"
    }
  },
  {
    "service_request": "2022-957010",
    "request_type": "Traffic Signals/Signs/Striping/Streetlights",
    "request_reason": "Street Light Outage/Malfunction",
    "date_created": "2022-12-28T18:33:20.000",
    "date_modified": "2022-12-28T18:33:21.000",
    "request_status": "Pending",
    "responsible_agency": "Department of Public Works",
    "final_address": "6630 Memphis St",
    "address_councildis": "A",
    "status": "Assigned to Contractor",
    "contractor": "Legacy Professional Services",
    "rowid": "957010",
    "final_x": "3669490.64916",
    "final_y": "551562.140437",
    "longitude": "-90.10531338751338",
    "latitude": "30.010963917096003",
    "geocoded_column": {
      "latitude": "30.010963917096003",
      "longitude": "-90.10531338751338"
    }
  },
  {
    "service_request": "2022-957009",
    "request_type": "Roads/Drainage",
    "request_reason": "Bicycle Hazardous Incident Reporting",
    "date_created": "2022-12-28T18:32:54.000",
    "date_modified": "2022-12-28T18:32:54.000",
    "request_status": "Pending",
    "responsible_agency": "Health Department",
    "final_address": "2815 St Claude Ave",
    "address_councildis": "C",
    "status": "Pending",
    "rowid": "957009",
    "final_x": "3687880.94134",
    "final_y": "536395.510151",
    "longitude": "-90.04774893386045",
    "latitude": "29.968706360800535",
    "geocoded_column": {
      "latitude": "29.968706360800535",
      "longitude": "-90.04774893386045"
    }
  },
  {
    "service_request": "2022-957008",
    "request_type": "Trash/Recycling",
    "request_reason": "Illegal Dumping",
    "date_created": "2022-12-28T18:32:48.000",
    "date_modified": "2022-12-28T18:32:49.000",
    "request_status": "Pending",
    "responsible_agency": "Department of Sanitation",
    "final_address": "BULLARD AVE & I 10 E SERVICE RD",
    "address_councildis": "E",
    "status": "Pending",
    "rowid": "957008",
    "final_x": "3715302.8",
    "final_y": "564506.58",
    "longitude": "-89.96008615696502",
    "latitude": "30.045126400593563",
    "geocoded_column": {
      "latitude": "30.045126400593563",
      "longitude": "-89.96008615696502"
    }
  },
  {
    "service_request": "2022-957007",
    "request_type": "Roads/Drainage",
    "request_reason": "Pothole",
    "date_created": "2022-12-28T18:32:27.000",
    "date_modified": "2022-12-28T18:32:27.000",
    "request_status": "Pending",
    "responsible_agency": "Department of Public Works",
    "final_address": "6755 Argonne Blvd",
    "address_councildis": "A",
    "status": "Pending",
    "rowid": "957007",
    "final_x": "3670685.93383",
    "final_y": "552297.218966",
    "longitude": "-90.10151203358724",
    "latitude": "30.012949846114996",
    "geocoded_column": {
      "latitude": "30.012949846114996",
      "longitude": "-90.10151203358724"
    }
  },
  {
    "service_request": "2022-957005",
    "request_type": "Trash/Recycling",
    "request_reason": "Missed Trash Pick-Up",
    "date_created": "2022-12-28T18:20:44.000",
    "date_modified": "2022-12-28T18:20:45.000",
    "request_status": "Pending",
    "responsible_agency": "Department of Sanitation",
    "final_address": "441 Audubon St, New Orleans, Louisiana, 70118",
    "address_councildis": "A",
    "status": "Assigned to Contractor",
    "contractor": "Richards Disposal",
    "rowid": "957005",
    "final_x": "3662365.72871",
    "final_y": "523172.159099",
    "longitude": "-90.1287668705638",
    "latitude": "29.93310887776141",
    "geocoded_column": {
      "latitude": "29.93310887776141",
      "longitude": "-90.1287668705638"
    }
  },
  {
    "service_request": "2022-957004",
    "request_type": "Trash/Recycling",
    "request_reason": "Missed Trash Pick-Up",
    "date_created": "2022-12-28T18:18:16.000",
    "date_modified": "2022-12-28T18:18:16.000",
    "request_status": "Pending",
    "responsible_agency": "Department of Sanitation",
    "final_address": "12 Newcomb Blvd",
    "address_councildis": "A",
    "status": "Assigned to Contractor",
    "contractor": "Richards Disposal",
    "rowid": "957004",
    "final_x": "3663620.42061",
    "final_y": "524946.431677",
    "longitude": "-90.12474679572009",
    "latitude": "29.937951237199634",
    "geocoded_column": {
      "latitude": "29.937951237199634",
      "longitude": "-90.12474679572009"
    }
  },
  {
    "service_request": "2022-957003",
    "request_type": "Trash/Recycling",
    "request_reason": "Missed Trash Pick-Up",
    "date_created": "2022-12-28T18:18:14.000",
    "date_modified": "2022-12-28T18:18:15.000",
    "request_status": "Pending",
    "responsible_agency": "Department of Sanitation",
    "final_address": "4012 Vendome Pl",
    "address_councildis": "B",
    "status": "Assigned to Contractor",
    "contractor": "Richards Disposal",
    "rowid": "957003",
    "final_x": "3668626.63022",
    "final_y": "529951.891265",
    "longitude": "-90.10877283406187",
    "latitude": "29.951568485613283",
    "geocoded_column": {
      "latitude": "29.951568485613283",
      "longitude": "-90.10877283406187"
    }
  },
  {
    "service_request": "2022-957002",
    "request_type": "Trash/Recycling",
    "request_reason": "MIssed Recycling Pick-Up",
    "date_created": "2022-12-28T18:06:05.000",
    "date_modified": "2022-12-28T18:06:06.000",
    "request_status": "Pending",
    "responsible_agency": "Department of Sanitation",
    "final_address": "8701 Aberdeen Rd",
    "address_councildis": "E",
    "status": "Assigned to Contractor",
    "contractor": "Waste Pro",
    "rowid": "957002",
    "final_x": "3704581.75108",
    "final_y": "562309.915871",
    "longitude": "-89.9940506785556",
    "latitude": "30.039435376576918",
    "geocoded_column": {
      "latitude": "30.039435376576918",
      "longitude": "-89.9940506785556"
    }
  },
  {
    "service_request": "2022-957001",
    "request_type": "Trash/Recycling",
    "request_reason": "MIssed Recycling Pick-Up",
    "date_created": "2022-12-28T18:04:49.000",
    "date_modified": "2022-12-28T18:04:49.000",
    "request_status": "Pending",
    "responsible_agency": "Department of Sanitation",
    "final_address": "3212 Camp St",
    "address_councildis": "B",
    "status": "Assigned to Contractor",
    "contractor": "Richards Disposal",
    "rowid": "957001",
    "final_x": "3675486.57102",
    "final_y": "520206.083128",
    "longitude": "-90.087447032309",
    "latitude": "29.9245673382118",
    "geocoded_column": {
      "latitude": "29.9245673382118",
      "longitude": "-90.087447032309"
    }
  },
  {
    "service_request": "2022-957000",
    "request_type": "Trash/Recycling",
    "request_reason": "Missed Trash Pick-Up",
    "date_created": "2022-12-28T18:04:01.000",
    "date_modified": "2022-12-28T18:04:02.000",
    "request_status": "Pending",
    "responsible_agency": "Department of Sanitation",
    "final_address": "7535 Garfield St",
    "address_councildis": "A",
    "status": "Assigned to Contractor",
    "contractor": "Richards Disposal",
    "rowid": "957000",
    "final_x": "3660813.56678",
    "final_y": "524378.530492",
    "longitude": "-90.13362709167163",
    "latitude": "29.936470795261613",
    "geocoded_column": {
      "latitude": "29.936470795261613",
      "longitude": "-90.13362709167163"
    }
  },
  {
    "service_request": "2022-956999",
    "request_type": "Traffic Signals/Signs/Striping/Streetlights",
    "request_reason": "Street Light Outage/Malfunction",
    "date_created": "2022-12-28T18:01:09.000",
    "date_modified": "2022-12-28T18:01:09.000",
    "request_status": "Pending",
    "responsible_agency": "Department of Public Works",
    "final_address": "3551 Rue Denise",
    "address_councildis": "C",
    "status": "Assigned to Contractor",
    "contractor": "Legacy Professional Services",
    "rowid": "956999",
    "final_x": "3704214.48599",
    "final_y": "517492.120374",
    "longitude": "-89.99686334624792",
    "latitude": "29.91621472724445",
    "geocoded_column": {
      "latitude": "29.91621472724445",
      "longitude": "-89.99686334624792"
    }
  },
  {
    "service_request": "2022-956998",
    "request_type": "Trash/Recycling",
    "request_reason": "Missed Trash Pick-Up",
    "date_created": "2022-12-28T17:57:11.000",
    "date_modified": "2022-12-28T17:57:12.000",
    "request_status": "Pending",
    "responsible_agency": "Department of Sanitation",
    "final_address": "717 Fern St",
    "address_councildis": "A",
    "status": "Assigned to Contractor",
    "contractor": "Richards Disposal",
    "rowid": "956998",
    "final_x": "3661507.27315",
    "final_y": "526659.942014",
    "longitude": "-90.1313614693624",
    "latitude": "29.942723964633444",
    "geocoded_column": {
      "latitude": "29.942723964633444",
      "longitude": "-90.1313614693624"
    }
  },
  {
    "service_request": "2022-956997",
    "request_type": "Trash/Recycling",
    "request_reason": "Order Trash Cart",
    "date_created": "2022-12-28T17:48:51.000",
    "date_modified": "2022-12-28T17:48:52.000",
    "request_status": "Pending",
    "responsible_agency": "Department of Sanitation",
    "final_address": "8803 Olive St",
    "address_councildis": "A",
    "status": "Assigned to Contractor",
    "contractor": "Richards Disposal",
    "rowid": "956997",
    "final_x": "3665401.99636",
    "final_y": "535901.590663",
    "longitude": "-90.11875557496711",
    "latitude": "29.9680225742866",
    "geocoded_column": {
      "latitude": "29.9680225742866",
      "longitude": "-90.11875557496711"
    }
  },
  {
    "service_request": "2022-956996",
    "request_type": "Trash/Recycling",
    "request_reason": "MIssed Recycling Pick-Up",
    "date_created": "2022-12-28T17:43:05.000",
    "date_modified": "2022-12-28T17:43:05.000",
    "request_status": "Pending",
    "responsible_agency": "Department of Sanitation",
    "final_address": "1222 Fern St",
    "address_councildis": "A",
    "status": "Assigned to Contractor",
    "contractor": "Richards Disposal",
    "rowid": "956996",
    "final_x": "3662637.85242",
    "final_y": "528016.451391",
    "longitude": "-90.12774688506096",
    "latitude": "29.94642127345398",
    "geocoded_column": {
      "latitude": "29.94642127345398",
      "longitude": "-90.12774688506096"
    }
  },
  {
    "service_request": "2022-956995",
    "request_type": "Trash/Recycling",
    "request_reason": "Missed Trash Pick-Up",
    "date_created": "2022-12-28T17:41:15.000",
    "date_modified": "2022-12-28T17:41:16.000",
    "request_status": "Pending",
    "responsible_agency": "Department of Sanitation",
    "final_address": "1222 Fern St",
    "address_councildis": "A",
    "status": "Assigned to Contractor",
    "contractor": "Richards Disposal",
    "rowid": "956995",
    "final_x": "3662637.85242",
    "final_y": "528016.451391",
    "longitude": "-90.12774688506096",
    "latitude": "29.94642127345398",
    "geocoded_column": {
      "latitude": "29.94642127345398",
      "longitude": "-90.12774688506096"
    }
  },
  {
    "service_request": "2022-956994",
    "request_type": "Trash/Recycling",
    "request_reason": "Replace Recycling Cart",
    "date_created": "2022-12-28T17:39:36.000",
    "date_modified": "2022-12-28T17:39:36.000",
    "request_status": "Pending",
    "responsible_agency": "Department of Sanitation",
    "final_address": "4833 Bienville Ave",
    "address_councildis": "A",
    "status": "Pending",
    "rowid": "956994",
    "final_x": "3669122.74298",
    "final_y": "540902.726539",
    "longitude": "-90.10683623155984",
    "latitude": "29.9816650455726",
    "geocoded_column": {
      "latitude": "29.9816650455726",
      "longitude": "-90.10683623155984"
    }
  },
  {
    "service_request": "2022-956993",
    "request_type": "Trash/Recycling",
    "request_reason": "Missed Trash Pick-Up",
    "date_created": "2022-12-28T17:38:39.000",
    "date_modified": "2022-12-28T17:38:40.000",
    "request_status": "Pending",
    "responsible_agency": "Department of Sanitation",
    "final_address": "7312 Benjamin St",
    "address_councildis": "A",
    "status": "Assigned to Contractor",
    "contractor": "Richards Disposal",
    "rowid": "956993",
    "final_x": "3662079.13799",
    "final_y": "524067.913532",
    "longitude": "-90.12964191636387",
    "latitude": "29.93558020108946",
    "geocoded_column": {
      "latitude": "29.93558020108946",
      "longitude": "-90.12964191636387"
    }
  },
  {
    "service_request": "2022-956992",
    "request_type": "Trash/Recycling",
    "request_reason": "Order Recycling Cart",
    "date_created": "2022-12-28T17:37:48.000",
    "date_modified": "2022-12-28T17:37:48.000",
    "request_status": "Pending",
    "responsible_agency": "Department of Sanitation",
    "final_address": "3312 Dauphine St",
    "address_councildis": "C",
    "status": "Pending",
    "rowid": "956992",
    "final_x": "3689647.88988",
    "final_y": "534595.171846",
    "longitude": "-90.04223288914098",
    "latitude": "29.963701432183257",
    "geocoded_column": {
      "latitude": "29.963701432183257",
      "longitude": "-90.04223288914098"
    }
  },
  {
    "service_request": "2022-956991",
    "request_type": "Trash/Recycling",
    "request_reason": "Order Trash Cart",
    "date_created": "2022-12-28T17:36:52.000",
    "date_modified": "2022-12-28T17:36:53.000",
    "request_status": "Pending",
    "responsible_agency": "Department of Sanitation",
    "final_address": "4210 Prytania Street",
    "address_councildis": "B",
    "status": "Assigned to Contractor",
    "contractor": "Richards Disposal",
    "rowid": "956991",
    "final_x": "3671552.23175",
    "final_y": "520327.948088",
    "longitude": "-90.0998622974185",
    "latitude": "29.92501946878317",
    "geocoded_column": {
      "latitude": "29.92501946878317",
      "longitude": "-90.0998622974185"
    }
  },
  {
    "service_request": "2022-956990",
    "request_type": "Trash/Recycling",
    "request_reason": "Replace Trash Cart",
    "date_created": "2022-12-28T17:35:42.000",
    "date_modified": "2022-12-28T17:35:42.000",
    "request_status": "Pending",
    "responsible_agency": "Department of Sanitation",
    "final_address": "3312 Dauphine St",
    "address_councildis": "C",
    "status": "Assigned to Contractor",
    "contractor": "IV Waste",
    "rowid": "956990",
    "final_x": "3689647.88988",
    "final_y": "534595.171846",
    "longitude": "-90.04223288914098",
    "latitude": "29.963701432183257",
    "geocoded_column": {
      "latitude": "29.963701432183257",
      "longitude": "-90.04223288914098"
    }
  },
  {
    "service_request": "2022-956989",
    "request_type": "Trash/Recycling",
    "request_reason": "Missed Trash Pick-Up",
    "date_created": "2022-12-28T17:33:15.000",
    "date_modified": "2022-12-28T17:33:16.000",
    "request_status": "Pending",
    "responsible_agency": "Department of Sanitation",
    "final_address": "4702 Perrier St",
    "address_councildis": "B",
    "status": "Assigned to Contractor",
    "contractor": "Richards Disposal",
    "rowid": "956989",
    "final_x": "3669764.67463",
    "final_y": "519926.11404",
    "longitude": "-90.10551864389504",
    "latitude": "29.923967342927465",
    "geocoded_column": {
      "latitude": "29.923967342927465",
      "longitude": "-90.10551864389504"
    }
  },
  {
    "service_request": "2022-956988",
    "request_type": "Trash/Recycling",
    "request_reason": "Replace Trash Cart",
    "date_created": "2022-12-28T17:31:56.000",
    "date_modified": "2022-12-28T17:31:56.000",
    "request_status": "Pending",
    "responsible_agency": "Department of Sanitation",
    "final_address": "3314 Dauphine St",
    "address_councildis": "C",
    "status": "Assigned to Contractor",
    "contractor": "IV Waste",
    "rowid": "956988",
    "final_x": "3689667.12623",
    "final_y": "534591.413189",
    "longitude": "-90.04217227662244",
    "latitude": "29.963690501187525",
    "geocoded_column": {
      "latitude": "29.963690501187525",
      "longitude": "-90.04217227662244"
    }
  },
  {
    "service_request": "2022-956987",
    "request_type": "Trash/Recycling",
    "request_reason": "Request a Large Item Pick Up",
    "date_created": "2022-12-28T17:28:10.000",
    "date_modified": "2022-12-28T17:28:11.000",
    "request_status": "Pending",
    "responsible_agency": "Department of Sanitation",
    "final_address": "5540 Norgate Dr",
    "address_councildis": "E",
    "status": "Assigned to Contractor",
    "contractor": "Waste Pro",
    "rowid": "956987",
    "final_x": "3707087.62084",
    "final_y": "558121.129115",
    "longitude": "-89.98628707511972",
    "latitude": "30.02783709007401",
    "geocoded_column": {
      "latitude": "30.02783709007401",
      "longitude": "-89.98628707511972"
    }
  },
  {
    "service_request": "2022-956986",
    "request_type": "Trash/Recycling",
    "request_reason": "Missed Trash Pick-Up",
    "date_created": "2022-12-28T17:27:52.000",
    "date_modified": "2022-12-28T17:27:52.000",
    "request_status": "Pending",
    "responsible_agency": "Department of Sanitation",
    "final_address": "908 Fern St",
    "address_councildis": "A",
    "status": "Assigned to Contractor",
    "contractor": "Richards Disposal",
    "rowid": "956986",
    "final_x": "3661854.66298",
    "final_y": "527171.849215",
    "longitude": "-90.13024770251916",
    "latitude": "29.944121521820318",
    "geocoded_column": {
      "latitude": "29.944121521820318",
      "longitude": "-90.13024770251916"
    }
  },
  {
    "service_request": "2022-956985",
    "request_type": "Trash/Recycling",
    "request_reason": "MIssed Recycling Pick-Up",
    "date_created": "2022-12-28T17:24:14.000",
    "date_modified": "2022-12-28T17:24:15.000",
    "request_status": "Pending",
    "responsible_agency": "Department of Sanitation",
    "final_address": "3152 Chippewa St",
    "address_councildis": "B",
    "status": "Assigned to Contractor",
    "contractor": "Richards Disposal",
    "rowid": "956985",
    "final_x": "3676574.9924",
    "final_y": "518666.004599",
    "longitude": "-90.08406425488388",
    "latitude": "29.920300033347186",
    "geocoded_column": {
      "latitude": "29.920300033347186",
      "longitude": "-90.08406425488388"
    }
  },
  {
    "service_request": "2022-956984",
    "request_type": "Trash/Recycling",
    "request_reason": "Missed Trash Pick-Up",
    "date_created": "2022-12-28T17:24:10.000",
    "date_modified": "2022-12-28T17:24:11.000",
    "request_status": "Pending",
    "responsible_agency": "Department of Sanitation",
    "final_address": "2481 Oriole St",
    "address_councildis": "D",
    "status": "Assigned to Contractor",
    "contractor": "IV Waste",
    "rowid": "956984",
    "final_x": "3685199.66511",
    "final_y": "558348.202972",
    "longitude": "-90.05544337004393",
    "latitude": "30.02915081283393",
    "geocoded_column": {
      "latitude": "30.02915081283393",
      "longitude": "-90.05544337004393"
    }
  },
  {
    "service_request": "2022-956983",
    "request_type": "Trash/Recycling",
    "request_reason": "Missed Trash Pick-Up",
    "date_created": "2022-12-28T17:23:39.000",
    "date_modified": "2022-12-28T17:23:40.000",
    "request_status": "Pending",
    "responsible_agency": "Department of Sanitation",
    "final_address": "3446 Vespasian St",
    "address_councildis": "C",
    "status": "Assigned to Contractor",
    "contractor": "Richards Disposal",
    "rowid": "956983",
    "final_x": "3695926.74461",
    "final_y": "522696.704826",
    "longitude": "-90.02283473329499",
    "latitude": "29.930788763976558",
    "geocoded_column": {
      "latitude": "29.930788763976558",
      "longitude": "-90.02283473329499"
    }
  },
  {
    "service_request": "2022-956982",
    "request_type": "Trash/Recycling",
    "request_reason": "Missed Trash Pick-Up",
    "date_created": "2022-12-28T17:20:56.000",
    "date_modified": "2022-12-28T17:20:57.000",
    "request_status": "Pending",
    "responsible_agency": "Department of Sanitation",
    "final_address": "4001 Lennox Blvd",
    "address_councildis": "C",
    "status": "Assigned to Contractor",
    "contractor": "Richards Disposal",
    "rowid": "956982",
    "final_x": "3700674.99012",
    "final_y": "516098.675828",
    "longitude": "-90.00808619675465",
    "latitude": "29.91249627071064",
    "geocoded_column": {
      "latitude": "29.91249627071064",
      "longitude": "-90.00808619675465"
    }
  },
  {
    "service_request": "2022-956981",
    "request_type": "Trash/Recycling",
    "request_reason": "Request a Large Item Pick Up",
    "date_created": "2022-12-28T17:07:06.000",
    "date_modified": "2022-12-28T17:07:07.000",
    "request_status": "Pending",
    "responsible_agency": "Department of Sanitation",
    "final_address": "917 Dublin St",
    "address_councildis": "A",
    "status": "Assigned to Contractor",
    "contractor": "Richards Disposal",
    "rowid": "956981",
    "final_x": "3661124.53811",
    "final_y": "527920.493951",
    "longitude": "-90.13252815283674",
    "latitude": "29.946201115182895",
    "geocoded_column": {
      "latitude": "29.946201115182895",
      "longitude": "-90.13252815283674"
    }
  },
  {
    "service_request": "2022-956980",
    "request_type": "Abandoned Vehicles",
    "request_reason": "Abandoned/Junk Vehicles",
    "date_created": "2022-12-28T16:59:37.000",
    "date_modified": "2022-12-28T16:59:38.000",
    "request_status": "Pending",
    "responsible_agency": "Department of Public Works",
    "final_address": "2701 New Orleans St",
    "address_councildis": "D",
    "status": "Pending",
    "rowid": "956980",
    "final_x": "3681932.15983",
    "final_y": "542393.870349",
    "longitude": "-90.06632605171168",
    "latitude": "29.985381943107488",
    "geocoded_column": {
      "latitude": "29.985381943107488",
      "longitude": "-90.06632605171168"
    }
  },
  {
    "service_request": "2022-956979",
    "request_type": "Trash/Recycling",
    "request_reason": "MIssed Recycling Pick-Up",
    "date_created": "2022-12-28T16:58:41.000",
    "date_modified": "2022-12-28T16:58:42.000",
    "request_status": "Pending",
    "responsible_agency": "Department of Sanitation",
    "final_address": "1000 BLK Milan St",
    "address_councildis": "B",
    "status": "Assigned to Contractor",
    "contractor": "Richards Disposal",
    "rowid": "956979",
    "final_x": "3671749.30935",
    "final_y": "519408.235906",
    "longitude": "-90.09927145355202",
    "latitude": "29.92248471903635",
    "geocoded_column": {
      "latitude": "29.92248471903635",
      "longitude": "-90.09927145355202"
    }
  },
  {
    "service_request": "2022-956978",
    "request_type": "Trash/Recycling",
    "request_reason": "Missed Trash Pick-Up",
    "date_created": "2022-12-28T16:55:52.000",
    "date_modified": "2022-12-28T16:55:52.000",
    "request_status": "Pending",
    "responsible_agency": "Department of Sanitation",
    "final_address": "3422 Annunciation St",
    "address_councildis": "B",
    "status": "Assigned to Contractor",
    "contractor": "Richards Disposal",
    "rowid": "956978",
    "final_x": "3675289.0923",
    "final_y": "518499.996919",
    "longitude": "-90.08812893210879",
    "latitude": "29.919882052544125",
    "geocoded_column": {
      "latitude": "29.919882052544125",
      "longitude": "-90.08812893210879"
    }
  },
  {
    "service_request": "2022-956977",
    "request_type": "Abandoned Vehicles",
    "request_reason": "Abandoned/Junk Vehicles",
    "date_created": "2022-12-28T16:52:43.000",
    "date_modified": "2022-12-28T16:52:44.000",
    "request_status": "Pending",
    "responsible_agency": "Department of Public Works",
    "final_address": "6857 Cindy Pl Apt A",
    "address_councildis": "E",
    "status": "Pending",
    "rowid": "956977",
    "final_x": "3706843.15556",
    "final_y": "559648.816221",
    "longitude": "-89.98700284146078",
    "latitude": "30.03204553093373",
    "geocoded_column": {
      "latitude": "30.03204553093373",
      "longitude": "-89.98700284146078"
    }
  },
  {
    "service_request": "2022-956976",
    "request_type": "Trash/Recycling",
    "request_reason": "Missed Trash Pick-Up",
    "date_created": "2022-12-28T16:51:40.000",
    "date_modified": "2022-12-28T16:51:41.000",
    "request_status": "Pending",
    "responsible_agency": "Department of Sanitation",
    "final_address": "436 Newton St",
    "address_councildis": "C",
    "status": "Assigned to Contractor",
    "contractor": "Richards Disposal",
    "rowid": "956976",
    "final_x": "3686874.50178",
    "final_y": "527990.358527",
    "longitude": "-90.05122432757334",
    "latitude": "29.94562609776444",
    "geocoded_column": {
      "latitude": "29.94562609776444",
      "longitude": "-90.05122432757334"
    }
  },
  {
    "service_request": "2022-956975",
    "request_type": "Trash/Recycling",
    "request_reason": "Order Recycling Cart",
    "date_created": "2022-12-28T16:50:21.000",
    "date_modified": "2022-12-28T16:50:21.000",
    "request_status": "Pending",
    "responsible_agency": "Department of Sanitation",
    "final_address": "2124 Seventh St",
    "address_councildis": "B",
    "status": "Pending",
    "rowid": "956975",
    "final_x": "3674107.4235",
    "final_y": "523751.260987",
    "longitude": "-90.09167927391977",
    "latitude": "29.934356592358267",
    "geocoded_column": {
      "latitude": "29.934356592358267",
      "longitude": "-90.09167927391977"
    }
  },
  {
    "service_request": "2022-956974",
    "request_type": "Trash/Recycling",
    "request_reason": "MIssed Recycling Pick-Up",
    "date_created": "2022-12-28T16:48:25.000",
    "date_modified": "2022-12-28T16:48:25.000",
    "request_status": "Pending",
    "responsible_agency": "Department of Sanitation",
    "final_address": "719 Ninth St",
    "address_councildis": "B",
    "status": "Assigned to Contractor",
    "contractor": "Richards Disposal",
    "rowid": "956974",
    "final_x": "3676638.94773",
    "final_y": "518953.604919",
    "longitude": "-90.0838524787258",
    "latitude": "29.92108892410324",
    "geocoded_column": {
      "latitude": "29.92108892410324",
      "longitude": "-90.0838524787258"
    }
  },
  {
    "service_request": "2022-956973",
    "request_type": "Roads/Drainage",
    "request_reason": "Debris in Roadway",
    "date_created": "2022-12-28T16:48:10.000",
    "date_modified": "2022-12-28T16:48:10.000",
    "request_status": "Pending",
    "responsible_agency": "Department of Public Works",
    "final_address": "3300 BLK S Claiborne Ave",
    "address_councildis": "B",
    "status": "Pending",
    "rowid": "956973",
    "final_x": "3672444.00252",
    "final_y": "526190.520897",
    "longitude": "-90.09684755797484",
    "latitude": "29.9411132229424",
    "geocoded_column": {
      "latitude": "29.9411132229424",
      "longitude": "-90.09684755797484"
    }
  },
  {
    "service_request": "2022-956972",
    "request_type": "Trash/Recycling",
    "request_reason": "MIssed Recycling Pick-Up",
    "date_created": "2022-12-28T16:47:10.000",
    "date_modified": "2022-12-28T16:47:11.000",
    "request_status": "Pending",
    "responsible_agency": "Department of Sanitation",
    "final_address": "5640 Bentley Dr",
    "address_councildis": "E",
    "status": "Assigned to Contractor",
    "contractor": "Waste Pro",
    "rowid": "956972",
    "final_x": "3703778.94513",
    "final_y": "556875.328282",
    "longitude": "-89.99678809851048",
    "latitude": "30.024518156769126",
    "geocoded_column": {
      "latitude": "30.024518156769126",
      "longitude": "-89.99678809851048"
    }
  },
  {
    "service_request": "2022-956971",
    "request_type": "Trash/Recycling",
    "request_reason": "Missed Trash Pick-Up",
    "date_created": "2022-12-28T16:44:56.000",
    "date_modified": "2022-12-28T16:44:56.000",
    "request_status": "Pending",
    "responsible_agency": "Department of Sanitation",
    "final_address": "3919 Annunciation St",
    "address_councildis": "B",
    "status": "Assigned to Contractor",
    "contractor": "Richards Disposal",
    "rowid": "956971",
    "final_x": "3673183.42644",
    "final_y": "517993.077814",
    "longitude": "-90.09479280222342",
    "latitude": "29.918550938564703",
    "geocoded_column": {
      "latitude": "29.918550938564703",
      "longitude": "-90.09479280222342"
    }
  },
  {
    "service_request": "2022-956970",
    "request_type": "Trash/Recycling",
    "request_reason": "Missed Trash Pick-Up",
    "date_created": "2022-12-28T16:42:26.000",
    "date_modified": "2022-12-28T16:42:26.000",
    "request_status": "Pending",
    "responsible_agency": "Department of Sanitation",
    "final_address": "2013 Burdette St",
    "address_councildis": "A",
    "status": "Assigned to Contractor",
    "contractor": "Richards Disposal",
    "rowid": "956970",
    "final_x": "3664808.34701",
    "final_y": "529757.073665",
    "longitude": "-90.12083568388132",
    "latitude": "29.951144450953368",
    "geocoded_column": {
      "latitude": "29.951144450953368",
      "longitude": "-90.12083568388132"
    }
  },
  {
    "service_request": "2022-956969",
    "request_type": "Trash/Recycling",
    "request_reason": "Missed Trash Pick-Up",
    "date_created": "2022-12-28T16:41:46.000",
    "date_modified": "2022-12-28T16:41:46.000",
    "request_status": "Pending",
    "responsible_agency": "Department of Sanitation",
    "final_address": "4133 General Pershing St",
    "address_councildis": "B",
    "status": "Assigned to Contractor",
    "contractor": "Richards Disposal",
    "rowid": "956969",
    "final_x": "3670028.04846",
    "final_y": "529492.805889",
    "longitude": "-90.10436336924452",
    "latitude": "29.95026489527118",
    "geocoded_column": {
      "latitude": "29.95026489527118",
      "longitude": "-90.10436336924452"
    }
  },
  {
    "service_request": "2022-956968",
    "request_type": "Trash/Recycling",
    "request_reason": "Request a Large Item Pick Up",
    "date_created": "2022-12-28T16:40:27.000",
    "date_modified": "2022-12-28T16:40:28.000",
    "request_status": "Pending",
    "responsible_agency": "Department of Sanitation",
    "final_address": "4755 Virgilian St",
    "address_councildis": "D",
    "status": "Assigned to Contractor",
    "contractor": "Waste Pro",
    "rowid": "956968",
    "final_x": "3697546.1537",
    "final_y": "553915.734807",
    "longitude": "-90.01658998540613",
    "latitude": "30.01657882674997",
    "geocoded_column": {
      "latitude": "30.01657882674997",
      "longitude": "-90.01658998540613"
    }
  },
  {
    "service_request": "2022-956967",
    "request_type": "Trash/Recycling",
    "request_reason": "Repair Trash Cart",
    "date_created": "2022-12-28T16:37:41.000",
    "date_modified": "2022-12-28T16:37:42.000",
    "request_status": "Pending",
    "responsible_agency": "Department of Sanitation",
    "final_address": "25513 Chef Menteur Hwy",
    "address_councildis": "E",
    "status": "Assigned to Contractor",
    "contractor": "Waste Pro",
    "rowid": "956967",
    "final_x": "3780354.65406",
    "final_y": "600158.348931",
    "longitude": "-89.75294413682846",
    "latitude": "30.14084708370034",
    "geocoded_column": {
      "latitude": "30.14084708370034",
      "longitude": "-89.75294413682846"
    }
  },
  {
    "service_request": "2022-956966",
    "request_type": "Trash/Recycling",
    "request_reason": "Missed Trash Pick-Up",
    "date_created": "2022-12-28T16:36:50.000",
    "date_modified": "2022-12-28T16:36:50.000",
    "request_status": "Pending",
    "responsible_agency": "Department of Sanitation",
    "final_address": "731 Fern St",
    "address_councildis": "A",
    "status": "Assigned to Contractor",
    "contractor": "Richards Disposal",
    "rowid": "956966",
    "final_x": "3661572.91936",
    "final_y": "526733.867006",
    "longitude": "-90.1311517589614",
    "latitude": "29.942925341207168",
    "geocoded_column": {
      "latitude": "29.942925341207168",
      "longitude": "-90.1311517589614"
    }
  },
  {
    "service_request": "2022-956965",
    "request_type": "Traffic Signals/Signs/Striping/Streetlights",
    "request_reason": "Street Light Outage/Malfunction",
    "date_created": "2022-12-28T16:34:30.000",
    "date_modified": "2022-12-28T16:34:31.000",
    "request_status": "Pending",
    "responsible_agency": "Department of Public Works",
    "final_address": "6120 Law St, New Orleans, Louisiana, 70117",
    "address_councildis": "E",
    "status": "Assigned to Contractor",
    "contractor": "Legacy Professional Services",
    "rowid": "956965",
    "final_x": "3701816.47895",
    "final_y": "538559.798473",
    "longitude": "-90.0036606924821",
    "latitude": "29.974220099732527",
    "geocoded_column": {
      "latitude": "29.974220099732527",
      "longitude": "-90.0036606924821"
    }
  },
  {
    "service_request": "2022-956964",
    "request_type": "Trash/Recycling",
    "request_reason": "MIssed Recycling Pick-Up",
    "date_created": "2022-12-28T16:34:26.000",
    "date_modified": "2022-12-28T16:34:27.000",
    "request_status": "Pending",
    "responsible_agency": "Department of Sanitation",
    "final_address": "4606 Carondelet St",
    "address_councildis": "B",
    "status": "Assigned to Contractor",
    "contractor": "Richards Disposal",
    "rowid": "956964",
    "final_x": "3669999.66311",
    "final_y": "521086.164217",
    "longitude": "-90.10473760384767",
    "latitude": "29.927150185662093",
    "geocoded_column": {
      "latitude": "29.927150185662093",
      "longitude": "-90.10473760384767"
    }
  },
  {
    "service_request": "2022-956963",
    "request_type": "Trash/Recycling",
    "request_reason": "Missed Trash Pick-Up",
    "date_created": "2022-12-28T16:18:55.000",
    "date_modified": "2022-12-28T16:18:56.000",
    "request_status": "Pending",
    "responsible_agency": "Department of Sanitation",
    "final_address": "4826 Camp St",
    "address_councildis": "B",
    "status": "Assigned to Contractor",
    "contractor": "Richards Disposal",
    "rowid": "956963",
    "final_x": "3669335.38106",
    "final_y": "518932.110455",
    "longitude": "-90.10690735816345",
    "latitude": "29.92124678977141",
    "geocoded_column": {
      "latitude": "29.92124678977141",
      "longitude": "-90.10690735816345"
    }
  },
  {
    "service_request": "2022-956962",
    "request_type": "Trash/Recycling",
    "request_reason": "MIssed Recycling Pick-Up",
    "date_created": "2022-12-28T16:18:33.000",
    "date_modified": "2022-12-28T16:18:34.000",
    "request_status": "Pending",
    "responsible_agency": "Department of Sanitation",
    "final_address": "11432 Maxine Dr",
    "address_councildis": "E",
    "status": "Assigned to Contractor",
    "contractor": "Waste Pro",
    "rowid": "956962",
    "final_x": "3718820.16133",
    "final_y": "560769.991902",
    "longitude": "-89.94911241383993",
    "latitude": "30.034735927587754",
    "geocoded_column": {
      "latitude": "30.034735927587754",
      "longitude": "-89.94911241383993"
    }
  },
  {
    "service_request": "2022-956961",
    "request_type": "Trash/Recycling",
    "request_reason": "Missed Trash Pick-Up",
    "date_created": "2022-12-28T16:16:31.000",
    "date_modified": "2022-12-28T16:16:31.000",
    "request_status": "Pending",
    "responsible_agency": "Department of Sanitation",
    "final_address": "1307 Valence St",
    "address_councildis": "B",
    "status": "Assigned to Contractor",
    "contractor": "Richards Disposal",
    "rowid": "956961",
    "final_x": "3669878.10695",
    "final_y": "520027.351096",
    "longitude": "-90.1051571522752",
    "latitude": "29.924242370002744",
    "geocoded_column": {
      "latitude": "29.924242370002744",
      "longitude": "-90.1051571522752"
    }
  },
  {
    "service_request": "2022-956960",
    "request_type": "Traffic Signals/Signs/Striping/Streetlights",
    "request_reason": "Traffic Sign Missing/Damaged",
    "date_created": "2022-12-28T16:13:18.000",
    "date_modified": "2022-12-28T16:13:19.000",
    "request_status": "Pending",
    "responsible_agency": "Department of Public Works",
    "final_address": "N GALVEZ ST & PIETY ST",
    "address_councildis": "D",
    "status": "Pending",
    "rowid": "956960",
    "final_x": "3690769.3",
    "final_y": "539555.08",
    "longitude": "-90.03851460818427",
    "latitude": "29.97730463830494",
    "geocoded_column": {
      "latitude": "29.97730463830494",
      "longitude": "-90.03851460818427"
    }
  },
  {
    "service_request": "2022-956959",
    "request_type": "Trash/Recycling",
    "request_reason": "Missed Trash Pick-Up",
    "date_created": "2022-12-28T16:07:09.000",
    "date_modified": "2022-12-28T16:07:09.000",
    "request_status": "Pending",
    "responsible_agency": "Department of Sanitation",
    "final_address": "2412 Pine St",
    "address_councildis": "A",
    "status": "Assigned to Contractor",
    "contractor": "Richards Disposal",
    "rowid": "956959",
    "final_x": "3666384.20897",
    "final_y": "530481.580994",
    "longitude": "-90.11583557026756",
    "latitude": "29.953090664614507",
    "geocoded_column": {
      "latitude": "29.953090664614507",
      "longitude": "-90.11583557026756"
    }
  },
  {
    "service_request": "2022-956957",
    "request_type": "Trash/Recycling",
    "request_reason": "Missed Trash Pick-Up",
    "date_created": "2022-12-28T16:03:06.000",
    "date_modified": "2022-12-28T16:53:27.000",
    "request_status": "Pending",
    "responsible_agency": "Department of Sanitation",
    "final_address": "500 French St",
    "address_councildis": "A",
    "status": "Assigned to Contractor",
    "contractor": "IV Waste",
    "rowid": "956957",
    "final_x": "3667908.31636",
    "final_y": "548567.374419",
    "longitude": "-90.11041360165416",
    "latitude": "30.002775888842695",
    "geocoded_column": {
      "latitude": "30.002775888842695",
      "longitude": "-90.11041360165416"
    }
  },
  {
    "service_request": "2022-956956",
    "request_type": "Trash/Recycling",
    "request_reason": "Request a Large Item Pick Up",
    "date_created": "2022-12-28T16:01:44.000",
    "date_modified": "2022-12-28T16:01:44.000",
    "request_status": "Pending",
    "responsible_agency": "Department of Sanitation",
    "final_address": "1323 Lizardi St",
    "address_councildis": "E",
    "status": "Assigned to Contractor",
    "contractor": "Waste Pro",
    "rowid": "956956",
    "final_x": "3696821.45245",
    "final_y": "535003.703238",
    "longitude": "-90.01956483067706",
    "latitude": "29.96460054475019",
    "geocoded_column": {
      "latitude": "29.96460054475019",
      "longitude": "-90.01956483067706"
    }
  },
  {
    "service_request": "2022-956955",
    "request_type": "Trash/Recycling",
    "request_reason": "Missed Trash Pick-Up",
    "date_created": "2022-12-28T16:01:26.000",
    "date_modified": "2022-12-28T16:01:27.000",
    "request_status": "Pending",
    "responsible_agency": "Department of Sanitation",
    "final_address": "4821 Perrier St",
    "address_councildis": "B",
    "status": "Assigned to Contractor",
    "contractor": "Richards Disposal",
    "rowid": "956955",
    "final_x": "3669290.90919",
    "final_y": "519968.116088",
    "longitude": "-90.10701273752578",
    "latitude": "29.924096785708983",
    "geocoded_column": {
      "latitude": "29.924096785708983",
      "longitude": "-90.10701273752578"
    }
  },
  {
    "service_request": "2022-956954",
    "request_type": "Trash/Recycling",
    "request_reason": "Missed Trash Pick-Up",
    "date_created": "2022-12-28T16:00:15.000",
    "date_modified": "2022-12-28T16:00:16.000",
    "request_status": "Pending",
    "responsible_agency": "Department of Sanitation",
    "final_address": "7616 Hurst St",
    "address_councildis": "A",
    "status": "Assigned to Contractor",
    "contractor": "Richards Disposal",
    "rowid": "956954",
    "final_x": "3660793.83546",
    "final_y": "524642.908284",
    "longitude": "-90.1336806460374",
    "latitude": "29.93719831889418",
    "geocoded_column": {
      "latitude": "29.93719831889418",
      "longitude": "-90.1336806460374"
    }
  },
  {
    "service_request": "2022-956953",
    "request_type": "Trash/Recycling",
    "request_reason": "Order Recycling Cart",
    "date_created": "2022-12-28T15:59:15.000",
    "date_modified": "2022-12-28T15:59:16.000",
    "request_status": "Pending",
    "responsible_agency": "Department of Sanitation",
    "final_address": "7325 Edward St",
    "address_councildis": "E",
    "status": "Pending",
    "rowid": "956953",
    "final_x": "3701383.51972",
    "final_y": "560104.475293",
    "longitude": "-90.00423881848822",
    "latitude": "30.03347367244551",
    "geocoded_column": {
      "latitude": "30.03347367244551",
      "longitude": "-90.00423881848822"
    }
  },
  {
    "service_request": "2022-956952",
    "request_type": "Trash/Recycling",
    "request_reason": "Missed Trash Pick-Up",
    "date_created": "2022-12-28T15:58:49.000",
    "date_modified": "2022-12-28T15:58:50.000",
    "request_status": "Pending",
    "responsible_agency": "Department of Sanitation",
    "final_address": "4116 Annunciation St",
    "address_councildis": "B",
    "status": "Assigned to Contractor",
    "contractor": "Richards Disposal",
    "rowid": "956952",
    "final_x": "3672099.17863",
    "final_y": "517806.96607",
    "longitude": "-90.09822153892672",
    "latitude": "29.91807137112739",
    "geocoded_column": {
      "latitude": "29.91807137112739",
      "longitude": "-90.09822153892672"
    }
  },
  {
    "service_request": "2022-956950",
    "request_type": "Trash/Recycling",
    "request_reason": "MIssed Recycling Pick-Up",
    "date_created": "2022-12-28T15:57:57.000",
    "date_modified": "2022-12-28T15:57:58.000",
    "request_status": "Pending",
    "responsible_agency": "Department of Sanitation",
    "final_address": "7131 Ridgefield Dr",
    "address_councildis": "E",
    "status": "Assigned to Contractor",
    "contractor": "Waste Pro",
    "rowid": "956950",
    "final_x": "3719161.58866",
    "final_y": "570019.015846",
    "longitude": "-89.94768001296606",
    "latitude": "30.06015559706482",
    "geocoded_column": {
      "latitude": "30.06015559706482",
      "longitude": "-89.94768001296606"
    }
  },
  {
    "service_request": "2022-956949",
    "request_type": "Trash/Recycling",
    "request_reason": "Missed Trash Pick-Up",
    "date_created": "2022-12-28T15:55:52.000",
    "date_modified": "2022-12-28T15:55:52.000",
    "request_status": "Pending",
    "responsible_agency": "Department of Sanitation",
    "final_address": "419 Socrates St",
    "address_councildis": "C",
    "status": "Assigned to Contractor",
    "contractor": "Richards Disposal",
    "rowid": "956949",
    "final_x": "3686859.35215",
    "final_y": "526356.61011",
    "longitude": "-90.05132987226014",
    "latitude": "29.941134309576594",
    "geocoded_column": {
      "latitude": "29.941134309576594",
      "longitude": "-90.05132987226014"
    }
  },
  {
    "service_request": "2022-956948",
    "request_type": "Trash/Recycling",
    "request_reason": "Missed Trash Pick-Up",
    "date_created": "2022-12-28T15:54:33.000",
    "date_modified": "2022-12-28T15:54:33.000",
    "request_status": "Pending",
    "responsible_agency": "Department of Sanitation",
    "final_address": "7911 Jeannette St",
    "address_councildis": "A",
    "status": "Assigned to Contractor",
    "contractor": "Richards Disposal",
    "rowid": "956948",
    "final_x": "3663202.66061",
    "final_y": "528727.407936",
    "longitude": "-90.12593992459634",
    "latitude": "29.9483598234777",
    "geocoded_column": {
      "latitude": "29.9483598234777",
      "longitude": "-90.12593992459634"
    }
  },
  {
    "service_request": "2022-956947",
    "request_type": "Trash/Recycling",
    "request_reason": "MIssed Recycling Pick-Up",
    "date_created": "2022-12-28T15:53:46.000",
    "date_modified": "2022-12-28T15:53:46.000",
    "request_status": "Pending",
    "responsible_agency": "Department of Sanitation",
    "final_address": "5600 Bundy Rd",
    "address_councildis": "E",
    "status": "Assigned to Contractor",
    "contractor": "Waste Pro",
    "rowid": "956947",
    "final_x": "3708232.58897",
    "final_y": "558320.567708",
    "longitude": "-89.9826616596768",
    "latitude": "30.02834840774861",
    "geocoded_column": {
      "latitude": "30.02834840774861",
      "longitude": "-89.9826616596768"
    }
  },
  {
    "service_request": "2022-956946",
    "request_type": "Trash/Recycling",
    "request_reason": "Request a Large Item Pick Up",
    "date_created": "2022-12-28T15:50:52.000",
    "date_modified": "2022-12-28T15:50:53.000",
    "request_status": "Pending",
    "responsible_agency": "Department of Sanitation",
    "final_address": "908 Toledano St",
    "address_councildis": "B",
    "status": "Assigned to Contractor",
    "contractor": "Richards Disposal",
    "rowid": "956946",
    "final_x": "3675586.7988",
    "final_y": "519179.945079",
    "longitude": "-90.08716587463525",
    "latitude": "29.921742792271797",
    "geocoded_column": {
      "latitude": "29.921742792271797",
      "longitude": "-90.08716587463525"
    }
  },
  {
    "service_request": "2022-956945",
    "request_type": "Trash/Recycling",
    "request_reason": "Request a Large Item Pick Up",
    "date_created": "2022-12-28T15:44:47.000",
    "date_modified": "2022-12-28T15:44:48.000",
    "request_status": "Pending",
    "responsible_agency": "Department of Sanitation",
    "final_address": "908 Toledano St",
    "address_councildis": "B",
    "status": "Assigned to Contractor",
    "contractor": "Richards Disposal",
    "rowid": "956945",
    "final_x": "3675586.7988",
    "final_y": "519179.945079",
    "longitude": "-90.08716587463525",
    "latitude": "29.921742792271797",
    "geocoded_column": {
      "latitude": "29.921742792271797",
      "longitude": "-90.08716587463525"
    }
  },
  {
    "service_request": "2022-956944",
    "request_type": "Roads/Drainage",
    "request_reason": "Catch Basin - Clogged",
    "date_created": "2022-12-28T15:44:22.000",
    "date_modified": "2022-12-28T15:44:22.000",
    "request_status": "Pending",
    "responsible_agency": "Department of Public Works",
    "final_address": "637 S Carrollton Ave",
    "address_councildis": "A",
    "status": "Pending",
    "rowid": "956944",
    "final_x": "3660856.41158",
    "final_y": "526915.947134",
    "longitude": "-90.13340793976876",
    "latitude": "29.94344665462872",
    "geocoded_column": {
      "latitude": "29.94344665462872",
      "longitude": "-90.13340793976876"
    }
  },
  {
    "service_request": "2022-956943",
    "request_type": "Trash/Recycling",
    "request_reason": "Order Recycling Cart",
    "date_created": "2022-12-28T15:43:42.000",
    "date_modified": "2022-12-28T15:43:43.000",
    "request_status": "Pending",
    "responsible_agency": "Department of Sanitation",
    "final_address": "4719 Iberville St",
    "address_councildis": "A",
    "status": "Pending",
    "rowid": "956943",
    "final_x": "3669299.95361",
    "final_y": "540362.526603",
    "longitude": "-90.10629478690561",
    "latitude": "29.980174462033066",
    "geocoded_column": {
      "latitude": "29.980174462033066",
      "longitude": "-90.10629478690561"
    }
  },
  {
    "service_request": "2022-956942",
    "request_type": "Trash/Recycling",
    "request_reason": "Missed Trash Pick-Up",
    "date_created": "2022-12-28T15:41:06.000",
    "date_modified": "2022-12-28T15:41:07.000",
    "request_status": "Pending",
    "responsible_agency": "Department of Sanitation",
    "final_address": "2016 Elizardi Blvd",
    "address_councildis": "C",
    "status": "Assigned to Contractor",
    "contractor": "Richards Disposal",
    "rowid": "956942",
    "final_x": "3694745.78429",
    "final_y": "523100.092923",
    "longitude": "-90.02654831682626",
    "latitude": "29.93193502952322",
    "geocoded_column": {
      "latitude": "29.93193502952322",
      "longitude": "-90.02654831682626"
    }
  },
  {
    "service_request": "2022-956940",
    "request_type": "Trash/Recycling",
    "request_reason": "Request a Large Item Pick Up",
    "date_created": "2022-12-28T15:34:57.000",
    "date_modified": "2022-12-28T15:34:58.000",
    "request_status": "Pending",
    "responsible_agency": "Department of Sanitation",
    "final_address": "147 10Th St",
    "address_councildis": "A",
    "status": "Assigned to Contractor",
    "contractor": "IV Waste",
    "rowid": "956940",
    "final_x": "3665661.74048",
    "final_y": "547553.498962",
    "longitude": "-90.11754485543217",
    "latitude": "30.000053817685085",
    "geocoded_column": {
      "latitude": "30.000053817685085",
      "longitude": "-90.11754485543217"
    }
  },
  {
    "service_request": "2022-956939",
    "request_type": "Traffic Signals/Signs/Striping/Streetlights",
    "request_reason": "Street Light Outage/Malfunction",
    "date_created": "2022-12-28T15:32:22.000",
    "date_modified": "2022-12-28T15:32:23.000",
    "request_status": "Pending",
    "responsible_agency": "Department of Public Works",
    "final_address": "I 10 E & ELYSIAN FIELDS EXIT",
    "address_councildis": "D",
    "status": "Assigned to Contractor",
    "contractor": "Legacy Professional Services",
    "rowid": "956939",
    "final_x": "3683757.2",
    "final_y": "539689.88",
    "longitude": "-90.06065637550557",
    "latitude": "29.9778913045239",
    "geocoded_column": {
      "latitude": "29.9778913045239",
      "longitude": "-90.06065637550557"
    }
  },
  {
    "service_request": "2022-956938",
    "request_type": "Trash/Recycling",
    "request_reason": "Missed Trash Pick-Up",
    "date_created": "2022-12-28T15:31:23.000",
    "date_modified": "2022-12-28T15:31:24.000",
    "request_status": "Pending",
    "responsible_agency": "Department of Sanitation",
    "final_address": "322 Socrates St",
    "address_councildis": "C",
    "status": "Assigned to Contractor",
    "contractor": "Richards Disposal",
    "rowid": "956938",
    "final_x": "3686467.82818",
    "final_y": "526422.219006",
    "longitude": "-90.05256366803167",
    "latitude": "29.94132675097001",
    "geocoded_column": {
      "latitude": "29.94132675097001",
      "longitude": "-90.05256366803167"
    }
  },
  {
    "service_request": "2022-956937",
    "request_type": "Trash/Recycling",
    "request_reason": "Order Recycling Cart",
    "date_created": "2022-12-28T15:28:47.000",
    "date_modified": "2022-12-28T15:28:48.000",
    "request_status": "Pending",
    "responsible_agency": "Department of Sanitation",
    "final_address": "10953 Chaucer St",
    "address_councildis": "E",
    "status": "Pending",
    "rowid": "956937",
    "final_x": "3712954.05144",
    "final_y": "562080.602847",
    "longitude": "-89.96760063315784",
    "latitude": "30.03853312981531",
    "geocoded_column": {
      "latitude": "30.03853312981531",
      "longitude": "-89.96760063315784"
    }
  },
  {
    "service_request": "2022-956936",
    "request_type": "Abandoned Vehicles",
    "request_reason": "Abandoned/Junk Vehicles",
    "date_created": "2022-12-28T15:24:34.000",
    "date_modified": "2022-12-28T15:24:34.000",
    "request_status": "Pending",
    "responsible_agency": "Department of Public Works",
    "final_address": "3503 S Saratoga St",
    "address_councildis": "B",
    "status": "Pending",
    "rowid": "956936",
    "final_x": "3673066.19348",
    "final_y": "523053.328379",
    "longitude": "-90.0949902254402",
    "latitude": "29.932468487092542",
    "geocoded_column": {
      "latitude": "29.932468487092542",
      "longitude": "-90.0949902254402"
    }
  },
  {
    "service_request": "2022-956935",
    "request_type": "Trash/Recycling",
    "request_reason": "MIssed Recycling Pick-Up",
    "date_created": "2022-12-28T15:23:09.000",
    "date_modified": "2022-12-28T15:23:10.000",
    "request_status": "Pending",
    "responsible_agency": "Department of Sanitation",
    "final_address": "7704 S Interstate 10 Service Rd",
    "address_councildis": "E",
    "status": "Assigned to Contractor",
    "contractor": "Waste Pro",
    "rowid": "956935",
    "final_x": "3702383.36023",
    "final_y": "557854.588059",
    "longitude": "-90.00116189660335",
    "latitude": "30.02725542917181",
    "geocoded_column": {
      "latitude": "30.02725542917181",
      "longitude": "-90.00116189660335"
    }
  },
  {
    "service_request": "2022-956934",
    "request_type": "Abandoned Vehicles",
    "request_reason": "Abandoned/Junk Vehicles",
    "date_created": "2022-12-28T15:22:44.000",
    "date_modified": "2022-12-28T15:22:44.000",
    "request_status": "Pending",
    "responsible_agency": "Department of Public Works",
    "final_address": "9127 Airline Hwy",
    "address_councildis": "A",
    "status": "Pending",
    "rowid": "956934",
    "final_x": "3665092.04416",
    "final_y": "537324.962568",
    "longitude": "-90.11968680871608",
    "latitude": "29.97194540575958",
    "geocoded_column": {
      "latitude": "29.97194540575958",
      "longitude": "-90.11968680871608"
    }
  },
  {
    "service_request": "2022-956933",
    "request_type": "Abandoned Vehicles",
    "request_reason": "Abandoned/Junk Vehicles",
    "date_created": "2022-12-28T15:21:37.000",
    "date_modified": "2022-12-28T15:21:37.000",
    "request_status": "Pending",
    "responsible_agency": "Department of Public Works",
    "final_address": "3501 S Saratoga St",
    "address_councildis": "B",
    "status": "Pending",
    "rowid": "956933",
    "final_x": "3673080.62593",
    "final_y": "523055.886075",
    "longitude": "-90.09494457612372",
    "latitude": "29.932475091039038",
    "geocoded_column": {
      "latitude": "29.932475091039038",
      "longitude": "-90.09494457612372"
    }
  },
  {
    "service_request": "2022-956932",
    "request_type": "Trash/Recycling",
    "request_reason": "Missed Trash Pick-Up",
    "date_created": "2022-12-28T15:18:59.000",
    "date_modified": "2022-12-28T15:19:00.000",
    "request_status": "Pending",
    "responsible_agency": "Department of Sanitation",
    "final_address": "4218 S Robertson St",
    "address_councildis": "B",
    "status": "Assigned to Contractor",
    "contractor": "Richards Disposal",
    "rowid": "956932",
    "final_x": "3671064.58305",
    "final_y": "524396.486524",
    "longitude": "-90.10126355442604",
    "latitude": "29.93622106787921",
    "geocoded_column": {
      "latitude": "29.93622106787921",
      "longitude": "-90.10126355442604"
    }
  },
  {
    "service_request": "2022-956931",
    "request_type": "Trash/Recycling",
    "request_reason": "Repair Trash Cart",
    "date_created": "2022-12-28T15:17:34.000",
    "date_modified": "2022-12-28T15:17:34.000",
    "request_status": "Pending",
    "responsible_agency": "Department of Sanitation",
    "final_address": "4504 Plum Orchard St",
    "address_councildis": "E",
    "status": "Assigned to Contractor",
    "contractor": "Waste Pro",
    "rowid": "956931",
    "final_x": "3701738.4378",
    "final_y": "553130.229079",
    "longitude": "-90.00337305373324",
    "latitude": "30.014285853597077",
    "geocoded_column": {
      "latitude": "30.014285853597077",
      "longitude": "-90.00337305373324"
    }
  },
  {
    "service_request": "2022-956929",
    "request_type": "Trash/Recycling",
    "request_reason": "Missed Trash Pick-Up",
    "date_created": "2022-12-28T15:13:10.000",
    "date_modified": "2022-12-28T15:13:10.000",
    "request_status": "Pending",
    "responsible_agency": "Department of Sanitation",
    "final_address": "5200 Atlanta St",
    "address_councildis": "B",
    "status": "Assigned to Contractor",
    "contractor": "Richards Disposal",
    "rowid": "956929",
    "final_x": "3667983.80449",
    "final_y": "520661.062009",
    "longitude": "-90.11111548717626",
    "latitude": "29.92604056837358",
    "geocoded_column": {
      "latitude": "29.92604056837358",
      "longitude": "-90.11111548717626"
    }
  },
  {
    "service_request": "2022-956928",
    "request_type": "Trash/Recycling",
    "request_reason": "Missed Trash Pick-Up",
    "date_created": "2022-12-28T15:10:46.000",
    "date_modified": "2022-12-28T15:10:47.000",
    "request_status": "Pending",
    "responsible_agency": "Department of Sanitation",
    "final_address": "5200 Atlanta St",
    "address_councildis": "B",
    "status": "Assigned to Contractor",
    "contractor": "Richards Disposal",
    "rowid": "956928",
    "final_x": "3667983.80449",
    "final_y": "520661.062009",
    "longitude": "-90.11111548717626",
    "latitude": "29.92604056837358",
    "geocoded_column": {
      "latitude": "29.92604056837358",
      "longitude": "-90.11111548717626"
    }
  },
  {
    "service_request": "2022-956927",
    "request_type": "Trash/Recycling",
    "request_reason": "Order Recycling Cart",
    "date_created": "2022-12-28T15:07:44.000",
    "date_modified": "2022-12-28T15:07:44.000",
    "request_status": "Pending",
    "responsible_agency": "Department of Sanitation",
    "final_address": "1600 St Maurice Ave",
    "address_councildis": "E",
    "status": "Pending",
    "rowid": "956927",
    "final_x": "3700519.35805",
    "final_y": "534996.96615",
    "longitude": "-90.00788743440123",
    "latitude": "29.964464920848375",
    "geocoded_column": {
      "latitude": "29.964464920848375",
      "longitude": "-90.00788743440123"
    }
  },
  {
    "service_request": "2022-956925",
    "request_type": "Parks & Parkways",
    "request_reason": "Tree Stump (removal, grind)",
    "date_created": "2022-12-28T15:05:36.000",
    "date_modified": "2022-12-28T15:13:32.000",
    "case_close_date": "2022-12-28T09:13:32.000",
    "request_status": "Closed",
    "responsible_agency": "Department of Parks & Parkway",
    "final_address": "3538 Timber Bluff Ln",
    "address_councildis": "C",
    "status": "Referred to Property Owner",
    "rowid": "956925",
    "final_x": "3704287.29015",
    "final_y": "511226.65272",
    "longitude": "-89.99686421263644",
    "latitude": "29.898984494431208",
    "geocoded_column": {
      "latitude": "29.898984494431208",
      "longitude": "-89.99686421263644"
    }
  },
  {
    "service_request": "2022-956924",
    "request_type": "Trash/Recycling",
    "request_reason": "Repair Recycling Cart",
    "date_created": "2022-12-28T15:05:25.000",
    "date_modified": "2022-12-28T15:05:25.000",
    "request_status": "Pending",
    "responsible_agency": "Department of Sanitation",
    "final_address": "6118 General Haig",
    "address_councildis": "A",
    "status": "Pending",
    "rowid": "956924",
    "final_x": "3670550.8962",
    "final_y": "547917.19701",
    "longitude": "-90.10208738022284",
    "latitude": "30.00091031351571",
    "geocoded_column": {
      "latitude": "30.00091031351571",
      "longitude": "-90.10208738022284"
    }
  },
  {
    "service_request": "2022-956923",
    "request_type": "Trash/Recycling",
    "request_reason": "Missed Trash Pick-Up",
    "date_created": "2022-12-28T15:02:09.000",
    "date_modified": "2022-12-28T15:02:10.000",
    "request_status": "Pending",
    "responsible_agency": "Department of Sanitation",
    "final_address": "60 Yellowstone Dr",
    "address_councildis": "C",
    "status": "Assigned to Contractor",
    "contractor": "Richards Disposal",
    "rowid": "956923",
    "final_x": "3700299.833",
    "final_y": "516690.947893",
    "longitude": "-90.00924868822038",
    "latitude": "29.91413674305831",
    "geocoded_column": {
      "latitude": "29.91413674305831",
      "longitude": "-90.00924868822038"
    }
  },
  {
    "service_request": "2022-956922",
    "request_type": "Trash/Recycling",
    "request_reason": "Order Recycling Cart",
    "date_created": "2022-12-28T15:02:08.000",
    "date_modified": "2022-12-28T15:02:08.000",
    "request_status": "Pending",
    "responsible_agency": "Department of Sanitation",
    "final_address": "2634 Lavender St",
    "address_councildis": "D",
    "status": "Pending",
    "rowid": "956922",
    "final_x": "3687419.12841",
    "final_y": "546909.946449",
    "longitude": "-90.04883512897348",
    "latitude": "29.997631566473657",
    "geocoded_column": {
      "latitude": "29.997631566473657",
      "longitude": "-90.04883512897348"
    }
  },
  {
    "service_request": "2022-956921",
    "request_type": "Abandoned Vehicles",
    "request_reason": "Abandoned/Junk Vehicles",
    "date_created": "2022-12-28T15:02:03.000",
    "date_modified": "2022-12-28T15:02:03.000",
    "request_status": "Pending",
    "responsible_agency": "Department of Public Works",
    "final_address": "2613 Chippewa St",
    "address_councildis": "B",
    "status": "Pending",
    "rowid": "956921",
    "final_x": "3678267.31016",
    "final_y": "519889.789496",
    "longitude": "-90.07868010980728",
    "latitude": "29.92361420328351",
    "geocoded_column": {
      "latitude": "29.92361420328351",
      "longitude": "-90.07868010980728"
    }
  },
  {
    "service_request": "2022-956920",
    "request_type": "Trash/Recycling",
    "request_reason": "Missed Trash Pick-Up",
    "date_created": "2022-12-28T15:01:24.000",
    "date_modified": "2022-12-28T15:01:25.000",
    "request_status": "Pending",
    "responsible_agency": "Department of Sanitation",
    "final_address": "1101 General Pershing St",
    "address_councildis": "B",
    "status": "Assigned to Contractor",
    "contractor": "Richards Disposal",
    "rowid": "956920",
    "final_x": "3671418.90523",
    "final_y": "519602.040184",
    "longitude": "-90.10030782512072",
    "latitude": "29.923027399436926",
    "geocoded_column": {
      "latitude": "29.923027399436926",
      "longitude": "-90.10030782512072"
    }
  },
  {
    "service_request": "2022-956919",
    "request_type": "Roads/Drainage",
    "request_reason": "Catch Basin - Clogged",
    "date_created": "2022-12-28T15:01:12.000",
    "date_modified": "2022-12-28T15:01:12.000",
    "request_status": "Pending",
    "responsible_agency": "Department of Public Works",
    "final_address": "2400 Palmer Ave",
    "address_councildis": "A",
    "status": "Pending",
    "rowid": "956919",
    "final_x": "3666291.05741",
    "final_y": "525645.883453",
    "longitude": "-90.11629188180571",
    "latitude": "29.93979678034127",
    "geocoded_column": {
      "latitude": "29.93979678034127",
      "longitude": "-90.11629188180571"
    }
  },
  {
    "service_request": "2022-956918",
    "request_type": "Trash/Recycling",
    "request_reason": "Missed Trash Pick-Up",
    "date_created": "2022-12-28T14:58:42.000",
    "date_modified": "2022-12-28T14:58:42.000",
    "request_status": "Pending",
    "responsible_agency": "Department of Sanitation",
    "final_address": "2738 Amelia St",
    "address_councildis": "B",
    "status": "Assigned to Contractor",
    "contractor": "Richards Disposal",
    "rowid": "956918",
    "final_x": "3672084.44052",
    "final_y": "525234.996989",
    "longitude": "-90.09801528755752",
    "latitude": "29.93849650710863",
    "geocoded_column": {
      "latitude": "29.93849650710863",
      "longitude": "-90.09801528755752"
    }
  },
  {
    "service_request": "2022-956917",
    "request_type": "Trash/Recycling",
    "request_reason": "Missed Trash Pick-Up",
    "date_created": "2022-12-28T14:58:15.000",
    "date_modified": "2022-12-28T14:58:16.000",
    "request_status": "Pending",
    "responsible_agency": "Department of Sanitation",
    "final_address": "4819 Corinne St",
    "address_councildis": "E",
    "status": "Assigned to Contractor",
    "contractor": "Waste Pro",
    "rowid": "956917",
    "final_x": "3715085.31768",
    "final_y": "557117.316762",
    "longitude": "-89.96105318353543",
    "latitude": "30.02481605871303",
    "geocoded_column": {
      "latitude": "30.02481605871303",
      "longitude": "-89.96105318353543"
    }
  },
  {
    "service_request": "2022-956916",
    "request_type": "Roads/Drainage",
    "request_reason": "Street Subsidence (Sinking)",
    "date_created": "2022-12-28T14:58:10.000",
    "date_modified": "2022-12-28T14:58:10.000",
    "request_status": "Pending",
    "responsible_agency": "Department of Public Works",
    "final_address": "6215 Clara St",
    "address_councildis": "A",
    "status": "Pending",
    "rowid": "956916",
    "final_x": "3666201.29594",
    "final_y": "525689.257981",
    "longitude": "-90.1165738185679",
    "latitude": "29.939918667594014",
    "geocoded_column": {
      "latitude": "29.939918667594014",
      "longitude": "-90.1165738185679"
    }
  },
  {
    "service_request": "2022-956915",
    "request_type": "Trash/Recycling",
    "request_reason": "MIssed Recycling Pick-Up",
    "date_created": "2022-12-28T14:58:02.000",
    "date_modified": "2022-12-28T14:58:02.000",
    "request_status": "Pending",
    "responsible_agency": "Department of Sanitation",
    "final_address": "2938 Orleans Ave",
    "address_councildis": "A",
    "status": "Assigned to Contractor",
    "contractor": "Richards Disposal",
    "rowid": "956915",
    "final_x": "3675774.72225",
    "final_y": "537689.317192",
    "longitude": "-90.0859366348925",
    "latitude": "29.972631813104353",
    "geocoded_column": {
      "latitude": "29.972631813104353",
      "longitude": "-90.0859366348925"
    }
  },
  {
    "service_request": "2022-956914",
    "request_type": "Trash/Recycling",
    "request_reason": "Replace Trash Cart",
    "date_created": "2022-12-28T14:55:07.000",
    "date_modified": "2022-12-28T14:55:07.000",
    "request_status": "Pending",
    "responsible_agency": "Department of Sanitation",
    "final_address": "4819 Corinne St",
    "address_councildis": "E",
    "status": "Assigned to Contractor",
    "contractor": "Waste Pro",
    "rowid": "956914",
    "final_x": "3715085.31768",
    "final_y": "557117.316762",
    "longitude": "-89.96105318353543",
    "latitude": "30.02481605871303",
    "geocoded_column": {
      "latitude": "30.02481605871303",
      "longitude": "-89.96105318353543"
    }
  },
  {
    "service_request": "2022-956913",
    "request_type": "Trash/Recycling",
    "request_reason": "Request a Large Item Pick Up",
    "date_created": "2022-12-28T14:51:59.000",
    "date_modified": "2022-12-28T14:52:00.000",
    "request_status": "Pending",
    "responsible_agency": "Department of Sanitation",
    "final_address": "3140 Garden Oaks Dr",
    "address_councildis": "C",
    "status": "Assigned to Contractor",
    "contractor": "Richards Disposal",
    "rowid": "956913",
    "final_x": "3696276.53559",
    "final_y": "520202.746552",
    "longitude": "-90.02182061244983",
    "latitude": "29.923920224850203",
    "geocoded_column": {
      "latitude": "29.923920224850203",
      "longitude": "-90.02182061244983"
    }
  },
  {
    "service_request": "2022-956912",
    "request_type": "Trash/Recycling",
    "request_reason": "Illegal Dumping",
    "date_created": "2022-12-28T14:49:46.000",
    "date_modified": "2022-12-28T14:50:38.000",
    "request_status": "Pending",
    "responsible_agency": "Department of Code Enforcement",
    "final_address": "7611 Pineridge St",
    "address_councildis": "E",
    "status": "Pending",
    "rowid": "956912",
    "final_x": "3719059.46898",
    "final_y": "572043.147688",
    "longitude": "-89.94792544594088",
    "latitude": "30.065724508514066",
    "geocoded_column": {
      "latitude": "30.065724508514066",
      "longitude": "-89.94792544594088"
    }
  },
  {
    "service_request": "2022-956911",
    "request_type": "Trash/Recycling",
    "request_reason": "MIssed Recycling Pick-Up",
    "date_created": "2022-12-28T14:49:05.000",
    "date_modified": "2022-12-28T14:49:05.000",
    "request_status": "Pending",
    "responsible_agency": "Department of Sanitation",
    "final_address": "3218 Orleans Ave",
    "address_councildis": "A",
    "status": "Assigned to Contractor",
    "contractor": "Richards Disposal",
    "rowid": "956911",
    "final_x": "3674845.58632",
    "final_y": "538393.958025",
    "longitude": "-90.08884684959648",
    "latitude": "29.974597115035806",
    "geocoded_column": {
      "latitude": "29.974597115035806",
      "longitude": "-90.08884684959648"
    }
  },
  {
    "service_request": "2022-956910",
    "request_type": "Abandoned Vehicles",
    "request_reason": "Abandoned/Junk Vehicles",
    "date_created": "2022-12-28T14:49:03.000",
    "date_modified": "2022-12-28T14:52:18.000",
    "request_status": "Pending",
    "responsible_agency": "Department of Public Works",
    "final_address": "4800 BLK Perrault Walk",
    "address_councildis": "E",
    "status": "Pending",
    "rowid": "956910",
    "final_x": "3709836.37294",
    "final_y": "556532.47957",
    "longitude": "-89.97766068603516",
    "latitude": "30.02337978901836",
    "geocoded_column": {
      "latitude": "30.02337978901836",
      "longitude": "-89.97766068603516"
    }
  },
  {
    "service_request": "2022-956908",
    "request_type": "Abandoned Vehicles",
    "request_reason": "Abandoned/Junk Vehicles",
    "date_created": "2022-12-28T14:35:37.000",
    "date_modified": "2022-12-28T14:35:37.000",
    "request_status": "Pending",
    "responsible_agency": "Department of Public Works",
    "final_address": "1123 France St",
    "address_councildis": "C",
    "status": "Pending",
    "rowid": "956908",
    "final_x": "3692492.58192",
    "final_y": "535435.640262",
    "longitude": "-90.03321955958957",
    "latitude": "29.96592398263895",
    "geocoded_column": {
      "latitude": "29.96592398263895",
      "longitude": "-90.03321955958957"
    }
  },