[
  {
    "service_request": "2024-1074580",
    "request_type": "Traffic Signals/Signs/Striping/Streetlights",
    "request_reason": "Street Light Outage/Malfunction",
    "date_created": "2024-03-11T23:38:58.000",
    "date_modified": "2024-03-11T23:38:59.000",
    "request_status": "Pending",
    "responsible_agency": "Department of Public Works",
    "final_address": "100 N Tonti St",
    "address_councildis": "B",
    "status": "Assigned to Contractor",
    "contractor": "Legacy Professional Services",
    "rowid": "1074580",
    "final_x": "3676529.27886",
    "final_y": "534373.120517",
    "longitude": "-90.08366782701654",
    "latitude": "29.96349079101123",
    "geocoded_column": {
      "latitude": "29.96349079101123",
      "longitude": "-90.08366782701654"
    }
  },
  {
    "service_request": "2024-1074579",
    "request_type": "Roads/Drainage",
    "request_reason": "Pothole",
    "date_created": "2024-03-11T22:54:48.000",
    "date_modified": "2024-03-11T22:54:48.000",
    "request_status": "Pending",
    "responsible_agency": "Department of Public Works",
    "final_address": "5921 Coliseum St",
    "address_councildis": "A",
    "status": "Pending",
    "rowid": "1074579",
    "final_x": "3665303.22644",
    "final_y": "520189.895096",
    "longitude": "-90.11959307956585",
    "latitude": "29.924823355758967",
    "geocoded_column": {
      "latitude": "29.924823355758967",
      "longitude": "-90.11959307956585"
    }
  },
  {
    "service_request": "2024-1074578",
    "request_type": "Property Maintenance",
    "request_reason": "Property Maintenance",
    "date_created": "2024-03-11T22:37:54.000",
    "date_modified": "2024-03-11T22:37:54.000",
    "request_status": "Pending",
    "responsible_agency": "Department of Code Enforcement",
    "final_address": "935 Teche St",
    "address_councildis": "C",
    "status": "Pending",
    "rowid": "1074578",
    "final_x": "3686518.4543",
    "final_y": "527980.057279",
    "longitude": "-90.05234884722019",
    "latitude": "29.94560872242326",
    "geocoded_column": {
      "latitude": "29.94560872242326",
      "longitude": "-90.05234884722019"
    }
  },
  {
    "service_request": "2024-1074577",
    "request_type": "Trash/Recycling",
    "request_reason": "Request a Large Item Pick Up",
    "date_created": "2024-03-11T22:37:36.000",
    "date_modified": "2024-03-11T22:37:37.000",
    "request_status": "Pending",
    "responsible_agency": "Department of Sanitation",
    "final_address": "3709 Annunciation St, New Orleans, Louisiana, 70115",
    "address_councildis": "B",
    "status": "Assigned to Contractor",
    "contractor": "Richards Disposal",
    "rowid": "1074577",
    "final_x": "3673809.6354",
    "final_y": "518119.035574",
    "longitude": "-90.09281188402583",
    "latitude": "29.918878655601553",
    "geocoded_column": {
      "latitude": "29.918878655601553",
      "longitude": "-90.09281188402583"
    }
  },
  {
    "service_request": "2024-1074576",
    "request_type": "Property Maintenance",
    "request_reason": "Property Maintenance",
    "date_created": "2024-03-11T22:30:53.000",
    "date_modified": "2024-03-11T22:30:53.000",
    "request_status": "Pending",
    "responsible_agency": "Department of Code Enforcement",
    "final_address": "2938 Ursulines Ave",
    "address_councildis": "A",
    "status": "Pending",
    "rowid": "1074576",
    "final_x": "3676527.46056",
    "final_y": "538901.495882",
    "longitude": "-90.08351759158572",
    "latitude": "29.97594233594543",
    "geocoded_column": {
      "latitude": "29.97594233594543",
      "longitude": "-90.08351759158572"
    }
  },
  {
    "service_request": "2024-1074575",
    "request_type": "Trash/Recycling",
    "request_reason": "Request a Large Item Pick Up",
    "date_created": "2024-03-11T22:22:57.000",
    "date_modified": "2024-03-11T22:22:58.000",
    "request_status": "Pending",
    "responsible_agency": "Department of Sanitation",
    "final_address": "11294 Midpoint Dr",
    "address_councildis": "E",
    "status": "Assigned to Contractor",
    "contractor": "Waste Pro",
    "rowid": "1074575",
    "final_x": "3718522.56185",
    "final_y": "559483.636253",
    "longitude": "-89.95010193325913",
    "latitude": "30.03120885078771",
    "geocoded_column": {
      "latitude": "30.03120885078771",
      "longitude": "-89.95010193325913"
    }
  },
  {
    "service_request": "2024-1074574",
    "request_type": "Trash/Recycling",
    "request_reason": "Replace Trash Cart",
    "date_created": "2024-03-11T22:19:51.000",
    "date_modified": "2024-03-11T22:19:52.000",
    "request_status": "Pending",
    "responsible_agency": "Department of Sanitation",
    "final_address": "735 Delachaise St",
    "address_councildis": "B",
    "status": "Assigned to Contractor",
    "contractor": "Richards Disposal",
    "rowid": "1074574",
    "final_x": "3675222.74229",
    "final_y": "518302.926646",
    "longitude": "-90.08834512586523",
    "latitude": "29.919342154938395",
    "geocoded_column": {
      "latitude": "29.919342154938395",
      "longitude": "-90.08834512586523"
    }
  },
  {
    "service_request": "2024-1074573",
    "request_type": "Trash/Recycling",
    "request_reason": "Request a Large Item Pick Up",
    "date_created": "2024-03-11T22:12:04.000",
    "date_modified": "2024-03-11T22:12:05.000",
    "request_status": "Pending",
    "responsible_agency": "Department of Sanitation",
    "final_address": "324 Socrates St",
    "address_councildis": "C",
    "status": "Assigned to Contractor",
    "contractor": "Richards Disposal",
    "rowid": "1074573",
    "final_x": "3686485.49833",
    "final_y": "526422.428158",
    "longitude": "-90.05250787272448",
    "latitude": "29.94132678297143",
    "geocoded_column": {
      "latitude": "29.94132678297143",
      "longitude": "-90.05250787272448"
    }
  },
  {
    "service_request": "2024-1074572",
    "request_type": "Trash/Recycling",
    "request_reason": "Request a Large Item Pick Up",
    "date_created": "2024-03-11T21:57:29.000",
    "date_modified": "2024-03-11T21:57:30.000",
    "request_status": "Pending",
    "responsible_agency": "Department of Sanitation",
    "final_address": "6821 Coventry St",
    "address_councildis": "E",
    "status": "Assigned to Contractor",
    "contractor": "Waste Pro",
    "rowid": "1074572",
    "final_x": "3698574.20733",
    "final_y": "559769.355805",
    "longitude": "-90.01312870056826",
    "latitude": "30.032641523371392",
    "geocoded_column": {
      "latitude": "30.032641523371392",
      "longitude": "-90.01312870056826"
    }
  },
  {
    "service_request": "2024-1074571",
    "request_type": "Traffic Signals/Signs/Striping/Streetlights",
    "request_reason": "Street Name Sign Damaged or Missing",
    "date_created": "2024-03-11T21:34:42.000",
    "date_modified": "2024-03-11T21:34:42.000",
    "request_status": "Pending",
    "responsible_agency": "Department of Public Works",
    "final_address": "1940 Frenchmen St",
    "address_councildis": "D",
    "status": "Pending",
    "rowid": "1074571",
    "final_x": "3684294.01487",
    "final_y": "539551.90241",
    "longitude": "-90.05896577621483",
    "latitude": "29.977495509109197",
    "geocoded_column": {
      "latitude": "29.977495509109197",
      "longitude": "-90.05896577621483"
    }
  },
  {
    "service_request": "2024-1074570",
    "request_type": "Trash/Recycling",
    "request_reason": "Request a Large Item Pick Up",
    "date_created": "2024-03-11T21:29:21.000",
    "date_modified": "2024-03-11T21:29:21.000",
    "request_status": "Pending",
    "responsible_agency": "Department of Sanitation",
    "final_address": "4533 Mendez St",
    "address_councildis": "D",
    "status": "Assigned to Contractor",
    "contractor": "IV Waste",
    "rowid": "1074570",
    "final_x": "3690492.53795",
    "final_y": "553911.546007",
    "longitude": "-90.03887647751424",
    "latitude": "30.01678829914333",
    "geocoded_column": {
      "latitude": "30.01678829914333",
      "longitude": "-90.03887647751424"
    }
  },
  {
    "service_request": "2024-1074568",
    "request_type": "Trash/Recycling",
    "request_reason": "Request a Large Item Pick Up",
    "date_created": "2024-03-11T21:18:07.000",
    "date_modified": "2024-03-11T21:18:07.000",
    "request_status": "Pending",
    "responsible_agency": "Department of Sanitation",
    "final_address": "2931 St Claude Ave",
    "address_councildis": "C",
    "status": "Assigned to Contractor",
    "contractor": "IV Waste",
    "rowid": "1074568",
    "final_x": "3688401.44431",
    "final_y": "536252.633159",
    "longitude": "-90.04611022881703",
    "latitude": "29.968297431309566",
    "geocoded_column": {
      "latitude": "29.968297431309566",
      "longitude": "-90.04611022881703"
    }
  },
  {
    "service_request": "2024-1074567",
    "request_type": "Traffic Signals/Signs/Striping/Streetlights",
    "request_reason": "Street Light Outage/Malfunction",
    "date_created": "2024-03-11T21:14:22.000",
    "date_modified": "2024-03-11T21:14:22.000",
    "request_status": "Pending",
    "responsible_agency": "Department of Public Works",
    "final_address": "CYPRESS ACRES DR & PINEWOOD CT",
    "address_councildis": "C",
    "status": "Assigned to Contractor",
    "contractor": "Legacy Professional Services",
    "rowid": "1074567",
    "final_x": "3696217.1",
    "final_y": "522881.28",
    "longitude": "-90.02191145850503",
    "latitude": "29.93128714821004",
    "geocoded_column": {
      "latitude": "29.93128714821004",
      "longitude": "-90.02191145850503"
    }
  },
  {
    "service_request": "2024-1074566",
    "request_type": "Traffic Signals/Signs/Striping/Streetlights",
    "request_reason": "Street Light Outage/Malfunction",
    "date_created": "2024-03-11T20:58:41.000",
    "date_modified": "2024-03-11T20:58:42.000",
    "request_status": "Pending",
    "responsible_agency": "Department of Public Works",
    "final_address": "2300 BLK Cypress Acres Dr",
    "address_councildis": "C",
    "status": "Assigned to Contractor",
    "contractor": "Legacy Professional Services",
    "rowid": "1074566",
    "final_x": "3696186.19486",
    "final_y": "522014.59585",
    "longitude": "-90.02204033234113",
    "latitude": "29.928905035865757",
    "geocoded_column": {
      "latitude": "29.928905035865757",
      "longitude": "-90.02204033234113"
    }
  },
  {
    "service_request": "2024-1074565",
    "request_type": "Roads/Drainage",
    "request_reason": "Pothole",
    "date_created": "2024-03-11T20:50:15.000",
    "date_modified": "2024-03-11T20:50:15.000",
    "request_status": "Pending",
    "responsible_agency": "Department of Public Works",
    "final_address": "5924 Coliseum St",
    "address_councildis": "A",
    "status": "Pending",
    "rowid": "1074565",
    "final_x": "3665169.45293",
    "final_y": "520029.276984",
    "longitude": "-90.12002072885706",
    "latitude": "29.924385602060447",
    "geocoded_column": {
      "latitude": "29.924385602060447",
      "longitude": "-90.12002072885706"
    }
  },
  {
    "service_request": "2024-1074564",
    "request_type": "Trash/Recycling",
    "request_reason": "Replace Trash Cart",
    "date_created": "2024-03-11T20:48:35.000",
    "date_modified": "2024-03-11T20:48:35.000",
    "request_status": "Pending",
    "responsible_agency": "Department of Sanitation",
    "final_address": "1124 St Charles Ave",
    "address_councildis": "B",
    "status": "Assigned to Contractor",
    "contractor": "Richards Disposal",
    "rowid": "1074564",
    "final_x": "3679882.49973",
    "final_y": "526445.416574",
    "longitude": "-90.07335400248864",
    "latitude": "29.94159129094358",
    "geocoded_column": {
      "latitude": "29.94159129094358",
      "longitude": "-90.07335400248864"
    }
  },
  {
    "service_request": "2024-1074563",
    "request_type": "Roads/Drainage",
    "request_reason": "Pothole",
    "date_created": "2024-03-11T20:45:39.000",
    "date_modified": "2024-03-11T20:45:39.000",
    "request_status": "Pending",
    "responsible_agency": "Department of Public Works",
    "final_address": "5918 Coliseum St",
    "address_councildis": "A",
    "status": "Pending",
    "rowid": "1074563",
    "final_x": "3665261.04928",
    "final_y": "520004.942648",
    "longitude": "-90.11973240308268",
    "latitude": "29.924316023054416",
    "geocoded_column": {
      "latitude": "29.924316023054416",
      "longitude": "-90.11973240308268"
    }
  },
  {
    "service_request": "2024-1074562",
    "request_type": "Property Maintenance",
    "request_reason": "Property Maintenance",
    "date_created": "2024-03-11T20:39:26.000",
    "date_modified": "2024-03-11T20:39:26.000",
    "request_status": "Pending",
    "responsible_agency": "Department of Code Enforcement",
    "final_address": "2105 Canal St",
    "address_councildis": "B",
    "status": "Pending",
    "rowid": "1074562",
    "final_x": "3677282.86126",
    "final_y": "533831.174021",
    "longitude": "-90.08130679319537",
    "latitude": "29.96197800151395",
    "geocoded_column": {
      "latitude": "29.96197800151395",
      "longitude": "-90.08130679319537"
    }
  },
  {
    "service_request": "2024-1074561",
    "request_type": "Trash/Recycling",
    "request_reason": "Request a Large Item Pick Up",
    "date_created": "2024-03-11T20:34:31.000",
    "date_modified": "2024-03-11T20:34:31.000",
    "request_status": "Pending",
    "responsible_agency": "Department of Sanitation",
    "final_address": "407 40Th St",
    "address_councildis": "A",
    "status": "Assigned to Contractor",
    "contractor": "IV Waste",
    "rowid": "1074561",
    "final_x": "3664970.32941",
    "final_y": "553416.261463",
    "longitude": "-90.1195328744609",
    "latitude": "30.016194534759602",
    "geocoded_column": {
      "latitude": "30.016194534759602",
      "longitude": "-90.1195328744609"
    }
  },
  {
    "service_request": "2024-1074560",
    "request_type": "Trash/Recycling",
    "request_reason": "Replace Trash Cart",
    "date_created": "2024-03-11T20:34:17.000",
    "date_modified": "2024-03-11T20:34:18.000",
    "request_status": "Pending",
    "responsible_agency": "Department of Sanitation",
    "final_address": "2122 S Liberty St",
    "address_councildis": "B",
    "status": "Assigned to Contractor",
    "contractor": "Richards Disposal",
    "rowid": "1074560",
    "final_x": "3676219.38657",
    "final_y": "525836.686653",
    "longitude": "-90.08494013276274",
    "latitude": "29.94002773240536",
    "geocoded_column": {
      "latitude": "29.94002773240536",
      "longitude": "-90.08494013276274"
    }
  },
  {
    "service_request": "2024-1074559",
    "request_type": "Trash/Recycling",
    "request_reason": "Replace Trash Cart",
    "date_created": "2024-03-11T20:28:22.000",
    "date_modified": "2024-03-11T20:28:23.000",
    "request_status": "Pending",
    "responsible_agency": "Department of Sanitation",
    "final_address": "1004 Merrill St",
    "address_councildis": "C",
    "status": "Assigned to Contractor",
    "contractor": "Richards Disposal",
    "rowid": "1074559",
    "final_x": "3695049.65648",
    "final_y": "528366.918208",
    "longitude": "-90.02539924052219",
    "latitude": "29.94640745221998",
    "geocoded_column": {
      "latitude": "29.94640745221998",
      "longitude": "-90.02539924052219"
    }
  },
  {
    "service_request": "2024-1074558",
    "request_type": "Trash/Recycling",
    "request_reason": "Order Trash Cart",
    "date_created": "2024-03-11T20:18:20.000",
    "date_modified": "2024-03-11T20:18:21.000",
    "request_status": "Pending",
    "responsible_agency": "Department of Sanitation",
    "final_address": "4114 Prytania St",
    "address_councildis": "B",
    "status": "Assigned to Contractor",
    "contractor": "Richards Disposal",
    "rowid": "1074558",
    "final_x": "3671880.13083",
    "final_y": "520367.562104",
    "longitude": "-90.09882587677305",
    "latitude": "29.92511868489121",
    "geocoded_column": {
      "latitude": "29.92511868489121",
      "longitude": "-90.09882587677305"
    }
  },
  {
    "service_request": "2024-1074557",
    "request_type": "Trash/Recycling",
    "request_reason": "Missed Trash Pick-Up",
    "date_created": "2024-03-11T20:12:29.000",
    "date_modified": "2024-03-11T20:12:30.000",
    "request_status": "Pending",
    "responsible_agency": "Department of Sanitation",
    "final_address": "2217 Josephine St",
    "address_councildis": "B",
    "status": "Assigned to Contractor",
    "contractor": "Richards Disposal",
    "rowid": "1074557",
    "final_x": "3676453.41659",
    "final_y": "525896.633597",
    "longitude": "-90.08419920091387",
    "latitude": "29.94018555370979",
    "geocoded_column": {
      "latitude": "29.94018555370979",
      "longitude": "-90.08419920091387"
    }
  },
  {
    "service_request": "2024-1074556",
    "request_type": "Trash/Recycling",
    "request_reason": "Request a Large Item Pick Up",
    "date_created": "2024-03-11T20:04:22.000",
    "date_modified": "2024-03-11T20:04:23.000",
    "request_status": "Pending",
    "responsible_agency": "Department of Sanitation",
    "final_address": "4717 Rosemont Pl",
    "address_councildis": "E",
    "status": "Assigned to Contractor",
    "contractor": "Waste Pro",
    "rowid": "1074556",
    "final_x": "3702787.70814",
    "final_y": "554741.68092",
    "longitude": "-89.99999866250313",
    "latitude": "30.018683201306757",
    "geocoded_column": {
      "latitude": "30.018683201306757",
      "longitude": "-89.99999866250313"
    }
  },
  {
    "service_request": "2024-1074555",
    "request_type": "Roads/Drainage",
    "request_reason": "Pothole",
    "date_created": "2024-03-11T20:03:53.000",
    "date_modified": "2024-03-11T20:03:53.000",
    "request_status": "Pending",
    "responsible_agency": "Department of Public Works",
    "final_address": "4411 Shalimar Dr",
    "address_councildis": "D",
    "status": "Pending",
    "rowid": "1074555",
    "final_x": "3697406.53456",
    "final_y": "552481.353622",
    "longitude": "-90.01708318019023",
    "latitude": "30.012639229830054",
    "geocoded_column": {
      "latitude": "30.012639229830054",
      "longitude": "-90.01708318019023"
    }
  },
  {
    "service_request": "2024-1074553",
    "request_type": "Traffic Signals/Signs/Striping/Streetlights",
    "request_reason": "Street Light Outage/Malfunction",
    "date_created": "2024-03-11T19:24:17.000",
    "date_modified": "2024-03-11T19:24:18.000",
    "request_status": "Pending",
    "responsible_agency": "Department of Public Works",
    "final_address": "0 BLK Five Oaks Dr",
    "address_councildis": "C",
    "status": "Assigned to Contractor",
    "contractor": "Legacy Professional Services",
    "rowid": "1074553",
    "final_x": "3699289.32251",
    "final_y": "526172.360501",
    "longitude": "-90.01209310051658",
    "latitude": "29.94023943728689",
    "geocoded_column": {
      "latitude": "29.94023943728689",
      "longitude": "-90.01209310051658"
    }
  },
  {
    "service_request": "2024-1074551",
    "request_type": "Abandoned Vehicles",
    "request_reason": "Abandoned/Junk Vehicles",
    "date_created": "2024-03-11T19:13:55.000",
    "date_modified": "2024-03-11T19:13:55.000",
    "request_status": "Pending",
    "responsible_agency": "Department of Public Works",
    "final_address": "8221 Spruce St",
    "address_councildis": "A",
    "status": "Pending",
    "rowid": "1074551",
    "final_x": "3663484.14957",
    "final_y": "530842.04941",
    "longitude": "-90.12498073256633",
    "latitude": "29.95416624626847",
    "geocoded_column": {
      "latitude": "29.95416624626847",
      "longitude": "-90.12498073256633"
    }
  },
  {
    "service_request": "2024-1074550",
    "request_type": "Trash/Recycling",
    "request_reason": "Request a Large Item Pick Up",
    "date_created": "2024-03-11T19:10:40.000",
    "date_modified": "2024-03-11T19:10:40.000",
    "request_status": "Pending",
    "responsible_agency": "Department of Sanitation",
    "final_address": "2621 Gallinghouse St",
    "address_councildis": "C",
    "status": "Assigned to Contractor",
    "contractor": "Richards Disposal",
    "rowid": "1074550",
    "final_x": "3700042.54512",
    "final_y": "521414.947577",
    "longitude": "-90.00988855298257",
    "latitude": "29.92713429865846",
    "geocoded_column": {
      "latitude": "29.92713429865846",
      "longitude": "-90.00988855298257"
    }
  },
  {
    "service_request": "2024-1074549",
    "request_type": "Roads/Drainage",
    "request_reason": "Pothole",
    "date_created": "2024-03-11T18:57:50.000",
    "date_modified": "2024-03-11T18:57:50.000",
    "request_status": "Pending",
    "responsible_agency": "Department of Public Works",
    "final_address": "1310 N Galvez St",
    "address_councildis": "D",
    "status": "Pending",
    "rowid": "1074549",
    "final_x": "3679799.89979",
    "final_y": "537496.192072",
    "longitude": "-90.07323110053386",
    "latitude": "29.971979683511766",
    "geocoded_column": {
      "latitude": "29.971979683511766",
      "longitude": "-90.07323110053386"
    }
  },
  {
    "service_request": "2024-1074548",
    "request_type": "Trash/Recycling",
    "request_reason": "Missed Trash Pick-Up",
    "date_created": "2024-03-11T18:46:12.000",
    "date_modified": "2024-03-11T18:46:12.000",
    "request_status": "Pending",
    "responsible_agency": "Department of Sanitation",
    "final_address": "2532 St Philip St",
    "address_councildis": "D",
    "status": "Assigned to Contractor",
    "contractor": "Richards Disposal",
    "rowid": "1074548",
    "final_x": "3677977.51163",
    "final_y": "537357.950408",
    "longitude": "-90.07899127821847",
    "latitude": "29.97165454670275",
    "geocoded_column": {
      "latitude": "29.97165454670275",
      "longitude": "-90.07899127821847"
    }
  },
  {
    "service_request": "2024-1074547",
    "request_type": "Trash/Recycling",
    "request_reason": "Replace Trash Cart",
    "date_created": "2024-03-11T18:35:53.000",
    "date_modified": "2024-03-11T18:35:53.000",
    "request_status": "Pending",
    "responsible_agency": "Department of Sanitation",
    "final_address": "3123 London Ave, New Orleans, Louisiana, 70122",
    "address_councildis": "D",
    "status": "Assigned to Contractor",
    "contractor": "IV Waste",
    "rowid": "1074547",
    "final_x": "3681496.64674",
    "final_y": "543959.541198",
    "longitude": "-90.06764703077454",
    "latitude": "29.989700221350652",
    "geocoded_column": {
      "latitude": "29.989700221350652",
      "longitude": "-90.06764703077454"
    }
  },
  {
    "service_request": "2024-1074546",
    "request_type": "Trash/Recycling",
    "request_reason": "Request a Large Item Pick Up",
    "date_created": "2024-03-11T18:35:30.000",
    "date_modified": "2024-03-11T18:35:30.000",
    "request_status": "Pending",
    "responsible_agency": "Department of Sanitation",
    "final_address": "4251 Vincennes Pl",
    "address_councildis": "B",
    "status": "Assigned to Contractor",
    "contractor": "Richards Disposal",
    "rowid": "1074546",
    "final_x": "3668897.07482",
    "final_y": "531683.768387",
    "longitude": "-90.10786041363833",
    "latitude": "29.956322629478137",
    "geocoded_column": {
      "latitude": "29.956322629478137",
      "longitude": "-90.10786041363833"
    }
  },
  {
    "service_request": "2024-1074545",
    "request_type": "Trash/Recycling",
    "request_reason": "Request a Large Item Pick Up",
    "date_created": "2024-03-11T18:18:42.000",
    "date_modified": "2024-03-11T18:18:42.000",
    "request_status": "Pending",
    "responsible_agency": "Department of Sanitation",
    "final_address": "322 40Th St",
    "address_councildis": "A",
    "status": "Assigned to Contractor",
    "contractor": "IV Waste",
    "rowid": "1074545",
    "final_x": "3665218.7904",
    "final_y": "553299.717719",
    "longitude": "-90.11875174655866",
    "latitude": "30.01586684098482",
    "geocoded_column": {
      "latitude": "30.01586684098482",
      "longitude": "-90.11875174655866"
    }
  },
  {
    "service_request": "2024-1074544",
    "request_type": "Trash/Recycling",
    "request_reason": "Missed Trash Pick-Up",
    "date_created": "2024-03-11T18:17:49.000",
    "date_modified": "2024-03-11T18:17:50.000",
    "request_status": "Pending",
    "responsible_agency": "Department of Sanitation",
    "final_address": "8064 Superior Dr",
    "address_councildis": "E",
    "status": "Assigned to Contractor",
    "contractor": "Waste Pro",
    "rowid": "1074544",
    "final_x": "3717726.32658",
    "final_y": "572849.286185",
    "longitude": "-89.95210891498638",
    "latitude": "30.067985304457867",
    "geocoded_column": {
      "latitude": "30.067985304457867",
      "longitude": "-89.95210891498638"
    }
  },
  {
    "service_request": "2024-1074543",
    "request_type": "Property Maintenance",
    "request_reason": "Property Maintenance",
    "date_created": "2024-03-11T18:16:18.000",
    "date_modified": "2024-03-11T18:16:18.000",
    "request_status": "Pending",
    "responsible_agency": "Department of Code Enforcement",
    "final_address": "3114 Washington Ave",
    "address_councildis": "B",
    "status": "Pending",
    "rowid": "1074543",
    "final_x": "3672802.1874",
    "final_y": "527112.034303",
    "longitude": "-90.0956852749385",
    "latitude": "29.943636450651237",
    "geocoded_column": {
      "latitude": "29.943636450651237",
      "longitude": "-90.0956852749385"
    }
  },
  {
    "service_request": "2024-1074542",
    "request_type": "Trash/Recycling",
    "request_reason": "Replace Trash Cart",
    "date_created": "2024-03-11T18:08:20.000",
    "date_modified": "2024-03-11T18:08:23.000",
    "request_status": "Pending",
    "responsible_agency": "Department of Sanitation",
    "final_address": "1924 Conti St",
    "address_councildis": "B",
    "status": "Assigned to Contractor",
    "contractor": "Richards Disposal",
    "rowid": "1074542",
    "final_x": "3678308.20539",
    "final_y": "534268.424197",
    "longitude": "-90.07805378800992",
    "latitude": "29.963149445172075",
    "geocoded_column": {
      "latitude": "29.963149445172075",
      "longitude": "-90.07805378800992"
    }
  },
  {
    "service_request": "2024-1074541",
    "request_type": "Trash/Recycling",
    "request_reason": "Request a Large Item Pick Up",
    "date_created": "2024-03-11T18:03:22.000",
    "date_modified": "2024-03-11T18:03:22.000",
    "request_status": "Pending",
    "responsible_agency": "Department of Sanitation",
    "final_address": "7560 Pebble Dr",
    "address_councildis": "E",
    "status": "Assigned to Contractor",
    "contractor": "Waste Pro",
    "rowid": "1074541",
    "final_x": "3715306.16658",
    "final_y": "568589.826597",
    "longitude": "-89.95992083726348",
    "latitude": "30.056353547980383",
    "geocoded_column": {
      "latitude": "30.056353547980383",
      "longitude": "-89.95992083726348"
    }
  },
  {
    "service_request": "2024-1074540",
    "request_type": "Trash/Recycling",
    "request_reason": "Replace Trash Cart",
    "date_created": "2024-03-11T17:58:54.000",
    "date_modified": "2024-03-11T17:58:55.000",
    "request_status": "Pending",
    "responsible_agency": "Department of Sanitation",
    "final_address": "7727 Oak St",
    "address_councildis": "A",
    "status": "Assigned to Contractor",
    "contractor": "Richards Disposal",
    "rowid": "1074540",
    "final_x": "3662912.46189",
    "final_y": "527561.567103",
    "longitude": "-90.12689496377165",
    "latitude": "29.945162539893953",
    "geocoded_column": {
      "latitude": "29.945162539893953",
      "longitude": "-90.12689496377165"
    }
  },
  {
    "service_request": "2024-1074539",
    "request_type": "Trash/Recycling",
    "request_reason": "Request a Large Item Pick Up",
    "date_created": "2024-03-11T17:57:59.000",
    "date_modified": "2024-03-11T17:58:00.000",
    "request_status": "Pending",
    "responsible_agency": "Department of Sanitation",
    "final_address": "7713 Haney Dr",
    "address_councildis": "E",
    "status": "Assigned to Contractor",
    "contractor": "Waste Pro",
    "rowid": "1074539",
    "final_x": "3712453.14738",
    "final_y": "567564.916388",
    "longitude": "-89.96897723742069",
    "latitude": "30.053629181755557",
    "geocoded_column": {
      "latitude": "30.053629181755557",
      "longitude": "-89.96897723742069"
    }
  },
  {
    "service_request": "2024-1074538",
    "request_type": "Roads/Drainage",
    "request_reason": "Pothole",
    "date_created": "2024-03-11T17:54:16.000",
    "date_modified": "2024-03-11T17:54:16.000",
    "request_status": "Pending",
    "responsible_agency": "Department of Public Works",
    "final_address": "3700 Orleans Ave",
    "address_councildis": "A",
    "status": "Pending",
    "rowid": "1074538",
    "final_x": "3673513.17089",
    "final_y": "539031.870922",
    "longitude": "-90.09303314266045",
    "latitude": "29.976390882081823",
    "geocoded_column": {
      "latitude": "29.976390882081823",
      "longitude": "-90.09303314266045"
    }
  },
  {
    "service_request": "2024-1074536",
    "request_type": "Trash/Recycling",
    "request_reason": "Order Trash Cart",
    "date_created": "2024-03-11T17:40:51.000",
    "date_modified": "2024-03-11T17:40:51.000",
    "request_status": "Pending",
    "responsible_agency": "Department of Sanitation",
    "final_address": "14712 Beekman Rd",
    "address_councildis": "E",
    "status": "Assigned to Contractor",
    "contractor": "Waste Pro",
    "rowid": "1074536",
    "final_x": "3721284.71615",
    "final_y": "573671.832682",
    "longitude": "-89.94082867374001",
    "latitude": "30.070128538451875",
    "geocoded_column": {
      "latitude": "30.070128538451875",
      "longitude": "-89.94082867374001"
    }
  },
  {
    "service_request": "2024-1074535",
    "request_type": "Abandoned Vehicles",
    "request_reason": "Abandoned/Junk Vehicles",
    "date_created": "2024-03-11T17:40:08.000",
    "date_modified": "2024-03-11T17:40:08.000",
    "request_status": "Pending",
    "responsible_agency": "Department of Public Works",
    "final_address": "714 Mandeville St",
    "address_councildis": "C",
    "status": "Pending",
    "rowid": "1074535",
    "final_x": "3685854.70383",
    "final_y": "535067.182022",
    "longitude": "-90.05419472580313",
    "latitude": "29.965116273420932",
    "geocoded_column": {
      "latitude": "29.965116273420932",
      "longitude": "-90.05419472580313"
    }
  },
  {
    "service_request": "2024-1074534",
    "request_type": "Abandoned Vehicles",
    "request_reason": "Abandoned/Junk Vehicles",
    "date_created": "2024-03-11T17:39:11.000",
    "date_modified": "2024-03-11T17:39:11.000",
    "request_status": "Pending",
    "responsible_agency": "Department of Public Works",
    "final_address": "8216 Spruce St",
    "address_councildis": "A",
    "status": "Pending",
    "rowid": "1074534",
    "final_x": "3663451.81856",
    "final_y": "530761.966722",
    "longitude": "-90.12508548778717",
    "latitude": "29.95394698226027",
    "geocoded_column": {
      "latitude": "29.95394698226027",
      "longitude": "-90.12508548778717"
    }
  },
  {
    "service_request": "2024-1074533",
    "request_type": "Roads/Drainage",
    "request_reason": "Damaged Sidewalk",
    "date_created": "2024-03-11T17:34:46.000",
    "date_modified": "2024-03-11T17:34:46.000",
    "request_status": "Pending",
    "responsible_agency": "Department of Public Works",
    "final_address": "7551 Morel St",
    "address_councildis": "E",
    "status": "Pending",
    "rowid": "1074533",
    "final_x": "3719112.22725",
    "final_y": "571643.889576",
    "longitude": "-89.94777393366802",
    "latitude": "30.064624962031715",
    "geocoded_column": {
      "latitude": "30.064624962031715",
      "longitude": "-89.94777393366802"
    }
  },
  {
    "service_request": "2024-1074530",
    "request_type": "Trash/Recycling",
    "request_reason": "Missed Trash Pick-Up",
    "date_created": "2024-03-11T17:28:12.000",
    "date_modified": "2024-03-11T17:28:12.000",
    "request_status": "Pending",
    "responsible_agency": "Department of Sanitation",
    "final_address": "5236 Chartres St",
    "address_councildis": "E",
    "status": "Assigned to Contractor",
    "contractor": "Waste Pro",
    "rowid": "1074530",
    "final_x": "3696211.23018",
    "final_y": "532219.360451",
    "longitude": "-90.0215925165113",
    "latitude": "29.956963810735125",
    "geocoded_column": {
      "latitude": "29.956963810735125",
      "longitude": "-90.0215925165113"
    }
  },
  {
    "service_request": "2024-1074529",
    "request_type": "Trash/Recycling",
    "request_reason": "Return Recycling Cart",
    "date_created": "2024-03-11T17:21:03.000",
    "date_modified": "2024-03-11T17:21:03.000",
    "request_status": "Pending",
    "responsible_agency": "Department of Sanitation",
    "final_address": "4703 Palmyra St",
    "address_councildis": "A",
    "status": "Pending",
    "rowid": "1074529",
    "final_x": "3668621.70241",
    "final_y": "539276.990282",
    "longitude": "-90.10847364674828",
    "latitude": "29.977209557333264",
    "geocoded_column": {
      "latitude": "29.977209557333264",
      "longitude": "-90.10847364674828"
    }
  },
  {
    "service_request": "2024-1074528",
    "request_type": "Trash/Recycling",
    "request_reason": "Replace Trash Cart",
    "date_created": "2024-03-11T17:19:44.000",
    "date_modified": "2024-03-11T17:19:45.000",
    "request_status": "Pending",
    "responsible_agency": "Department of Sanitation",
    "final_address": "3211 De Soto St",
    "address_councildis": "A",
    "status": "Assigned to Contractor",
    "contractor": "Richards Disposal",
    "rowid": "1074528",
    "final_x": "3675979.16379",
    "final_y": "540017.982667",
    "longitude": "-90.08521086234387",
    "latitude": "29.979028724433174",
    "geocoded_column": {
      "latitude": "29.979028724433174",
      "longitude": "-90.08521086234387"
    }
  },
  {
    "service_request": "2024-1074527",
    "request_type": "Trash/Recycling",
    "request_reason": "Replace Trash Cart",
    "date_created": "2024-03-11T17:16:11.000",
    "date_modified": "2024-03-11T17:16:12.000",
    "request_status": "Pending",
    "responsible_agency": "Department of Sanitation",
    "final_address": "967 Harding Dr",
    "address_councildis": "A",
    "status": "Assigned to Contractor",
    "contractor": "Richards Disposal",
    "rowid": "1074527",
    "final_x": "3674345.82081",
    "final_y": "540237.951371",
    "longitude": "-90.09036205896032",
    "latitude": "29.979682382165304",
    "geocoded_column": {
      "latitude": "29.979682382165304",
      "longitude": "-90.09036205896032"
    }
  },
  {
    "service_request": "2024-1074526",
    "request_type": "Trash/Recycling",
    "request_reason": "Replace Trash Cart",
    "date_created": "2024-03-11T17:15:05.000",
    "date_modified": "2024-03-11T17:15:06.000",
    "request_status": "Pending",
    "responsible_agency": "Department of Sanitation",
    "final_address": "803 Ninth St",
    "address_councildis": "B",
    "status": "Assigned to Contractor",
    "contractor": "Richards Disposal",
    "rowid": "1074526",
    "final_x": "3676461.4788",
    "final_y": "519194.761335",
    "longitude": "-90.08440437194298",
    "latitude": "29.921757346520323",
    "geocoded_column": {
      "latitude": "29.921757346520323",
      "longitude": "-90.08440437194298"
    }
  },
  {
    "service_request": "2024-1074525",
    "request_type": "Traffic Signals/Signs/Striping/Streetlights",
    "request_reason": "Traffic Signal Malfunctioning/Damaged",
    "date_created": "2024-03-11T17:11:04.000",
    "date_modified": "2024-03-11T17:11:04.000",
    "request_status": "Pending",
    "responsible_agency": "Department of Public Works",
    "final_address": "100 BLK East Dr",
    "address_councildis": "A",
    "status": "Pending",
    "rowid": "1074525",
    "final_x": "3661969.65798",
    "final_y": "517439.385841",
    "longitude": "-90.13020727324101",
    "latitude": "29.917356982492144",
    "geocoded_column": {
      "latitude": "29.917356982492144",
      "longitude": "-90.13020727324101"
    }
  },
  {
    "service_request": "2024-1074524",
    "request_type": "Trash/Recycling",
    "request_reason": "Replace Trash Cart",
    "date_created": "2024-03-11T17:03:01.000",
    "date_modified": "2024-03-11T17:03:02.000",
    "request_status": "Pending",
    "responsible_agency": "Department of Sanitation",
    "final_address": "5420 S Tonti St",
    "address_councildis": "A",
    "status": "Assigned to Contractor",
    "contractor": "Richards Disposal",
    "rowid": "1074524",
    "final_x": "3668606.63354",
    "final_y": "527913.790399",
    "longitude": "-90.10890474122958",
    "latitude": "29.945964960068586",
    "geocoded_column": {
      "latitude": "29.945964960068586",
      "longitude": "-90.10890474122958"
    }
  },
  {
    "service_request": "2024-1074523",
    "request_type": "Trash/Recycling",
    "request_reason": "Repair Trash Cart",
    "date_created": "2024-03-11T16:57:35.000",
    "date_modified": "2024-03-11T16:57:35.000",
    "request_status": "Pending",
    "responsible_agency": "Department of Sanitation",
    "final_address": "5527 Willow St",
    "address_councildis": "A",
    "status": "Assigned to Contractor",
    "contractor": "Richards Disposal",
    "rowid": "1074523",
    "final_x": "3667715.2313",
    "final_y": "525447.516093",
    "longitude": "-90.11180222186391",
    "latitude": "29.93920966361893",
    "geocoded_column": {
      "latitude": "29.93920966361893",
      "longitude": "-90.11180222186391"
    }
  },
  {
    "service_request": "2024-1074522",
    "request_type": "Trash/Recycling",
    "request_reason": "Illegal Dumping",
    "date_created": "2024-03-11T16:54:33.000",
    "date_modified": "2024-03-11T16:54:33.000",
    "request_status": "Pending",
    "responsible_agency": "Department of Sanitation",
    "final_address": "2100 BLK Decatur St",
    "address_councildis": "C",
    "status": "Pending",
    "rowid": "1074522",
    "final_x": "3684946.88663",
    "final_y": "534133.763541",
    "longitude": "-90.05709438830911",
    "latitude": "29.962577529331718",
    "geocoded_column": {
      "latitude": "29.962577529331718",
      "longitude": "-90.05709438830911"
    }
  },
  {
    "service_request": "2024-1074521",
    "request_type": "Trash/Recycling",
    "request_reason": "Missed Trash Pick-Up",
    "date_created": "2024-03-11T16:52:28.000",
    "date_modified": "2024-03-11T16:52:28.000",
    "request_status": "Pending",
    "responsible_agency": "Department of Sanitation",
    "final_address": "2540 Esplanade Ave",
    "address_councildis": "D",
    "status": "Assigned to Contractor",
    "contractor": "Richards Disposal",
    "rowid": "1074521",
    "final_x": "3678320.94197",
    "final_y": "538729.288009",
    "longitude": "-90.0778592202657",
    "latitude": "29.975414912265574",
    "geocoded_column": {
      "latitude": "29.975414912265574",
      "longitude": "-90.0778592202657"
    }
  },
  {
    "service_request": "2024-1074520",
    "request_type": "Trash/Recycling",
    "request_reason": "MIssed Recycling Pick-Up",
    "date_created": "2024-03-11T16:52:24.000",
    "date_modified": "2024-03-11T16:52:25.000",
    "request_status": "Pending",
    "responsible_agency": "Department of Sanitation",
    "final_address": "8606 Marks St",
    "address_councildis": "A",
    "status": "Assigned to Contractor",
    "contractor": "Richards Disposal",
    "rowid": "1074520",
    "final_x": "3667487.03732",
    "final_y": "537206.794696",
    "longitude": "-90.11212698693564",
    "latitude": "29.971550515067626",
    "geocoded_column": {
      "latitude": "29.971550515067626",
      "longitude": "-90.11212698693564"
    }
  },
  {
    "service_request": "2024-1074519",
    "request_type": "Trash/Recycling",
    "request_reason": "Missed Trash Pick-Up",
    "date_created": "2024-03-11T16:51:49.000",
    "date_modified": "2024-03-11T16:51:49.000",
    "request_status": "Pending",
    "responsible_agency": "Department of Sanitation",
    "final_address": "1300 BLK N Broad St",
    "address_councildis": "D",
    "status": "Assigned to Contractor",
    "contractor": "Richards Disposal",
    "rowid": "1074519",
    "final_x": "3678095.64016",
    "final_y": "538769.277236",
    "longitude": "-90.07856940149249",
    "latitude": "29.975531654718296",
    "geocoded_column": {
      "latitude": "29.975531654718296",
      "longitude": "-90.07856940149249"
    }
  },
  {
    "service_request": "2024-1074518",
    "request_type": "Roads/Drainage",
    "request_reason": "Catch Basin - Clogged",
    "date_created": "2024-03-11T16:51:26.000",
    "date_modified": "2024-03-11T16:51:26.000",
    "request_status": "Pending",
    "responsible_agency": "Department of Public Works",
    "final_address": "2119 Decatur St",
    "address_councildis": "C",
    "status": "Pending",
    "rowid": "1074518",
    "final_x": "3684936.34261",
    "final_y": "534164.449093",
    "longitude": "-90.05712660557727",
    "latitude": "29.962662226935983",
    "geocoded_column": {
      "latitude": "29.962662226935983",
      "longitude": "-90.05712660557727"
    }
  },
  {
    "service_request": "2024-1074517",
    "request_type": "Traffic Signals/Signs/Striping/Streetlights",
    "request_reason": "Street Light Outage/Malfunction",
    "date_created": "2024-03-11T16:51:10.000",
    "date_modified": "2024-03-11T16:51:10.000",
    "request_status": "Pending",
    "responsible_agency": "Department of Public Works",
    "final_address": "3600 Rue Denise",
    "address_councildis": "C",
    "status": "Assigned to Contractor",
    "contractor": "Legacy Professional Services",
    "rowid": "1074517",
    "final_x": "3704321.48503",
    "final_y": "517376.586677",
    "longitude": "-89.99652987183293",
    "latitude": "29.915893617325043",
    "geocoded_column": {
      "latitude": "29.915893617325043",
      "longitude": "-89.99652987183293"
    }
  },
  {
    "service_request": "2024-1074516",
    "request_type": "Trash/Recycling",
    "request_reason": "Order Recycling Cart",
    "date_created": "2024-03-11T16:50:11.000",
    "date_modified": "2024-03-11T16:50:11.000",
    "request_status": "Pending",
    "responsible_agency": "Department of Sanitation",
    "final_address": "10900 Roger Dr Apt A",
    "address_councildis": "E",
    "status": "Pending",
    "rowid": "1074516",
    "final_x": "3711945.91794",
    "final_y": "563203.6168",
    "longitude": "-89.97074437028046",
    "latitude": "30.041653968701016",
    "geocoded_column": {
      "latitude": "30.041653968701016",
      "longitude": "-89.97074437028046"
    }
  },
  {
    "service_request": "2024-1074515",
    "request_type": "Trash/Recycling",
    "request_reason": "Order Recycling Cart",
    "date_created": "2024-03-11T16:46:16.000",
    "date_modified": "2024-03-11T16:46:16.000",
    "request_status": "Pending",
    "responsible_agency": "Department of Sanitation",
    "final_address": "1316 Treme St",
    "address_councildis": "C",
    "status": "Pending",
    "rowid": "1074515",
    "final_x": "3682269.9149",
    "final_y": "535649.331398",
    "longitude": "-90.06549493786753",
    "latitude": "29.966826533363562",
    "geocoded_column": {
      "latitude": "29.966826533363562",
      "longitude": "-90.06549493786753"
    }
  },
  {
    "service_request": "2024-1074514",
    "request_type": "Trash/Recycling",
    "request_reason": "Order Trash Cart",
    "date_created": "2024-03-11T16:45:43.000",
    "date_modified": "2024-03-11T16:45:43.000",
    "request_status": "Pending",
    "responsible_agency": "Department of Sanitation",
    "final_address": "1316 Treme St",
    "address_councildis": "C",
    "status": "Assigned to Contractor",
    "contractor": "Richards Disposal",
    "rowid": "1074514",
    "final_x": "3682269.9149",
    "final_y": "535649.331398",
    "longitude": "-90.06549493786753",
    "latitude": "29.966826533363562",
    "geocoded_column": {
      "latitude": "29.966826533363562",
      "longitude": "-90.06549493786753"
    }
  },
  {
    "service_request": "2024-1074513",
    "request_type": "Trash/Recycling",
    "request_reason": "Request a Large Item Pick Up",
    "date_created": "2024-03-11T16:44:59.000",
    "date_modified": "2024-03-11T16:45:00.000",
    "request_status": "Pending",
    "responsible_agency": "Department of Sanitation",
    "final_address": "1317 Fern St",
    "address_councildis": "A",
    "status": "Assigned to Contractor",
    "contractor": "Richards Disposal",
    "rowid": "1074513",
    "final_x": "3662907.98515",
    "final_y": "528197.278592",
    "longitude": "-90.12688796527316",
    "latitude": "29.946910672474793",
    "geocoded_column": {
      "latitude": "29.946910672474793",
      "longitude": "-90.12688796527316"
    }
  },
  {
    "service_request": "2024-1074512",
    "request_type": "Property Maintenance",
    "request_reason": "Property Maintenance",
    "date_created": "2024-03-11T16:43:01.000",
    "date_modified": "2024-03-11T16:43:02.000",
    "request_status": "Pending",
    "responsible_agency": "Department of Code Enforcement",
    "final_address": "1410 Magnolia St",
    "address_councildis": "B",
    "status": "Pending",
    "rowid": "1074512",
    "final_x": "3676022.18382",
    "final_y": "527773.410111",
    "longitude": "-90.0854961439994",
    "latitude": "29.94535898964489",
    "geocoded_column": {
      "latitude": "29.94535898964489",
      "longitude": "-90.0854961439994"
    }
  },
  {
    "service_request": "2024-1074511",
    "request_type": "Trash/Recycling",
    "request_reason": "Request a Large Item Pick Up",
    "date_created": "2024-03-11T16:41:33.000",
    "date_modified": "2024-03-11T16:53:11.000",
    "case_close_date": "2024-03-11T11:53:11.000",
    "request_status": "Closed",
    "responsible_agency": "Department of Sanitation",
    "final_address": "18 Crane St",
    "address_councildis": "D",
    "status": "Assigned to Contractor",
    "contractor": "IV Waste",
    "contractor_action": "Invalid Request",
    "rowid": "1074511",
    "final_x": "3673288.82964",
    "final_y": "554712.659544",
    "longitude": "-90.09320568217507",
    "latitude": "30.019514247600625",
    "geocoded_column": {
      "latitude": "30.019514247600625",
      "longitude": "-90.09320568217507"
    }
  },
  {
    "service_request": "2024-1074510",
    "request_type": "Trash/Recycling",
    "request_reason": "Repair Trash Cart",
    "date_created": "2024-03-11T16:40:51.000",
    "date_modified": "2024-03-11T16:40:52.000",
    "request_status": "Pending",
    "responsible_agency": "Department of Sanitation",
    "final_address": "1410 Mystery St",
    "address_councildis": "A",
    "status": "Assigned to Contractor",
    "contractor": "IV Waste",
    "rowid": "1074510",
    "final_x": "3676132.63214",
    "final_y": "540682.177867",
    "longitude": "-90.08470329010896",
    "latitude": "29.980850435171526",
    "geocoded_column": {
      "latitude": "29.980850435171526",
      "longitude": "-90.08470329010896"
    }
  },
  {
    "service_request": "2024-1074509",
    "request_type": "Trash/Recycling",
    "request_reason": "Missed Trash Pick-Up",
    "date_created": "2024-03-11T16:36:13.000",
    "date_modified": "2024-03-11T16:36:14.000",
    "request_status": "Pending",
    "responsible_agency": "Department of Sanitation",
    "final_address": "3314 Upperline St",
    "address_councildis": "B",
    "status": "Assigned to Contractor",
    "contractor": "Richards Disposal",
    "rowid": "1074509",
    "final_x": "3669166.31418",
    "final_y": "527197.315071",
    "longitude": "-90.10716184226348",
    "latitude": "29.9439784290009",
    "geocoded_column": {
      "latitude": "29.9439784290009",
      "longitude": "-90.10716184226348"
    }
  },
  {
    "service_request": "2024-1074508",
    "request_type": "Abandoned Vehicles",
    "request_reason": "Abandoned/Junk Vehicles",
    "date_created": "2024-03-11T16:32:37.000",
    "date_modified": "2024-03-11T16:32:38.000",
    "request_status": "Pending",
    "responsible_agency": "Department of Public Works",
    "final_address": "4800 BLK Lynhuber Dr",
    "address_councildis": "D",
    "status": "Pending",
    "rowid": "1074508",
    "final_x": "3697978.03806",
    "final_y": "554845.812012",
    "longitude": "-90.01519161754413",
    "latitude": "30.01912253333843",
    "geocoded_column": {
      "latitude": "30.01912253333843",
      "longitude": "-90.01519161754413"
    }
  },
  {
    "service_request": "2024-1074507",
    "request_type": "Trash/Recycling",
    "request_reason": "Request a Large Item Pick Up",
    "date_created": "2024-03-11T16:31:33.000",
    "date_modified": "2024-03-11T16:31:34.000",
    "request_status": "Pending",
    "responsible_agency": "Department of Sanitation",
    "final_address": "4800 Savoie Ct",
    "address_councildis": "E",
    "status": "Assigned to Contractor",
    "contractor": "Waste Pro",
    "rowid": "1074507",
    "final_x": "3725330.61504",
    "final_y": "560775.393822",
    "longitude": "-89.92853850387546",
    "latitude": "30.03453291923316",
    "geocoded_column": {
      "latitude": "30.03453291923316",
      "longitude": "-89.92853850387546"
    }
  },
  {
    "service_request": "2024-1074506",
    "request_type": "Trash/Recycling",
    "request_reason": "Replace Trash Cart",
    "date_created": "2024-03-11T16:30:46.000",
    "date_modified": "2024-03-11T16:30:47.000",
    "request_status": "Pending",
    "responsible_agency": "Department of Sanitation",
    "final_address": "4622 Croftway Ct",
    "address_councildis": "D",
    "status": "Assigned to Contractor",
    "contractor": "IV Waste",
    "rowid": "1074506",
    "final_x": "3676581.35598",
    "final_y": "549212.771795",
    "longitude": "-90.0829920142523",
    "latitude": "30.00429313172652",
    "geocoded_column": {
      "latitude": "30.00429313172652",
      "longitude": "-90.0829920142523"
    }
  },
  {
    "service_request": "2024-1074505",
    "request_type": "Trash/Recycling",
    "request_reason": "Request a Large Item Pick Up",
    "date_created": "2024-03-11T16:23:37.000",
    "date_modified": "2024-03-11T16:23:37.000",
    "request_status": "Pending",
    "responsible_agency": "Department of Sanitation",
    "final_address": "2626 Dreux Ave",
    "address_councildis": "D",
    "status": "Assigned to Contractor",
    "contractor": "IV Waste",
    "rowid": "1074505",
    "final_x": "3686933.49442",
    "final_y": "552206.018646",
    "longitude": "-90.05018188047454",
    "latitude": "30.01220879926616",
    "geocoded_column": {
      "latitude": "30.01220879926616",
      "longitude": "-90.05018188047454"
    }
  },
  {
    "service_request": "2024-1074504",
    "request_type": "Trash/Recycling",
    "request_reason": "Repair Trash Cart",
    "date_created": "2024-03-11T16:20:31.000",
    "date_modified": "2024-03-11T16:20:32.000",
    "request_status": "Pending",
    "responsible_agency": "Department of Sanitation",
    "final_address": "7412 General Haig St",
    "address_councildis": "D",
    "status": "Assigned to Contractor",
    "contractor": "IV Waste",
    "rowid": "1074504",
    "final_x": "3671218.75886",
    "final_y": "555632.160153",
    "longitude": "-90.0997151529906",
    "latitude": "30.02210398634269",
    "geocoded_column": {
      "latitude": "30.02210398634269",
      "longitude": "-90.0997151529906"
    }
  },
  {
    "service_request": "2024-1074503",
    "request_type": "Parks & Parkways",
    "request_reason": "Request Tree Service (Right of Way/Public Property)",
    "date_created": "2024-03-11T16:18:11.000",
    "date_modified": "2024-03-11T16:18:11.000",
    "request_status": "Pending",
    "responsible_agency": "Department of Parks & Parkway",
    "final_address": "7421 Sheffield St",
    "address_councildis": "E",
    "status": "Pending",
    "rowid": "1074503",
    "final_x": "3699493.3537",
    "final_y": "559711.864925",
    "longitude": "-90.01022623807616",
    "latitude": "30.032454294719255",
    "geocoded_column": {
      "latitude": "30.032454294719255",
      "longitude": "-90.01022623807616"
    }
  },
  {
    "service_request": "2024-1074502",
    "request_type": "Traffic Signals/Signs/Striping/Streetlights",
    "request_reason": "Traffic Sign Missing/Damaged",
    "date_created": "2024-03-11T16:17:08.000",
    "date_modified": "2024-03-11T16:17:08.000",
    "request_status": "Pending",
    "responsible_agency": "Department of Public Works",
    "final_address": "2000 S Liberty St",
    "address_councildis": "B",
    "status": "Pending",
    "rowid": "1074502",
    "final_x": "3676548.02561",
    "final_y": "526177.790398",
    "longitude": "-90.08389082614192",
    "latitude": "29.94095580603209",
    "geocoded_column": {
      "latitude": "29.94095580603209",
      "longitude": "-90.08389082614192"
    }
  },
  {
    "service_request": "2024-1074501",
    "request_type": "Traffic Signals/Signs/Striping/Streetlights",
    "request_reason": "Traffic Sign Missing/Damaged",
    "date_created": "2024-03-11T16:15:54.000",
    "date_modified": "2024-03-11T16:16:24.000",
    "request_status": "Pending",
    "responsible_agency": "Department of Public Works",
    "final_address": "BONITA DR & HAMMOND ST",
    "address_councildis": "E",
    "status": "Pending",
    "rowid": "1074501",
    "final_x": "3704449.0",
    "final_y": "555594.28",
    "longitude": "-89.99471814771157",
    "latitude": "30.0209742617783",
    "geocoded_column": {
      "latitude": "30.0209742617783",
      "longitude": "-89.99471814771157"
    }
  },
  {
    "service_request": "2024-1074500",
    "request_type": "Trash/Recycling",
    "request_reason": "Request a Large Item Pick Up",
    "date_created": "2024-03-11T16:13:37.000",
    "date_modified": "2024-03-11T16:13:37.000",
    "request_status": "Pending",
    "responsible_agency": "Department of Sanitation",
    "final_address": "3851 Peach Tree Ct",
    "address_councildis": "C",
    "status": "Assigned to Contractor",
    "contractor": "Richards Disposal",
    "rowid": "1074500",
    "final_x": "3704189.72593",
    "final_y": "512346.045169",
    "longitude": "-89.99713091341043",
    "latitude": "29.902065573077007",
    "geocoded_column": {
      "latitude": "29.902065573077007",
      "longitude": "-89.99713091341043"
    }
  },
  {
    "service_request": "2024-1074499",
    "request_type": "Trash/Recycling",
    "request_reason": "Dead Animal Pick Up",
    "date_created": "2024-03-11T16:11:36.000",
    "date_modified": "2024-03-11T16:11:37.000",
    "request_status": "Pending",
    "responsible_agency": "Department of Sanitation",
    "final_address": "2841 Chestnut St",
    "address_councildis": "B",
    "status": "Assigned to Contractor",
    "contractor": "Richards Disposal",
    "rowid": "1074499",
    "final_x": "3676325.50881",
    "final_y": "521271.979129",
    "longitude": "-90.08476212396538",
    "latitude": "29.92747309818333",
    "geocoded_column": {
      "latitude": "29.92747309818333",
      "longitude": "-90.08476212396538"
    }
  },
  {
    "service_request": "2024-1074498",
    "request_type": "Trash/Recycling",
    "request_reason": "Dead Animal Pick Up",
    "date_created": "2024-03-11T16:10:56.000",
    "date_modified": "2024-03-11T16:10:57.000",
    "request_status": "Pending",
    "responsible_agency": "Department of Sanitation",
    "final_address": "2841 Chestnut St",
    "address_councildis": "B",
    "status": "Assigned to Contractor",
    "contractor": "Richards Disposal",
    "rowid": "1074498",
    "final_x": "3676325.50881",
    "final_y": "521271.979129",
    "longitude": "-90.08476212396538",
    "latitude": "29.92747309818333",
    "geocoded_column": {
      "latitude": "29.92747309818333",
      "longitude": "-90.08476212396538"
    }
  },
  {
    "service_request": "2024-1074497",
    "request_type": "Trash/Recycling",
    "request_reason": "Request a Large Item Pick Up",
    "date_created": "2024-03-11T16:08:18.000",
    "date_modified": "2024-03-11T16:08:18.000",
    "request_status": "Pending",
    "responsible_agency": "Department of Sanitation",
    "final_address": "6023 N Rampart St",
    "address_councildis": "E",
    "status": "Assigned to Contractor",
    "contractor": "Waste Pro",
    "rowid": "1074497",
    "final_x": "3699179.729",
    "final_y": "532988.948804",
    "longitude": "-90.01219096741912",
    "latitude": "29.958986130147387",
    "geocoded_column": {
      "latitude": "29.958986130147387",
      "longitude": "-90.01219096741912"
    }
  },
  {
    "service_request": "2024-1074496",
    "request_type": "Trash/Recycling",
    "request_reason": "Request a Large Item Pick Up",
    "date_created": "2024-03-11T16:05:40.000",
    "date_modified": "2024-03-11T16:05:41.000",
    "request_status": "Pending",
    "responsible_agency": "Department of Sanitation",
    "final_address": "1467 N Dorgenois St",
    "address_councildis": "D",
    "status": "Assigned to Contractor",
    "contractor": "IV Waste",
    "rowid": "1074496",
    "final_x": "3679047.37538",
    "final_y": "539200.35329",
    "longitude": "-90.07554861610778",
    "latitude": "29.97668827367373",
    "geocoded_column": {
      "latitude": "29.97668827367373",
      "longitude": "-90.07554861610778"
    }
  },
  {
    "service_request": "2024-1074495",
    "request_type": "Parks & Parkways",
    "request_reason": "Request Tree Service (Right of Way/Public Property)",
    "date_created": "2024-03-11T16:02:34.000",
    "date_modified": "2024-03-11T16:02:34.000",
    "request_status": "Pending",
    "responsible_agency": "Department of Parks & Parkway",
    "final_address": "5150 Wilton Dr",
    "address_councildis": "D",
    "status": "Pending",
    "rowid": "1074495",
    "final_x": "3681868.02684",
    "final_y": "551386.704853",
    "longitude": "-90.06621451066518",
    "latitude": "30.010110983103274",
    "geocoded_column": {
      "latitude": "30.010110983103274",
      "longitude": "-90.06621451066518"
    }
  },
  {
    "service_request": "2024-1074494",
    "request_type": "Trash/Recycling",
    "request_reason": "Request a Large Item Pick Up",
    "date_created": "2024-03-11T16:00:51.000",
    "date_modified": "2024-03-11T16:00:52.000",
    "request_status": "Pending",
    "responsible_agency": "Department of Sanitation",
    "final_address": "6362 Orleans Ave",
    "address_councildis": "A",
    "status": "Assigned to Contractor",
    "contractor": "IV Waste",
    "rowid": "1074494",
    "final_x": "3671053.85268",
    "final_y": "549580.288659",
    "longitude": "-90.1004419680292",
    "latitude": "30.005468364099222",
    "geocoded_column": {
      "latitude": "30.005468364099222",
      "longitude": "-90.1004419680292"
    }
  },
  {
    "service_request": "2024-1074493",
    "request_type": "Roads/Drainage",
    "request_reason": "Pothole",
    "date_created": "2024-03-11T15:58:05.000",
    "date_modified": "2024-03-11T15:58:05.000",
    "request_status": "Pending",
    "responsible_agency": "Department of Public Works",
    "final_address": "4216 Chestnut St",
    "address_councildis": "B",
    "status": "Pending",
    "rowid": "1074493",
    "final_x": "3671574.31393",
    "final_y": "519539.203703",
    "longitude": "-90.09981939416457",
    "latitude": "29.922850019854593",
    "geocoded_column": {
      "latitude": "29.922850019854593",
      "longitude": "-90.09981939416457"
    }
  },
  {
    "service_request": "2024-1074492",
    "request_type": "Abandoned Vehicles",
    "request_reason": "Abandoned/Junk Vehicles",
    "date_created": "2024-03-11T15:57:53.000",
    "date_modified": "2024-03-11T15:57:53.000",
    "request_status": "Pending",
    "responsible_agency": "Department of Public Works",
    "final_address": "2017 Laurel St",
    "address_councildis": "B",
    "status": "Pending",
    "rowid": "1074492",
    "final_x": "3679777.22229",
    "final_y": "521907.75705",
    "longitude": "-90.07384385673966",
    "latitude": "29.92911740785258",
    "geocoded_column": {
      "latitude": "29.92911740785258",
      "longitude": "-90.07384385673966"
    }
  },
  {
    "service_request": "2024-1074491",
    "request_type": "Trash/Recycling",
    "request_reason": "Replace Trash Cart",
    "date_created": "2024-03-11T15:52:06.000",
    "date_modified": "2024-03-11T15:52:06.000",
    "request_status": "Pending",
    "responsible_agency": "Department of Sanitation",
    "final_address": "7736 Scottwood Dr",
    "address_councildis": "E",
    "status": "Assigned to Contractor",
    "contractor": "Waste Pro",
    "rowid": "1074491",
    "final_x": "3716840.41752",
    "final_y": "571230.224424",
    "longitude": "-89.95497098789147",
    "latitude": "30.063562893593645",
    "geocoded_column": {
      "latitude": "30.063562893593645",
      "longitude": "-89.95497098789147"
    }
  },
  {
    "service_request": "2024-1074490",
    "request_type": "Trash/Recycling",
    "request_reason": "Request a Large Item Pick Up",
    "date_created": "2024-03-11T15:51:32.000",
    "date_modified": "2024-03-11T15:51:33.000",
    "request_status": "Pending",
    "responsible_agency": "Department of Sanitation",
    "final_address": "636 Audubon St",
    "address_councildis": "A",
    "status": "Assigned to Contractor",
    "contractor": "Richards Disposal",
    "rowid": "1074490",
    "final_x": "3663377.42407",
    "final_y": "524849.622396",
    "longitude": "-90.12551718168751",
    "latitude": "29.93769208768512",
    "geocoded_column": {
      "latitude": "29.93769208768512",
      "longitude": "-90.12551718168751"
    }
  },
  {
    "service_request": "2024-1074489",
    "request_type": "Traffic Signals/Signs/Striping/Streetlights",
    "request_reason": "Street Light Outage/Malfunction",
    "date_created": "2024-03-11T15:48:14.000",
    "date_modified": "2024-03-11T15:48:14.000",
    "request_status": "Pending",
    "responsible_agency": "Department of Public Works",
    "final_address": "3715 Erato St",
    "address_councildis": "B",
    "status": "Assigned to Contractor",
    "contractor": "Legacy Professional Services",
    "rowid": "1074489",
    "final_x": "3672875.79835",
    "final_y": "530302.231106",
    "longitude": "-90.09534404205048",
    "latitude": "29.95240625551498",
    "geocoded_column": {
      "latitude": "29.95240625551498",
      "longitude": "-90.09534404205048"
    }
  },
  {
    "service_request": "2024-1074488",
    "request_type": "Trash/Recycling",
    "request_reason": "Request a Large Item Pick Up",
    "date_created": "2024-03-11T15:46:14.000",
    "date_modified": "2024-03-11T15:46:14.000",
    "request_status": "Pending",
    "responsible_agency": "Department of Sanitation",
    "final_address": "3437 Timber Wolf Ln",
    "address_councildis": "C",
    "status": "Assigned to Contractor",
    "contractor": "Richards Disposal",
    "rowid": "1074488",
    "final_x": "3704526.06999",
    "final_y": "511421.567024",
    "longitude": "-89.99610348592637",
    "latitude": "29.899512782625173",
    "geocoded_column": {
      "latitude": "29.899512782625173",
      "longitude": "-89.99610348592637"
    }
  },
  {
    "service_request": "2024-1074487",
    "request_type": "Property Maintenance",
    "request_reason": "Property Maintenance",
    "date_created": "2024-03-11T15:45:49.000",
    "date_modified": "2024-03-11T15:45:49.000",
    "request_status": "Pending",
    "responsible_agency": "Department of Code Enforcement",
    "final_address": "5915 Carlisle Ct",
    "address_councildis": "C",
    "status": "Pending",
    "rowid": "1074487",
    "final_x": "3705606.38155",
    "final_y": "516416.502453",
    "longitude": "-89.9925097347289",
    "latitude": "29.91321243577632",
    "geocoded_column": {
      "latitude": "29.91321243577632",
      "longitude": "-89.9925097347289"
    }
  },
  {
    "service_request": "2024-1074486",
    "request_type": "Trash/Recycling",
    "request_reason": "Illegal Dumping",
    "date_created": "2024-03-11T15:45:41.000",
    "date_modified": "2024-03-11T15:45:41.000",
    "request_status": "Pending",
    "responsible_agency": "Department of Code Enforcement",
    "final_address": "2400 BLK Murl St",
    "address_councildis": "C",
    "status": "Pending",
    "rowid": "1074486",
    "final_x": "3694985.5493",
    "final_y": "522016.874389",
    "longitude": "-90.02583042824475",
    "latitude": "29.92894902722893",
    "geocoded_column": {
      "latitude": "29.92894902722893",
      "longitude": "-90.02583042824475"
    }
  },
  {
    "service_request": "2024-1074485",
    "request_type": "Traffic Signals/Signs/Striping/Streetlights",
    "request_reason": "Street Light Outage/Malfunction",
    "date_created": "2024-03-11T15:45:28.000",
    "date_modified": "2024-03-11T15:45:29.000",
    "request_status": "Pending",
    "responsible_agency": "Department of Public Works",
    "final_address": "1323 S Prieur St",
    "address_councildis": "B",
    "status": "Assigned to Contractor",
    "contractor": "Legacy Professional Services",
    "rowid": "1074485",
    "final_x": "3674335.06126",
    "final_y": "529040.959552",
    "longitude": "-90.09077953773377",
    "latitude": "29.94889474420487",
    "geocoded_column": {
      "latitude": "29.94889474420487",
      "longitude": "-90.09077953773377"
    }
  },
  {
    "service_request": "2024-1074484",
    "request_type": "Traffic Signals/Signs/Striping/Streetlights",
    "request_reason": "Street Light Outage/Malfunction",
    "date_created": "2024-03-11T15:41:16.000",
    "date_modified": "2024-03-11T15:41:17.000",
    "request_status": "Pending",
    "responsible_agency": "Department of Public Works",
    "final_address": "3503 Martin Luther King, Jr. Blvd",
    "address_councildis": "B",
    "status": "Assigned to Contractor",
    "contractor": "Legacy Professional Services",
    "rowid": "1074484",
    "final_x": "3673271.37326",
    "final_y": "529364.863425",
    "longitude": "-90.09412700486595",
    "latitude": "29.949817046633033",
    "geocoded_column": {
      "latitude": "29.949817046633033",
      "longitude": "-90.09412700486595"
    }
  },
  {
    "service_request": "2024-1074483",
    "request_type": "Trash/Recycling",
    "request_reason": "Order Trash Cart",
    "date_created": "2024-03-11T15:40:21.000",
    "date_modified": "2024-03-11T15:40:22.000",
    "request_status": "Pending",
    "responsible_agency": "Department of Sanitation",
    "final_address": "614 Governor Nicholls St",
    "address_councildis": "C",
    "status": "Assigned to Contractor",
    "contractor": "Empire Services",
    "rowid": "1074483",
    "final_x": "3683832.74281",
    "final_y": "533746.595333",
    "longitude": "-90.06062627793254",
    "latitude": "29.96154702423176",
    "geocoded_column": {
      "latitude": "29.96154702423176",
      "longitude": "-90.06062627793254"
    }
  },
  {
    "service_request": "2024-1074482",
    "request_type": "Trash/Recycling",
    "request_reason": "Illegal Dumping",
    "date_created": "2024-03-11T15:39:51.000",
    "date_modified": "2024-03-11T15:39:51.000",
    "request_status": "Pending",
    "responsible_agency": "Department of Sanitation",
    "final_address": "4000 BLK Sullen Pl",
    "address_councildis": "C",
    "status": "Pending",
    "rowid": "1074482",
    "final_x": "3707431.51194",
    "final_y": "515375.319103",
    "longitude": "-89.98678774087806",
    "latitude": "29.91029069027161",
    "geocoded_column": {
      "latitude": "29.91029069027161",
      "longitude": "-89.98678774087806"
    }
  },
  {
    "service_request": "2024-1074481",
    "request_type": "Trash/Recycling",
    "request_reason": "Request a Large Item Pick Up",
    "date_created": "2024-03-11T15:39:27.000",
    "date_modified": "2024-03-11T15:39:27.000",
    "request_status": "Pending",
    "responsible_agency": "Department of Sanitation",
    "final_address": "4726 Perelli Dr",
    "address_councildis": "E",
    "status": "Assigned to Contractor",
    "contractor": "Waste Pro",
    "rowid": "1074481",
    "final_x": "3711640.05637",
    "final_y": "555927.507737",
    "longitude": "-89.97198419574899",
    "latitude": "30.021657554248065",
    "geocoded_column": {
      "latitude": "30.021657554248065",
      "longitude": "-89.97198419574899"
    }
  },
  {
    "service_request": "2024-1074480",
    "request_type": "Trash/Recycling",
    "request_reason": "Order Trash Cart",
    "date_created": "2024-03-11T15:39:06.000",
    "date_modified": "2024-03-11T15:39:07.000",
    "request_status": "Pending",
    "responsible_agency": "Department of Sanitation",
    "final_address": "2912 Mandeville St",
    "address_councildis": "D",
    "status": "Assigned to Contractor",
    "contractor": "IV Waste",
    "rowid": "1074480",
    "final_x": "3685162.11087",
    "final_y": "543494.001614",
    "longitude": "-90.05608525909881",
    "latitude": "29.98830831484056",
    "geocoded_column": {
      "latitude": "29.98830831484056",
      "longitude": "-90.05608525909881"
    }
  },
  {
    "service_request": "2024-1074479",
    "request_type": "Traffic Signals/Signs/Striping/Streetlights",
    "request_reason": "Street Light Outage/Malfunction",
    "date_created": "2024-03-11T15:38:43.000",
    "date_modified": "2024-03-11T15:38:43.000",
    "request_status": "Pending",
    "responsible_agency": "Department of Public Works",
    "final_address": "1319 S Tonti St",
    "address_councildis": "B",
    "status": "Assigned to Contractor",
    "contractor": "Legacy Professional Services",
    "rowid": "1074479",
    "final_x": "3673142.71483",
    "final_y": "529783.234817",
    "longitude": "-90.09451895770546",
    "latitude": "29.95097125511648",
    "geocoded_column": {
      "latitude": "29.95097125511648",
      "longitude": "-90.09451895770546"
    }
  },
  {
    "service_request": "2024-1074478",
    "request_type": "Trash/Recycling",
    "request_reason": "Illegal Dumping",
    "date_created": "2024-03-11T15:38:05.000",
    "date_modified": "2024-03-11T15:42:00.000",
    "request_status": "Pending",
    "responsible_agency": "Department of Sanitation",
    "final_address": "7700 BLK Patterson St",
    "address_councildis": "C",
    "status": "Pending",
    "rowid": "1074478",
    "final_x": "3712930.04097",
    "final_y": "518942.87496",
    "longitude": "-89.96929937142575",
    "latitude": "29.91992139562532",
    "geocoded_column": {
      "latitude": "29.91992139562532",
      "longitude": "-89.96929937142575"
    }
  },
  {
    "service_request": "2024-1074477",
    "request_type": "Trash/Recycling",
    "request_reason": "Request a Large Item Pick Up",
    "date_created": "2024-03-11T15:37:50.000",
    "date_modified": "2024-03-11T15:37:51.000",
    "request_status": "Pending",
    "responsible_agency": "Department of Sanitation",
    "final_address": "3842 Mimosa Dr",
    "address_councildis": "C",
    "status": "Assigned to Contractor",
    "contractor": "Richards Disposal",
    "rowid": "1074477",
    "final_x": "3704218.54231",
    "final_y": "513146.916658",
    "longitude": "-89.99701049434523",
    "latitude": "29.904266773584823",
    "geocoded_column": {
      "latitude": "29.904266773584823",
      "longitude": "-89.99701049434523"
    }
  },
  {
    "service_request": "2024-1074476",
    "request_type": "Trash/Recycling",
    "request_reason": "Request a Large Item Pick Up",
    "date_created": "2024-03-11T15:37:16.000",
    "date_modified": "2024-03-11T15:37:17.000",
    "request_status": "Pending",
    "responsible_agency": "Department of Sanitation",
    "final_address": "1207 Alvar St",
    "address_councildis": "D",
    "status": "Assigned to Contractor",
    "contractor": "IV Waste",
    "rowid": "1074476",
    "final_x": "3691645.6966",
    "final_y": "535813.353671",
    "longitude": "-90.03588048138101",
    "latitude": "29.966988956063318",
    "geocoded_column": {
      "latitude": "29.966988956063318",
      "longitude": "-90.03588048138101"
    }
  },
  {
    "service_request": "2024-1074475",
    "request_type": "Traffic Signals/Signs/Striping/Streetlights",
    "request_reason": "Street Light Outage/Malfunction",
    "date_created": "2024-03-11T15:36:24.000",
    "date_modified": "2024-03-11T15:36:24.000",
    "request_status": "Pending",
    "responsible_agency": "Department of Public Works",
    "final_address": "1229 S Tonti St",
    "address_councildis": "B",
    "status": "Assigned to Contractor",
    "contractor": "Legacy Professional Services",
    "rowid": "1074475",
    "final_x": "3673322.56155",
    "final_y": "530043.080385",
    "longitude": "-90.09394221679321",
    "latitude": "29.951680396829204",
    "geocoded_column": {
      "latitude": "29.951680396829204",
      "longitude": "-90.09394221679321"
    }
  },
  {
    "service_request": "2024-1074474",
    "request_type": "Roads/Drainage",
    "request_reason": "Street Flooding / Drainage",
    "date_created": "2024-03-11T15:35:51.000",
    "date_modified": "2024-03-11T15:35:51.000",
    "request_status": "Pending",
    "responsible_agency": "Department of Public Works",
    "final_address": "6823 St Charles Ave",
    "address_councildis": "A",
    "status": "Pending",
    "rowid": "1074474",
    "final_x": "3664329.08256",
    "final_y": "524188.303868",
    "longitude": "-90.12253477155663",
    "latitude": "29.935846054882184",
    "geocoded_column": {
      "latitude": "29.935846054882184",
      "longitude": "-90.12253477155663"
    }
  },
  {
    "service_request": "2024-1074473",
    "request_type": "Trash/Recycling",
    "request_reason": "Request a Large Item Pick Up",
    "date_created": "2024-03-11T15:35:34.000",
    "date_modified": "2024-03-11T15:35:35.000",
    "request_status": "Pending",
    "responsible_agency": "Department of Sanitation",
    "final_address": "7531 Pebble Dr",
    "address_councildis": "E",
    "status": "Assigned to Contractor",
    "contractor": "Waste Pro",
    "rowid": "1074473",
    "final_x": "3715540.61656",
    "final_y": "568535.393061",
    "longitude": "-89.95918185160555",
    "latitude": "30.056196149312207",
    "geocoded_column": {
      "latitude": "30.056196149312207",
      "longitude": "-89.95918185160555"
    }
  },
  {
    "service_request": "2024-1074472",
    "request_type": "Trash/Recycling",
    "request_reason": "Request a Large Item Pick Up",
    "date_created": "2024-03-11T15:35:10.000",
    "date_modified": "2024-03-11T15:35:10.000",
    "request_status": "Pending",
    "responsible_agency": "Department of Sanitation",
    "final_address": "10731 Willowbrae Dr",
    "address_councildis": "E",
    "status": "Assigned to Contractor",
    "contractor": "Waste Pro",
    "rowid": "1074472",
    "final_x": "3710814.3772",
    "final_y": "564240.409441",
    "longitude": "-89.97428155693066",
    "latitude": "30.04454168220396",
    "geocoded_column": {
      "latitude": "30.04454168220396",
      "longitude": "-89.97428155693066"
    }
  },
  {
    "service_request": "2024-1074471",
    "request_type": "Trash/Recycling",
    "request_reason": "Missed Trash Pick-Up",
    "date_created": "2024-03-11T15:34:13.000",
    "date_modified": "2024-03-11T15:34:14.000",
    "request_status": "Pending",
    "responsible_agency": "Department of Sanitation",
    "final_address": "7643 Jonlee Dr",
    "address_councildis": "E",
    "status": "Assigned to Contractor",
    "contractor": "Waste Pro",
    "rowid": "1074471",
    "final_x": "3717084.35359",
    "final_y": "570674.530855",
    "longitude": "-89.95422104169805",
    "latitude": "30.062026896940424",
    "geocoded_column": {
      "latitude": "30.062026896940424",
      "longitude": "-89.95422104169805"
    }
  },
  {
    "service_request": "2024-1074470",
    "request_type": "Traffic Signals/Signs/Striping/Streetlights",
    "request_reason": "Street Light Outage/Malfunction",
    "date_created": "2024-03-11T15:34:07.000",
    "date_modified": "2024-03-11T15:34:08.000",
    "request_status": "Pending",
    "responsible_agency": "Department of Public Works",
    "final_address": "3321 Thalia St",
    "address_councildis": "B",
    "status": "Assigned to Contractor",
    "contractor": "Legacy Professional Services",
    "rowid": "1074470",
    "final_x": "3674142.34139",
    "final_y": "529183.332096",
    "longitude": "-90.09138316599086",
    "latitude": "29.949291966656027",
    "geocoded_column": {
      "latitude": "29.949291966656027",
      "longitude": "-90.09138316599086"
    }
  },
  {
    "service_request": "2024-1074469",
    "request_type": "Trash/Recycling",
    "request_reason": "Illegal Dumping",
    "date_created": "2024-03-11T15:33:56.000",
    "date_modified": "2024-03-11T15:43:08.000",
    "request_status": "Pending",
    "responsible_agency": "Department of Sanitation",
    "final_address": "7812 Bailey St",
    "address_councildis": "C",
    "status": "Pending",
    "rowid": "1074469",
    "final_x": "3711927.28696",
    "final_y": "518856.258615",
    "longitude": "-89.9724677937042",
    "latitude": "29.919716015899002",
    "geocoded_column": {
      "latitude": "29.919716015899002",
      "longitude": "-89.9724677937042"
    }
  },
  {
    "service_request": "2024-1074468",
    "request_type": "Trash/Recycling",
    "request_reason": "Order Trash Cart",
    "date_created": "2024-03-11T15:31:43.000",
    "date_modified": "2024-03-11T15:31:44.000",
    "request_status": "Pending",
    "responsible_agency": "Department of Sanitation",
    "final_address": "2717 Joliet St",
    "address_councildis": "A",
    "status": "Assigned to Contractor",
    "contractor": "Richards Disposal",
    "rowid": "1074468",
    "final_x": "3664686.27725",
    "final_y": "533424.463876",
    "longitude": "-90.121098613214",
    "latitude": "29.96123213122417",
    "geocoded_column": {
      "latitude": "29.96123213122417",
      "longitude": "-90.121098613214"
    }
  },
  {
    "service_request": "2024-1074467",
    "request_type": "Traffic Signals/Signs/Striping/Streetlights",
    "request_reason": "Street Light Outage/Malfunction",
    "date_created": "2024-03-11T15:31:42.000",
    "date_modified": "2024-03-11T15:31:42.000",
    "request_status": "Pending",
    "responsible_agency": "Department of Public Works",
    "final_address": "3353 Thalia St",
    "address_councildis": "B",
    "status": "Assigned to Contractor",
    "contractor": "Legacy Professional Services",
    "rowid": "1074467",
    "final_x": "3674031.45076",
    "final_y": "529253.039873",
    "longitude": "-90.09173091251861",
    "latitude": "29.949486944407788",
    "geocoded_column": {
      "latitude": "29.949486944407788",
      "longitude": "-90.09173091251861"
    }
  },
  {
    "service_request": "2024-1074466",
    "request_type": "Trash/Recycling",
    "request_reason": "Repair Trash Cart",
    "date_created": "2024-03-11T15:31:09.000",
    "date_modified": "2024-03-11T15:31:10.000",
    "request_status": "Pending",
    "responsible_agency": "Department of Sanitation",
    "final_address": "2717 Joliet St",
    "address_councildis": "A",
    "status": "Assigned to Contractor",
    "contractor": "Richards Disposal",
    "rowid": "1074466",
    "final_x": "3664686.27725",
    "final_y": "533424.463876",
    "longitude": "-90.121098613214",
    "latitude": "29.96123213122417",
    "geocoded_column": {
      "latitude": "29.96123213122417",
      "longitude": "-90.121098613214"
    }
  },
  {
    "service_request": "2024-1074465",
    "request_type": "Traffic Signals/Signs/Striping/Streetlights",
    "request_reason": "Street Light Outage/Malfunction",
    "date_created": "2024-03-11T15:27:56.000",
    "date_modified": "2024-03-11T15:27:56.000",
    "request_status": "Pending",
    "responsible_agency": "Department of Public Works",
    "final_address": "3352 Erato St",
    "address_councildis": "B",
    "status": "Assigned to Contractor",
    "contractor": "Legacy Professional Services",
    "rowid": "1074465",
    "final_x": "3674233.27796",
    "final_y": "529312.985729",
    "longitude": "-90.09109160031389",
    "latitude": "29.949645760766074",
    "geocoded_column": {
      "latitude": "29.949645760766074",
      "longitude": "-90.09109160031389"
    }
  },
  {
    "service_request": "2024-1074464",
    "request_type": "Roads/Drainage",
    "request_reason": "Pothole",
    "date_created": "2024-03-11T15:26:18.000",
    "date_modified": "2024-03-11T15:26:18.000",
    "request_status": "Pending",
    "responsible_agency": "Department of Public Works",
    "final_address": "1301 Constantinople St",
    "address_councildis": "B",
    "status": "Pending",
    "rowid": "1074464",
    "final_x": "3672430.66305",
    "final_y": "520250.7726",
    "longitude": "-90.09709199725775",
    "latitude": "29.924781230435865",
    "geocoded_column": {
      "latitude": "29.924781230435865",
      "longitude": "-90.09709199725775"
    }
  },
  {
    "service_request": "2024-1074463",
    "request_type": "Roads/Drainage",
    "request_reason": "Damaged Sidewalk",
    "date_created": "2024-03-11T15:22:15.000",
    "date_modified": "2024-03-11T15:22:15.000",
    "request_status": "Pending",
    "responsible_agency": "Department of Public Works",
    "final_address": "239 18Th St",
    "address_councildis": "A",
    "status": "Pending",
    "rowid": "1074463",
    "final_x": "3665361.2736",
    "final_y": "548775.441427",
    "longitude": "-90.1184531216686",
    "latitude": "30.003422501256345",
    "geocoded_column": {
      "latitude": "30.003422501256345",
      "longitude": "-90.1184531216686"
    }
  },
  {
    "service_request": "2024-1074462",
    "request_type": "Traffic Signals/Signs/Striping/Streetlights",
    "request_reason": "Street Light Outage/Malfunction",
    "date_created": "2024-03-11T15:20:40.000",
    "date_modified": "2024-03-11T15:20:41.000",
    "request_status": "Pending",
    "responsible_agency": "Department of Public Works",
    "final_address": "1119 S Tonti St",
    "address_councildis": "B",
    "status": "Assigned to Contractor",
    "contractor": "Legacy Professional Services",
    "rowid": "1074462",
    "final_x": "3673504.82088",
    "final_y": "530333.237186",
    "longitude": "-90.0933568140344",
    "latitude": "29.952472810005663",
    "geocoded_column": {
      "latitude": "29.952472810005663",
      "longitude": "-90.0933568140344"
    }
  },
  {
    "service_request": "2024-1074461",
    "request_type": "Trash/Recycling",
    "request_reason": "Order Trash Cart",
    "date_created": "2024-03-11T15:18:50.000",
    "date_modified": "2024-03-11T15:18:50.000",
    "request_status": "Pending",
    "responsible_agency": "Department of Sanitation",
    "final_address": "114 N Murat St",
    "address_councildis": "A",
    "status": "Assigned to Contractor",
    "contractor": "Richards Disposal",
    "rowid": "1074461",
    "final_x": "3669874.57159",
    "final_y": "539557.454026",
    "longitude": "-90.10450716552214",
    "latitude": "29.977943852994095",
    "geocoded_column": {
      "latitude": "29.977943852994095",
      "longitude": "-90.10450716552214"
    }
  },
  {
    "service_request": "2024-1074460",
    "request_type": "Trash/Recycling",
    "request_reason": "Request a Large Item Pick Up",
    "date_created": "2024-03-11T15:16:53.000",
    "date_modified": "2024-03-11T15:16:54.000",
    "request_status": "Pending",
    "responsible_agency": "Department of Sanitation",
    "final_address": "7230 Cove Dr",
    "address_councildis": "E",
    "status": "Assigned to Contractor",
    "contractor": "Waste Pro",
    "rowid": "1074460",
    "final_x": "3700004.08714",
    "final_y": "559020.610972",
    "longitude": "-90.00863754536789",
    "latitude": "30.030537387819003",
    "geocoded_column": {
      "latitude": "30.030537387819003",
      "longitude": "-90.00863754536789"
    }
  },
  {
    "service_request": "2024-1074459",
    "request_type": "Trash/Recycling",
    "request_reason": "Request a Large Item Pick Up",
    "date_created": "2024-03-11T15:16:24.000",
    "date_modified": "2024-03-11T15:16:25.000",
    "request_status": "Pending",
    "responsible_agency": "Department of Sanitation",
    "final_address": "3716 S Johnson St",
    "address_councildis": "B",
    "status": "Assigned to Contractor",
    "contractor": "Richards Disposal",
    "rowid": "1074459",
    "final_x": "3671354.34868",
    "final_y": "527307.551487",
    "longitude": "-90.10024985277266",
    "latitude": "29.94421698020746",
    "geocoded_column": {
      "latitude": "29.94421698020746",
      "longitude": "-90.10024985277266"
    }
  },
  {
    "service_request": "2024-1074458",
    "request_type": "Roads/Drainage",
    "request_reason": "Road Shoulder Repair",
    "date_created": "2024-03-11T15:15:53.000",
    "date_modified": "2024-03-11T15:15:53.000",
    "request_status": "Pending",
    "responsible_agency": "Department of Public Works",
    "final_address": "1125 Bartholomew St",
    "address_councildis": "C",
    "status": "Pending",
    "rowid": "1074458",
    "final_x": "3691889.37148",
    "final_y": "535557.65639",
    "longitude": "-90.03512010694611",
    "latitude": "29.96627828958908",
    "geocoded_column": {
      "latitude": "29.96627828958908",
      "longitude": "-90.03512010694611"
    }
  },
  {
    "service_request": "2024-1074457",
    "request_type": "Trash/Recycling",
    "request_reason": "Request a Large Item Pick Up",
    "date_created": "2024-03-11T15:15:22.000",
    "date_modified": "2024-03-11T15:15:22.000",
    "request_status": "Pending",
    "responsible_agency": "Department of Sanitation",
    "final_address": "6923 Boston Dr",
    "address_councildis": "E",
    "status": "Assigned to Contractor",
    "contractor": "Waste Pro",
    "rowid": "1074457",
    "final_x": "3706641.84542",
    "final_y": "560306.154525",
    "longitude": "-89.98761459316827",
    "latitude": "30.033859455171235",
    "geocoded_column": {
      "latitude": "30.033859455171235",
      "longitude": "-89.98761459316827"
    }
  },
  {
    "service_request": "2024-1074456",
    "request_type": "Trash/Recycling",
    "request_reason": "Request a Large Item Pick Up",
    "date_created": "2024-03-11T15:14:52.000",
    "date_modified": "2024-03-11T15:14:53.000",
    "request_status": "Pending",
    "responsible_agency": "Department of Sanitation",
    "final_address": "6951 Boston Dr",
    "address_councildis": "E",
    "status": "Assigned to Contractor",
    "contractor": "Waste Pro",
    "rowid": "1074456",
    "final_x": "3706572.42782",
    "final_y": "560446.603294",
    "longitude": "-89.98782874760303",
    "latitude": "30.034247875518695",
    "geocoded_column": {
      "latitude": "30.034247875518695",
      "longitude": "-89.98782874760303"
    }
  },
  {
    "service_request": "2024-1074455",
    "request_type": "Trash/Recycling",
    "request_reason": "Request a Large Item Pick Up",
    "date_created": "2024-03-11T15:14:26.000",
    "date_modified": "2024-03-11T15:14:27.000",
    "request_status": "Pending",
    "responsible_agency": "Department of Sanitation",
    "final_address": "7061 Boston Dr",
    "address_councildis": "E",
    "status": "Assigned to Contractor",
    "contractor": "Waste Pro",
    "rowid": "1074455",
    "final_x": "3706406.14711",
    "final_y": "560856.285086",
    "longitude": "-89.98833901576947",
    "latitude": "30.0353797069109",
    "geocoded_column": {
      "latitude": "30.0353797069109",
      "longitude": "-89.98833901576947"
    }
  },
  {
    "service_request": "2024-1074453",
    "request_type": "Trash/Recycling",
    "request_reason": "Order Trash Cart",
    "date_created": "2024-03-11T15:10:16.000",
    "date_modified": "2024-03-11T15:10:17.000",
    "request_status": "Pending",
    "responsible_agency": "Department of Sanitation",
    "final_address": "7136 Warfield St",
    "address_councildis": "E",
    "status": "Assigned to Contractor",
    "contractor": "Waste Pro",
    "rowid": "1074453",
    "final_x": "3701528.19338",
    "final_y": "552984.962775",
    "longitude": "-90.00404264110402",
    "latitude": "30.013893134675996",
    "geocoded_column": {
      "latitude": "30.013893134675996",
      "longitude": "-90.00404264110402"
    }
  },
  {
    "service_request": "2024-1074452",
    "request_type": "Traffic Signals/Signs/Striping/Streetlights",
    "request_reason": "Street Light Outage/Malfunction",
    "date_created": "2024-03-11T15:09:36.000",
    "date_modified": "2024-03-11T15:09:37.000",
    "request_status": "Pending",
    "responsible_agency": "Department of Public Works",
    "final_address": "535 Bermuda St",
    "address_councildis": "C",
    "status": "Assigned to Contractor",
    "contractor": "Legacy Professional Services",
    "rowid": "1074452",
    "final_x": "3686864.30825",
    "final_y": "529929.905153",
    "longitude": "-90.05118798940084",
    "latitude": "29.95095950348544",
    "geocoded_column": {
      "latitude": "29.95095950348544",
      "longitude": "-90.05118798940084"
    }
  },
  {
    "service_request": "2024-1074451",
    "request_type": "Traffic Signals/Signs/Striping/Streetlights",
    "request_reason": "Street Light Outage/Malfunction",
    "date_created": "2024-03-11T15:08:34.000",
    "date_modified": "2024-03-11T15:08:35.000",
    "request_status": "Pending",
    "responsible_agency": "Department of Public Works",
    "final_address": "535 Bermuda St",
    "address_councildis": "C",
    "status": "Assigned to Contractor",
    "contractor": "Legacy Professional Services",
    "rowid": "1074451",
    "final_x": "3686864.30825",
    "final_y": "529929.905153",
    "longitude": "-90.05118798940084",
    "latitude": "29.95095950348544",
    "geocoded_column": {
      "latitude": "29.95095950348544",
      "longitude": "-90.05118798940084"
    }
  },
  {
    "service_request": "2024-1074450",
    "request_type": "Abandoned Vehicles",
    "request_reason": "Abandoned/Junk Vehicles",
    "date_created": "2024-03-11T15:08:06.000",
    "date_modified": "2024-03-11T15:08:07.000",
    "request_status": "Pending",
    "responsible_agency": "Department of Public Works",
    "final_address": "2534 St Philip St",
    "address_councildis": "D",
    "status": "Pending",
    "rowid": "1074450",
    "final_x": "3677892.6491",
    "final_y": "537246.082248",
    "longitude": "-90.07926315370223",
    "latitude": "29.971349501669078",
    "geocoded_column": {
      "latitude": "29.971349501669078",
      "longitude": "-90.07926315370223"
    }
  },
  {
    "service_request": "2024-1074449",
    "request_type": "Trash/Recycling",
    "request_reason": "Missed Trash Pick-Up",
    "date_created": "2024-03-11T15:03:11.000",
    "date_modified": "2024-03-11T15:03:12.000",
    "request_status": "Pending",
    "responsible_agency": "Department of Sanitation",
    "final_address": "2220 Josephine St, New Orleans, Louisiana, 70113",
    "address_councildis": "B",
    "status": "Assigned to Contractor",
    "contractor": "Richards Disposal",
    "rowid": "1074449",
    "final_x": "3676375.49064",
    "final_y": "525884.481789",
    "longitude": "-90.08444564362294",
    "latitude": "29.940154475869978",
    "geocoded_column": {
      "latitude": "29.940154475869978",
      "longitude": "-90.08444564362294"
    }
  },
  {
    "service_request": "2024-1074448",
    "request_type": "Tax and Revenue",
    "request_reason": "Occupational License Tax",
    "date_created": "2024-03-11T15:01:39.000",
    "date_modified": "2024-03-11T15:01:40.000",
    "request_status": "Pending",
    "responsible_agency": "Bureau of Revenue",
    "final_address": "530 Jackson Ave",
    "address_councildis": "B",
    "status": "Pending",
    "rowid": "1074448",
    "final_x": "3680037.52815",
    "final_y": "520447.27308",
    "longitude": "-90.07307283047324",
    "latitude": "29.925093684938528",
    "geocoded_column": {
      "latitude": "29.925093684938528",
      "longitude": "-90.07307283047324"
    }
  },
  {
    "service_request": "2024-1074447",
    "request_type": "Trash/Recycling",
    "request_reason": "Request a Large Item Pick Up",
    "date_created": "2024-03-11T15:00:42.000",
    "date_modified": "2024-03-11T15:00:42.000",
    "request_status": "Pending",
    "responsible_agency": "Department of Sanitation",
    "final_address": "1415 Hillary St",
    "address_councildis": "A",
    "status": "Assigned to Contractor",
    "contractor": "Richards Disposal",
    "rowid": "1074447",
    "final_x": "3663921.61011",
    "final_y": "527719.117631",
    "longitude": "-90.12370350125111",
    "latitude": "29.945566498990246",
    "geocoded_column": {
      "latitude": "29.945566498990246",
      "longitude": "-90.12370350125111"
    }
  },
  {
    "service_request": "2024-1074446",
    "request_type": "Trash/Recycling",
    "request_reason": "Missed Trash Pick-Up",
    "date_created": "2024-03-11T14:53:56.000",
    "date_modified": "2024-03-11T15:29:52.000",
    "case_close_date": "2024-03-11T10:29:52.000",
    "request_status": "Closed",
    "responsible_agency": "Department of Sanitation",
    "final_address": "9803 Irby St",
    "address_councildis": "E",
    "status": "Invalid Request",
    "contractor": "Waste Pro",
    "contractor_action": "Invalid Request",
    "rowid": "1074446",
    "final_x": "3707449.71204",
    "final_y": "565027.647074",
    "longitude": "-89.98488607255942",
    "latitude": "30.046815571995868",
    "geocoded_column": {
      "latitude": "30.046815571995868",
      "longitude": "-89.98488607255942"
    }
  },
  {
    "service_request": "2024-1074445",
    "request_type": "Traffic Signals/Signs/Striping/Streetlights",
    "request_reason": "Street Light Outage/Malfunction",
    "date_created": "2024-03-11T14:52:55.000",
    "date_modified": "2024-03-11T14:52:56.000",
    "request_status": "Pending",
    "responsible_agency": "Department of Public Works",
    "final_address": "3535 Mimosa Ct",
    "address_councildis": "C",
    "status": "Assigned to Contractor",
    "contractor": "Legacy Professional Services",
    "rowid": "1074445",
    "final_x": "3703428.56561",
    "final_y": "512963.322033",
    "longitude": "-89.99951040249738",
    "latitude": "29.903787259804012",
    "geocoded_column": {
      "latitude": "29.903787259804012",
      "longitude": "-89.99951040249738"
    }
  },
  {
    "service_request": "2024-1074444",
    "request_type": "Trash/Recycling",
    "request_reason": "Repair Trash Cart",
    "date_created": "2024-03-11T14:50:46.000",
    "date_modified": "2024-03-11T14:50:47.000",
    "request_status": "Pending",
    "responsible_agency": "Department of Sanitation",
    "final_address": "2406 Kerlerec St",
    "address_councildis": "D",
    "status": "Assigned to Contractor",
    "contractor": "IV Waste",
    "rowid": "1074444",
    "final_x": "3679180.93557",
    "final_y": "538649.662409",
    "longitude": "-90.07514588936534",
    "latitude": "29.97517003191912",
    "geocoded_column": {
      "latitude": "29.97517003191912",
      "longitude": "-90.07514588936534"
    }
  },
  {
    "service_request": "2024-1074443",
    "request_type": "Trash/Recycling",
    "request_reason": "Dead Animal Pick Up",
    "date_created": "2024-03-11T14:50:44.000",
    "date_modified": "2024-03-11T14:50:45.000",
    "request_status": "Pending",
    "responsible_agency": "Department of Sanitation",
    "final_address": "HOLLYGROVE ST & BELFAST ST",
    "address_councildis": "A",
    "status": "Assigned to Contractor",
    "contractor": "Richards Disposal",
    "rowid": "1074443",
    "final_x": "3663244.4",
    "final_y": "534502.18",
    "longitude": "-90.12561595541573",
    "latitude": "29.964237363500295",
    "geocoded_column": {
      "latitude": "29.964237363500295",
      "longitude": "-90.12561595541573"
    }
  },
  {
    "service_request": "2024-1074442",
    "request_type": "Roads/Drainage",
    "request_reason": "Man hole cover issue",
    "date_created": "2024-03-11T14:50:05.000",
    "date_modified": "2024-03-11T14:50:05.000",
    "request_status": "Pending",
    "responsible_agency": "Department of Public Works",
    "final_address": "150 Broadway St",
    "address_councildis": "A",
    "status": "Pending",
    "rowid": "1074442",
    "final_x": "3661002.06816",
    "final_y": "521908.841978",
    "longitude": "-90.13311365183544",
    "latitude": "29.929674499134514",
    "geocoded_column": {
      "latitude": "29.929674499134514",
      "longitude": "-90.13311365183544"
    }
  },
  {
    "service_request": "2024-1074441",
    "request_type": "Trash/Recycling",
    "request_reason": "Request a Large Item Pick Up",
    "date_created": "2024-03-11T14:48:31.000",
    "date_modified": "2024-03-11T14:48:31.000",
    "request_status": "Pending",
    "responsible_agency": "Department of Sanitation",
    "final_address": "3929 S Inwood Ave",
    "address_councildis": "C",
    "status": "Assigned to Contractor",
    "contractor": "Richards Disposal",
    "rowid": "1074441",
    "final_x": "3705100.84657",
    "final_y": "513626.571186",
    "longitude": "-89.99420825566544",
    "latitude": "29.90555733695047",
    "geocoded_column": {
      "latitude": "29.90555733695047",
      "longitude": "-89.99420825566544"
    }
  },
  {
    "service_request": "2024-1074440",
    "request_type": "Traffic Signals/Signs/Striping/Streetlights",
    "request_reason": "Traffic Signal Malfunctioning/Damaged",
    "date_created": "2024-03-11T14:48:04.000",
    "date_modified": "2024-03-11T14:48:04.000",
    "request_status": "Pending",
    "responsible_agency": "Department of Public Works",
    "final_address": "CANAL ST & CONVENTION CENTER BLVD",
    "address_councildis": "B",
    "status": "Pending",
    "rowid": "1074440",
    "final_x": "3682611.7",
    "final_y": "529527.28",
    "longitude": "-90.06462964670948",
    "latitude": "29.949982577545665",
    "geocoded_column": {
      "latitude": "29.949982577545665",
      "longitude": "-90.06462964670948"
    }
  },
  {
    "service_request": "2024-1074439",
    "request_type": "Abandoned Vehicles",
    "request_reason": "Abandoned/Junk Vehicles",
    "date_created": "2024-03-11T14:47:59.000",
    "date_modified": "2024-03-11T14:53:59.000",
    "request_status": "Pending",
    "responsible_agency": "Department of Public Works",
    "final_address": "MAGAZINE ST & VALENCE ST",
    "address_councildis": "B",
    "status": "Pending",
    "rowid": "1074439",
    "final_x": "3669957.9",
    "final_y": "518682.68",
    "longitude": "-90.10495077705349",
    "latitude": "29.920542599262586",
    "geocoded_column": {
      "latitude": "29.920542599262586",
      "longitude": "-90.10495077705349"
    }
  },
  {
    "service_request": "2024-1074438",
    "request_type": "Abandoned Vehicles",
    "request_reason": "Abandoned/Junk Vehicles",
    "date_created": "2024-03-11T14:44:57.000",
    "date_modified": "2024-03-11T14:44:57.000",
    "request_status": "Pending",
    "responsible_agency": "Department of Public Works",
    "final_address": "110 S Roadway St",
    "address_councildis": "A",
    "status": "Pending",
    "rowid": "1074438",
    "final_x": "3666645.73217",
    "final_y": "556565.94633",
    "longitude": "-90.11413342872636",
    "latitude": "30.024806148313857",
    "geocoded_column": {
      "latitude": "30.024806148313857",
      "longitude": "-90.11413342872636"
    }
  },