[
  {
    "service_request": "2025-1204642",
    "request_type": "Trash/Recycling",
    "request_reason": "Request a Large Item Pick Up",
    "date_created": "2025-06-26T23:27:55.000",
    "date_modified": "2025-06-26T23:27:57.000",
    "request_status": "Pending",
    "responsible_agency": "Department of Sanitation",
    "final_address": "4631 Rosemont Pl",
    "address_councildis": "E",
    "status": "Assigned to Contractor",
    "contractor": "Waste Pro",
    "rowid": "1204642",
    "final_x": "3702860.69278",
    "final_y": "554322.21692",
    "longitude": "-89.99978348366908",
    "latitude": "30.01752750061859",
    "geocoded_column": {
      "latitude": "30.01752750061859",
      "longitude": "-89.99978348366908"
    }
  },
  {
    "service_request": "2025-1204641",
    "request_type": "General Services",
    "request_reason": "General Service Request",
    "date_created": "2025-06-26T23:21:00.000",
    "date_modified": "2025-06-26T23:21:02.000",
    "request_status": "Pending",
    "responsible_agency": "Orleans Parish Communication District",
    "final_address": "4929 Papania Dr",
    "address_councildis": "E",
    "status": "Pending",
    "rowid": "1204641",
    "final_x": "3715546.58892",
    "final_y": "557668.094043",
    "longitude": "-89.959574794081",
    "latitude": "30.026315279434666",
    "geocoded_column": {
      "latitude": "30.026315279434666",
      "longitude": "-89.959574794081"
    }
  },
  {
    "service_request": "2025-1204640",
    "request_type": "Street and Traffic Signs",
    "request_reason": "Traffic or Parking Sign Damaged or Missing",
    "date_created": "2025-06-26T23:06:48.000",
    "date_modified": "2025-06-26T23:06:50.000",
    "request_status": "Pending",
    "responsible_agency": "Department of Public Works",
    "final_address": "200 S Murat St",
    "address_councildis": "A",
    "status": "Pending",
    "rowid": "1204640",
    "final_x": "3669453.39367",
    "final_y": "539006.379402",
    "longitude": "-90.10585604175023",
    "latitude": "29.976440996812592",
    "geocoded_column": {
      "latitude": "29.976440996812592",
      "longitude": "-90.10585604175023"
    }
  },
  {
    "service_request": "2025-1204639",
    "request_type": "Trash/Recycling",
    "request_reason": "Request a Large Item Pick Up",
    "date_created": "2025-06-26T22:54:44.000",
    "date_modified": "2025-06-26T22:54:53.000",
    "request_status": "Pending",
    "responsible_agency": "Department of Sanitation",
    "final_address": "2614 Magnolia St",
    "address_councildis": "B",
    "status": "Assigned to Contractor",
    "contractor": "IV Waste",
    "rowid": "1204639",
    "final_x": "3674179.60468",
    "final_y": "526062.194686",
    "longitude": "-90.09137232414128",
    "latitude": "29.940708755145405",
    "geocoded_column": {
      "latitude": "29.940708755145405",
      "longitude": "-90.09137232414128"
    }
  },
  {
    "service_request": "2025-1204638",
    "request_type": "Property Maintenance",
    "request_reason": "Property Maintenance",
    "date_created": "2025-06-26T22:48:50.000",
    "date_modified": "2025-06-26T22:48:52.000",
    "request_status": "Pending",
    "responsible_agency": "Department of Code Enforcement",
    "final_address": "1301 Chimney Wood Ln",
    "address_councildis": "E",
    "status": "Pending",
    "rowid": "1204638",
    "final_x": "3696012.7041",
    "final_y": "557822.968987",
    "longitude": "-90.0212936494955",
    "latitude": "30.027370604548967",
    "geocoded_column": {
      "latitude": "30.027370604548967",
      "longitude": "-90.0212936494955"
    }
  },
  {
    "service_request": "2025-1204637",
    "request_type": "Trash/Recycling",
    "request_reason": "Illegal Dumping",
    "date_created": "2025-06-26T22:45:11.000",
    "date_modified": "2025-06-26T22:45:13.000",
    "request_status": "Pending",
    "responsible_agency": "Department of Sanitation",
    "final_address": "6201 Morrison Rd",
    "address_councildis": "E",
    "status": "Pending",
    "rowid": "1204637",
    "final_x": "3695874.30947",
    "final_y": "558344.568988",
    "longitude": "-90.02171209588072",
    "latitude": "30.02880916218235",
    "geocoded_column": {
      "latitude": "30.02880916218235",
      "longitude": "-90.02171209588072"
    }
  },
  {
    "service_request": "2025-1204636",
    "request_type": "General Services",
    "request_reason": "General Service Request",
    "date_created": "2025-06-26T22:38:06.000",
    "date_modified": "2025-06-26T22:38:09.000",
    "request_status": "Pending",
    "responsible_agency": "Orleans Parish Communication District",
    "final_address": "4931 Dreux Ave",
    "address_councildis": "D",
    "status": "Pending",
    "rowid": "1204636",
    "final_x": "3691561.66268",
    "final_y": "553345.354967",
    "longitude": "-90.03551876664223",
    "latitude": "30.015198231424765",
    "geocoded_column": {
      "latitude": "30.015198231424765",
      "longitude": "-90.03551876664223"
    }
  },
  {
    "service_request": "2025-1204635",
    "request_type": "Abandoned Vehicles",
    "request_reason": "Abandoned/Junk Vehicles",
    "date_created": "2025-06-26T22:31:00.000",
    "date_modified": "2025-06-26T22:31:02.000",
    "request_status": "Pending",
    "responsible_agency": "Department of Public Works",
    "final_address": "4931 Dreux Ave",
    "address_councildis": "D",
    "status": "Pending",
    "rowid": "1204635",
    "final_x": "3691561.66268",
    "final_y": "553345.354967",
    "longitude": "-90.03551876664223",
    "latitude": "30.015198231424765",
    "geocoded_column": {
      "latitude": "30.015198231424765",
      "longitude": "-90.03551876664223"
    }
  },
  {
    "service_request": "2025-1204634",
    "request_type": "Trash/Recycling",
    "request_reason": "Request a Large Item Pick Up",
    "date_created": "2025-06-26T22:04:58.000",
    "date_modified": "2025-06-26T22:05:00.000",
    "request_status": "Pending",
    "responsible_agency": "Department of Sanitation",
    "final_address": "4754 Tulip St, New Orleans, Louisiana, 70126",
    "address_councildis": "E",
    "status": "Assigned to Contractor",
    "contractor": "Waste Pro",
    "rowid": "1204634",
    "final_x": "3701997.62935",
    "final_y": "554348.247448",
    "longitude": "-90.00250944763184",
    "latitude": "30.017626665021382",
    "geocoded_column": {
      "latitude": "30.017626665021382",
      "longitude": "-90.00250944763184"
    }
  },
  {
    "service_request": "2025-1204633",
    "request_type": "Trash/Recycling",
    "request_reason": "Dead Animal Pick Up",
    "date_created": "2025-06-26T21:56:52.000",
    "date_modified": "2025-06-26T21:56:54.000",
    "request_status": "Pending",
    "responsible_agency": "Department of Sanitation",
    "final_address": "2900 Josephine St",
    "address_councildis": "B",
    "status": "Assigned to Contractor",
    "contractor": "IV Waste",
    "rowid": "1204633",
    "final_x": "3675047.37198",
    "final_y": "527601.643775",
    "longitude": "-90.088579831354",
    "latitude": "29.944915842917307",
    "geocoded_column": {
      "latitude": "29.944915842917307",
      "longitude": "-90.088579831354"
    }
  },
  {
    "service_request": "2025-1204632",
    "request_type": "Streetlights",
    "request_reason": "Streetlight Outage/Malfunction",
    "date_created": "2025-06-26T21:45:33.000",
    "date_modified": "2025-06-26T21:45:34.000",
    "request_status": "Pending",
    "responsible_agency": "Department of Public Works",
    "final_address": "2609 Baronne St",
    "address_councildis": "B",
    "status": "Pending",
    "contractor": "Legacy Professional Services",
    "rowid": "1204632",
    "final_x": "3675936.40603",
    "final_y": "523471.081531",
    "longitude": "-90.08591485239916",
    "latitude": "29.933531567306126",
    "geocoded_column": {
      "latitude": "29.933531567306126",
      "longitude": "-90.08591485239916"
    }
  },
  {
    "service_request": "2025-1204631",
    "request_type": "Trash/Recycling",
    "request_reason": "Request a Large Item Pick Up",
    "date_created": "2025-06-26T21:45:27.000",
    "date_modified": "2025-06-26T21:45:30.000",
    "request_status": "Pending",
    "responsible_agency": "Department of Sanitation",
    "final_address": "4524 Rosemont Pl",
    "address_councildis": "E",
    "status": "Assigned to Contractor",
    "contractor": "Waste Pro",
    "rowid": "1204631",
    "final_x": "3702746.81994",
    "final_y": "553713.533783",
    "longitude": "-90.00016565014923",
    "latitude": "30.015857498261596",
    "geocoded_column": {
      "latitude": "30.015857498261596",
      "longitude": "-90.00016565014923"
    }
  },
  {
    "service_request": "2025-1204630",
    "request_type": "Trash/Recycling",
    "request_reason": "Request a Large Item Pick Up",
    "date_created": "2025-06-26T21:40:35.000",
    "date_modified": "2025-06-26T21:40:37.000",
    "request_status": "Pending",
    "responsible_agency": "Department of Sanitation",
    "final_address": "3033 Ponce De Leon St",
    "address_councildis": "A",
    "status": "Assigned to Contractor",
    "contractor": "IV Waste",
    "rowid": "1204630",
    "final_x": "3676870.74677",
    "final_y": "540558.782731",
    "longitude": "-90.0823762508517",
    "latitude": "29.98048900424252",
    "geocoded_column": {
      "latitude": "29.98048900424252",
      "longitude": "-90.0823762508517"
    }
  },
  {
    "service_request": "2025-1204629",
    "request_type": "Trash/Recycling",
    "request_reason": "Dead Animal Pick Up",
    "date_created": "2025-06-26T21:37:46.000",
    "date_modified": "2025-06-26T21:37:48.000",
    "request_status": "Pending",
    "responsible_agency": "Department of Sanitation",
    "final_address": "3033 Ponce De Leon St",
    "address_councildis": "A",
    "status": "Assigned to Contractor",
    "contractor": "IV Waste",
    "rowid": "1204629",
    "final_x": "3676870.74677",
    "final_y": "540558.782731",
    "longitude": "-90.0823762508517",
    "latitude": "29.98048900424252",
    "geocoded_column": {
      "latitude": "29.98048900424252",
      "longitude": "-90.0823762508517"
    }
  },
  {
    "service_request": "2025-1204628",
    "request_type": "General Services",
    "request_reason": "General Service Request",
    "date_created": "2025-06-26T21:18:46.000",
    "date_modified": "2025-06-26T21:18:48.000",
    "request_status": "Pending",
    "responsible_agency": "Orleans Parish Communication District",
    "final_address": "8600 BLK Hickory St",
    "address_councildis": "A",
    "status": "Pending",
    "rowid": "1204628",
    "final_x": "3661934.58948",
    "final_y": "531247.71157",
    "longitude": "-90.12986019169423",
    "latitude": "29.95532652752826",
    "geocoded_column": {
      "latitude": "29.95532652752826",
      "longitude": "-90.12986019169423"
    }
  },
  {
    "service_request": "2025-1204627",
    "request_type": "Parks & Parkways",
    "request_reason": "Request Tree Service (Right of Way/Public Property)",
    "date_created": "2025-06-26T20:59:52.000",
    "date_modified": "2025-06-26T20:59:54.000",
    "request_status": "Pending",
    "responsible_agency": "Department of Parks & Parkway",
    "final_address": "1576 De Battista Pl",
    "address_councildis": "C",
    "status": "Pending",
    "rowid": "1204627",
    "final_x": "3699804.9898",
    "final_y": "525174.580861",
    "longitude": "-90.01050143544035",
    "latitude": "29.9374795313296",
    "geocoded_column": {
      "latitude": "29.9374795313296",
      "longitude": "-90.01050143544035"
    }
  },
  {
    "service_request": "2025-1204626",
    "request_type": "Property Maintenance",
    "request_reason": "Property Maintenance",
    "date_created": "2025-06-26T20:33:26.000",
    "date_modified": "2025-06-26T20:33:28.000",
    "request_status": "Pending",
    "responsible_agency": "Department of Code Enforcement",
    "final_address": "10301 Deer Park Blvd",
    "address_councildis": "E",
    "status": "Pending",
    "rowid": "1204626",
    "final_x": "3712446.67698",
    "final_y": "560927.977246",
    "longitude": "-89.96924742028142",
    "latitude": "30.03538048884351",
    "geocoded_column": {
      "latitude": "30.03538048884351",
      "longitude": "-89.96924742028142"
    }
  },
  {
    "service_request": "2025-1204625",
    "request_type": "Property Maintenance",
    "request_reason": "Property Maintenance",
    "date_created": "2025-06-26T20:20:30.000",
    "date_modified": "2025-06-26T20:20:32.000",
    "request_status": "Pending",
    "responsible_agency": "Department of Code Enforcement",
    "final_address": "7310 Voyageur Dr",
    "address_councildis": "E",
    "status": "Pending",
    "rowid": "1204625",
    "final_x": "3726295.22925",
    "final_y": "569161.087782",
    "longitude": "-89.92516456422425",
    "latitude": "30.05755752907608",
    "geocoded_column": {
      "latitude": "30.05755752907608",
      "longitude": "-89.92516456422425"
    }
  },
  {
    "service_request": "2025-1204624",
    "request_type": "Trash/Recycling",
    "request_reason": "Request a Large Item Pick Up",
    "date_created": "2025-06-26T20:17:50.000",
    "date_modified": "2025-06-26T20:17:52.000",
    "request_status": "Pending",
    "responsible_agency": "Department of Sanitation",
    "final_address": "2331 Terpsichore St",
    "address_councildis": "B",
    "status": "Assigned to Contractor",
    "contractor": "IV Waste",
    "rowid": "1204624",
    "final_x": "3676297.80705",
    "final_y": "527084.981374",
    "longitude": "-90.08464959949258",
    "latitude": "29.94345778196578",
    "geocoded_column": {
      "latitude": "29.94345778196578",
      "longitude": "-90.08464959949258"
    }
  },
  {
    "service_request": "2025-1204623",
    "request_type": "Roads and Streets",
    "request_reason": "Abandoned Service Cut",
    "date_created": "2025-06-26T20:02:35.000",
    "date_modified": "2025-06-26T20:02:37.000",
    "request_status": "Pending",
    "responsible_agency": "Department of Public Works",
    "final_address": "215 Delaronde St",
    "address_councildis": "C",
    "status": "Pending",
    "rowid": "1204623",
    "final_x": "3686108.775",
    "final_y": "530618.544258",
    "longitude": "-90.05354929238555",
    "latitude": "29.952876250044746",
    "geocoded_column": {
      "latitude": "29.952876250044746",
      "longitude": "-90.05354929238555"
    }
  },
  {
    "service_request": "2025-1204622",
    "request_type": "Mosquito, Termite & Rodent Control",
    "request_reason": "Mosquito Complaint",
    "date_created": "2025-06-26T19:59:32.000",
    "date_modified": "2025-06-26T19:59:34.000",
    "request_status": "Pending",
    "responsible_agency": "Mosquito, Termite & Rodent Control Board",
    "final_address": "13105 Bishop Cl Morton, Sr. Dr",
    "address_councildis": "E",
    "status": "Pending",
    "rowid": "1204622",
    "final_x": "3716630.8398",
    "final_y": "570010.961574",
    "longitude": "-89.95567980718712",
    "latitude": "30.060217357479402",
    "geocoded_column": {
      "latitude": "30.060217357479402",
      "longitude": "-89.95567980718712"
    }
  },
  {
    "service_request": "2025-1204621",
    "request_type": "Trash/Recycling",
    "request_reason": "Request a Large Item Pick Up",
    "date_created": "2025-06-26T19:54:25.000",
    "date_modified": "2025-06-26T19:54:28.000",
    "request_status": "Pending",
    "responsible_agency": "Department of Sanitation",
    "final_address": "7411 Springlake Dr.",
    "status": "Assigned to Contractor",
    "rowid": "1204621",
    "longitude": "0.0",
    "latitude": "0.0",
    "geocoded_column": {
      "latitude": "0.0",
      "longitude": "0.0"
    }
  },
  {
    "service_request": "2025-1204620",
    "request_type": "Roads and Streets",
    "request_reason": "Street Subsidence (Sinking)",
    "date_created": "2025-06-26T19:43:41.000",
    "date_modified": "2025-06-26T19:43:44.000",
    "request_status": "Pending",
    "responsible_agency": "Department of Public Works",
    "final_address": "9999 Lake Forest Blvd",
    "address_councildis": "E",
    "status": "Pending",
    "rowid": "1204620",
    "final_x": "3710976.71409",
    "final_y": "560035.412509",
    "longitude": "-89.97392616951281",
    "latitude": "30.032974325442808",
    "geocoded_column": {
      "latitude": "30.032974325442808",
      "longitude": "-89.97392616951281"
    }
  },
  {
    "service_request": "2025-1204619",
    "request_type": "Parks & Parkways",
    "request_reason": "Request Tree Service (Right of Way/Public Property)",
    "date_created": "2025-06-26T19:32:03.000",
    "date_modified": "2025-06-26T19:32:05.000",
    "request_status": "Pending",
    "responsible_agency": "Department of Parks & Parkway",
    "final_address": "9999 Lake Forest Blvd",
    "address_councildis": "E",
    "status": "Pending",
    "rowid": "1204619",
    "final_x": "3710976.71409",
    "final_y": "560035.412509",
    "longitude": "-89.97392616951281",
    "latitude": "30.032974325442808",
    "geocoded_column": {
      "latitude": "30.032974325442808",
      "longitude": "-89.97392616951281"
    }
  },
  {
    "service_request": "2025-1204618",
    "request_type": "General Services",
    "request_reason": "General Service Request",
    "date_created": "2025-06-26T19:26:14.000",
    "date_modified": "2025-06-26T19:26:16.000",
    "request_status": "Pending",
    "responsible_agency": "Orleans Parish Communication District",
    "final_address": "13140 Bishop Cl Morton, Sr. Dr",
    "address_councildis": "E",
    "status": "Pending",
    "rowid": "1204618",
    "final_x": "3717285.77906",
    "final_y": "569713.448934",
    "longitude": "-89.95362092110288",
    "latitude": "30.05937765343354",
    "geocoded_column": {
      "latitude": "30.05937765343354",
      "longitude": "-89.95362092110288"
    }
  },
  {
    "service_request": "2025-1204617",
    "request_type": "Trash/Recycling",
    "request_reason": "Order Trash Cart",
    "date_created": "2025-06-26T19:13:31.000",
    "date_modified": "2025-06-26T19:13:33.000",
    "request_status": "Pending",
    "responsible_agency": "Department of Sanitation",
    "final_address": "5445 Grand Bayou Dr",
    "address_councildis": "E",
    "status": "Assigned to Contractor",
    "contractor": "Waste Pro",
    "rowid": "1204617",
    "final_x": "3725782.70931",
    "final_y": "563918.063905",
    "longitude": "-89.9269879519494",
    "latitude": "30.043158715755137",
    "geocoded_column": {
      "latitude": "30.043158715755137",
      "longitude": "-89.9269879519494"
    }
  },
  {
    "service_request": "2025-1204616",
    "request_type": "Streetlights",
    "request_reason": "Streetlight Outage/Malfunction",
    "date_created": "2025-06-26T19:07:36.000",
    "date_modified": "2025-06-26T19:07:38.000",
    "request_status": "Pending",
    "responsible_agency": "Department of Public Works",
    "final_address": "2406 Magic St",
    "address_councildis": "D",
    "status": "Pending",
    "contractor": "Legacy Professional Services",
    "rowid": "1204616",
    "final_x": "3677546.91957",
    "final_y": "535984.170823",
    "longitude": "-90.08039859482373",
    "latitude": "29.967890075692477",
    "geocoded_column": {
      "latitude": "29.967890075692477",
      "longitude": "-90.08039859482373"
    }
  },
  {
    "service_request": "2025-1204615",
    "request_type": "Trash/Recycling",
    "request_reason": "Replace Trash Cart",
    "date_created": "2025-06-26T18:59:52.000",
    "date_modified": "2025-06-26T18:59:54.000",
    "request_status": "Pending",
    "responsible_agency": "Department of Sanitation",
    "final_address": "230 28Th St",
    "address_councildis": "A",
    "status": "Assigned to Contractor",
    "contractor": "IV Waste",
    "rowid": "1204615",
    "final_x": "3665571.68903",
    "final_y": "550166.90306",
    "longitude": "-90.11774174915442",
    "latitude": "30.007242403132036",
    "geocoded_column": {
      "latitude": "30.007242403132036",
      "longitude": "-90.11774174915442"
    }
  },
  {
    "service_request": "2025-1204614",
    "request_type": "Trash/Recycling",
    "request_reason": "Request a Large Item Pick Up",
    "date_created": "2025-06-26T18:55:51.000",
    "date_modified": "2025-06-26T18:55:53.000",
    "request_status": "Pending",
    "responsible_agency": "Department of Sanitation",
    "final_address": "2716 Dryades St, New Orleans, Louisiana, 70113",
    "address_councildis": "B",
    "status": "Assigned to Contractor",
    "contractor": "IV Waste",
    "rowid": "1204614",
    "final_x": "3675482.17102",
    "final_y": "523505.727931",
    "longitude": "-90.08734765962657",
    "latitude": "29.933640423000274",
    "geocoded_column": {
      "latitude": "29.933640423000274",
      "longitude": "-90.08734765962657"
    }
  },
  {
    "service_request": "2025-1204613",
    "request_type": "Property Maintenance",
    "request_reason": "Property Maintenance",
    "date_created": "2025-06-26T18:52:09.000",
    "date_modified": "2025-06-26T18:52:11.000",
    "request_status": "Pending",
    "responsible_agency": "Department of Code Enforcement",
    "final_address": "10500 Dwyer Rd",
    "address_councildis": "E",
    "status": "Pending",
    "rowid": "1204613",
    "final_x": "3714427.50757",
    "final_y": "558207.856923",
    "longitude": "-89.9630905239992",
    "latitude": "30.02783625642891",
    "geocoded_column": {
      "latitude": "30.02783625642891",
      "longitude": "-89.9630905239992"
    }
  },
  {
    "service_request": "2025-1204612",
    "request_type": "Abandoned Vehicles",
    "request_reason": "Abandoned/Junk Vehicles",
    "date_created": "2025-06-26T18:46:39.000",
    "date_modified": "2025-06-26T18:46:40.000",
    "request_status": "Pending",
    "responsible_agency": "Department of Public Works",
    "final_address": "2024 Lamarque St",
    "address_councildis": "C",
    "status": "Pending",
    "rowid": "1204612",
    "final_x": "3691565.84124",
    "final_y": "526693.578366",
    "longitude": "-90.03645862827743",
    "latitude": "29.941915226696537",
    "geocoded_column": {
      "latitude": "29.941915226696537",
      "longitude": "-90.03645862827743"
    }
  },
  {
    "service_request": "2025-1204611",
    "request_type": "Trash/Recycling",
    "request_reason": "Request a Large Item Pick Up",
    "date_created": "2025-06-26T18:45:47.000",
    "date_modified": "2025-06-26T18:45:49.000",
    "request_status": "Pending",
    "responsible_agency": "Department of Sanitation",
    "final_address": "1403 Joseph St",
    "address_councildis": "A",
    "status": "Assigned to Contractor",
    "contractor": "IV Waste",
    "rowid": "1204611",
    "final_x": "3666611.40666",
    "final_y": "521018.878457",
    "longitude": "-90.11543575732887",
    "latitude": "29.92706463102985",
    "geocoded_column": {
      "latitude": "29.92706463102985",
      "longitude": "-90.11543575732887"
    }
  },
  {
    "service_request": "2025-1204610",
    "request_type": "Street and Traffic Signs",
    "request_reason": "Stop Sign Missing or Damaged",
    "date_created": "2025-06-26T18:45:02.000",
    "date_modified": "2025-06-26T18:45:04.000",
    "request_status": "Pending",
    "responsible_agency": "Department of Public Works",
    "final_address": "901 Foucher St Unit 1",
    "address_councildis": "B",
    "status": "Pending",
    "rowid": "1204610",
    "final_x": "3674490.33659",
    "final_y": "518737.330167",
    "longitude": "-90.09064209415699",
    "latitude": "29.92055848658641",
    "geocoded_column": {
      "latitude": "29.92055848658641",
      "longitude": "-90.09064209415699"
    }
  },
  {
    "service_request": "2025-1204609",
    "request_type": "Trash/Recycling",
    "request_reason": "Missed Trash Pick-Up",
    "date_created": "2025-06-26T18:43:23.000",
    "date_modified": "2025-06-26T18:43:26.000",
    "request_status": "Pending",
    "responsible_agency": "Department of Sanitation",
    "final_address": "5445 Grand Bayou Dr",
    "address_councildis": "E",
    "status": "Assigned to Contractor",
    "contractor": "Waste Pro",
    "rowid": "1204609",
    "final_x": "3725782.70931",
    "final_y": "563918.063905",
    "longitude": "-89.9269879519494",
    "latitude": "30.043158715755137",
    "geocoded_column": {
      "latitude": "30.043158715755137",
      "longitude": "-89.9269879519494"
    }
  },
  {
    "service_request": "2025-1204608",
    "request_type": "Mosquito, Termite & Rodent Control",
    "request_reason": "Mosquito Complaint",
    "date_created": "2025-06-26T18:32:42.000",
    "date_modified": "2025-06-26T18:32:44.000",
    "request_status": "Pending",
    "responsible_agency": "Mosquito, Termite & Rodent Control Board",
    "final_address": "14211 Chef Menteur Hwy Lot",
    "address_councildis": "E",
    "status": "Pending",
    "rowid": "1204608",
    "final_x": "3729621.10182",
    "final_y": "561558.280863",
    "longitude": "-89.91494954878655",
    "latitude": "30.03654020261933",
    "geocoded_column": {
      "latitude": "30.03654020261933",
      "longitude": "-89.91494954878655"
    }
  },
  {
    "service_request": "2025-1204607",
    "request_type": "Trash/Recycling",
    "request_reason": "Order Recycling Cart",
    "date_created": "2025-06-26T18:18:52.000",
    "date_modified": "2025-06-26T18:18:54.000",
    "request_status": "Pending",
    "responsible_agency": "Department of Sanitation",
    "final_address": "5322 Warrington Dr",
    "address_councildis": "D",
    "status": "Pending",
    "rowid": "1204607",
    "final_x": "3680812.98671",
    "final_y": "552558.461014",
    "longitude": "-90.06950693803246",
    "latitude": "30.013364927150477",
    "geocoded_column": {
      "latitude": "30.013364927150477",
      "longitude": "-90.06950693803246"
    }
  },
  {
    "service_request": "2025-1204606",
    "request_type": "Trash/Recycling",
    "request_reason": "Request a Large Item Pick Up",
    "date_created": "2025-06-26T18:08:22.000",
    "date_modified": "2025-06-26T18:08:24.000",
    "request_status": "Pending",
    "responsible_agency": "Department of Sanitation",
    "final_address": "6910 Deanne St",
    "address_councildis": "D",
    "status": "Assigned to Contractor",
    "contractor": "Waste Pro",
    "rowid": "1204606",
    "final_x": "3695664.98083",
    "final_y": "556086.41737",
    "longitude": "-90.022455197162",
    "latitude": "30.022606690504517",
    "geocoded_column": {
      "latitude": "30.022606690504517",
      "longitude": "-90.022455197162"
    }
  },
  {
    "service_request": "2025-1204605",
    "request_type": "Trash/Recycling",
    "request_reason": "Missed Trash Pick-Up",
    "date_created": "2025-06-26T18:02:45.000",
    "date_modified": "2025-06-26T18:02:46.000",
    "request_status": "Pending",
    "responsible_agency": "Department of Sanitation",
    "final_address": "1351 Annette St",
    "address_councildis": "C",
    "status": "Assigned to Contractor",
    "contractor": "IV Waste",
    "rowid": "1204605",
    "final_x": "3683119.88412",
    "final_y": "536971.951816",
    "longitude": "-90.06276442465216",
    "latitude": "29.970437395533175",
    "geocoded_column": {
      "latitude": "29.970437395533175",
      "longitude": "-90.06276442465216"
    }
  },
  {
    "service_request": "2025-1204604",
    "request_type": "Safety & Permits",
    "request_reason": "Zoning Enforcement",
    "date_created": "2025-06-26T17:47:47.000",
    "date_modified": "2025-06-26T17:47:50.000",
    "request_status": "Pending",
    "responsible_agency": "Safety and Permits",
    "final_address": "921 Lamanche St",
    "address_councildis": "E",
    "status": "Pending",
    "rowid": "1204604",
    "final_x": "3698242.4097",
    "final_y": "533048.741572",
    "longitude": "-90.01514859821603",
    "latitude": "29.95918022183002",
    "geocoded_column": {
      "latitude": "29.95918022183002",
      "longitude": "-90.01514859821603"
    }
  },
  {
    "service_request": "2025-1204603",
    "request_type": "Safety & Permits",
    "request_reason": "Construction permit",
    "date_created": "2025-06-26T17:42:54.000",
    "date_modified": "2025-06-26T17:42:56.000",
    "request_status": "Pending",
    "responsible_agency": "Safety and Permits",
    "final_address": "921 Lamanche St",
    "address_councildis": "E",
    "status": "Pending",
    "rowid": "1204603",
    "final_x": "3698242.4097",
    "final_y": "533048.741572",
    "longitude": "-90.01514859821603",
    "latitude": "29.95918022183002",
    "geocoded_column": {
      "latitude": "29.95918022183002",
      "longitude": "-90.01514859821603"
    }
  },
  {
    "service_request": "2025-1204602",
    "request_type": "Mosquito, Termite & Rodent Control",
    "request_reason": "Rodent Complaint (Mice & Rats)",
    "date_created": "2025-06-26T17:40:01.000",
    "date_modified": "2025-06-26T17:40:03.000",
    "request_status": "Pending",
    "responsible_agency": "Mosquito, Termite & Rodent Control Board",
    "final_address": "214 S Genois St",
    "address_councildis": "B",
    "status": "Pending",
    "rowid": "1204602",
    "final_x": "3672280.18471",
    "final_y": "536693.426759",
    "longitude": "-90.09700697993073",
    "latitude": "29.969997592034613",
    "geocoded_column": {
      "latitude": "29.969997592034613",
      "longitude": "-90.09700697993073"
    }
  },
  {
    "service_request": "2025-1204601",
    "request_type": "Trash/Recycling",
    "request_reason": "Order Recycling Cart",
    "date_created": "2025-06-26T17:34:29.000",
    "date_modified": "2025-06-26T17:34:30.000",
    "request_status": "Pending",
    "responsible_agency": "Department of Sanitation",
    "final_address": "1228 St Andrew St",
    "address_councildis": "B",
    "status": "Pending",
    "rowid": "1204601",
    "final_x": "3679099.75727",
    "final_y": "523030.380731",
    "longitude": "-90.075943593002",
    "latitude": "29.93222471323776",
    "geocoded_column": {
      "latitude": "29.93222471323776",
      "longitude": "-90.075943593002"
    }
  },
  {
    "service_request": "2025-1204600",
    "request_type": "Abandoned Vehicles",
    "request_reason": "Abandoned/Junk Vehicles",
    "date_created": "2025-06-26T17:33:03.000",
    "date_modified": "2025-06-26T17:33:04.000",
    "request_status": "Pending",
    "responsible_agency": "Department of Public Works",
    "final_address": "1733 Robert St",
    "address_councildis": "B",
    "status": "Pending",
    "rowid": "1204600",
    "final_x": "3668849.26471",
    "final_y": "522094.295418",
    "longitude": "-90.10833510482976",
    "latitude": "29.929956091874406",
    "geocoded_column": {
      "latitude": "29.929956091874406",
      "longitude": "-90.10833510482976"
    }
  },
  {
    "service_request": "2025-1204599",
    "request_type": "Roads and Streets",
    "request_reason": "ADA Ramps Damaged or Missing",
    "date_created": "2025-06-26T17:30:54.000",
    "date_modified": "2025-06-26T17:30:56.000",
    "request_status": "Pending",
    "responsible_agency": "Department of Public Works",
    "final_address": "8200 Sycamore St",
    "address_councildis": "A",
    "status": "Pending",
    "rowid": "1204599",
    "final_x": "3664000.25005",
    "final_y": "531219.565058",
    "longitude": "-90.12333849959812",
    "latitude": "29.955189316477167",
    "geocoded_column": {
      "latitude": "29.955189316477167",
      "longitude": "-90.12333849959812"
    }
  },
  {
    "service_request": "2025-1204598",
    "request_type": "Abandoned Vehicles",
    "request_reason": "Abandoned/Junk Vehicles",
    "date_created": "2025-06-26T17:09:57.000",
    "date_modified": "2025-06-26T17:10:00.000",
    "request_status": "Pending",
    "responsible_agency": "Department of Public Works",
    "final_address": "1668 Abundance St",
    "address_councildis": "D",
    "status": "Pending",
    "rowid": "1204598",
    "final_x": "3680486.16207",
    "final_y": "543315.763982",
    "longitude": "-90.07086127523496",
    "latitude": "29.987960712432166",
    "geocoded_column": {
      "latitude": "29.987960712432166",
      "longitude": "-90.07086127523496"
    }
  },
  {
    "service_request": "2025-1204597",
    "request_type": "Abandoned Vehicles",
    "request_reason": "Abandoned/Junk Vehicles",
    "date_created": "2025-06-26T16:54:39.000",
    "date_modified": "2025-06-26T16:54:41.000",
    "request_status": "Pending",
    "responsible_agency": "Department of Public Works",
    "final_address": "515 Bellecastle St",
    "address_councildis": "B",
    "status": "Pending",
    "rowid": "1204597",
    "final_x": "3667692.00282",
    "final_y": "517345.687349",
    "longitude": "-90.11214816159318",
    "latitude": "29.916932888236524",
    "geocoded_column": {
      "latitude": "29.916932888236524",
      "longitude": "-90.11214816159318"
    }
  },
  {
    "service_request": "2025-1204596",
    "request_type": "Abandoned Vehicles",
    "request_reason": "Abandoned/Junk Vehicles",
    "date_created": "2025-06-26T16:53:31.000",
    "date_modified": "2025-06-26T16:53:32.000",
    "request_status": "Pending",
    "responsible_agency": "Department of Public Works",
    "final_address": "2721 Decatur St",
    "address_councildis": "C",
    "status": "Pending",
    "rowid": "1204596",
    "final_x": "3687077.93769",
    "final_y": "534334.477189",
    "longitude": "-90.05035773826005",
    "latitude": "29.963063985217097",
    "geocoded_column": {
      "latitude": "29.963063985217097",
      "longitude": "-90.05035773826005"
    }
  },
  {
    "service_request": "2025-1204595",
    "request_type": "Trash/Recycling",
    "request_reason": "Request a Large Item Pick Up",
    "date_created": "2025-06-26T16:50:03.000",
    "date_modified": "2025-06-26T16:50:05.000",
    "request_status": "Pending",
    "responsible_agency": "Department of Sanitation",
    "final_address": "1833 Marais St",
    "address_councildis": "C",
    "status": "Assigned to Contractor",
    "contractor": "IV Waste",
    "rowid": "1204595",
    "final_x": "3683770.81436",
    "final_y": "536599.882311",
    "longitude": "-90.06072176680117",
    "latitude": "29.969394470663534",
    "geocoded_column": {
      "latitude": "29.969394470663534",
      "longitude": "-90.06072176680117"
    }
  },
  {
    "service_request": "2025-1204594",
    "request_type": "Roads and Streets",
    "request_reason": "Debris in Driving Lanes",
    "date_created": "2025-06-26T16:44:28.000",
    "date_modified": "2025-06-26T16:44:30.000",
    "request_status": "Pending",
    "responsible_agency": "Department of Public Works",
    "final_address": "2255 N Claiborne Ave",
    "address_councildis": "D",
    "status": "Pending",
    "rowid": "1204594",
    "final_x": "3685437.50665",
    "final_y": "538228.671369",
    "longitude": "-90.05540086146222",
    "latitude": "29.97382206884783",
    "geocoded_column": {
      "latitude": "29.97382206884783",
      "longitude": "-90.05540086146222"
    }
  },
  {
    "service_request": "2025-1204593",
    "request_type": "Trash/Recycling",
    "request_reason": "Request a Large Item Pick Up",
    "date_created": "2025-06-26T16:43:20.000",
    "date_modified": "2025-06-26T16:43:22.000",
    "request_status": "Pending",
    "responsible_agency": "Department of Sanitation",
    "final_address": "1019 Wilson Dr",
    "address_councildis": "A",
    "status": "Assigned to Contractor",
    "contractor": "IV Waste",
    "rowid": "1204593",
    "final_x": "3674368.71483",
    "final_y": "540626.756043",
    "longitude": "-90.09027642835157",
    "latitude": "29.98075077880551",
    "geocoded_column": {
      "latitude": "29.98075077880551",
      "longitude": "-90.09027642835157"
    }
  },
  {
    "service_request": "2025-1204592",
    "request_type": "Trash/Recycling",
    "request_reason": "Request a Large Item Pick Up",
    "date_created": "2025-06-26T16:42:28.000",
    "date_modified": "2025-06-26T16:42:31.000",
    "request_status": "Pending",
    "responsible_agency": "Department of Sanitation",
    "final_address": "820 Lesseps St",
    "address_councildis": "C",
    "status": "Assigned to Contractor",
    "contractor": "IV Waste",
    "rowid": "1204592",
    "final_x": "3692428.24227",
    "final_y": "534112.228421",
    "longitude": "-90.0334701520912",
    "latitude": "29.96228707265031",
    "geocoded_column": {
      "latitude": "29.96228707265031",
      "longitude": "-90.0334701520912"
    }
  },
  {
    "service_request": "2025-1204591",
    "request_type": "Trash/Recycling",
    "request_reason": "Replace Trash Cart",
    "date_created": "2025-06-26T16:40:05.000",
    "date_modified": "2025-06-26T16:40:08.000",
    "request_status": "Pending",
    "responsible_agency": "Department of Sanitation",
    "final_address": "7521 Stonewood St",
    "address_councildis": "E",
    "status": "Assigned to Contractor",
    "contractor": "Waste Pro",
    "rowid": "1204591",
    "final_x": "3720035.11871",
    "final_y": "572218.586985",
    "longitude": "-89.9448346086392",
    "latitude": "30.06617442144773",
    "geocoded_column": {
      "latitude": "30.06617442144773",
      "longitude": "-89.9448346086392"
    }
  },
  {
    "service_request": "2025-1204590",
    "request_type": "Trash/Recycling",
    "request_reason": "Order Trash Cart",
    "date_created": "2025-06-26T16:37:15.000",
    "date_modified": "2025-06-26T16:37:17.000",
    "request_status": "Pending",
    "responsible_agency": "Department of Sanitation",
    "final_address": "2226 Burgundy St",
    "address_councildis": "C",
    "status": "Assigned to Contractor",
    "contractor": "IV Waste",
    "rowid": "1204590",
    "final_x": "3685343.30722",
    "final_y": "535574.711238",
    "longitude": "-90.05579181515296",
    "latitude": "29.966527490566225",
    "geocoded_column": {
      "latitude": "29.966527490566225",
      "longitude": "-90.05579181515296"
    }
  },
  {
    "service_request": "2025-1204589",
    "request_type": "Trash/Recycling",
    "request_reason": "Request a Large Item Pick Up",
    "date_created": "2025-06-26T16:36:12.000",
    "date_modified": "2025-06-26T16:36:14.000",
    "request_status": "Pending",
    "responsible_agency": "Department of Sanitation",
    "final_address": "3217 Chartres St",
    "address_councildis": "C",
    "status": "Assigned to Contractor",
    "contractor": "IV Waste",
    "rowid": "1204589",
    "final_x": "3689252.80316",
    "final_y": "534011.767941",
    "longitude": "-90.04350126792819",
    "latitude": "29.962109509560356",
    "geocoded_column": {
      "latitude": "29.962109509560356",
      "longitude": "-90.04350126792819"
    }
  },
  {
    "service_request": "2025-1204588",
    "request_type": "Trash/Recycling",
    "request_reason": "Repair Trash Cart",
    "date_created": "2025-06-26T16:34:08.000",
    "date_modified": "2025-06-26T16:34:11.000",
    "request_status": "Pending",
    "responsible_agency": "Department of Sanitation",
    "final_address": "2109 Allen St",
    "address_councildis": "D",
    "status": "Assigned to Contractor",
    "contractor": "IV Waste",
    "rowid": "1204588",
    "final_x": "3682507.20981",
    "final_y": "539906.85697",
    "longitude": "-90.06459668852443",
    "latitude": "29.97852603124123",
    "geocoded_column": {
      "latitude": "29.97852603124123",
      "longitude": "-90.06459668852443"
    }
  },
  {
    "service_request": "2025-1204587",
    "request_type": "Trash/Recycling",
    "request_reason": "Request a Large Item Pick Up",
    "date_created": "2025-06-26T16:32:02.000",
    "date_modified": "2025-06-26T16:32:04.000",
    "request_status": "Pending",
    "responsible_agency": "Department of Sanitation",
    "final_address": "4701 Eastview Dr",
    "address_councildis": "E",
    "status": "Assigned to Contractor",
    "contractor": "Waste Pro",
    "rowid": "1204587",
    "final_x": "3705185.35377",
    "final_y": "555055.453273",
    "longitude": "-89.99241142390187",
    "latitude": "30.019469022428357",
    "geocoded_column": {
      "latitude": "30.019469022428357",
      "longitude": "-89.99241142390187"
    }
  },
  {
    "service_request": "2025-1204586",
    "request_type": "Streetlights",
    "request_reason": "Streetlight Outage/Malfunction",
    "date_created": "2025-06-26T16:30:14.000",
    "date_modified": "2025-06-26T16:30:18.000",
    "request_status": "Pending",
    "responsible_agency": "Department of Public Works",
    "final_address": "6420 Paris Ave",
    "address_councildis": "D",
    "status": "Pending",
    "contractor": "Legacy Professional Services",
    "rowid": "1204586",
    "final_x": "3678070.55272",
    "final_y": "557031.03305",
    "longitude": "-90.07801677362156",
    "latitude": "30.02574576536304",
    "geocoded_column": {
      "latitude": "30.02574576536304",
      "longitude": "-90.07801677362156"
    }
  },
  {
    "service_request": "2025-1204585",
    "request_type": "Street and Traffic Signs",
    "request_reason": "Crosswalk Signage Damaged or Missing",
    "date_created": "2025-06-26T16:28:55.000",
    "date_modified": "2025-06-26T16:28:57.000",
    "request_status": "Pending",
    "responsible_agency": "Department of Public Works",
    "final_address": "MARCONI DR & ZACHARY TAYLOR DR",
    "address_councildis": "A",
    "status": "Pending",
    "rowid": "1204585",
    "final_x": "3671137.9",
    "final_y": "545817.08",
    "longitude": "-90.10030437782146",
    "latitude": "29.995118365041918",
    "geocoded_column": {
      "latitude": "29.995118365041918",
      "longitude": "-90.10030437782146"
    }
  },
  {
    "service_request": "2025-1204584",
    "request_type": "Trash/Recycling",
    "request_reason": "Order Trash Cart",
    "date_created": "2025-06-26T16:23:51.000",
    "date_modified": "2025-06-26T16:23:53.000",
    "request_status": "Pending",
    "responsible_agency": "Department of Sanitation",
    "final_address": "2621 Urquhart St",
    "address_councildis": "C",
    "status": "Assigned to Contractor",
    "contractor": "IV Waste",
    "rowid": "1204584",
    "final_x": "3687487.85833",
    "final_y": "537188.60788",
    "longitude": "-90.04896223509034",
    "latitude": "29.970899222949974",
    "geocoded_column": {
      "latitude": "29.970899222949974",
      "longitude": "-90.04896223509034"
    }
  },
  {
    "service_request": "2025-1204583",
    "request_type": "Trash/Recycling",
    "request_reason": "Request a Large Item Pick Up",
    "date_created": "2025-06-26T16:17:17.000",
    "date_modified": "2025-06-26T16:17:19.000",
    "request_status": "Pending",
    "responsible_agency": "Department of Sanitation",
    "final_address": "1732 St Roch Ave",
    "address_councildis": "D",
    "status": "Assigned to Contractor",
    "contractor": "IV Waste",
    "rowid": "1204583",
    "final_x": "3686222.54511",
    "final_y": "538905.413898",
    "longitude": "-90.05289765914854",
    "latitude": "29.97565877594719",
    "geocoded_column": {
      "latitude": "29.97565877594719",
      "longitude": "-90.05289765914854"
    }
  },
  {
    "service_request": "2025-1204582",
    "request_type": "Trash/Recycling",
    "request_reason": "Replace Trash Cart",
    "date_created": "2025-06-26T16:16:53.000",
    "date_modified": "2025-06-26T16:16:54.000",
    "request_status": "Pending",
    "responsible_agency": "Department of Sanitation",
    "final_address": "2335 Bienville Ave",
    "address_councildis": "B",
    "status": "Assigned to Contractor",
    "contractor": "IV Waste",
    "rowid": "1204582",
    "final_x": "3676990.13339",
    "final_y": "534926.557638",
    "longitude": "-90.08219341376243",
    "latitude": "29.96499872744812",
    "geocoded_column": {
      "latitude": "29.96499872744812",
      "longitude": "-90.08219341376243"
    }
  },
  {
    "service_request": "2025-1204581",
    "request_type": "Trash/Recycling",
    "request_reason": "Illegal Dumping",
    "date_created": "2025-06-26T16:16:43.000",
    "date_modified": "2025-06-26T16:16:47.000",
    "request_status": "Pending",
    "responsible_agency": "Department of Sanitation",
    "final_address": "7920 W Laverne St",
    "address_councildis": "D",
    "status": "Pending",
    "rowid": "1204581",
    "final_x": "3694795.49533",
    "final_y": "559552.588701",
    "longitude": "-90.02507750676695",
    "latitude": "30.032164666468702",
    "geocoded_column": {
      "latitude": "30.032164666468702",
      "longitude": "-90.02507750676695"
    }
  },
  {
    "service_request": "2025-1204580",
    "request_type": "Trash/Recycling",
    "request_reason": "Request a Large Item Pick Up",
    "date_created": "2025-06-26T16:15:12.000",
    "date_modified": "2025-06-26T16:15:14.000",
    "request_status": "Pending",
    "responsible_agency": "Department of Sanitation",
    "final_address": "7095 Edgefield Dr",
    "address_councildis": "E",
    "status": "Assigned to Contractor",
    "contractor": "Waste Pro",
    "rowid": "1204580",
    "final_x": "3718586.25023",
    "final_y": "569528.63703",
    "longitude": "-89.94951732889695",
    "latitude": "30.05882637719464",
    "geocoded_column": {
      "latitude": "30.05882637719464",
      "longitude": "-89.94951732889695"
    }
  },
  {
    "service_request": "2025-1204579",
    "request_type": "Abandoned Vehicles",
    "request_reason": "Abandoned/Junk Vehicles",
    "date_created": "2025-06-26T16:13:53.000",
    "date_modified": "2025-06-26T16:13:55.000",
    "request_status": "Pending",
    "responsible_agency": "Department of Public Works",
    "final_address": "11295 Midpoint Dr",
    "address_councildis": "E",
    "status": "Pending",
    "rowid": "1204579",
    "final_x": "3718470.29042",
    "final_y": "559646.011229",
    "longitude": "-89.95026091745285",
    "latitude": "30.031657051460307",
    "geocoded_column": {
      "latitude": "30.031657051460307",
      "longitude": "-89.95026091745285"
    }
  },
  {
    "service_request": "2025-1204578",
    "request_type": "Trash/Recycling",
    "request_reason": "Repair Trash Cart",
    "date_created": "2025-06-26T16:12:04.000",
    "date_modified": "2025-06-26T16:12:06.000",
    "request_status": "Pending",
    "responsible_agency": "Department of Sanitation",
    "final_address": "5011 Laurel St",
    "address_councildis": "B",
    "status": "Assigned to Contractor",
    "contractor": "IV Waste",
    "rowid": "1204578",
    "final_x": "3668518.18145",
    "final_y": "517888.565174",
    "longitude": "-90.10952208482236",
    "latitude": "29.91840139462672",
    "geocoded_column": {
      "latitude": "29.91840139462672",
      "longitude": "-90.10952208482236"
    }
  },
  {
    "service_request": "2025-1204577",
    "request_type": "Streetlights",
    "request_reason": "Streetlight Outage/Malfunction",
    "date_created": "2025-06-26T16:06:48.000",
    "date_modified": "2025-06-26T16:06:50.000",
    "request_status": "Pending",
    "responsible_agency": "Department of Public Works",
    "final_address": "3128 Peoples Ave",
    "address_councildis": "D",
    "status": "Pending",
    "contractor": "Legacy Professional Services",
    "rowid": "1204577",
    "final_x": "3688617.62998",
    "final_y": "544575.873551",
    "longitude": "-90.0451319982629",
    "latitude": "29.991176710977808",
    "geocoded_column": {
      "latitude": "29.991176710977808",
      "longitude": "-90.0451319982629"
    }
  },
  {
    "service_request": "2025-1204576",
    "request_type": "Abandoned Vehicles",
    "request_reason": "Abandoned/Junk Vehicles",
    "date_created": "2025-06-26T16:06:16.000",
    "date_modified": "2025-06-26T16:08:38.000",
    "request_status": "Pending",
    "responsible_agency": "Department of Public Works",
    "final_address": "2020 Spain St",
    "address_councildis": "D",
    "status": "Pending",
    "rowid": "1204576",
    "final_x": "3685822.2374",
    "final_y": "539899.154506",
    "longitude": "-90.05412690160783",
    "latitude": "29.97840350758461",
    "geocoded_column": {
      "latitude": "29.97840350758461",
      "longitude": "-90.05412690160783"
    }
  },
  {
    "service_request": "2025-1204575",
    "request_type": "Abandoned Vehicles",
    "request_reason": "Abandoned/Junk Vehicles",
    "date_created": "2025-06-26T16:04:18.000",
    "date_modified": "2025-06-26T16:05:24.000",
    "request_status": "Pending",
    "responsible_agency": "Department of Public Works",
    "final_address": "1124 Peniston St",
    "address_councildis": "B",
    "status": "Pending",
    "rowid": "1204575",
    "final_x": "3673073.12315",
    "final_y": "519929.027448",
    "longitude": "-90.09507493565388",
    "latitude": "29.923877459483815",
    "geocoded_column": {
      "latitude": "29.923877459483815",
      "longitude": "-90.09507493565388"
    }
  },
  {
    "service_request": "2025-1204574",
    "request_type": "Street and Traffic Signs",
    "request_reason": "Traffic or Parking Sign Damaged or Missing",
    "date_created": "2025-06-26T16:00:53.000",
    "date_modified": "2025-06-26T16:00:57.000",
    "request_status": "Pending",
    "responsible_agency": "Department of Public Works",
    "final_address": "600 BLK Fulton St",
    "address_councildis": "B",
    "status": "Pending",
    "rowid": "1204574",
    "final_x": "3682404.72341",
    "final_y": "528285.084294",
    "longitude": "-90.06532657112825",
    "latitude": "29.946573257868845",
    "geocoded_column": {
      "latitude": "29.946573257868845",
      "longitude": "-90.06532657112825"
    }
  },
  {
    "service_request": "2025-1204573",
    "request_type": "Trash/Recycling",
    "request_reason": "Repair Recycling Cart",
    "date_created": "2025-06-26T15:59:18.000",
    "date_modified": "2025-06-26T15:59:20.000",
    "request_status": "Pending",
    "responsible_agency": "Department of Sanitation",
    "final_address": "817 Octavia St",
    "address_councildis": "A",
    "status": "Pending",
    "rowid": "1204573",
    "final_x": "3666505.59226",
    "final_y": "518986.910839",
    "longitude": "-90.11583794246289",
    "latitude": "29.92148045270202",
    "geocoded_column": {
      "latitude": "29.92148045270202",
      "longitude": "-90.11583794246289"
    }
  },
  {
    "service_request": "2025-1204572",
    "request_type": "Trash/Recycling",
    "request_reason": "Repair Trash Cart",
    "date_created": "2025-06-26T15:59:15.000",
    "date_modified": "2025-06-26T15:59:18.000",
    "request_status": "Pending",
    "responsible_agency": "Department of Sanitation",
    "final_address": "1006 Washington Ave Apt 2",
    "address_councildis": "B",
    "status": "Assigned to Contractor",
    "contractor": "IV Waste",
    "rowid": "1204572",
    "final_x": "3677160.34254",
    "final_y": "520538.0398",
    "longitude": "-90.08215205667496",
    "latitude": "29.92542996367255",
    "geocoded_column": {
      "latitude": "29.92542996367255",
      "longitude": "-90.08215205667496"
    }
  },
  {
    "service_request": "2025-1204571",
    "request_type": "Trash/Recycling",
    "request_reason": "Repair Trash Cart",
    "date_created": "2025-06-26T15:56:54.000",
    "date_modified": "2025-06-26T15:56:56.000",
    "request_status": "Pending",
    "responsible_agency": "Department of Sanitation",
    "final_address": "1006 Washington Ave Apt 1",
    "address_councildis": "B",
    "status": "Assigned to Contractor",
    "contractor": "IV Waste",
    "rowid": "1204571",
    "final_x": "3677168.21896",
    "final_y": "520527.134008",
    "longitude": "-90.08212756917072",
    "latitude": "29.92539973979283",
    "geocoded_column": {
      "latitude": "29.92539973979283",
      "longitude": "-90.08212756917072"
    }
  },
  {
    "service_request": "2025-1204570",
    "request_type": "Abandoned Vehicles",
    "request_reason": "Abandoned/Junk Vehicles",
    "date_created": "2025-06-26T15:53:44.000",
    "date_modified": "2025-06-26T15:53:46.000",
    "request_status": "Pending",
    "responsible_agency": "Department of Public Works",
    "final_address": "2318 Harmony St",
    "address_councildis": "B",
    "status": "Pending",
    "rowid": "1204570",
    "final_x": "3673625.88532",
    "final_y": "524199.719356",
    "longitude": "-90.09318415565782",
    "latitude": "29.935604046287786",
    "geocoded_column": {
      "latitude": "29.935604046287786",
      "longitude": "-90.09318415565782"
    }
  },
  {
    "service_request": "2025-1204569",
    "request_type": "Trash/Recycling",
    "request_reason": "Return Trash Cart",
    "date_created": "2025-06-26T15:53:32.000",
    "date_modified": "2025-06-26T15:53:34.000",
    "request_status": "Pending",
    "responsible_agency": "Department of Sanitation",
    "final_address": "735 Delachaise St",
    "address_councildis": "B",
    "status": "Assigned to Contractor",
    "contractor": "IV Waste",
    "rowid": "1204569",
    "final_x": "3675222.74229",
    "final_y": "518302.926646",
    "longitude": "-90.08834512586523",
    "latitude": "29.919342154938395",
    "geocoded_column": {
      "latitude": "29.919342154938395",
      "longitude": "-90.08834512586523"
    }
  },
  {
    "service_request": "2025-1204568",
    "request_type": "Trash/Recycling",
    "request_reason": "Request a Large Item Pick Up",
    "date_created": "2025-06-26T15:52:04.000",
    "date_modified": "2025-06-26T15:52:07.000",
    "request_status": "Pending",
    "responsible_agency": "Department of Sanitation",
    "final_address": "3342 Piedmont Dr",
    "address_councildis": "D",
    "status": "Assigned to Contractor",
    "contractor": "IV Waste",
    "rowid": "1204568",
    "final_x": "3686380.31273",
    "final_y": "545278.112207",
    "longitude": "-90.05217435010509",
    "latitude": "29.993176587722772",
    "geocoded_column": {
      "latitude": "29.993176587722772",
      "longitude": "-90.05217435010509"
    }
  },
  {
    "service_request": "2025-1204567",
    "request_type": "Trash/Recycling",
    "request_reason": "Repair Trash Cart",
    "date_created": "2025-06-26T15:50:42.000",
    "date_modified": "2025-06-26T15:50:44.000",
    "request_status": "Pending",
    "responsible_agency": "Department of Sanitation",
    "final_address": "14 Vivian Ct",
    "address_councildis": "C",
    "status": "Assigned to Contractor",
    "contractor": "Richards Disposal",
    "rowid": "1204567",
    "final_x": "3702124.04029",
    "final_y": "521376.392057",
    "longitude": "-90.00331926771707",
    "latitude": "29.92696201478629",
    "geocoded_column": {
      "latitude": "29.92696201478629",
      "longitude": "-90.00331926771707"
    }
  },
  {
    "service_request": "2025-1204566",
    "request_type": "Streetlights",
    "request_reason": "Streetlight Outage/Malfunction",
    "date_created": "2025-06-26T15:47:29.000",
    "date_modified": "2025-06-26T15:47:31.000",
    "request_status": "Pending",
    "responsible_agency": "Department of Public Works",
    "final_address": "839 Seventh St",
    "address_councildis": "B",
    "status": "Pending",
    "contractor": "Legacy Professional Services",
    "rowid": "1204566",
    "final_x": "3676822.76609",
    "final_y": "519745.251576",
    "longitude": "-90.08324498396904",
    "latitude": "29.923260183939085",
    "geocoded_column": {
      "latitude": "29.923260183939085",
      "longitude": "-90.08324498396904"
    }
  },
  {
    "service_request": "2025-1204565",
    "request_type": "Trash/Recycling",
    "request_reason": "Request a Large Item Pick Up",
    "date_created": "2025-06-26T15:46:38.000",
    "date_modified": "2025-06-26T15:46:40.000",
    "request_status": "Pending",
    "responsible_agency": "Department of Sanitation",
    "final_address": "6857 Vicksburg St",
    "address_councildis": "A",
    "status": "Assigned to Contractor",
    "contractor": "IV Waste",
    "rowid": "1204565",
    "final_x": "3669449.53447",
    "final_y": "553081.669079",
    "longitude": "-90.10539183766552",
    "latitude": "30.015143296611274",
    "geocoded_column": {
      "latitude": "30.015143296611274",
      "longitude": "-90.10539183766552"
    }
  },
  {
    "service_request": "2025-1204564",
    "request_type": "Property Maintenance",
    "request_reason": "Property Maintenance",
    "date_created": "2025-06-26T15:46:09.000",
    "date_modified": "2025-06-26T15:46:11.000",
    "request_status": "Pending",
    "responsible_agency": "Department of Code Enforcement",
    "final_address": "1775 Shirley Dr",
    "address_councildis": "C",
    "status": "Pending",
    "rowid": "1204564",
    "final_x": "3692892.87433",
    "final_y": "523292.180155",
    "longitude": "-90.032390848819",
    "latitude": "29.93252117917374",
    "geocoded_column": {
      "latitude": "29.93252117917374",
      "longitude": "-90.032390848819"
    }
  },
  {
    "service_request": "2025-1204563",
    "request_type": "Trash/Recycling",
    "request_reason": "Request a Large Item Pick Up",
    "date_created": "2025-06-26T15:42:08.000",
    "date_modified": "2025-06-26T15:42:09.000",
    "request_status": "Pending",
    "responsible_agency": "Department of Sanitation",
    "final_address": "3324 Milan St",
    "address_councildis": "B",
    "status": "Assigned to Contractor",
    "contractor": "IV Waste",
    "rowid": "1204563",
    "final_x": "3670927.83835",
    "final_y": "527156.810687",
    "longitude": "-90.10160158602702",
    "latitude": "29.943815105811144",
    "geocoded_column": {
      "latitude": "29.943815105811144",
      "longitude": "-90.10160158602702"
    }
  },
  {
    "service_request": "2025-1204562",
    "request_type": "Healthy Homes",
    "request_reason": "Healthy Homes",
    "date_created": "2025-06-26T15:41:59.000",
    "date_modified": "2025-06-26T15:42:01.000",
    "request_status": "Pending",
    "responsible_agency": "Department of Code Enforcement",
    "final_address": "1440 St Denis St Apt 211",
    "address_councildis": "D",
    "status": "Pending",
    "rowid": "1204562",
    "final_x": "3678447.89397",
    "final_y": "545739.470288",
    "longitude": "-90.07721556303153",
    "latitude": "29.994686646945542",
    "geocoded_column": {
      "latitude": "29.994686646945542",
      "longitude": "-90.07721556303153"
    }
  },
  {
    "service_request": "2025-1204561",
    "request_type": "Abandoned Vehicles",
    "request_reason": "Abandoned/Junk Vehicles",
    "date_created": "2025-06-26T15:35:00.000",
    "date_modified": "2025-06-26T15:35:02.000",
    "request_status": "Pending",
    "responsible_agency": "Department of Public Works",
    "final_address": "2439 Music St",
    "address_councildis": "D",
    "status": "Pending",
    "rowid": "1204561",
    "final_x": "3686472.73494",
    "final_y": "541578.355468",
    "longitude": "-90.05201309164406",
    "latitude": "29.983000732866984",
    "geocoded_column": {
      "latitude": "29.983000732866984",
      "longitude": "-90.05201309164406"
    }
  },
  {
    "service_request": "2025-1204560",
    "request_type": "Parks & Parkways",
    "request_reason": "Request Tree Service (Right of Way/Public Property)",
    "date_created": "2025-06-26T15:32:42.000",
    "date_modified": "2025-06-26T15:32:44.000",
    "request_status": "Pending",
    "responsible_agency": "Department of Parks & Parkway",
    "final_address": "4620 St Roch Ave",
    "address_councildis": "D",
    "status": "Pending",
    "rowid": "1204560",
    "final_x": "3685259.94057",
    "final_y": "549741.840596",
    "longitude": "-90.05555617451944",
    "latitude": "30.005484631223897",
    "geocoded_column": {
      "latitude": "30.005484631223897",
      "longitude": "-90.05555617451944"
    }
  },
  {
    "service_request": "2025-1204559",
    "request_type": "Trash/Recycling",
    "request_reason": "Missed Trash Pick-Up",
    "date_created": "2025-06-26T15:31:17.000",
    "date_modified": "2025-06-26T15:31:18.000",
    "request_status": "Pending",
    "responsible_agency": "Department of Sanitation",
    "final_address": "5500 Clements Dr",
    "address_councildis": "E",
    "status": "Assigned to Contractor",
    "contractor": "Waste Pro",
    "rowid": "1204559",
    "final_x": "3702422.2714",
    "final_y": "555958.392473",
    "longitude": "-90.0011086059424",
    "latitude": "30.022040378503007",
    "geocoded_column": {
      "latitude": "30.022040378503007",
      "longitude": "-90.0011086059424"
    }
  },
  {
    "service_request": "2025-1204558",
    "request_type": "Street and Traffic Signs",
    "request_reason": "Additional Signage Request",
    "date_created": "2025-06-26T15:29:23.000",
    "date_modified": "2025-06-26T15:29:26.000",
    "request_status": "Pending",
    "responsible_agency": "Department of Public Works",
    "final_address": "337 West Robert E Lee Blvd",
    "address_councildis": "A",
    "status": "Pending",
    "rowid": "1204558",
    "final_x": "3665206.73325",
    "final_y": "554975.519064",
    "longitude": "-90.1187337167465",
    "latitude": "30.0204750572495",
    "geocoded_column": {
      "latitude": "30.0204750572495",
      "longitude": "-90.1187337167465"
    }
  },
  {
    "service_request": "2025-1204557",
    "request_type": "Parks & Parkways",
    "request_reason": "Request Tree Service (Right of Way/Public Property)",
    "date_created": "2025-06-26T15:25:25.000",
    "date_modified": "2025-06-26T15:27:35.000",
    "request_status": "Pending",
    "responsible_agency": "Department of Parks & Parkway",
    "final_address": "225 Pine St",
    "address_councildis": "A",
    "status": "Pending",
    "rowid": "1204557",
    "final_x": "3661384.67898",
    "final_y": "522825.400251",
    "longitude": "-90.13187547220377",
    "latitude": "29.932183721636843",
    "geocoded_column": {
      "latitude": "29.932183721636843",
      "longitude": "-90.13187547220377"
    }
  },
  {
    "service_request": "2025-1204556",
    "request_type": "Roads and Streets",
    "request_reason": "Pothole",
    "date_created": "2025-06-26T15:21:43.000",
    "date_modified": "2025-06-26T15:21:46.000",
    "request_status": "Pending",
    "responsible_agency": "Department of Public Works",
    "final_address": "200 BLK Broadway St",
    "address_councildis": "A",
    "status": "Pending",
    "rowid": "1204556",
    "final_x": "3661351.93874",
    "final_y": "522317.694326",
    "longitude": "-90.13199563458753",
    "latitude": "29.93078863351476",
    "geocoded_column": {
      "latitude": "29.93078863351476",
      "longitude": "-90.13199563458753"
    }
  },
  {
    "service_request": "2025-1204555",
    "request_type": "Roads and Streets",
    "request_reason": "Pothole",
    "date_created": "2025-06-26T15:17:10.000",
    "date_modified": "2025-06-26T15:17:13.000",
    "request_status": "Pending",
    "responsible_agency": "Department of Public Works",
    "final_address": "1419 Amelia St",
    "address_councildis": "B",
    "status": "Pending",
    "rowid": "1204555",
    "final_x": "3673418.96238",
    "final_y": "520322.99564",
    "longitude": "-90.09396979268801",
    "latitude": "29.924950464618103",
    "geocoded_column": {
      "latitude": "29.924950464618103",
      "longitude": "-90.09396979268801"
    }
  },
  {
    "service_request": "2025-1204554",
    "request_type": "Trash/Recycling",
    "request_reason": "Request a Large Item Pick Up",
    "date_created": "2025-06-26T15:15:27.000",
    "date_modified": "2025-06-26T15:15:30.000",
    "request_status": "Pending",
    "responsible_agency": "Department of Sanitation",
    "final_address": "3027 Piety St",
    "address_councildis": "D",
    "status": "Assigned to Contractor",
    "contractor": "IV Waste",
    "rowid": "1204554",
    "final_x": "3691813.63504",
    "final_y": "543529.389518",
    "longitude": "-90.03507404776609",
    "latitude": "29.988200073960527",
    "geocoded_column": {
      "latitude": "29.988200073960527",
      "longitude": "-90.03507404776609"
    }
  },
  {
    "service_request": "2025-1204553",
    "request_type": "Property Maintenance",
    "request_reason": "Property Maintenance",
    "date_created": "2025-06-26T15:11:35.000",
    "date_modified": "2025-06-26T15:11:37.000",
    "request_status": "Pending",
    "responsible_agency": "Department of Code Enforcement",
    "final_address": "4707 Wilson Ave",
    "address_councildis": "E",
    "status": "Pending",
    "rowid": "1204553",
    "final_x": "3703125.0065",
    "final_y": "554699.7814",
    "longitude": "-89.99893447062479",
    "latitude": "30.018557197344457",
    "geocoded_column": {
      "latitude": "30.018557197344457",
      "longitude": "-89.99893447062479"
    }
  },
  {
    "service_request": "2025-1204552",
    "request_type": "Trash/Recycling",
    "request_reason": "Request a Large Item Pick Up",
    "date_created": "2025-06-26T15:08:25.000",
    "date_modified": "2025-06-26T15:08:27.000",
    "request_status": "Pending",
    "responsible_agency": "Department of Sanitation",
    "final_address": "4612 Wilson Ave",
    "address_councildis": "E",
    "status": "Assigned to Contractor",
    "contractor": "Waste Pro",
    "rowid": "1204552",
    "final_x": "3703026.3265",
    "final_y": "554222.69084",
    "longitude": "-89.99926381180747",
    "latitude": "30.017248540575228",
    "geocoded_column": {
      "latitude": "30.017248540575228",
      "longitude": "-89.99926381180747"
    }
  },
  {
    "service_request": "2025-1204551",
    "request_type": "General Services",
    "request_reason": "General Service Request",
    "date_created": "2025-06-26T15:06:24.000",
    "date_modified": "2025-06-26T15:34:19.000",
    "case_close_date": "2025-06-26T10:34:18.000",
    "request_status": "Closed",
    "responsible_agency": "Orleans Parish Communication District",
    "final_address": "200 BLK Broadway St",
    "address_councildis": "A",
    "status": "Additional information requested from citizen",
    "rowid": "1204551",
    "final_x": "3661351.93874",
    "final_y": "522317.694326",
    "longitude": "-90.13199563458753",
    "latitude": "29.93078863351476",
    "geocoded_column": {
      "latitude": "29.93078863351476",
      "longitude": "-90.13199563458753"
    }
  },
  {
    "service_request": "2025-1204550",
    "request_type": "Trash/Recycling",
    "request_reason": "Request a Large Item Pick Up",
    "date_created": "2025-06-26T15:05:42.000",
    "date_modified": "2025-06-26T15:05:45.000",
    "request_status": "Pending",
    "responsible_agency": "Department of Sanitation",
    "final_address": "4483 Wilson Ave",
    "address_councildis": "E",
    "status": "Assigned to Contractor",
    "contractor": "Waste Pro",
    "rowid": "1204550",
    "final_x": "3703249.22679",
    "final_y": "553436.136535",
    "longitude": "-89.99858849141089",
    "latitude": "30.015078679539673",
    "geocoded_column": {
      "latitude": "30.015078679539673",
      "longitude": "-89.99858849141089"
    }
  },
  {
    "service_request": "2025-1204549",
    "request_type": "Trash/Recycling",
    "request_reason": "Request a Large Item Pick Up",
    "date_created": "2025-06-26T15:04:18.000",
    "date_modified": "2025-06-26T15:04:43.000",
    "request_status": "Pending",
    "responsible_agency": "Department of Sanitation",
    "final_address": "2145 N Rocheblave St",
    "address_councildis": "D",
    "status": "Assigned to Contractor",
    "contractor": "IV Waste",
    "rowid": "1204549",
    "final_x": "3683980.00809",
    "final_y": "541081.369932",
    "longitude": "-90.05990382920345",
    "latitude": "29.981710607319638",
    "geocoded_column": {
      "latitude": "29.981710607319638",
      "longitude": "-90.05990382920345"
    }
  },
  {
    "service_request": "2025-1204548",
    "request_type": "Trash/Recycling",
    "request_reason": "Request a Large Item Pick Up",
    "date_created": "2025-06-26T15:02:52.000",
    "date_modified": "2025-06-26T15:02:54.000",
    "request_status": "Pending",
    "responsible_agency": "Department of Sanitation",
    "final_address": "3129 Constance St",
    "address_councildis": "B",
    "status": "Assigned to Contractor",
    "contractor": "IV Waste",
    "rowid": "1204548",
    "final_x": "3676109.14933",
    "final_y": "519788.985464",
    "longitude": "-90.08549609979676",
    "latitude": "29.923401826085453",
    "geocoded_column": {
      "latitude": "29.923401826085453",
      "longitude": "-90.08549609979676"
    }
  },
  {
    "service_request": "2025-1204547",
    "request_type": "Parks & Parkways",
    "request_reason": "Request Grass Cutting Service (City Owned Property)",
    "date_created": "2025-06-26T15:02:03.000",
    "date_modified": "2025-06-26T15:02:04.000",
    "request_status": "Pending",
    "responsible_agency": "Department of Parks & Parkway",
    "final_address": "2440 St Roch Ave",
    "address_councildis": "D",
    "status": "Pending",
    "rowid": "1204547",
    "final_x": "3686004.32386",
    "final_y": "541541.460108",
    "longitude": "-90.05349387147895",
    "latitude": "29.982913677870307",
    "geocoded_column": {
      "latitude": "29.982913677870307",
      "longitude": "-90.05349387147895"
    }
  },
  {
    "service_request": "2025-1204546",
    "request_type": "Trash/Recycling",
    "request_reason": "Request a Large Item Pick Up",
    "date_created": "2025-06-26T15:01:40.000",
    "date_modified": "2025-06-26T15:01:42.000",
    "request_status": "Pending",
    "responsible_agency": "Department of Sanitation",
    "final_address": "6051 Louisville St",
    "address_councildis": "A",
    "status": "Assigned to Contractor",
    "contractor": "IV Waste",
    "rowid": "1204546",
    "final_x": "3667878.37921",
    "final_y": "547742.226386",
    "longitude": "-90.1105359958544",
    "latitude": "30.000507896128276",
    "geocoded_column": {
      "latitude": "30.000507896128276",
      "longitude": "-90.1105359958544"
    }
  },
  {
    "service_request": "2025-1204545",
    "request_type": "Roads and Streets",
    "request_reason": "Curb Damage",
    "date_created": "2025-06-26T15:01:33.000",
    "date_modified": "2025-06-26T15:01:36.000",
    "request_status": "Pending",
    "responsible_agency": "Department of Public Works",
    "final_address": "8535 Nelson St",
    "address_councildis": "A",
    "status": "Pending",
    "rowid": "1204545",
    "final_x": "3663963.12083",
    "final_y": "532953.06554",
    "longitude": "-90.12339794099707",
    "latitude": "29.959956956540914",
    "geocoded_column": {
      "latitude": "29.959956956540914",
      "longitude": "-90.12339794099707"
    }
  },
  {
    "service_request": "2025-1204544",
    "request_type": "Trash/Recycling",
    "request_reason": "Order Recycling Cart",
    "date_created": "2025-06-26T14:56:39.000",
    "date_modified": "2025-06-26T14:56:41.000",
    "request_status": "Pending",
    "responsible_agency": "Department of Sanitation",
    "final_address": "1828 Baronne St",
    "address_councildis": "B",
    "status": "Pending",
    "rowid": "1204544",
    "final_x": "3677744.90965",
    "final_y": "524963.789757",
    "longitude": "-90.08015396487258",
    "latitude": "29.937581764467957",
    "geocoded_column": {
      "latitude": "29.937581764467957",
      "longitude": "-90.08015396487258"
    }
  },
  {
    "service_request": "2025-1204543",
    "request_type": "Property Maintenance",
    "request_reason": "Property Maintenance",
    "date_created": "2025-06-26T14:49:12.000",
    "date_modified": "2025-06-26T15:31:32.000",
    "request_status": "Pending",
    "responsible_agency": "Department of Code Enforcement",
    "final_address": "27 Christopher Ct",
    "address_councildis": "E",
    "status": "Pending",
    "rowid": "1204543",
    "final_x": "3716452.68127",
    "final_y": "570139.390823",
    "longitude": "-89.95623807308125",
    "latitude": "30.060576373175895",
    "geocoded_column": {
      "latitude": "30.060576373175895",
      "longitude": "-89.95623807308125"
    }
  },
  {
    "service_request": "2025-1204542",
    "request_type": "Trash/Recycling",
    "request_reason": "MIssed Recycling Pick-Up",
    "date_created": "2025-06-26T14:45:54.000",
    "date_modified": "2025-06-26T15:56:55.000",
    "case_close_date": "2025-06-26T10:56:54.000",
    "request_status": "Closed",
    "responsible_agency": "Department of Sanitation",
    "final_address": "3712 Carondelet St",
    "address_councildis": "B",
    "status": "Invalid Request",
    "contractor": "IV Waste",
    "contractor_action": "Invalid",
    "rowid": "1204542",
    "final_x": "3672929.84257",
    "final_y": "521469.059641",
    "longitude": "-90.09547470443225",
    "latitude": "29.928116310317918",
    "geocoded_column": {
      "latitude": "29.928116310317918",
      "longitude": "-90.09547470443225"
    }
  },
  {
    "service_request": "2025-1204541",
    "request_type": "Trash/Recycling",
    "request_reason": "Request a Large Item Pick Up",
    "date_created": "2025-06-26T14:45:53.000",
    "date_modified": "2025-06-26T14:46:23.000",
    "request_status": "Pending",
    "responsible_agency": "Department of Sanitation",
    "final_address": "4832 Rosemont Pl",
    "address_councildis": "E",
    "status": "Assigned to Contractor",
    "contractor": "Waste Pro",
    "rowid": "1204541",
    "final_x": "3702625.78596",
    "final_y": "555410.973913",
    "longitude": "-90.0004856761063",
    "latitude": "30.020528680123228",
    "geocoded_column": {
      "latitude": "30.020528680123228",
      "longitude": "-90.0004856761063"
    }
  },
  {
    "service_request": "2025-1204540",
    "request_type": "Drainage",
    "request_reason": "Catch Basin Clogged",
    "date_created": "2025-06-26T14:45:45.000",
    "date_modified": "2025-06-26T14:45:47.000",
    "request_status": "Pending",
    "responsible_agency": "Sewerage & Water Board",
    "final_address": "6907 Catina St",
    "address_councildis": "A",
    "status": "Pending",
    "rowid": "1204540",
    "final_x": "3667166.15553",
    "final_y": "553748.380311",
    "longitude": "-90.11258382200218",
    "latitude": "30.01704360346575",
    "geocoded_column": {
      "latitude": "30.01704360346575",
      "longitude": "-90.11258382200218"
    }
  },
  {
    "service_request": "2025-1204539",
    "request_type": "Trash/Recycling",
    "request_reason": "Request a Large Item Pick Up",
    "date_created": "2025-06-26T14:40:30.000",
    "date_modified": "2025-06-26T14:40:32.000",
    "request_status": "Pending",
    "responsible_agency": "Department of Sanitation",
    "final_address": "1921 Annette St",
    "address_councildis": "D",
    "status": "Assigned to Contractor",
    "contractor": "IV Waste",
    "rowid": "1204539",
    "final_x": "3682981.35586",
    "final_y": "539296.106506",
    "longitude": "-90.06312054566219",
    "latitude": "29.976832236432994",
    "geocoded_column": {
      "latitude": "29.976832236432994",
      "longitude": "-90.06312054566219"
    }
  },
  {
    "service_request": "2025-1204538",
    "request_type": "Parks & Parkways",
    "request_reason": "Request Grass Cutting Service (City Owned Property)",
    "date_created": "2025-06-26T14:34:28.000",
    "date_modified": "2025-06-26T14:36:17.000",
    "request_status": "Pending",
    "responsible_agency": "Department of Parks & Parkway",
    "final_address": "BEEKMAN RD & DUANE RD",
    "address_councildis": "E",
    "status": "Pending",
    "rowid": "1204538",
    "final_x": "3721256.5",
    "final_y": "573540.28",
    "longitude": "-89.94092292506619",
    "latitude": "30.069767767097215",
    "geocoded_column": {
      "latitude": "30.069767767097215",
      "longitude": "-89.94092292506619"
    }
  },
  {
    "service_request": "2025-1204537",
    "request_type": "Trash/Recycling",
    "request_reason": "MIssed Recycling Pick-Up",
    "date_created": "2025-06-26T14:32:46.000",
    "date_modified": "2025-06-26T16:03:06.000",
    "case_close_date": "2025-06-26T11:03:03.000",
    "request_status": "Closed",
    "responsible_agency": "Department of Sanitation",
    "final_address": "2520 Touro St",
    "address_councildis": "D",
    "status": "Invalid Request",
    "contractor": "IV Waste",
    "contractor_action": "Invalid",
    "rowid": "1204537",
    "final_x": "3683774.0477",
    "final_y": "541596.95342",
    "longitude": "-90.06053625909428",
    "latitude": "29.983134572803795",
    "geocoded_column": {
      "latitude": "29.983134572803795",
      "longitude": "-90.06053625909428"
    }
  },
  {
    "service_request": "2025-1204536",
    "request_type": "Parks & Parkways",
    "request_reason": "Request Tree Service (Right of Way/Public Property)",
    "date_created": "2025-06-26T14:29:45.000",
    "date_modified": "2025-06-26T14:29:46.000",
    "request_status": "Pending",
    "responsible_agency": "Department of Parks & Parkway",
    "final_address": "4673 Nottingham Dr",
    "address_councildis": "E",
    "status": "Pending",
    "rowid": "1204536",
    "final_x": "3716506.37452",
    "final_y": "556580.917722",
    "longitude": "-89.95658329664846",
    "latitude": "30.023294302826834",
    "geocoded_column": {
      "latitude": "30.023294302826834",
      "longitude": "-89.95658329664846"
    }
  },
  {
    "service_request": "2025-1204535",
    "request_type": "Trash/Recycling",
    "request_reason": "Request a Large Item Pick Up",
    "date_created": "2025-06-26T14:29:27.000",
    "date_modified": "2025-06-26T14:30:50.000",
    "request_status": "Pending",
    "responsible_agency": "Department of Sanitation",
    "final_address": "4346 Wellington Ave",
    "address_councildis": "D",
    "status": "Assigned to Contractor",
    "contractor": "IV Waste",
    "rowid": "1204535",
    "final_x": "3677154.53723",
    "final_y": "548412.33909",
    "longitude": "-90.08120886040687",
    "latitude": "30.00207501544259",
    "geocoded_column": {
      "latitude": "30.00207501544259",
      "longitude": "-90.08120886040687"
    }
  },
  {
    "service_request": "2025-1204534",
    "request_type": "Trash/Recycling",
    "request_reason": "Start Trash Service",
    "date_created": "2025-06-26T14:28:13.000",
    "date_modified": "2025-06-26T14:28:15.000",
    "request_status": "Pending",
    "responsible_agency": "Department of Sanitation",
    "final_address": "131 40Th St",
    "address_councildis": "A",
    "status": "Assigned to Contractor",
    "contractor": "IV Waste",
    "rowid": "1204534",
    "final_x": "3666143.18228",
    "final_y": "553347.413719",
    "longitude": "-90.1158294704148",
    "latitude": "30.015971013533846",
    "geocoded_column": {
      "latitude": "30.015971013533846",
      "longitude": "-90.1158294704148"
    }
  },
  {
    "service_request": "2025-1204533",
    "request_type": "Drainage",
    "request_reason": "Catch Basin Clogged",
    "date_created": "2025-06-26T14:25:24.000",
    "date_modified": "2025-06-26T14:25:25.000",
    "request_status": "Pending",
    "responsible_agency": "Sewerage & Water Board",
    "final_address": "4673 Nottingham Dr",
    "address_councildis": "E",
    "status": "Pending",
    "rowid": "1204533",
    "final_x": "3716506.37452",
    "final_y": "556580.917722",
    "longitude": "-89.95658329664846",
    "latitude": "30.023294302826834",
    "geocoded_column": {
      "latitude": "30.023294302826834",
      "longitude": "-89.95658329664846"
    }
  },
  {
    "service_request": "2025-1204532",
    "request_type": "Trash/Recycling",
    "request_reason": "Request a Large Item Pick Up",
    "date_created": "2025-06-26T14:24:47.000",
    "date_modified": "2025-06-26T14:24:49.000",
    "request_status": "Pending",
    "responsible_agency": "Department of Sanitation",
    "final_address": "2313 Jackson Ave",
    "address_councildis": "B",
    "status": "Assigned to Contractor",
    "contractor": "IV Waste",
    "rowid": "1204532",
    "final_x": "3675773.29973",
    "final_y": "526227.247422",
    "longitude": "-90.0863350783582",
    "latitude": "29.941115002317265",
    "geocoded_column": {
      "latitude": "29.941115002317265",
      "longitude": "-90.0863350783582"
    }
  },
  {
    "service_request": "2025-1204531",
    "request_type": "Trash/Recycling",
    "request_reason": "MIssed Recycling Pick-Up",
    "date_created": "2025-06-26T14:21:25.000",
    "date_modified": "2025-06-26T14:21:27.000",
    "request_status": "Pending",
    "responsible_agency": "Department of Sanitation",
    "final_address": "4700 Owens Blvd",
    "address_councildis": "D",
    "status": "Assigned to Contractor",
    "contractor": "IV Waste",
    "rowid": "1204531",
    "final_x": "3676451.41813",
    "final_y": "549529.674451",
    "longitude": "-90.08339159115",
    "latitude": "30.005168399634055",
    "geocoded_column": {
      "latitude": "30.005168399634055",
      "longitude": "-90.08339159115"
    }
  },
  {
    "service_request": "2025-1204530",
    "request_type": "Property Maintenance",
    "request_reason": "Property Maintenance",
    "date_created": "2025-06-26T14:20:24.000",
    "date_modified": "2025-06-26T14:30:55.000",
    "case_close_date": "2025-06-26T09:30:53.000",
    "request_status": "Closed",
    "responsible_agency": "Department of Code Enforcement",
    "final_address": "7540 Fieldston Rd",
    "address_councildis": "E",
    "status": "Referred to Code Enforcement",
    "rowid": "1204530",
    "final_x": "3700467.89693",
    "final_y": "560474.06243",
    "longitude": "-90.0071187494532",
    "latitude": "30.034519064480882",
    "geocoded_column": {
      "latitude": "30.034519064480882",
      "longitude": "-90.0071187494532"
    }
  },
  {
    "service_request": "2025-1204529",
    "request_type": "Trash/Recycling",
    "request_reason": "Request a Large Item Pick Up",
    "date_created": "2025-06-26T14:20:23.000",
    "date_modified": "2025-06-26T14:20:25.000",
    "request_status": "Pending",
    "responsible_agency": "Department of Sanitation",
    "final_address": "2825 Ramsey Dr",
    "address_councildis": "C",
    "status": "Assigned to Contractor",
    "contractor": "Richards Disposal",
    "rowid": "1204529",
    "final_x": "3703037.62238",
    "final_y": "520239.55788",
    "longitude": "-90.00047709438773",
    "latitude": "29.923806924869382",
    "geocoded_column": {
      "latitude": "29.923806924869382",
      "longitude": "-90.00047709438773"
    }
  },
  {
    "service_request": "2025-1204528",
    "request_type": "Trash/Recycling",
    "request_reason": "Order Second Trash Cart",
    "date_created": "2025-06-26T14:18:18.000",
    "date_modified": "2025-06-26T14:18:20.000",
    "request_status": "Pending",
    "responsible_agency": "Department of Sanitation",
    "final_address": "4700 Owens Blvd",
    "address_councildis": "D",
    "status": "Assigned to Contractor",
    "contractor": "IV Waste",
    "rowid": "1204528",
    "final_x": "3676451.41813",
    "final_y": "549529.674451",
    "longitude": "-90.08339159115",
    "latitude": "30.005168399634055",
    "geocoded_column": {
      "latitude": "30.005168399634055",
      "longitude": "-90.08339159115"
    }
  },
  {
    "service_request": "2025-1204527",
    "request_type": "Trash/Recycling",
    "request_reason": "Replace Trash Cart",
    "date_created": "2025-06-26T14:12:50.000",
    "date_modified": "2025-06-26T14:12:52.000",
    "request_status": "Pending",
    "responsible_agency": "Department of Sanitation",
    "final_address": "9015 Forshey St",
    "address_councildis": "A",
    "status": "Assigned to Contractor",
    "contractor": "IV Waste",
    "rowid": "1204527",
    "final_x": "3664572.0464",
    "final_y": "536182.830215",
    "longitude": "-90.12136720425937",
    "latitude": "29.96882005388222",
    "geocoded_column": {
      "latitude": "29.96882005388222",
      "longitude": "-90.12136720425937"
    }
  },
  {
    "service_request": "2025-1204526",
    "request_type": "Trash/Recycling",
    "request_reason": "Request a Large Item Pick Up",
    "date_created": "2025-06-26T14:11:54.000",
    "date_modified": "2025-06-26T14:11:56.000",
    "request_status": "Pending",
    "responsible_agency": "Department of Sanitation",
    "final_address": "7839 S Coronet Ct",
    "address_councildis": "E",
    "status": "Assigned to Contractor",
    "contractor": "Waste Pro",
    "rowid": "1204526",
    "final_x": "3703295.2323",
    "final_y": "557438.650843",
    "longitude": "-89.99829579605444",
    "latitude": "30.02608258103386",
    "geocoded_column": {
      "latitude": "30.02608258103386",
      "longitude": "-89.99829579605444"
    }
  },
  {
    "service_request": "2025-1204525",
    "request_type": "Parks & Parkways",
    "request_reason": "Request Tree Service (Right of Way/Public Property)",
    "date_created": "2025-06-26T14:08:05.000",
    "date_modified": "2025-06-26T14:08:07.000",
    "request_status": "Pending",
    "responsible_agency": "Department of Parks & Parkway",
    "final_address": "520 Pelican Ave",
    "address_councildis": "C",
    "status": "Pending",
    "rowid": "1204525",
    "final_x": "3687049.98991",
    "final_y": "530809.970242",
    "longitude": "-90.05057059310924",
    "latitude": "29.953373666800783",
    "geocoded_column": {
      "latitude": "29.953373666800783",
      "longitude": "-90.05057059310924"
    }
  },
  {
    "service_request": "2025-1204524",
    "request_type": "Trash/Recycling",
    "request_reason": "Request a Large Item Pick Up",
    "date_created": "2025-06-26T14:07:35.000",
    "date_modified": "2025-06-26T14:07:37.000",
    "request_status": "Pending",
    "responsible_agency": "Department of Sanitation",
    "final_address": "6943 W Laverne St",
    "address_councildis": "D",
    "status": "Assigned to Contractor",
    "contractor": "Waste Pro",
    "rowid": "1204524",
    "final_x": "3696010.48099",
    "final_y": "556442.892314",
    "longitude": "-90.02135060664318",
    "latitude": "30.02357598859011",
    "geocoded_column": {
      "latitude": "30.02357598859011",
      "longitude": "-90.02135060664318"
    }
  },
  {
    "service_request": "2025-1204523",
    "request_type": "Trash/Recycling",
    "request_reason": "Repair Recycling Cart",
    "date_created": "2025-06-26T14:03:47.000",
    "date_modified": "2025-06-26T14:09:40.000",
    "request_status": "Pending",
    "responsible_agency": "Department of Sanitation",
    "final_address": "6739 W Laverne St",
    "address_councildis": "D",
    "status": "Pending",
    "contractor": "Waste Pro",
    "rowid": "1204523",
    "final_x": "3696203.65616",
    "final_y": "555864.392345",
    "longitude": "-90.02076115504184",
    "latitude": "30.021979249931565",
    "geocoded_column": {
      "latitude": "30.021979249931565",
      "longitude": "-90.02076115504184"
    }
  },
  {
    "service_request": "2025-1204522",
    "request_type": "Trash/Recycling",
    "request_reason": "Request a Large Item Pick Up",
    "date_created": "2025-06-26T14:03:01.000",
    "date_modified": "2025-06-26T14:03:03.000",
    "request_status": "Pending",
    "responsible_agency": "Department of Sanitation",
    "final_address": "18 Vivian Ct",
    "address_councildis": "C",
    "status": "Assigned to Contractor",
    "contractor": "Richards Disposal",
    "rowid": "1204522",
    "final_x": "3702235.92164",
    "final_y": "521353.270393",
    "longitude": "-90.00296693764403",
    "latitude": "29.92689486690691",
    "geocoded_column": {
      "latitude": "29.92689486690691",
      "longitude": "-90.00296693764403"
    }
  },
  {
    "service_request": "2025-1204521",
    "request_type": "Trash/Recycling",
    "request_reason": "Repair Recycling Cart",
    "date_created": "2025-06-26T14:02:49.000",
    "date_modified": "2025-06-26T14:02:51.000",
    "request_status": "Pending",
    "responsible_agency": "Department of Sanitation",
    "final_address": "4951 Pentland Dr",
    "address_councildis": "E",
    "status": "Pending",
    "rowid": "1204521",
    "final_x": "3718738.32793",
    "final_y": "558283.710428",
    "longitude": "-89.94946590764432",
    "latitude": "30.027902374015472",
    "geocoded_column": {
      "latitude": "30.027902374015472",
      "longitude": "-89.94946590764432"
    }
  },
  {
    "service_request": "2025-1204520",
    "request_type": "Parks & Parkways",
    "request_reason": "Request Tree Service (Right of Way/Public Property)",
    "date_created": "2025-06-26T13:59:32.000",
    "date_modified": "2025-06-26T13:59:34.000",
    "request_status": "Pending",
    "responsible_agency": "Department of Parks & Parkway",
    "final_address": "ONZAGA ST & PAUL MORPHY ST",
    "address_councildis": "D",
    "status": "Pending",
    "rowid": "1204520",
    "final_x": "3679021.3",
    "final_y": "540681.18",
    "longitude": "-90.07557963325488",
    "latitude": "29.980760821552472",
    "geocoded_column": {
      "latitude": "29.980760821552472",
      "longitude": "-90.07557963325488"
    }
  },
  {
    "service_request": "2025-1204519",
    "request_type": "Trash/Recycling",
    "request_reason": "Request a Large Item Pick Up",
    "date_created": "2025-06-26T13:59:09.000",
    "date_modified": "2025-06-26T14:08:04.000",
    "request_status": "Pending",
    "responsible_agency": "Department of Sanitation",
    "final_address": "3042 St Ann St",
    "address_councildis": "A",
    "status": "Assigned to Contractor",
    "contractor": "IV Waste",
    "rowid": "1204519",
    "final_x": "3675599.60987",
    "final_y": "538181.653193",
    "longitude": "-90.08647275259351",
    "latitude": "29.97399080973344",
    "geocoded_column": {
      "latitude": "29.97399080973344",
      "longitude": "-90.08647275259351"
    }
  },
  {
    "service_request": "2025-1204518",
    "request_type": "Trash/Recycling",
    "request_reason": "Replace Trash Cart",
    "date_created": "2025-06-26T13:56:54.000",
    "date_modified": "2025-06-26T13:56:55.000",
    "request_status": "Pending",
    "responsible_agency": "Department of Sanitation",
    "final_address": "733 St Joseph St",
    "address_councildis": "B",
    "status": "Assigned to Contractor",
    "contractor": "IV Waste",
    "rowid": "1204518",
    "final_x": "3680018.85359",
    "final_y": "527570.779711",
    "longitude": "-90.07288442247352",
    "latitude": "29.944681541177417",
    "geocoded_column": {
      "latitude": "29.944681541177417",
      "longitude": "-90.07288442247352"
    }
  },
  {
    "service_request": "2025-1204517",
    "request_type": "Roads and Streets",
    "request_reason": "Sidewalk Damaged or Missing",
    "date_created": "2025-06-26T13:56:33.000",
    "date_modified": "2025-06-26T13:56:35.000",
    "request_status": "Pending",
    "responsible_agency": "Department of Public Works",
    "final_address": "535 S Galvez St",
    "address_councildis": "B",
    "status": "Pending",
    "rowid": "1204517",
    "final_x": "3675522.33365",
    "final_y": "532257.545603",
    "longitude": "-90.08692032713465",
    "latitude": "29.957703828959513",
    "geocoded_column": {
      "latitude": "29.957703828959513",
      "longitude": "-90.08692032713465"
    }
  },
  {
    "service_request": "2025-1204516",
    "request_type": "Trash/Recycling",
    "request_reason": "Repair Recycling Cart",
    "date_created": "2025-06-26T13:49:57.000",
    "date_modified": "2025-06-26T13:49:58.000",
    "request_status": "Pending",
    "responsible_agency": "Department of Sanitation",
    "final_address": "2801 Joseph St",
    "address_councildis": "A",
    "status": "Pending",
    "rowid": "1204516",
    "final_x": "3667797.06618",
    "final_y": "526118.050494",
    "longitude": "-90.11152128484572",
    "latitude": "29.941051018207762",
    "geocoded_column": {
      "latitude": "29.941051018207762",
      "longitude": "-90.11152128484572"
    }
  },
  {
    "service_request": "2025-1204515",
    "request_type": "Trash/Recycling",
    "request_reason": "Request a Large Item Pick Up",
    "date_created": "2025-06-26T13:48:54.000",
    "date_modified": "2025-06-26T13:48:56.000",
    "request_status": "Pending",
    "responsible_agency": "Department of Sanitation",
    "final_address": "108 Neil Ave",
    "address_councildis": "C",
    "status": "Assigned to Contractor",
    "contractor": "Richards Disposal",
    "rowid": "1204515",
    "final_x": "3705948.17387",
    "final_y": "518833.316855",
    "longitude": "-89.99134160368092",
    "latitude": "29.91984683768692",
    "geocoded_column": {
      "latitude": "29.91984683768692",
      "longitude": "-89.99134160368092"
    }
  },
  {
    "service_request": "2025-1204514",
    "request_type": "Road Striping",
    "request_reason": "Lane Striping or other Pavement Markings",
    "date_created": "2025-06-26T13:45:58.000",
    "date_modified": "2025-06-26T13:45:59.000",
    "request_status": "Pending",
    "responsible_agency": "Department of Public Works",
    "final_address": "100 Allen Toussaint Blvd",
    "address_councildis": "A",
    "status": "Pending",
    "rowid": "1204514",
    "final_x": "3666940.75642",
    "final_y": "554786.392088",
    "longitude": "-90.11326107140346",
    "latitude": "30.01990437043757",
    "geocoded_column": {
      "latitude": "30.01990437043757",
      "longitude": "-90.11326107140346"
    }
  },
  {
    "service_request": "2025-1204513",
    "request_type": "Trash/Recycling",
    "request_reason": "Request a Large Item Pick Up",
    "date_created": "2025-06-26T13:44:09.000",
    "date_modified": "2025-06-26T13:44:11.000",
    "request_status": "Pending",
    "responsible_agency": "Department of Sanitation",
    "final_address": "5513 Wildair Dr",
    "address_councildis": "D",
    "status": "Assigned to Contractor",
    "contractor": "IV Waste",
    "rowid": "1204513",
    "final_x": "3681643.95573",
    "final_y": "553244.634583",
    "longitude": "-90.06685755472256",
    "latitude": "30.015226427733708",
    "geocoded_column": {
      "latitude": "30.015226427733708",
      "longitude": "-90.06685755472256"
    }
  },
  {
    "service_request": "2025-1204512",
    "request_type": "Trash/Recycling",
    "request_reason": "Request a Large Item Pick Up",
    "date_created": "2025-06-26T13:40:55.000",
    "date_modified": "2025-06-26T13:40:57.000",
    "request_status": "Pending",
    "responsible_agency": "Department of Sanitation",
    "final_address": "7923 Berg Rd",
    "address_councildis": "E",
    "status": "Assigned to Contractor",
    "contractor": "Waste Pro",
    "rowid": "1204512",
    "final_x": "3711340.878",
    "final_y": "567734.888996",
    "longitude": "-89.97248642457397",
    "latitude": "30.05413290575287",
    "geocoded_column": {
      "latitude": "30.05413290575287",
      "longitude": "-89.97248642457397"
    }
  },
  {
    "service_request": "2025-1204511",
    "request_type": "Trash/Recycling",
    "request_reason": "Request a Large Item Pick Up",
    "date_created": "2025-06-26T13:40:33.000",
    "date_modified": "2025-06-26T13:40:35.000",
    "request_status": "Pending",
    "responsible_agency": "Department of Sanitation",
    "final_address": "3710 Rue Mignon",
    "address_councildis": "C",
    "status": "Assigned to Contractor",
    "contractor": "Richards Disposal",
    "rowid": "1204511",
    "final_x": "3703377.27556",
    "final_y": "516882.450101",
    "longitude": "-89.99952829556264",
    "latitude": "29.91456516704779",
    "geocoded_column": {
      "latitude": "29.91456516704779",
      "longitude": "-89.99952829556264"
    }
  },
  {
    "service_request": "2025-1204510",
    "request_type": "Trash/Recycling",
    "request_reason": "Request a Large Item Pick Up",
    "date_created": "2025-06-26T13:32:21.000",
    "date_modified": "2025-06-26T17:10:02.000",
    "case_close_date": "2025-06-26T12:10:01.000",
    "request_status": "Closed",
    "responsible_agency": "Department of Sanitation",
    "final_address": "8524 Huntington Park Dr",
    "address_councildis": "E",
    "status": "Duplicate Request",
    "contractor": "Waste Pro",
    "contractor_action": "Duplicate",
    "rowid": "1204510",
    "final_x": "3705275.10027",
    "final_y": "560077.547869",
    "longitude": "-89.99194209562998",
    "latitude": "30.033274941454422",
    "geocoded_column": {
      "latitude": "30.033274941454422",
      "longitude": "-89.99194209562998"
    }
  },
  {
    "service_request": "2025-1204509",
    "request_type": "Trash/Recycling",
    "request_reason": "Request a Large Item Pick Up",
    "date_created": "2025-06-26T13:32:06.000",
    "date_modified": "2025-06-26T13:32:08.000",
    "request_status": "Pending",
    "responsible_agency": "Department of Sanitation",
    "final_address": "566 Abalon Ct",
    "address_councildis": "C",
    "status": "Assigned to Contractor",
    "contractor": "Richards Disposal",
    "rowid": "1204509",
    "final_x": "3688970.14236",
    "final_y": "530652.615298",
    "longitude": "-90.04451317874492",
    "latitude": "29.95288174847581",
    "geocoded_column": {
      "latitude": "29.95288174847581",
      "longitude": "-90.04451317874492"
    }
  },
  {
    "service_request": "2025-1204508",
    "request_type": "Trash/Recycling",
    "request_reason": "Request a Large Item Pick Up",
    "date_created": "2025-06-26T13:30:40.000",
    "date_modified": "2025-06-26T13:30:42.000",
    "request_status": "Pending",
    "responsible_agency": "Department of Sanitation",
    "final_address": "2461 N Rocheblave St",
    "address_councildis": "D",
    "status": "Assigned to Contractor",
    "contractor": "IV Waste",
    "rowid": "1204508",
    "final_x": "3685605.94742",
    "final_y": "541209.17966",
    "longitude": "-90.05476385486844",
    "latitude": "29.98201225293544",
    "geocoded_column": {
      "latitude": "29.98201225293544",
      "longitude": "-90.05476385486844"
    }
  },
  {
    "service_request": "2025-1204507",
    "request_type": "Trash/Recycling",
    "request_reason": "Request a Large Item Pick Up",
    "date_created": "2025-06-26T13:28:37.000",
    "date_modified": "2025-06-26T17:34:12.000",
    "case_close_date": "2025-06-26T12:34:10.000",
    "request_status": "Closed",
    "responsible_agency": "Department of Sanitation",
    "final_address": "1221 Andry St",
    "address_councildis": "E",
    "status": "Invalid Request",
    "contractor": "Waste Pro",
    "contractor_action": "Invalid",
    "rowid": "1204507",
    "final_x": "3697352.32259",
    "final_y": "534502.939845",
    "longitude": "-90.01790654457756",
    "latitude": "29.963206876580145",
    "geocoded_column": {
      "latitude": "29.963206876580145",
      "longitude": "-90.01790654457756"
    }
  },
  {
    "service_request": "2025-1204506",
    "request_type": "Trash/Recycling",
    "request_reason": "Request a Large Item Pick Up",
    "date_created": "2025-06-26T13:21:07.000",
    "date_modified": "2025-06-26T13:21:09.000",
    "request_status": "Pending",
    "responsible_agency": "Department of Sanitation",
    "final_address": "5729 St Anthony Ave",
    "address_councildis": "D",
    "status": "Assigned to Contractor",
    "contractor": "IV Waste",
    "rowid": "1204506",
    "final_x": "3682175.25884",
    "final_y": "554120.894744",
    "longitude": "-90.06514824581801",
    "latitude": "30.017619666076154",
    "geocoded_column": {
      "latitude": "30.017619666076154",
      "longitude": "-90.06514824581801"
    }
  },
  {
    "service_request": "2025-1204505",
    "request_type": "Parks & Parkways",
    "request_reason": "Request Tree Service (Right of Way/Public Property)",
    "date_created": "2025-06-26T13:20:56.000",
    "date_modified": "2025-06-26T14:26:49.000",
    "case_close_date": "2025-06-26T09:26:48.000",
    "request_status": "Closed",
    "responsible_agency": "Department of Parks & Parkway",
    "final_address": "2801 Holiday Dr",
    "address_councildis": "C",
    "status": "Not Enough Information- Resubmittal Required",
    "rowid": "1204505",
    "final_x": "3698709.33661",
    "final_y": "520980.780985",
    "longitude": "-90.01411290319393",
    "latitude": "29.92598276303555",
    "geocoded_column": {
      "latitude": "29.92598276303555",
      "longitude": "-90.01411290319393"
    }
  },