[
  {
    "service_request": "2024-1085719",
    "request_type": "Healthy Homes",
    "request_reason": "Healthy Homes",
    "date_created": "2024-04-17T23:58:32.000",
    "date_modified": "2024-04-17T23:58:32.000",
    "request_status": "Pending",
    "responsible_agency": "Department of Code Enforcement",
    "final_address": "5001 St Claude Ave",
    "address_councildis": "E",
    "status": "Pending",
    "rowid": "1085719",
    "final_x": "3696029.25462",
    "final_y": "534363.197189",
    "longitude": "-90.02208966782483",
    "latitude": "29.962864331548293",
    "geocoded_column": {
      "latitude": "29.962864331548293",
      "longitude": "-90.02208966782483"
    }
  },
  {
    "service_request": "2024-1085718",
    "request_type": "Mosquito, Termite & Rodent Control",
    "request_reason": "Mosquito Complaint",
    "date_created": "2024-04-17T23:55:59.000",
    "date_modified": "2024-04-17T23:55:59.000",
    "request_status": "Pending",
    "responsible_agency": "Mosquito, Termite & Rodent Control Board",
    "final_address": "7432 Spring Lake Dr",
    "address_councildis": "E",
    "status": "Pending",
    "rowid": "1085718",
    "final_x": "3701026.48791",
    "final_y": "559092.073692",
    "longitude": "-90.00540414732905",
    "latitude": "30.030701342756128",
    "geocoded_column": {
      "latitude": "30.030701342756128",
      "longitude": "-90.00540414732905"
    }
  },
  {
    "service_request": "2024-1085717",
    "request_type": "Abandoned Vehicles",
    "request_reason": "Abandoned/Junk Vehicles",
    "date_created": "2024-04-17T23:11:06.000",
    "date_modified": "2024-04-17T23:11:06.000",
    "request_status": "Pending",
    "responsible_agency": "Department of Public Works",
    "final_address": "1014 Desire St",
    "address_councildis": "C",
    "status": "Pending",
    "rowid": "1085717",
    "final_x": "3690078.27043",
    "final_y": "535408.076614",
    "longitude": "-90.04084483903002",
    "latitude": "29.96592329460682",
    "geocoded_column": {
      "latitude": "29.96592329460682",
      "longitude": "-90.04084483903002"
    }
  },
  {
    "service_request": "2024-1085716",
    "request_type": "Property Maintenance",
    "request_reason": "Property Maintenance",
    "date_created": "2024-04-17T22:19:59.000",
    "date_modified": "2024-04-17T22:19:59.000",
    "request_status": "Pending",
    "responsible_agency": "Department of Code Enforcement",
    "final_address": "6617 Lake Willow Dr",
    "address_councildis": "E",
    "status": "Pending",
    "rowid": "1085716",
    "final_x": "3704116.51742",
    "final_y": "559710.645725",
    "longitude": "-89.99561684410428",
    "latitude": "30.03230334638636",
    "geocoded_column": {
      "latitude": "30.03230334638636",
      "longitude": "-89.99561684410428"
    }
  },
  {
    "service_request": "2024-1085715",
    "request_type": "Abandoned Vehicles",
    "request_reason": "Abandoned/Junk Vehicles",
    "date_created": "2024-04-17T22:00:15.000",
    "date_modified": "2024-04-17T22:00:15.000",
    "request_status": "Pending",
    "responsible_agency": "Department of Public Works",
    "final_address": "17 Fontainebleau Dr",
    "address_councildis": "A",
    "status": "Pending",
    "rowid": "1085715",
    "final_x": "3665805.60877",
    "final_y": "531775.374019",
    "longitude": "-90.11761920100761",
    "latitude": "29.956665065524323",
    "geocoded_column": {
      "latitude": "29.956665065524323",
      "longitude": "-90.11761920100761"
    }
  },
  {
    "service_request": "2024-1085714",
    "request_type": "Traffic Signals/Signs/Striping/Streetlights",
    "request_reason": "Street Name Sign Damaged or Missing",
    "date_created": "2024-04-17T21:56:55.000",
    "date_modified": "2024-04-17T21:56:55.000",
    "request_status": "Pending",
    "responsible_agency": "Department of Public Works",
    "final_address": "BRIGHT DR & PRESSBURG ST",
    "address_councildis": "E",
    "status": "Pending",
    "rowid": "1085714",
    "final_x": "3715802.7",
    "final_y": "557436.28",
    "longitude": "-89.95877430974834",
    "latitude": "30.025669437804297",
    "geocoded_column": {
      "latitude": "30.025669437804297",
      "longitude": "-89.95877430974834"
    }
  },
  {
    "service_request": "2024-1085713",
    "request_type": "Trash/Recycling",
    "request_reason": "Request a Large Item Pick Up",
    "date_created": "2024-04-17T21:43:04.000",
    "date_modified": "2024-04-17T21:43:05.000",
    "request_status": "Pending",
    "responsible_agency": "Department of Sanitation",
    "final_address": "7701 Symmes Ave",
    "address_councildis": "E",
    "status": "Assigned to Contractor",
    "contractor": "Waste Pro",
    "rowid": "1085713",
    "final_x": "3707781.64875",
    "final_y": "564826.71517",
    "longitude": "-89.98384446453092",
    "latitude": "30.046252344682884",
    "geocoded_column": {
      "latitude": "30.046252344682884",
      "longitude": "-89.98384446453092"
    }
  },
  {
    "service_request": "2024-1085712",
    "request_type": "Trash/Recycling",
    "request_reason": "Order Trash Cart",
    "date_created": "2024-04-17T21:19:43.000",
    "date_modified": "2024-04-17T21:19:44.000",
    "request_status": "Pending",
    "responsible_agency": "Department of Sanitation",
    "final_address": "7655 Avon Park Blvd",
    "address_councildis": "E",
    "status": "Assigned to Contractor",
    "contractor": "Waste Pro",
    "rowid": "1085712",
    "final_x": "3719408.07372",
    "final_y": "572780.662505",
    "longitude": "-89.94679526357176",
    "latitude": "30.067740770445756",
    "geocoded_column": {
      "latitude": "30.067740770445756",
      "longitude": "-89.94679526357176"
    }
  },
  {
    "service_request": "2024-1085711",
    "request_type": "Trash/Recycling",
    "request_reason": "Missed Trash Pick-Up",
    "date_created": "2024-04-17T21:03:28.000",
    "date_modified": "2024-04-17T21:03:29.000",
    "request_status": "Pending",
    "responsible_agency": "Department of Sanitation",
    "final_address": "1529 Nashville Ave, New Orleans, Louisiana, 70115",
    "address_councildis": "A",
    "status": "Assigned to Contractor",
    "contractor": "IV Waste",
    "rowid": "1085711",
    "final_x": "3666228.28692",
    "final_y": "521867.901114",
    "longitude": "-90.11661671233426",
    "latitude": "29.92941036615711",
    "geocoded_column": {
      "latitude": "29.92941036615711",
      "longitude": "-90.11661671233426"
    }
  },
  {
    "service_request": "2024-1085710",
    "request_type": "Trash/Recycling",
    "request_reason": "Replace Recycling Cart",
    "date_created": "2024-04-17T20:57:37.000",
    "date_modified": "2024-04-17T20:57:37.000",
    "request_status": "Pending",
    "responsible_agency": "Department of Sanitation",
    "final_address": "2939 Joliet St",
    "address_councildis": "A",
    "status": "Pending",
    "rowid": "1085710",
    "final_x": "3665243.73472",
    "final_y": "534046.004229",
    "longitude": "-90.11931745982943",
    "latitude": "29.962924934990983",
    "geocoded_column": {
      "latitude": "29.962924934990983",
      "longitude": "-90.11931745982943"
    }
  },
  {
    "service_request": "2024-1085709",
    "request_type": "Abandoned Vehicles",
    "request_reason": "Abandoned/Junk Vehicles",
    "date_created": "2024-04-17T20:51:08.000",
    "date_modified": "2024-04-17T20:51:08.000",
    "request_status": "Pending",
    "responsible_agency": "Department of Public Works",
    "final_address": "3611 Clermont Dr",
    "address_councildis": "D",
    "status": "Pending",
    "rowid": "1085709",
    "final_x": "3685940.74466",
    "final_y": "545793.235856",
    "longitude": "-90.05354469514724",
    "latitude": "29.99460649987185",
    "geocoded_column": {
      "latitude": "29.99460649987185",
      "longitude": "-90.05354469514724"
    }
  },
  {
    "service_request": "2024-1085708",
    "request_type": "Roads/Drainage",
    "request_reason": "Alley Way",
    "date_created": "2024-04-17T20:46:56.000",
    "date_modified": "2024-04-17T20:46:56.000",
    "request_status": "Pending",
    "responsible_agency": "Department of Public Works",
    "final_address": "6038 Canal Blvd",
    "address_councildis": "A",
    "status": "Pending",
    "rowid": "1085708",
    "final_x": "3668369.73844",
    "final_y": "547643.354258",
    "longitude": "-90.10898709262541",
    "latitude": "30.00022160481494",
    "geocoded_column": {
      "latitude": "30.00022160481494",
      "longitude": "-90.10898709262541"
    }
  },
  {
    "service_request": "2024-1085707",
    "request_type": "Trash/Recycling",
    "request_reason": "Order Recycling Cart",
    "date_created": "2024-04-17T20:41:16.000",
    "date_modified": "2024-04-17T20:41:16.000",
    "request_status": "Pending",
    "responsible_agency": "Department of Sanitation",
    "final_address": "1724 St Ann St",
    "address_councildis": "D",
    "status": "Pending",
    "rowid": "1085707",
    "final_x": "3679751.52411",
    "final_y": "535029.718278",
    "longitude": "-90.07346952535194",
    "latitude": "29.96519918858986",
    "geocoded_column": {
      "latitude": "29.96519918858986",
      "longitude": "-90.07346952535194"
    }
  },
  {
    "service_request": "2024-1085706",
    "request_type": "Trash/Recycling",
    "request_reason": "Order Trash Cart",
    "date_created": "2024-04-17T20:40:11.000",
    "date_modified": "2024-04-17T20:40:11.000",
    "request_status": "Pending",
    "responsible_agency": "Department of Sanitation",
    "final_address": "1724 St Ann St",
    "address_councildis": "D",
    "status": "Assigned to Contractor",
    "contractor": "IV Waste",
    "rowid": "1085706",
    "final_x": "3679751.52411",
    "final_y": "535029.718278",
    "longitude": "-90.07346952535194",
    "latitude": "29.96519918858986",
    "geocoded_column": {
      "latitude": "29.96519918858986",
      "longitude": "-90.07346952535194"
    }
  },
  {
    "service_request": "2024-1085705",
    "request_type": "Trash/Recycling",
    "request_reason": "Order Recycling Cart",
    "date_created": "2024-04-17T20:38:57.000",
    "date_modified": "2024-04-17T20:38:57.000",
    "request_status": "Pending",
    "responsible_agency": "Department of Sanitation",
    "final_address": "1722 St Ann St",
    "address_councildis": "D",
    "status": "Pending",
    "rowid": "1085705",
    "final_x": "3679760.72219",
    "final_y": "535024.398022",
    "longitude": "-90.073440663042",
    "latitude": "29.96518428161529",
    "geocoded_column": {
      "latitude": "29.96518428161529",
      "longitude": "-90.073440663042"
    }
  },
  {
    "service_request": "2024-1085704",
    "request_type": "Trash/Recycling",
    "request_reason": "Order Trash Cart",
    "date_created": "2024-04-17T20:37:55.000",
    "date_modified": "2024-04-17T20:37:56.000",
    "request_status": "Pending",
    "responsible_agency": "Department of Sanitation",
    "final_address": "1722 St Ann St",
    "address_councildis": "D",
    "status": "Assigned to Contractor",
    "contractor": "IV Waste",
    "rowid": "1085704",
    "final_x": "3679760.72219",
    "final_y": "535024.398022",
    "longitude": "-90.073440663042",
    "latitude": "29.96518428161529",
    "geocoded_column": {
      "latitude": "29.96518428161529",
      "longitude": "-90.073440663042"
    }
  },
  {
    "service_request": "2024-1085703",
    "request_type": "Roads/Drainage",
    "request_reason": "Alley Way",
    "date_created": "2024-04-17T20:36:26.000",
    "date_modified": "2024-04-17T20:36:26.000",
    "request_status": "Pending",
    "responsible_agency": "Department of Public Works",
    "final_address": "6038 Canal Blvd",
    "address_councildis": "A",
    "status": "Pending",
    "rowid": "1085703",
    "final_x": "3668369.73844",
    "final_y": "547643.354258",
    "longitude": "-90.10898709262541",
    "latitude": "30.00022160481494",
    "geocoded_column": {
      "latitude": "30.00022160481494",
      "longitude": "-90.10898709262541"
    }
  },
  {
    "service_request": "2024-1085702",
    "request_type": "Trash/Recycling",
    "request_reason": "Repair Trash Cart",
    "date_created": "2024-04-17T20:28:41.000",
    "date_modified": "2024-04-17T20:28:41.000",
    "request_status": "Pending",
    "responsible_agency": "Department of Sanitation",
    "final_address": "3527 Rue Colette",
    "address_councildis": "C",
    "status": "Assigned to Contractor",
    "contractor": "Richards Disposal",
    "rowid": "1085702",
    "final_x": "3704486.20708",
    "final_y": "517601.825334",
    "longitude": "-89.99600165184307",
    "latitude": "29.916507660865562",
    "geocoded_column": {
      "latitude": "29.916507660865562",
      "longitude": "-89.99600165184307"
    }
  },
  {
    "service_request": "2024-1085701",
    "request_type": "Trash/Recycling",
    "request_reason": "Repair Recycling Cart",
    "date_created": "2024-04-17T20:27:16.000",
    "date_modified": "2024-04-17T20:27:16.000",
    "request_status": "Pending",
    "responsible_agency": "Department of Sanitation",
    "final_address": "3527 Rue Colette",
    "address_councildis": "C",
    "status": "Pending",
    "rowid": "1085701",
    "final_x": "3704486.20708",
    "final_y": "517601.825334",
    "longitude": "-89.99600165184307",
    "latitude": "29.916507660865562",
    "geocoded_column": {
      "latitude": "29.916507660865562",
      "longitude": "-89.99600165184307"
    }
  },
  {
    "service_request": "2024-1085699",
    "request_type": "Property Maintenance",
    "request_reason": "Property Maintenance",
    "date_created": "2024-04-17T20:01:29.000",
    "date_modified": "2024-04-17T20:01:29.000",
    "request_status": "Pending",
    "responsible_agency": "Department of Code Enforcement",
    "final_address": "2519 Gravier St",
    "address_councildis": "B",
    "status": "Pending",
    "rowid": "1085699",
    "final_x": "3674776.62939",
    "final_y": "532994.60986",
    "longitude": "-90.08924977801699",
    "latitude": "29.959752791925705",
    "geocoded_column": {
      "latitude": "29.959752791925705",
      "longitude": "-90.08924977801699"
    }
  },
  {
    "service_request": "2024-1085698",
    "request_type": "Roads/Drainage",
    "request_reason": "Catch Basin - Broken/Damage",
    "date_created": "2024-04-17T19:50:50.000",
    "date_modified": "2024-04-17T19:50:50.000",
    "request_status": "Pending",
    "responsible_agency": "Department of Public Works",
    "final_address": "2630 N Rocheblave St",
    "address_councildis": "D",
    "status": "Pending",
    "rowid": "1085698",
    "final_x": "3686731.36809",
    "final_y": "541223.70766",
    "longitude": "-90.05120873189392",
    "latitude": "29.9820176221143",
    "geocoded_column": {
      "latitude": "29.9820176221143",
      "longitude": "-90.05120873189392"
    }
  },
  {
    "service_request": "2024-1085697",
    "request_type": "Trash/Recycling",
    "request_reason": "Request a Large Item Pick Up",
    "date_created": "2024-04-17T19:40:42.000",
    "date_modified": "2024-04-17T19:40:43.000",
    "request_status": "Pending",
    "responsible_agency": "Department of Sanitation",
    "final_address": "2536 Pauger St",
    "address_councildis": "D",
    "status": "Assigned to Contractor",
    "contractor": "IV Waste",
    "rowid": "1085697",
    "final_x": "3683606.03701",
    "final_y": "539089.017674",
    "longitude": "-90.06115487001662",
    "latitude": "29.97624375869862",
    "geocoded_column": {
      "latitude": "29.97624375869862",
      "longitude": "-90.06115487001662"
    }
  },
  {
    "service_request": "2024-1085695",
    "request_type": "Trash/Recycling",
    "request_reason": "Request a Large Item Pick Up",
    "date_created": "2024-04-17T19:31:39.000",
    "date_modified": "2024-04-17T19:31:39.000",
    "request_status": "Pending",
    "responsible_agency": "Department of Sanitation",
    "final_address": "432 14Th St",
    "address_councildis": "A",
    "status": "Assigned to Contractor",
    "contractor": "IV Waste",
    "rowid": "1085695",
    "final_x": "3664494.42266",
    "final_y": "548120.031954",
    "longitude": "-90.12121355506527",
    "latitude": "30.001645593735713",
    "geocoded_column": {
      "latitude": "30.001645593735713",
      "longitude": "-90.12121355506527"
    }
  },
  {
    "service_request": "2024-1085694",
    "request_type": "Traffic Signals/Signs/Striping/Streetlights",
    "request_reason": "Street Light Outage/Malfunction",
    "date_created": "2024-04-17T19:21:09.000",
    "date_modified": "2024-04-17T19:21:10.000",
    "request_status": "Pending",
    "responsible_agency": "Department of Public Works",
    "final_address": "1030 Dufossat St",
    "address_councildis": "B",
    "status": "Assigned to Contractor",
    "contractor": "Legacy Professional Services",
    "rowid": "1085694",
    "final_x": "3667962.55757",
    "final_y": "519205.329719",
    "longitude": "-90.11123156941346",
    "latitude": "29.9220383881904",
    "geocoded_column": {
      "latitude": "29.9220383881904",
      "longitude": "-90.11123156941346"
    }
  },
  {
    "service_request": "2024-1085693",
    "request_type": "Trash/Recycling",
    "request_reason": "Repair Trash Cart",
    "date_created": "2024-04-17T19:20:59.000",
    "date_modified": "2024-04-17T19:20:59.000",
    "request_status": "Pending",
    "responsible_agency": "Department of Sanitation",
    "final_address": "235 Morgan St",
    "address_councildis": "C",
    "status": "Assigned to Contractor",
    "contractor": "Richards Disposal",
    "rowid": "1085693",
    "final_x": "3686007.33206",
    "final_y": "531008.76941",
    "longitude": "-90.0538558449749",
    "latitude": "29.953952350734",
    "geocoded_column": {
      "latitude": "29.953952350734",
      "longitude": "-90.0538558449749"
    }
  },
  {
    "service_request": "2024-1085692",
    "request_type": "Trash/Recycling",
    "request_reason": "Order Trash Cart",
    "date_created": "2024-04-17T18:58:08.000",
    "date_modified": "2024-04-17T18:58:08.000",
    "request_status": "Pending",
    "responsible_agency": "Department of Sanitation",
    "final_address": "2424 S Robertson St",
    "address_councildis": "B",
    "status": "Assigned to Contractor",
    "contractor": "IV Waste",
    "rowid": "1085692",
    "final_x": "3674778.38549",
    "final_y": "526071.183806",
    "longitude": "-90.08948155948121",
    "latitude": "29.940715613052614",
    "geocoded_column": {
      "latitude": "29.940715613052614",
      "longitude": "-90.08948155948121"
    }
  },
  {
    "service_request": "2024-1085691",
    "request_type": "Trash/Recycling",
    "request_reason": "Order Trash Cart",
    "date_created": "2024-04-17T18:56:46.000",
    "date_modified": "2024-04-17T18:56:49.000",
    "request_status": "Pending",
    "responsible_agency": "Department of Sanitation",
    "final_address": "2424 S Robertson St",
    "address_councildis": "B",
    "status": "Assigned to Contractor",
    "contractor": "IV Waste",
    "rowid": "1085691",
    "final_x": "3674778.38549",
    "final_y": "526071.183806",
    "longitude": "-90.08948155948121",
    "latitude": "29.940715613052614",
    "geocoded_column": {
      "latitude": "29.940715613052614",
      "longitude": "-90.08948155948121"
    }
  },
  {
    "service_request": "2024-1085690",
    "request_type": "Trash/Recycling",
    "request_reason": "Order Trash Cart",
    "date_created": "2024-04-17T18:54:52.000",
    "date_modified": "2024-04-17T18:54:52.000",
    "request_status": "Pending",
    "responsible_agency": "Department of Sanitation",
    "final_address": "2424 S Robertson St",
    "address_councildis": "B",
    "status": "Assigned to Contractor",
    "contractor": "IV Waste",
    "rowid": "1085690",
    "final_x": "3674778.38549",
    "final_y": "526071.183806",
    "longitude": "-90.08948155948121",
    "latitude": "29.940715613052614",
    "geocoded_column": {
      "latitude": "29.940715613052614",
      "longitude": "-90.08948155948121"
    }
  },
  {
    "service_request": "2024-1085689",
    "request_type": "Roads/Drainage",
    "request_reason": "Street Flooding / Drainage",
    "date_created": "2024-04-17T18:34:49.000",
    "date_modified": "2024-04-17T18:34:49.000",
    "request_status": "Pending",
    "responsible_agency": "Department of Public Works",
    "final_address": "6048 Canal Blvd",
    "address_councildis": "A",
    "status": "Pending",
    "rowid": "1085689",
    "final_x": "3668374.09748",
    "final_y": "547693.04245",
    "longitude": "-90.10897164488549",
    "latitude": "30.00035810206603",
    "geocoded_column": {
      "latitude": "30.00035810206603",
      "longitude": "-90.10897164488549"
    }
  },
  {
    "service_request": "2024-1085688",
    "request_type": "Roads/Drainage",
    "request_reason": "Catch Basin - Broken/Damage",
    "date_created": "2024-04-17T18:34:33.000",
    "date_modified": "2024-04-17T18:34:33.000",
    "request_status": "Pending",
    "responsible_agency": "Department of Public Works",
    "final_address": "1628 Basin St",
    "address_councildis": "C",
    "status": "Pending",
    "rowid": "1085688",
    "final_x": "3679915.15016",
    "final_y": "534581.515461",
    "longitude": "-90.07296837174623",
    "latitude": "29.96396183591573",
    "geocoded_column": {
      "latitude": "29.96396183591573",
      "longitude": "-90.07296837174623"
    }
  },
  {
    "service_request": "2024-1085687",
    "request_type": "Trash/Recycling",
    "request_reason": "Request a Large Item Pick Up",
    "date_created": "2024-04-17T18:23:57.000",
    "date_modified": "2024-04-17T18:23:58.000",
    "request_status": "Pending",
    "responsible_agency": "Department of Sanitation",
    "final_address": "1304 Bartholomew St",
    "address_councildis": "D",
    "status": "Assigned to Contractor",
    "contractor": "IV Waste",
    "rowid": "1085687",
    "final_x": "3691968.40163",
    "final_y": "536104.051655",
    "longitude": "-90.0348509785574",
    "latitude": "29.967778221736033",
    "geocoded_column": {
      "latitude": "29.967778221736033",
      "longitude": "-90.0348509785574"
    }
  },
  {
    "service_request": "2024-1085686",
    "request_type": "Trash/Recycling",
    "request_reason": "Replace Trash Cart",
    "date_created": "2024-04-17T18:20:27.000",
    "date_modified": "2024-04-17T18:20:28.000",
    "request_status": "Pending",
    "responsible_agency": "Department of Sanitation",
    "final_address": "1304 Bartholomew St",
    "address_councildis": "D",
    "status": "Assigned to Contractor",
    "contractor": "IV Waste",
    "rowid": "1085686",
    "final_x": "3691968.40163",
    "final_y": "536104.051655",
    "longitude": "-90.0348509785574",
    "latitude": "29.967778221736033",
    "geocoded_column": {
      "latitude": "29.967778221736033",
      "longitude": "-90.0348509785574"
    }
  },
  {
    "service_request": "2024-1085685",
    "request_type": "Property Maintenance",
    "request_reason": "Property Maintenance",
    "date_created": "2024-04-17T18:13:21.000",
    "date_modified": "2024-04-17T18:13:21.000",
    "request_status": "Pending",
    "responsible_agency": "Department of Code Enforcement",
    "final_address": "631 S Solomon St",
    "address_councildis": "A",
    "status": "Pending",
    "rowid": "1085685",
    "final_x": "3669170.07406",
    "final_y": "536920.245064",
    "longitude": "-90.10682137871427",
    "latitude": "29.97071317060881",
    "geocoded_column": {
      "latitude": "29.97071317060881",
      "longitude": "-90.10682137871427"
    }
  },
  {
    "service_request": "2024-1085683",
    "request_type": "Property Maintenance",
    "request_reason": "Property Maintenance",
    "date_created": "2024-04-17T17:59:15.000",
    "date_modified": "2024-04-17T17:59:15.000",
    "request_status": "Pending",
    "responsible_agency": "Department of Code Enforcement",
    "final_address": "2558 N Johnson St",
    "address_councildis": "D",
    "status": "Pending",
    "rowid": "1085683",
    "final_x": "3687451.94255",
    "final_y": "539804.09857",
    "longitude": "-90.04898307616638",
    "latitude": "29.978092009813658",
    "geocoded_column": {
      "latitude": "29.978092009813658",
      "longitude": "-90.04898307616638"
    }
  },
  {
    "service_request": "2024-1085682",
    "request_type": "Trash/Recycling",
    "request_reason": "Request a Large Item Pick Up",
    "date_created": "2024-04-17T17:58:42.000",
    "date_modified": "2024-04-17T17:58:43.000",
    "request_status": "Pending",
    "responsible_agency": "Department of Sanitation",
    "final_address": "6110 Patton St",
    "address_councildis": "A",
    "status": "Assigned to Contractor",
    "contractor": "IV Waste",
    "rowid": "1085682",
    "final_x": "3663764.07514",
    "final_y": "518800.228023",
    "longitude": "-90.12449797305516",
    "latitude": "29.9210469455179",
    "geocoded_column": {
      "latitude": "29.9210469455179",
      "longitude": "-90.12449797305516"
    }
  },
  {
    "service_request": "2024-1085681",
    "request_type": "Property Maintenance",
    "request_reason": "Property Maintenance",
    "date_created": "2024-04-17T17:47:40.000",
    "date_modified": "2024-04-17T17:47:40.000",
    "request_status": "Pending",
    "responsible_agency": "Department of Code Enforcement",
    "final_address": "1615 Louisa St",
    "address_councildis": "D",
    "status": "Pending",
    "rowid": "1085681",
    "final_x": "3690086.95056",
    "final_y": "537821.694409",
    "longitude": "-90.04073144373349",
    "latitude": "29.972559625463976",
    "geocoded_column": {
      "latitude": "29.972559625463976",
      "longitude": "-90.04073144373349"
    }
  },
  {
    "service_request": "2024-1085680",
    "request_type": "Roads/Drainage",
    "request_reason": "Catch Basin - Broken/Damage",
    "date_created": "2024-04-17T17:46:59.000",
    "date_modified": "2024-04-17T17:46:59.000",
    "request_status": "Pending",
    "responsible_agency": "Department of Public Works",
    "final_address": "4566 St Claude Ave",
    "address_councildis": "C",
    "status": "Pending",
    "rowid": "1085680",
    "final_x": "3693676.23312",
    "final_y": "534736.419526",
    "longitude": "-90.02950676703686",
    "latitude": "29.96396439112423",
    "geocoded_column": {
      "latitude": "29.96396439112423",
      "longitude": "-90.02950676703686"
    }
  },
  {
    "service_request": "2024-1085679",
    "request_type": "Abandoned Vehicles",
    "request_reason": "Abandoned/Junk Vehicles",
    "date_created": "2024-04-17T17:45:44.000",
    "date_modified": "2024-04-17T17:45:44.000",
    "request_status": "Pending",
    "responsible_agency": "Department of Public Works",
    "final_address": "1110 Marengo St",
    "address_councildis": "B",
    "status": "Pending",
    "rowid": "1085679",
    "final_x": "3672024.80711",
    "final_y": "519735.74412",
    "longitude": "-90.09839067460052",
    "latitude": "29.92337710066283",
    "geocoded_column": {
      "latitude": "29.92337710066283",
      "longitude": "-90.09839067460052"
    }
  },
  {
    "service_request": "2024-1085678",
    "request_type": "Trash/Recycling",
    "request_reason": "Missed Trash Pick-Up",
    "date_created": "2024-04-17T17:42:48.000",
    "date_modified": "2024-04-17T17:42:48.000",
    "request_status": "Pending",
    "responsible_agency": "Department of Sanitation",
    "final_address": "6511 S Claiborne Ave",
    "address_councildis": "A",
    "status": "Assigned to Contractor",
    "contractor": "IV Waste",
    "rowid": "1085678",
    "final_x": "3666787.61857",
    "final_y": "528985.805568",
    "longitude": "-90.1146120081786",
    "latitude": "29.948965976484548",
    "geocoded_column": {
      "latitude": "29.948965976484548",
      "longitude": "-90.1146120081786"
    }
  },
  {
    "service_request": "2024-1085676",
    "request_type": "Property Maintenance",
    "request_reason": "Property Maintenance",
    "date_created": "2024-04-17T17:38:59.000",
    "date_modified": "2024-04-17T17:38:59.000",
    "request_status": "Pending",
    "responsible_agency": "Department of Code Enforcement",
    "final_address": "1400 Bartholomew St",
    "address_councildis": "D",
    "status": "Pending",
    "rowid": "1085676",
    "final_x": "3692043.23561",
    "final_y": "536458.339975",
    "longitude": "-90.03460197023438",
    "latitude": "29.968750057558967",
    "geocoded_column": {
      "latitude": "29.968750057558967",
      "longitude": "-90.03460197023438"
    }
  },
  {
    "service_request": "2024-1085675",
    "request_type": "Abandoned Vehicles",
    "request_reason": "Vehicle Blocking Your Driveway",
    "date_created": "2024-04-17T17:38:55.000",
    "date_modified": "2024-04-17T17:38:55.000",
    "request_status": "Pending",
    "responsible_agency": "Department of Public Works",
    "final_address": "1557 Calhoun St",
    "address_councildis": "A",
    "status": "Pending",
    "rowid": "1085675",
    "final_x": "3664802.93216",
    "final_y": "522707.821882",
    "longitude": "-90.1210882611132",
    "latitude": "29.93176142270021",
    "geocoded_column": {
      "latitude": "29.93176142270021",
      "longitude": "-90.1210882611132"
    }
  },
  {
    "service_request": "2024-1085674",
    "request_type": "Trash/Recycling",
    "request_reason": "Order Recycling Cart",
    "date_created": "2024-04-17T17:37:07.000",
    "date_modified": "2024-04-17T17:37:07.000",
    "request_status": "Pending",
    "responsible_agency": "Department of Sanitation",
    "final_address": "10912 N Hardy St",
    "address_councildis": "E",
    "status": "Pending",
    "rowid": "1085674",
    "final_x": "3712544.40414",
    "final_y": "561929.936287",
    "longitude": "-89.96890088519433",
    "latitude": "30.038132276094736",
    "geocoded_column": {
      "latitude": "30.038132276094736",
      "longitude": "-89.96890088519433"
    }
  },
  {
    "service_request": "2024-1085673",
    "request_type": "Trash/Recycling",
    "request_reason": "Order Recycling Cart",
    "date_created": "2024-04-17T17:36:19.000",
    "date_modified": "2024-04-17T17:36:19.000",
    "request_status": "Pending",
    "responsible_agency": "Department of Sanitation",
    "final_address": "10906 N Hardy St",
    "address_councildis": "E",
    "status": "Pending",
    "rowid": "1085673",
    "final_x": "3712491.77298",
    "final_y": "561891.030943",
    "longitude": "-89.96906867530453",
    "latitude": "30.038027025108775",
    "geocoded_column": {
      "latitude": "30.038027025108775",
      "longitude": "-89.96906867530453"
    }
  },
  {
    "service_request": "2024-1085672",
    "request_type": "Trash/Recycling",
    "request_reason": "Missed Trash Pick-Up",
    "date_created": "2024-04-17T17:31:28.000",
    "date_modified": "2024-04-17T17:31:29.000",
    "request_status": "Pending",
    "responsible_agency": "Department of Sanitation",
    "final_address": "2224 4th St, New Orleans, Louisiana, 70113",
    "status": "Assigned to Contractor",
    "rowid": "1085672",
    "longitude": "0.0",
    "latitude": "0.0",
    "geocoded_column": {
      "latitude": "0.0",
      "longitude": "0.0"
    }
  },
  {
    "service_request": "2024-1085671",
    "request_type": "Trash/Recycling",
    "request_reason": "Replace Trash Cart",
    "date_created": "2024-04-17T17:25:57.000",
    "date_modified": "2024-04-17T17:25:57.000",
    "request_status": "Pending",
    "responsible_agency": "Department of Sanitation",
    "final_address": "2513 N Galvez St, New Orleans, Louisiana, 70117",
    "address_councildis": "D",
    "status": "Assigned to Contractor",
    "contractor": "IV Waste",
    "rowid": "1085671",
    "final_x": "3687052.8639",
    "final_y": "540204.557963",
    "longitude": "-90.05022934215529",
    "latitude": "29.97920542552958",
    "geocoded_column": {
      "latitude": "29.97920542552958",
      "longitude": "-90.05022934215529"
    }
  },
  {
    "service_request": "2024-1085670",
    "request_type": "Property Maintenance",
    "request_reason": "Property Maintenance",
    "date_created": "2024-04-17T17:21:12.000",
    "date_modified": "2024-04-17T17:21:12.000",
    "request_status": "Pending",
    "responsible_agency": "Department of Code Enforcement",
    "final_address": "4316 N Robertson St",
    "address_councildis": "D",
    "status": "Pending",
    "rowid": "1085670",
    "final_x": "3693206.27024",
    "final_y": "536488.681863",
    "longitude": "-90.03092796455344",
    "latitude": "29.96879718926908",
    "geocoded_column": {
      "latitude": "29.96879718926908",
      "longitude": "-90.03092796455344"
    }
  },
  {
    "service_request": "2024-1085669",
    "request_type": "Trash/Recycling",
    "request_reason": "Missed Trash Pick-Up",
    "date_created": "2024-04-17T17:07:01.000",
    "date_modified": "2024-04-17T17:07:01.000",
    "request_status": "Pending",
    "responsible_agency": "Department of Sanitation",
    "final_address": "4121 Stewart Ct",
    "address_councildis": "A",
    "status": "Assigned to Contractor",
    "contractor": "IV Waste",
    "rowid": "1085669",
    "final_x": "3673031.87368",
    "final_y": "540956.869259",
    "longitude": "-90.09448749495327",
    "latitude": "29.981698286665164",
    "geocoded_column": {
      "latitude": "29.981698286665164",
      "longitude": "-90.09448749495327"
    }
  },
  {
    "service_request": "2024-1085668",
    "request_type": "Trash/Recycling",
    "request_reason": "Missed Trash Pick-Up",
    "date_created": "2024-04-17T17:06:43.000",
    "date_modified": "2024-04-17T17:32:52.000",
    "case_close_date": "2024-04-17T12:32:52.000",
    "request_status": "Closed",
    "responsible_agency": "Department of Sanitation",
    "final_address": "2805 Carondelet St",
    "address_councildis": "B",
    "status": "Invalid Request",
    "contractor": "IV Waste",
    "contractor_action": "Invalid",
    "rowid": "1085668",
    "final_x": "3675614.71253",
    "final_y": "522855.212091",
    "longitude": "-90.08695157086846",
    "latitude": "29.931847752664915",
    "geocoded_column": {
      "latitude": "29.931847752664915",
      "longitude": "-90.08695157086846"
    }
  },
  {
    "service_request": "2024-1085667",
    "request_type": "Parks & Parkways",
    "request_reason": "Request Grass Cutting Service (City Owned Property)",
    "date_created": "2024-04-17T17:05:39.000",
    "date_modified": "2024-04-17T17:05:39.000",
    "request_status": "Pending",
    "responsible_agency": "Department of Parks & Parkway",
    "final_address": "5900 E Deer Park Blvd",
    "address_councildis": "E",
    "status": "Pending",
    "rowid": "1085667",
    "final_x": "3712213.70315",
    "final_y": "561339.233438",
    "longitude": "-89.9699681858652",
    "latitude": "30.036518903081163",
    "geocoded_column": {
      "latitude": "30.036518903081163",
      "longitude": "-89.9699681858652"
    }
  },
  {
    "service_request": "2024-1085666",
    "request_type": "Trash/Recycling",
    "request_reason": "Replace Trash Cart",
    "date_created": "2024-04-17T17:04:57.000",
    "date_modified": "2024-04-17T17:04:58.000",
    "request_status": "Pending",
    "responsible_agency": "Department of Sanitation",
    "final_address": "Baudin Street & South Hennessey Street",
    "address_councildis": "A",
    "status": "Assigned to Contractor",
    "contractor": "Richards Disposal",
    "rowid": "1085666",
    "final_x": "3669317.99041",
    "final_y": "537674.845768",
    "longitude": "-90.10632872024826",
    "latitude": "29.97278371509667",
    "geocoded_column": {
      "latitude": "29.97278371509667",
      "longitude": "-90.10632872024826"
    }
  },
  {
    "service_request": "2024-1085665",
    "request_type": "Trash/Recycling",
    "request_reason": "Request a Large Item Pick Up",
    "date_created": "2024-04-17T16:57:10.000",
    "date_modified": "2024-04-17T16:57:10.000",
    "request_status": "Pending",
    "responsible_agency": "Department of Sanitation",
    "final_address": "130 S Hennessey St",
    "address_councildis": "A",
    "status": "Assigned to Contractor",
    "contractor": "IV Waste",
    "rowid": "1085665",
    "final_x": "3670143.80474",
    "final_y": "538682.539721",
    "longitude": "-90.10368648454515",
    "latitude": "29.975530192526367",
    "geocoded_column": {
      "latitude": "29.975530192526367",
      "longitude": "-90.10368648454515"
    }
  },
  {
    "service_request": "2024-1085663",
    "request_type": "Trash/Recycling",
    "request_reason": "Replace Trash Cart",
    "date_created": "2024-04-17T16:51:05.000",
    "date_modified": "2024-04-17T16:51:06.000",
    "request_status": "Pending",
    "responsible_agency": "Department of Sanitation",
    "final_address": "2633 Pauger St",
    "address_councildis": "D",
    "status": "Assigned to Contractor",
    "contractor": "IV Waste",
    "rowid": "1085663",
    "final_x": "3683652.02524",
    "final_y": "539486.46913",
    "longitude": "-90.06099568727865",
    "latitude": "29.977335207376964",
    "geocoded_column": {
      "latitude": "29.977335207376964",
      "longitude": "-90.06099568727865"
    }
  },
  {
    "service_request": "2024-1085662",
    "request_type": "Trash/Recycling",
    "request_reason": "Request a Large Item Pick Up",
    "date_created": "2024-04-17T16:47:44.000",
    "date_modified": "2024-04-17T16:47:45.000",
    "request_status": "Pending",
    "responsible_agency": "Department of Sanitation",
    "final_address": "5114 Cartier Ave",
    "address_councildis": "D",
    "status": "Assigned to Contractor",
    "contractor": "IV Waste",
    "rowid": "1085662",
    "final_x": "3677632.69493",
    "final_y": "550970.710741",
    "longitude": "-90.07960987338394",
    "latitude": "30.009095250593777",
    "geocoded_column": {
      "latitude": "30.009095250593777",
      "longitude": "-90.07960987338394"
    }
  },
  {
    "service_request": "2024-1085661",
    "request_type": "Trash/Recycling",
    "request_reason": "Repair Trash Cart",
    "date_created": "2024-04-17T16:44:33.000",
    "date_modified": "2024-04-17T16:44:34.000",
    "request_status": "Pending",
    "responsible_agency": "Department of Sanitation",
    "final_address": "5446 Tullis Dr",
    "address_councildis": "C",
    "status": "Assigned to Contractor",
    "contractor": "Richards Disposal",
    "rowid": "1085661",
    "final_x": "3704186.14289",
    "final_y": "512029.133872",
    "longitude": "-89.99715388413972",
    "latitude": "29.901194289382563",
    "geocoded_column": {
      "latitude": "29.901194289382563",
      "longitude": "-89.99715388413972"
    }
  },
  {
    "service_request": "2024-1085660",
    "request_type": "Trash/Recycling",
    "request_reason": "Repair Recycling Cart",
    "date_created": "2024-04-17T16:42:22.000",
    "date_modified": "2024-04-17T16:54:39.000",
    "request_status": "Pending",
    "responsible_agency": "Department of Sanitation",
    "final_address": "133 Bellaire Dr",
    "address_councildis": "A",
    "status": "Pending",
    "rowid": "1085660",
    "final_x": "3663916.13267",
    "final_y": "540574.717451",
    "longitude": "-90.1232921596549",
    "latitude": "29.980915344380918",
    "geocoded_column": {
      "latitude": "29.980915344380918",
      "longitude": "-90.1232921596549"
    }
  },
  {
    "service_request": "2024-1085659",
    "request_type": "Trash/Recycling",
    "request_reason": "Missed Trash Pick-Up",
    "date_created": "2024-04-17T16:41:18.000",
    "date_modified": "2024-04-17T17:03:51.000",
    "case_close_date": "2024-04-17T12:03:51.000",
    "request_status": "Closed",
    "responsible_agency": "Department of Sanitation",
    "final_address": "2323 Napoleon Ave",
    "address_councildis": "B",
    "status": "Invalid Request",
    "contractor": "IV Waste",
    "contractor_action": "Invalid",
    "rowid": "1085659",
    "final_x": "3670678.14228",
    "final_y": "523545.080315",
    "longitude": "-90.10251243535163",
    "latitude": "29.933891395218257",
    "geocoded_column": {
      "latitude": "29.933891395218257",
      "longitude": "-90.10251243535163"
    }
  },
  {
    "service_request": "2024-1085658",
    "request_type": "Trash/Recycling",
    "request_reason": "Request a Large Item Pick Up",
    "date_created": "2024-04-17T16:34:24.000",
    "date_modified": "2024-04-17T16:34:25.000",
    "request_status": "Pending",
    "responsible_agency": "Department of Sanitation",
    "final_address": "4920 Francisco Verrett Dr",
    "address_councildis": "E",
    "status": "Assigned to Contractor",
    "contractor": "Waste Pro",
    "rowid": "1085658",
    "final_x": "3704083.43684",
    "final_y": "556079.246298",
    "longitude": "-89.99585532712834",
    "latitude": "30.02231946966756",
    "geocoded_column": {
      "latitude": "30.02231946966756",
      "longitude": "-89.99585532712834"
    }
  },
  {
    "service_request": "2024-1085657",
    "request_type": "Property Maintenance",
    "request_reason": "Property Maintenance",
    "date_created": "2024-04-17T16:34:01.000",
    "date_modified": "2024-04-17T16:34:01.000",
    "request_status": "Pending",
    "responsible_agency": "Department of Code Enforcement",
    "final_address": "800 BLK Pine St",
    "address_councildis": "A",
    "status": "Pending",
    "rowid": "1085657",
    "final_x": "3663228.7178",
    "final_y": "525631.552527",
    "longitude": "-90.12596064917395",
    "latitude": "29.93984645626564",
    "geocoded_column": {
      "latitude": "29.93984645626564",
      "longitude": "-90.12596064917395"
    }
  },
  {
    "service_request": "2024-1085656",
    "request_type": "Trash/Recycling",
    "request_reason": "Repair Trash Cart",
    "date_created": "2024-04-17T16:31:59.000",
    "date_modified": "2024-04-17T16:32:00.000",
    "request_status": "Pending",
    "responsible_agency": "Department of Sanitation",
    "final_address": "4731 Nottingham Dr",
    "address_councildis": "E",
    "status": "Assigned to Contractor",
    "contractor": "Waste Pro",
    "rowid": "1085656",
    "final_x": "3716466.38117",
    "final_y": "556972.19401",
    "longitude": "-89.95669481188187",
    "latitude": "30.024371478174448",
    "geocoded_column": {
      "latitude": "30.024371478174448",
      "longitude": "-89.95669481188187"
    }
  },
  {
    "service_request": "2024-1085655",
    "request_type": "Property Maintenance",
    "request_reason": "Property Maintenance",
    "date_created": "2024-04-17T16:31:36.000",
    "date_modified": "2024-04-17T16:31:36.000",
    "request_status": "Pending",
    "responsible_agency": "Department of Code Enforcement",
    "final_address": "2700 BLK New Orleans St",
    "address_councildis": "D",
    "status": "Pending",
    "rowid": "1085655",
    "final_x": "3681891.86551",
    "final_y": "542538.896009",
    "longitude": "-90.06644826001335",
    "latitude": "29.985781937773673",
    "geocoded_column": {
      "latitude": "29.985781937773673",
      "longitude": "-90.06644826001335"
    }
  },
  {
    "service_request": "2024-1085654",
    "request_type": "Abandoned Vehicles",
    "request_reason": "Abandoned/Junk Vehicles",
    "date_created": "2024-04-17T16:22:27.000",
    "date_modified": "2024-04-17T16:22:27.000",
    "request_status": "Pending",
    "responsible_agency": "Department of Public Works",
    "final_address": "14601 Old Gentilly Rd",
    "address_councildis": "E",
    "status": "Pending",
    "rowid": "1085654",
    "final_x": "3730925.33011",
    "final_y": "560372.171166",
    "longitude": "-89.91087451923975",
    "latitude": "30.033234439027805",
    "geocoded_column": {
      "latitude": "30.033234439027805",
      "longitude": "-89.91087451923975"
    }
  },
  {
    "service_request": "2024-1085653",
    "request_type": "Trash/Recycling",
    "request_reason": "Request a Large Item Pick Up",
    "date_created": "2024-04-17T16:21:56.000",
    "date_modified": "2024-04-17T17:32:32.000",
    "case_close_date": "2024-04-17T12:32:32.000",
    "request_status": "Closed",
    "responsible_agency": "Department of Sanitation",
    "final_address": "1313 Charbonnet St",
    "address_councildis": "E",
    "status": "Assigned to Contractor",
    "contractor": "Waste Pro",
    "contractor_action": "Completed",
    "rowid": "1085653",
    "final_x": "3698926.48144",
    "final_y": "534446.735045",
    "longitude": "-90.0129376093313",
    "latitude": "29.963002549527275",
    "geocoded_column": {
      "latitude": "29.963002549527275",
      "longitude": "-90.0129376093313"
    }
  },
  {
    "service_request": "2024-1085652",
    "request_type": "Trash/Recycling",
    "request_reason": "Repair Trash Cart",
    "date_created": "2024-04-17T16:19:12.000",
    "date_modified": "2024-04-17T16:19:12.000",
    "request_status": "Pending",
    "responsible_agency": "Department of Sanitation",
    "final_address": "5922 Pauline Dr",
    "address_councildis": "D",
    "status": "Assigned to Contractor",
    "contractor": "IV Waste",
    "rowid": "1085652",
    "final_x": "3691507.16348",
    "final_y": "555910.061977",
    "longitude": "-90.03559918350464",
    "latitude": "30.022251914985468",
    "geocoded_column": {
      "latitude": "30.022251914985468",
      "longitude": "-90.03559918350464"
    }
  },
  {
    "service_request": "2024-1085651",
    "request_type": "Abandoned Vehicles",
    "request_reason": "Abandoned/Junk Vehicles",
    "date_created": "2024-04-17T16:18:15.000",
    "date_modified": "2024-04-17T16:18:15.000",
    "request_status": "Pending",
    "responsible_agency": "Department of Public Works",
    "final_address": "613 Third St",
    "address_councildis": "B",
    "status": "Pending",
    "rowid": "1085651",
    "final_x": "3678543.02773",
    "final_y": "519767.653112",
    "longitude": "-90.0778139953081",
    "latitude": "29.92327006372885",
    "geocoded_column": {
      "latitude": "29.92327006372885",
      "longitude": "-90.0778139953081"
    }
  },
  {
    "service_request": "2024-1085650",
    "request_type": "Safety & Permits",
    "request_reason": "Licenses & Permits",
    "date_created": "2024-04-17T16:17:40.000",
    "date_modified": "2024-04-17T16:17:41.000",
    "request_status": "Pending",
    "responsible_agency": "Safety and Permits",
    "final_address": "5 Yosemite Dr",
    "address_councildis": "C",
    "status": "Pending",
    "rowid": "1085650",
    "final_x": "3699429.76663",
    "final_y": "517716.636406",
    "longitude": "-90.01195755558766",
    "latitude": "29.916984654818734",
    "geocoded_column": {
      "latitude": "29.916984654818734",
      "longitude": "-90.01195755558766"
    }
  },
  {
    "service_request": "2024-1085649",
    "request_type": "Mosquito, Termite & Rodent Control",
    "request_reason": "Mosquito Complaint",
    "date_created": "2024-04-17T16:14:18.000",
    "date_modified": "2024-04-17T16:14:18.000",
    "request_status": "Pending",
    "responsible_agency": "Mosquito, Termite & Rodent Control Board",
    "final_address": "4341 Alba Rd",
    "address_councildis": "E",
    "status": "Pending",
    "rowid": "1085649",
    "final_x": "3761691.69321",
    "final_y": "572743.674025",
    "longitude": "-89.81313368679389",
    "latitude": "30.06616440488415",
    "geocoded_column": {
      "latitude": "30.06616440488415",
      "longitude": "-89.81313368679389"
    }
  },
  {
    "service_request": "2024-1085648",
    "request_type": "Trash/Recycling",
    "request_reason": "Request a Large Item Pick Up",
    "date_created": "2024-04-17T16:11:02.000",
    "date_modified": "2024-04-17T16:11:02.000",
    "request_status": "Pending",
    "responsible_agency": "Department of Sanitation",
    "final_address": "4107 Virgil Blvd",
    "address_councildis": "D",
    "status": "Assigned to Contractor",
    "contractor": "IV Waste",
    "rowid": "1085648",
    "final_x": "3679689.12495",
    "final_y": "547481.303762",
    "longitude": "-90.0732341543099",
    "latitude": "29.999438599473727",
    "geocoded_column": {
      "latitude": "29.999438599473727",
      "longitude": "-90.0732341543099"
    }
  },
  {
    "service_request": "2024-1085647",
    "request_type": "Trash/Recycling",
    "request_reason": "Request a Large Item Pick Up",
    "date_created": "2024-04-17T16:10:47.000",
    "date_modified": "2024-04-17T16:10:48.000",
    "request_status": "Pending",
    "responsible_agency": "Department of Sanitation",
    "final_address": "4122 Prytania St",
    "address_councildis": "B",
    "status": "Assigned to Contractor",
    "contractor": "IV Waste",
    "rowid": "1085647",
    "final_x": "3671811.99118",
    "final_y": "520358.745336",
    "longitude": "-90.09904127205557",
    "latitude": "29.92509646002648",
    "geocoded_column": {
      "latitude": "29.92509646002648",
      "longitude": "-90.09904127205557"
    }
  },
  {
    "service_request": "2024-1085646",
    "request_type": "Trash/Recycling",
    "request_reason": "Replace Recycling Cart",
    "date_created": "2024-04-17T16:09:53.000",
    "date_modified": "2024-04-17T16:09:53.000",
    "request_status": "Pending",
    "responsible_agency": "Department of Sanitation",
    "final_address": "4020 Camp St",
    "address_councildis": "B",
    "status": "Pending",
    "rowid": "1085646",
    "final_x": "3672329.72443",
    "final_y": "519227.943799",
    "longitude": "-90.09744545234194",
    "latitude": "29.92197177222624",
    "geocoded_column": {
      "latitude": "29.92197177222624",
      "longitude": "-90.09744545234194"
    }
  },
  {
    "service_request": "2024-1085645",
    "request_type": "Trash/Recycling",
    "request_reason": "Replace Trash Cart",
    "date_created": "2024-04-17T16:09:01.000",
    "date_modified": "2024-04-17T16:09:02.000",
    "request_status": "Pending",
    "responsible_agency": "Department of Sanitation",
    "final_address": "4020 Camp St",
    "address_councildis": "B",
    "status": "Assigned to Contractor",
    "contractor": "IV Waste",
    "rowid": "1085645",
    "final_x": "3672329.72443",
    "final_y": "519227.943799",
    "longitude": "-90.09744545234194",
    "latitude": "29.92197177222624",
    "geocoded_column": {
      "latitude": "29.92197177222624",
      "longitude": "-90.09744545234194"
    }
  },
  {
    "service_request": "2024-1085644",
    "request_type": "Trash/Recycling",
    "request_reason": "Order Recycling Cart",
    "date_created": "2024-04-17T16:08:24.000",
    "date_modified": "2024-04-17T16:08:25.000",
    "request_status": "Pending",
    "responsible_agency": "Department of Sanitation",
    "final_address": "5 Oak Alley Dr",
    "address_councildis": "C",
    "status": "Pending",
    "rowid": "1085644",
    "final_x": "3721797.91295",
    "final_y": "511189.385712",
    "longitude": "-89.94160543956812",
    "latitude": "29.898308825551986",
    "geocoded_column": {
      "latitude": "29.898308825551986",
      "longitude": "-89.94160543956812"
    }
  },
  {
    "service_request": "2024-1085643",
    "request_type": "Trash/Recycling",
    "request_reason": "Repair Trash Cart",
    "date_created": "2024-04-17T16:06:47.000",
    "date_modified": "2024-04-17T16:06:47.000",
    "request_status": "Pending",
    "responsible_agency": "Department of Sanitation",
    "final_address": "5400 Tullis Dr",
    "address_councildis": "C",
    "status": "Assigned to Contractor",
    "contractor": "Richards Disposal",
    "rowid": "1085643",
    "final_x": "3703969.56151",
    "final_y": "511975.875248",
    "longitude": "-89.99783935194829",
    "latitude": "29.901054788968743",
    "geocoded_column": {
      "latitude": "29.901054788968743",
      "longitude": "-89.99783935194829"
    }
  },
  {
    "service_request": "2024-1085642",
    "request_type": "Roads/Drainage",
    "request_reason": "Street Flooding / Drainage",
    "date_created": "2024-04-17T16:02:36.000",
    "date_modified": "2024-04-17T16:02:36.000",
    "request_status": "Pending",
    "responsible_agency": "Department of Public Works",
    "final_address": "5701 Warrington Dr",
    "address_councildis": "D",
    "status": "Pending",
    "rowid": "1085642",
    "final_x": "3680892.63669",
    "final_y": "553680.934615",
    "longitude": "-90.06921616133165",
    "latitude": "30.016448906451384",
    "geocoded_column": {
      "latitude": "30.016448906451384",
      "longitude": "-90.06921616133165"
    }
  },
  {
    "service_request": "2024-1085641",
    "request_type": "Trash/Recycling",
    "request_reason": "Request a Large Item Pick Up",
    "date_created": "2024-04-17T16:01:57.000",
    "date_modified": "2024-04-17T16:01:57.000",
    "request_status": "Pending",
    "responsible_agency": "Department of Sanitation",
    "final_address": "4520 S Johnson St",
    "address_councildis": "B",
    "status": "Assigned to Contractor",
    "contractor": "IV Waste",
    "rowid": "1085641",
    "final_x": "3669613.22407",
    "final_y": "527120.917695",
    "longitude": "-90.10575340470605",
    "latitude": "29.943755203415613",
    "geocoded_column": {
      "latitude": "29.943755203415613",
      "longitude": "-90.10575340470605"
    }
  },
  {
    "service_request": "2024-1085640",
    "request_type": "Trash/Recycling",
    "request_reason": "Order Trash Cart",
    "date_created": "2024-04-17T16:00:31.000",
    "date_modified": "2024-04-17T16:00:31.000",
    "request_status": "Pending",
    "responsible_agency": "Department of Sanitation",
    "final_address": "509 Fern St",
    "address_councildis": "A",
    "status": "Assigned to Contractor",
    "contractor": "IV Waste",
    "rowid": "1085640",
    "final_x": "3660972.30912",
    "final_y": "526082.802046",
    "longitude": "-90.13306957324508",
    "latitude": "29.941152432315175",
    "geocoded_column": {
      "latitude": "29.941152432315175",
      "longitude": "-90.13306957324508"
    }
  },
  {
    "service_request": "2024-1085639",
    "request_type": "Trash/Recycling",
    "request_reason": "MIssed Recycling Pick-Up",
    "date_created": "2024-04-17T16:00:05.000",
    "date_modified": "2024-04-17T17:28:37.000",
    "case_close_date": "2024-04-16T19:00:00.000",
    "request_status": "Closed",
    "responsible_agency": "Department of Sanitation",
    "final_address": "1031 Moss St",
    "address_councildis": "A",
    "status": "Invalid Request",
    "contractor": "IV Waste",
    "contractor_action": "Invalid",
    "rowid": "1085639",
    "final_x": "3674887.31195",
    "final_y": "540008.060043",
    "longitude": "-90.08865969538884",
    "latitude": "29.979034097487006",
    "geocoded_column": {
      "latitude": "29.979034097487006",
      "longitude": "-90.08865969538884"
    }
  },
  {
    "service_request": "2024-1085638",
    "request_type": "Trash/Recycling",
    "request_reason": "MIssed Recycling Pick-Up",
    "date_created": "2024-04-17T15:56:31.000",
    "date_modified": "2024-04-17T17:27:53.000",
    "case_close_date": "2024-04-17T12:27:53.000",
    "request_status": "Closed",
    "responsible_agency": "Department of Sanitation",
    "final_address": "1565 Exposition Blvd",
    "address_councildis": "A",
    "status": "Invalid Request",
    "contractor": "IV Waste",
    "contractor_action": "Invalid",
    "rowid": "1085638",
    "final_x": "3664528.7122",
    "final_y": "522846.914363",
    "longitude": "-90.1219493047153",
    "latitude": "29.93215185729792",
    "geocoded_column": {
      "latitude": "29.93215185729792",
      "longitude": "-90.1219493047153"
    }
  },
  {
    "service_request": "2024-1085637",
    "request_type": "Trash/Recycling",
    "request_reason": "Order Recycling Cart",
    "date_created": "2024-04-17T15:55:58.000",
    "date_modified": "2024-04-17T15:55:58.000",
    "request_status": "Pending",
    "responsible_agency": "Department of Sanitation",
    "final_address": "1664 St Denis St",
    "address_councildis": "D",
    "status": "Pending",
    "rowid": "1085637",
    "final_x": "3680275.05672",
    "final_y": "545880.445776",
    "longitude": "-90.07143887195188",
    "latitude": "29.995019077379084",
    "geocoded_column": {
      "latitude": "29.995019077379084",
      "longitude": "-90.07143887195188"
    }
  },
  {
    "service_request": "2024-1085636",
    "request_type": "Trash/Recycling",
    "request_reason": "Order Trash Cart",
    "date_created": "2024-04-17T15:55:28.000",
    "date_modified": "2024-04-17T15:55:29.000",
    "request_status": "Pending",
    "responsible_agency": "Department of Sanitation",
    "final_address": "1664 St Denis St",
    "address_councildis": "D",
    "status": "Assigned to Contractor",
    "contractor": "IV Waste",
    "rowid": "1085636",
    "final_x": "3680275.05672",
    "final_y": "545880.445776",
    "longitude": "-90.07143887195188",
    "latitude": "29.995019077379084",
    "geocoded_column": {
      "latitude": "29.995019077379084",
      "longitude": "-90.07143887195188"
    }
  },
  {
    "service_request": "2024-1085635",
    "request_type": "Property Maintenance",
    "request_reason": "Property Maintenance",
    "date_created": "2024-04-17T15:55:25.000",
    "date_modified": "2024-04-17T15:55:26.000",
    "request_status": "Pending",
    "responsible_agency": "Department of Code Enforcement",
    "final_address": "6501 Maumus Ave",
    "address_councildis": "C",
    "status": "Pending",
    "rowid": "1085635",
    "final_x": "3707856.84868",
    "final_y": "516631.992501",
    "longitude": "-89.985398642164",
    "latitude": "29.91373235657553",
    "geocoded_column": {
      "latitude": "29.91373235657553",
      "longitude": "-89.985398642164"
    }
  },
  {
    "service_request": "2024-1085633",
    "request_type": "Traffic Signals/Signs/Striping/Streetlights",
    "request_reason": "Street Light Outage/Malfunction",
    "date_created": "2024-04-17T15:52:54.000",
    "date_modified": "2024-04-17T15:52:55.000",
    "request_status": "Pending",
    "responsible_agency": "Department of Public Works",
    "final_address": "4827 Friar Tuck Dr",
    "address_councildis": "E",
    "status": "Assigned to Contractor",
    "contractor": "Legacy Professional Services",
    "rowid": "1085633",
    "final_x": "3717786.22969",
    "final_y": "557399.841179",
    "longitude": "-89.95250809430375",
    "latitude": "30.025503670340008",
    "geocoded_column": {
      "latitude": "30.025503670340008",
      "longitude": "-89.95250809430375"
    }
  },
  {
    "service_request": "2024-1085632",
    "request_type": "Trash/Recycling",
    "request_reason": "Order Recycling Cart",
    "date_created": "2024-04-17T15:48:07.000",
    "date_modified": "2024-04-17T15:48:08.000",
    "request_status": "Pending",
    "responsible_agency": "Department of Sanitation",
    "final_address": "3311 Third St",
    "address_councildis": "B",
    "status": "Pending",
    "rowid": "1085632",
    "final_x": "3673061.9252",
    "final_y": "528040.501119",
    "longitude": "-90.09483352775217",
    "latitude": "29.94618171306444",
    "geocoded_column": {
      "latitude": "29.94618171306444",
      "longitude": "-90.09483352775217"
    }
  },
  {
    "service_request": "2024-1085631",
    "request_type": "Trash/Recycling",
    "request_reason": "Request a Large Item Pick Up",
    "date_created": "2024-04-17T15:44:49.000",
    "date_modified": "2024-04-17T18:02:46.000",
    "case_close_date": "2024-04-17T13:02:46.000",
    "request_status": "Closed",
    "responsible_agency": "Department of Sanitation",
    "final_address": "1041 Austerlitz St",
    "address_councildis": "B",
    "status": "Invalid Request",
    "contractor": "IV Waste",
    "contractor_action": "Invalid Request",
    "rowid": "1085631",
    "final_x": "3672835.34382",
    "final_y": "519669.692024",
    "longitude": "-90.09583436191264",
    "latitude": "29.923171433435677",
    "geocoded_column": {
      "latitude": "29.923171433435677",
      "longitude": "-90.09583436191264"
    }
  },
  {
    "service_request": "2024-1085630",
    "request_type": "Roads/Drainage",
    "request_reason": "Debris in Roadway",
    "date_created": "2024-04-17T15:43:12.000",
    "date_modified": "2024-04-17T15:43:12.000",
    "request_status": "Pending",
    "responsible_agency": "Department of Public Works",
    "final_address": "4485 St Roch Ave",
    "address_councildis": "D",
    "status": "Pending",
    "rowid": "1085630",
    "final_x": "3685503.20738",
    "final_y": "549491.848083",
    "longitude": "-90.05479645447701",
    "latitude": "30.004789781036852",
    "geocoded_column": {
      "latitude": "30.004789781036852",
      "longitude": "-90.05479645447701"
    }
  },
  {
    "service_request": "2024-1085629",
    "request_type": "Roads/Drainage",
    "request_reason": "Debris in Roadway",
    "date_created": "2024-04-17T15:39:59.000",
    "date_modified": "2024-04-17T15:39:59.000",
    "request_status": "Pending",
    "responsible_agency": "Department of Public Works",
    "final_address": "LAKE FOREST BLVD & PARC BRITTANY BLVD",
    "address_councildis": "E",
    "status": "Pending",
    "rowid": "1085629",
    "final_x": "3703013.1",
    "final_y": "556785.28",
    "longitude": "-89.99921133030972",
    "latitude": "30.024295099116646",
    "geocoded_column": {
      "latitude": "30.024295099116646",
      "longitude": "-89.99921133030972"
    }
  },
  {
    "service_request": "2024-1085628",
    "request_type": "Parks & Parkways",
    "request_reason": "Request Tree Service (Right of Way/Public Property)",
    "date_created": "2024-04-17T15:33:36.000",
    "date_modified": "2024-04-17T15:33:36.000",
    "request_status": "Pending",
    "responsible_agency": "Department of Parks & Parkway",
    "final_address": "6224 Bertha Dr",
    "address_councildis": "D",
    "status": "Pending",
    "rowid": "1085628",
    "final_x": "3678488.42229",
    "final_y": "556080.880154",
    "longitude": "-90.07672928800284",
    "latitude": "30.023120597416547",
    "geocoded_column": {
      "latitude": "30.023120597416547",
      "longitude": "-90.07672928800284"
    }
  },
  {
    "service_request": "2024-1085627",
    "request_type": "Trash/Recycling",
    "request_reason": "Illegal Dumping",
    "date_created": "2024-04-17T15:31:38.000",
    "date_modified": "2024-04-17T15:31:38.000",
    "request_status": "Pending",
    "responsible_agency": "Department of Sanitation",
    "final_address": "5426 Tullis Dr",
    "address_councildis": "C",
    "status": "Pending",
    "rowid": "1085627",
    "final_x": "3704076.48471",
    "final_y": "511995.19608",
    "longitude": "-89.99750120283284",
    "latitude": "29.901104487615584",
    "geocoded_column": {
      "latitude": "29.901104487615584",
      "longitude": "-89.99750120283284"
    }
  },
  {
    "service_request": "2024-1085626",
    "request_type": "Trash/Recycling",
    "request_reason": "Request a Large Item Pick Up",
    "date_created": "2024-04-17T15:29:13.000",
    "date_modified": "2024-04-17T17:20:19.000",
    "case_close_date": "2024-04-17T12:20:19.000",
    "request_status": "Closed",
    "responsible_agency": "Department of Sanitation",
    "final_address": "4510 Sierra Madre Dr",
    "address_councildis": "E",
    "status": "Assigned to Contractor",
    "contractor": "Waste Pro",
    "contractor_action": "Completed",
    "rowid": "1085626",
    "final_x": "3713942.8917",
    "final_y": "555349.134169",
    "longitude": "-89.96472975471795",
    "latitude": "30.019991825465546",
    "geocoded_column": {
      "latitude": "30.019991825465546",
      "longitude": "-89.96472975471795"
    }
  },
  {
    "service_request": "2024-1085625",
    "request_type": "Trash/Recycling",
    "request_reason": "Request a Large Item Pick Up",
    "date_created": "2024-04-17T15:27:55.000",
    "date_modified": "2024-04-17T15:27:55.000",
    "request_status": "Pending",
    "responsible_agency": "Department of Sanitation",
    "final_address": "5043 Paris Ave",
    "address_councildis": "D",
    "status": "Assigned to Contractor",
    "contractor": "IV Waste",
    "rowid": "1085625",
    "final_x": "3679357.9933",
    "final_y": "551096.702933",
    "longitude": "-90.07415470081624",
    "latitude": "30.009389665006648",
    "geocoded_column": {
      "latitude": "30.009389665006648",
      "longitude": "-90.07415470081624"
    }
  },
  {
    "service_request": "2024-1085624",
    "request_type": "Trash/Recycling",
    "request_reason": "MIssed Recycling Pick-Up",
    "date_created": "2024-04-17T15:26:10.000",
    "date_modified": "2024-04-17T17:40:04.000",
    "case_close_date": "2024-04-17T12:40:04.000",
    "request_status": "Closed",
    "responsible_agency": "Department of Sanitation",
    "final_address": "2512 Palmyra St",
    "address_councildis": "B",
    "status": "Invalid Request",
    "contractor": "IV Waste",
    "contractor_action": "Invalid",
    "rowid": "1085624",
    "final_x": "3675509.58849",
    "final_y": "533898.339653",
    "longitude": "-90.08690421283958",
    "latitude": "29.962215842778495",
    "geocoded_column": {
      "latitude": "29.962215842778495",
      "longitude": "-90.08690421283958"
    }
  },
  {
    "service_request": "2024-1085623",
    "request_type": "Trash/Recycling",
    "request_reason": "Request a Large Item Pick Up",
    "date_created": "2024-04-17T15:23:02.000",
    "date_modified": "2024-04-17T15:23:03.000",
    "request_status": "Pending",
    "responsible_agency": "Department of Sanitation",
    "final_address": "5821 Waterford Blvd",
    "address_councildis": "E",
    "status": "Assigned to Contractor",
    "contractor": "Waste Pro",
    "rowid": "1085623",
    "final_x": "3713872.51621",
    "final_y": "561164.161502",
    "longitude": "-89.96473266110073",
    "latitude": "30.03598315134572",
    "geocoded_column": {
      "latitude": "30.03598315134572",
      "longitude": "-89.96473266110073"
    }
  },
  {
    "service_request": "2024-1085622",
    "request_type": "Parks & Parkways",
    "request_reason": "Request Tree Service (Right of Way/Public Property)",
    "date_created": "2024-04-17T15:17:17.000",
    "date_modified": "2024-04-17T15:17:17.000",
    "request_status": "Pending",
    "responsible_agency": "Department of Parks & Parkway",
    "final_address": "6206 Wainwright Dr",
    "address_councildis": "D",
    "status": "Pending",
    "rowid": "1085622",
    "final_x": "3681314.00444",
    "final_y": "555688.739737",
    "longitude": "-90.06781475759375",
    "latitude": "30.021956848830303",
    "geocoded_column": {
      "latitude": "30.021956848830303",
      "longitude": "-90.06781475759375"
    }
  },
  {
    "service_request": "2024-1085621",
    "request_type": "Trash/Recycling",
    "request_reason": "Request a Large Item Pick Up",
    "date_created": "2024-04-17T15:15:24.000",
    "date_modified": "2024-04-17T15:24:14.000",
    "request_status": "Pending",
    "responsible_agency": "Department of Sanitation",
    "final_address": "706 Eleonore St, New Orleans, Louisiana, 70115",
    "address_councildis": "A",
    "status": "Assigned to Contractor",
    "contractor": "IV Waste",
    "rowid": "1085621",
    "final_x": "3665129.79636",
    "final_y": "518815.950647",
    "longitude": "-90.12018646188162",
    "latitude": "29.92105048966512",
    "geocoded_column": {
      "latitude": "29.92105048966512",
      "longitude": "-90.12018646188162"
    }
  },
  {
    "service_request": "2024-1085620",
    "request_type": "Abandoned Vehicles",
    "request_reason": "Abandoned/Junk Vehicles",
    "date_created": "2024-04-17T15:12:13.000",
    "date_modified": "2024-04-17T15:12:13.000",
    "request_status": "Pending",
    "responsible_agency": "Department of Public Works",
    "final_address": "2116 Ellen Park Pl",
    "address_councildis": "C",
    "status": "Pending",
    "rowid": "1085620",
    "final_x": "3703000.20324",
    "final_y": "523075.999867",
    "longitude": "-90.00049106388485",
    "latitude": "29.931607352236714",
    "geocoded_column": {
      "latitude": "29.931607352236714",
      "longitude": "-90.00049106388485"
    }
  },
  {
    "service_request": "2024-1085619",
    "request_type": "Trash/Recycling",
    "request_reason": "Request a Large Item Pick Up",
    "date_created": "2024-04-17T15:11:56.000",
    "date_modified": "2024-04-17T15:11:56.000",
    "request_status": "Pending",
    "responsible_agency": "Department of Sanitation",
    "final_address": "2227 Painters St",
    "address_councildis": "D",
    "status": "Assigned to Contractor",
    "contractor": "IV Waste",
    "rowid": "1085619",
    "final_x": "3687252.92201",
    "final_y": "540785.222987",
    "longitude": "-90.04957693506594",
    "latitude": "29.980795887651087",
    "geocoded_column": {
      "latitude": "29.980795887651087",
      "longitude": "-90.04957693506594"
    }
  },
  {
    "service_request": "2024-1085618",
    "request_type": "Trash/Recycling",
    "request_reason": "Request a Large Item Pick Up",
    "date_created": "2024-04-17T15:10:03.000",
    "date_modified": "2024-04-17T16:34:19.000",
    "case_close_date": "2024-04-17T11:34:19.000",
    "request_status": "Closed",
    "responsible_agency": "Department of Sanitation",
    "final_address": "5316 Pasteur Blvd",
    "address_councildis": "D",
    "status": "Assigned to Contractor",
    "contractor": "IV Waste",
    "contractor_action": "Completed",
    "rowid": "1085618",
    "final_x": "3682857.47522",
    "final_y": "552421.807126",
    "longitude": "-90.06305222739854",
    "latitude": "30.01292701565436",
    "geocoded_column": {
      "latitude": "30.01292701565436",
      "longitude": "-90.06305222739854"
    }
  },
  {
    "service_request": "2024-1085617",
    "request_type": "Trash/Recycling",
    "request_reason": "Replace Recycling Cart",
    "date_created": "2024-04-17T15:05:24.000",
    "date_modified": "2024-04-17T15:05:24.000",
    "request_status": "Pending",
    "responsible_agency": "Department of Sanitation",
    "final_address": "6225 Waldo Dr",
    "address_councildis": "D",
    "status": "Pending",
    "rowid": "1085617",
    "final_x": "3681135.80507",
    "final_y": "555894.453401",
    "longitude": "-90.06837064592138",
    "latitude": "30.022527896462208",
    "geocoded_column": {
      "latitude": "30.022527896462208",
      "longitude": "-90.06837064592138"
    }
  },
  {
    "service_request": "2024-1085616",
    "request_type": "Property Maintenance",
    "request_reason": "Property Maintenance",
    "date_created": "2024-04-17T15:05:17.000",
    "date_modified": "2024-04-17T15:05:17.000",
    "request_status": "Pending",
    "responsible_agency": "Department of Code Enforcement",
    "final_address": "5525 Marigny St, New Orleans, Louisiana, 70122",
    "address_councildis": "D",
    "status": "Pending",
    "rowid": "1085616",
    "final_x": "3684104.60649",
    "final_y": "553274.852247",
    "longitude": "-90.05908200226766",
    "latitude": "30.015234503541524",
    "geocoded_column": {
      "latitude": "30.015234503541524",
      "longitude": "-90.05908200226766"
    }
  },
  {
    "service_request": "2024-1085615",
    "request_type": "Roads/Drainage",
    "request_reason": "Man hole cover issue",
    "date_created": "2024-04-17T15:03:19.000",
    "date_modified": "2024-04-17T15:03:19.000",
    "request_status": "Pending",
    "responsible_agency": "Department of Public Works",
    "final_address": "1320 Magazine St",
    "address_councildis": "B",
    "status": "Pending",
    "rowid": "1085615",
    "final_x": "3680543.78203",
    "final_y": "525068.503165",
    "longitude": "-90.07131408243661",
    "latitude": "29.937785225779564",
    "geocoded_column": {
      "latitude": "29.937785225779564",
      "longitude": "-90.07131408243661"
    }
  },
  {
    "service_request": "2024-1085614",
    "request_type": "Property Maintenance",
    "request_reason": "Property Maintenance",
    "date_created": "2024-04-17T15:02:47.000",
    "date_modified": "2024-04-17T15:02:47.000",
    "request_status": "Pending",
    "responsible_agency": "Department of Code Enforcement",
    "final_address": "2225 Odin St, New Orleans, Louisiana, 70122",
    "address_councildis": "D",
    "status": "Pending",
    "rowid": "1085614",
    "final_x": "3683890.64847",
    "final_y": "553097.592023",
    "longitude": "-90.05976423324837",
    "latitude": "30.014753643325204",
    "geocoded_column": {
      "latitude": "30.014753643325204",
      "longitude": "-90.05976423324837"
    }
  },
  {
    "service_request": "2024-1085613",
    "request_type": "Trash/Recycling",
    "request_reason": "Repair Trash Cart",
    "date_created": "2024-04-17T15:01:52.000",
    "date_modified": "2024-04-17T15:01:53.000",
    "request_status": "Pending",
    "responsible_agency": "Department of Sanitation",
    "final_address": "6613 Coventry St",
    "address_councildis": "E",
    "status": "Assigned to Contractor",
    "contractor": "Waste Pro",
    "rowid": "1085613",
    "final_x": "3697663.59888",
    "final_y": "559269.693916",
    "longitude": "-90.01602443472791",
    "latitude": "30.031296462384397",
    "geocoded_column": {
      "latitude": "30.031296462384397",
      "longitude": "-90.01602443472791"
    }
  },
  {
    "service_request": "2024-1085612",
    "request_type": "Traffic Signals/Signs/Striping/Streetlights",
    "request_reason": "Request for Stop Sign",
    "date_created": "2024-04-17T14:57:06.000",
    "date_modified": "2024-04-17T14:57:06.000",
    "request_status": "Pending",
    "responsible_agency": "Department of Public Works",
    "final_address": "LONGFELLOW DR & GRANT ST",
    "address_councildis": "E",
    "status": "Pending",
    "rowid": "1085612",
    "final_x": "3709722.4",
    "final_y": "554820.08",
    "longitude": "-89.9780848096204",
    "latitude": "30.01867506608631",
    "geocoded_column": {
      "latitude": "30.01867506608631",
      "longitude": "-89.9780848096204"
    }
  },
  {
    "service_request": "2024-1085611",
    "request_type": "Traffic Signals/Signs/Striping/Streetlights",
    "request_reason": "Traffic Sign Missing/Damaged",
    "date_created": "2024-04-17T14:56:26.000",
    "date_modified": "2024-04-17T14:56:26.000",
    "request_status": "Pending",
    "responsible_agency": "Department of Public Works",
    "final_address": "1764 Gentilly Blvd",
    "address_councildis": "D",
    "status": "Pending",
    "rowid": "1085611",
    "final_x": "3678721.38958",
    "final_y": "541929.509516",
    "longitude": "-90.07648363481182",
    "latitude": "29.98420234254984",
    "geocoded_column": {
      "latitude": "29.98420234254984",
      "longitude": "-90.07648363481182"
    }
  },
  {
    "service_request": "2024-1085610",
    "request_type": "Trash/Recycling",
    "request_reason": "MIssed Recycling Pick-Up",
    "date_created": "2024-04-17T14:53:01.000",
    "date_modified": "2024-04-17T14:53:01.000",
    "request_status": "Pending",
    "responsible_agency": "Department of Sanitation",
    "final_address": "10132 Rosewood Pl",
    "address_councildis": "E",
    "status": "Assigned to Contractor",
    "contractor": "Waste Pro",
    "rowid": "1085610",
    "final_x": "3712953.00728",
    "final_y": "557590.971035",
    "longitude": "-89.96777302378248",
    "latitude": "30.026188465335345",
    "geocoded_column": {
      "latitude": "30.026188465335345",
      "longitude": "-89.96777302378248"
    }
  },
  {
    "service_request": "2024-1085609",
    "request_type": "Traffic Signals/Signs/Striping/Streetlights",
    "request_reason": "Striping/Road Surface Markings",
    "date_created": "2024-04-17T14:51:43.000",
    "date_modified": "2024-04-17T14:51:43.000",
    "request_status": "Pending",
    "responsible_agency": "Department of Public Works",
    "final_address": "400 BLK S Broad St",
    "address_councildis": "B",
    "status": "Pending",
    "rowid": "1085609",
    "final_x": "3674389.12199",
    "final_y": "533768.917814",
    "longitude": "-90.09044691905399",
    "latitude": "29.961893442237194",
    "geocoded_column": {
      "latitude": "29.961893442237194",
      "longitude": "-90.09044691905399"
    }
  },
  {
    "service_request": "2024-1085608",
    "request_type": "Roads/Drainage",
    "request_reason": "Street Flooding / Drainage",
    "date_created": "2024-04-17T14:51:19.000",
    "date_modified": "2024-04-17T14:51:19.000",
    "request_status": "Pending",
    "responsible_agency": "Department of Public Works",
    "final_address": "1320 Magazine St",
    "address_councildis": "B",
    "status": "Pending",
    "rowid": "1085608",
    "final_x": "3680543.78203",
    "final_y": "525068.503165",
    "longitude": "-90.07131408243661",
    "latitude": "29.937785225779564",
    "geocoded_column": {
      "latitude": "29.937785225779564",
      "longitude": "-90.07131408243661"
    }
  },
  {
    "service_request": "2024-1085607",
    "request_type": "Trash/Recycling",
    "request_reason": "Request a Large Item Pick Up",
    "date_created": "2024-04-17T14:50:37.000",
    "date_modified": "2024-04-17T14:50:38.000",
    "request_status": "Pending",
    "responsible_agency": "Department of Sanitation",
    "final_address": "5225 Chestnut St",
    "address_councildis": "B",
    "status": "Assigned to Contractor",
    "contractor": "IV Waste",
    "rowid": "1085607",
    "final_x": "3667837.95565",
    "final_y": "519402.932023",
    "longitude": "-90.11161823636263",
    "latitude": "29.922585385754452",
    "geocoded_column": {
      "latitude": "29.922585385754452",
      "longitude": "-90.11161823636263"
    }
  },
  {
    "service_request": "2024-1085606",
    "request_type": "Trash/Recycling",
    "request_reason": "Missed Trash Pick-Up",
    "date_created": "2024-04-17T14:50:21.000",
    "date_modified": "2024-04-17T17:04:33.000",
    "case_close_date": "2024-04-17T12:04:33.000",
    "request_status": "Closed",
    "responsible_agency": "Department of Sanitation",
    "final_address": "1700 BLK Lafreniere St",
    "address_councildis": "D",
    "status": "Invalid Request",
    "contractor": "IV Waste",
    "contractor_action": "Invalid",
    "rowid": "1085606",
    "final_x": "3681030.45647",
    "final_y": "545248.540196",
    "longitude": "-90.06907467194233",
    "latitude": "29.993258664625092",
    "geocoded_column": {
      "latitude": "29.993258664625092",
      "longitude": "-90.06907467194233"
    }
  },
  {
    "service_request": "2024-1085605",
    "request_type": "Parks & Parkways",
    "request_reason": "Tree Stump (removal, grind)",
    "date_created": "2024-04-17T14:47:52.000",
    "date_modified": "2024-04-17T14:47:52.000",
    "request_status": "Pending",
    "responsible_agency": "Department of Parks & Parkway",
    "final_address": "2014 S Carrollton Ave",
    "address_councildis": "A",
    "status": "Pending",
    "rowid": "1085605",
    "final_x": "3663886.51571",
    "final_y": "530575.764418",
    "longitude": "-90.12371909253264",
    "latitude": "29.95342237536601",
    "geocoded_column": {
      "latitude": "29.95342237536601",
      "longitude": "-90.12371909253264"
    }
  },
  {
    "service_request": "2024-1085604",
    "request_type": "Safety & Permits",
    "request_reason": "Licenses & Permits",
    "date_created": "2024-04-17T14:46:12.000",
    "date_modified": "2024-04-17T14:46:12.000",
    "request_status": "Pending",
    "responsible_agency": "Safety and Permits",
    "final_address": "601 Carondelet St",
    "address_councildis": "B",
    "status": "Pending",
    "rowid": "1085604",
    "final_x": "3680189.35125",
    "final_y": "528988.083968",
    "longitude": "-90.07229686349493",
    "latitude": "29.948573495494912",
    "geocoded_column": {
      "latitude": "29.948573495494912",
      "longitude": "-90.07229686349493"
    }
  },
  {
    "service_request": "2024-1085603",
    "request_type": "Traffic Signals/Signs/Striping/Streetlights",
    "request_reason": "Traffic Signal Malfunctioning/Damaged",
    "date_created": "2024-04-17T14:43:59.000",
    "date_modified": "2024-04-17T14:43:59.000",
    "request_status": "Pending",
    "responsible_agency": "Department of Public Works",
    "final_address": "4400 BLK S Claiborne Ave",
    "address_councildis": "B",
    "status": "Pending",
    "rowid": "1085603",
    "final_x": "3670138.85457",
    "final_y": "525770.751724",
    "longitude": "-90.10413957297122",
    "latitude": "29.940027190630147",
    "geocoded_column": {
      "latitude": "29.940027190630147",
      "longitude": "-90.10413957297122"
    }
  },
  {
    "service_request": "2024-1085602",
    "request_type": "Trash/Recycling",
    "request_reason": "Order Recycling Cart",
    "date_created": "2024-04-17T14:43:19.000",
    "date_modified": "2024-04-17T14:43:19.000",
    "request_status": "Pending",
    "responsible_agency": "Department of Sanitation",
    "final_address": "3419 S Saratoga St",
    "address_councildis": "B",
    "status": "Pending",
    "rowid": "1085602",
    "final_x": "3673268.49595",
    "final_y": "523203.796155",
    "longitude": "-90.09434643703533",
    "latitude": "29.932876211489514",
    "geocoded_column": {
      "latitude": "29.932876211489514",
      "longitude": "-90.09434643703533"
    }
  },
  {
    "service_request": "2024-1085601",
    "request_type": "Healthy Homes",
    "request_reason": "Healthy Homes",
    "date_created": "2024-04-17T14:43:02.000",
    "date_modified": "2024-04-17T14:43:02.000",
    "request_status": "Pending",
    "responsible_agency": "Department of Code Enforcement",
    "final_address": "3731 Elysian Fields Ave",
    "address_councildis": "D",
    "status": "Pending",
    "rowid": "1085601",
    "final_x": "3684342.83241",
    "final_y": "546511.526737",
    "longitude": "-90.05856705401689",
    "latitude": "29.99663051933429",
    "geocoded_column": {
      "latitude": "29.99663051933429",
      "longitude": "-90.05856705401689"
    }
  },
  {
    "service_request": "2024-1085600",
    "request_type": "Roads/Drainage",
    "request_reason": "Damaged Sidewalk",
    "date_created": "2024-04-17T14:41:21.000",
    "date_modified": "2024-04-17T14:41:21.000",
    "request_status": "Pending",
    "responsible_agency": "Department of Public Works",
    "final_address": "816 Lafayette St",
    "address_councildis": "B",
    "status": "Pending",
    "rowid": "1085600",
    "final_x": "3680044.36597",
    "final_y": "529020.002304",
    "longitude": "-90.07275353421817",
    "latitude": "29.948665646821755",
    "geocoded_column": {
      "latitude": "29.948665646821755",
      "longitude": "-90.07275353421817"
    }
  },
  {
    "service_request": "2024-1085599",
    "request_type": "Property Maintenance",
    "request_reason": "Property Maintenance",
    "date_created": "2024-04-17T14:41:06.000",
    "date_modified": "2024-04-17T14:41:06.000",
    "request_status": "Pending",
    "responsible_agency": "Department of Code Enforcement",
    "final_address": "4867 Lurline St",
    "address_councildis": "E",
    "status": "Pending",
    "rowid": "1085599",
    "final_x": "3711972.78123",
    "final_y": "556868.253914",
    "longitude": "-89.97089754050089",
    "latitude": "30.024233362629488",
    "geocoded_column": {
      "latitude": "30.024233362629488",
      "longitude": "-89.97089754050089"
    }
  },
  {
    "service_request": "2024-1085598",
    "request_type": "Parks & Parkways",
    "request_reason": "Request Tree Service (Right of Way/Public Property)",
    "date_created": "2024-04-17T14:40:09.000",
    "date_modified": "2024-04-17T14:40:09.000",
    "request_status": "Pending",
    "responsible_agency": "Department of Parks & Parkway",
    "final_address": "0 Lake Forest Blvd",
    "address_councildis": "E",
    "status": "Pending",
    "rowid": "1085598",
    "final_x": "3721635.50322",
    "final_y": "563651.762465",
    "longitude": "-89.94010490465875",
    "latitude": "30.042565801236677",
    "geocoded_column": {
      "latitude": "30.042565801236677",
      "longitude": "-89.94010490465875"
    }
  },
  {
    "service_request": "2024-1085597",
    "request_type": "Abandoned Vehicles",
    "request_reason": "Abandoned/Junk Vehicles",
    "date_created": "2024-04-17T14:38:10.000",
    "date_modified": "2024-04-17T14:40:33.000",
    "request_status": "Pending",
    "responsible_agency": "Department of Public Works",
    "final_address": "7611 Branch Dr",
    "address_councildis": "E",
    "status": "Pending",
    "rowid": "1085597",
    "final_x": "3714871.80101",
    "final_y": "568569.897957",
    "longitude": "-89.96129453365003",
    "latitude": "30.056313060652137",
    "geocoded_column": {
      "latitude": "30.056313060652137",
      "longitude": "-89.96129453365003"
    }
  },
  {
    "service_request": "2024-1085596",
    "request_type": "Abandoned Vehicles",
    "request_reason": "Abandoned/Junk Vehicles",
    "date_created": "2024-04-17T14:37:17.000",
    "date_modified": "2024-04-17T14:37:53.000",
    "request_status": "Pending",
    "responsible_agency": "Department of Public Works",
    "final_address": "7610 Branch Dr",
    "address_councildis": "E",
    "status": "Pending",
    "rowid": "1085596",
    "final_x": "3714779.2652",
    "final_y": "568565.641189",
    "longitude": "-89.96158718168351",
    "latitude": "30.05630440261916",
    "geocoded_column": {
      "latitude": "30.05630440261916",
      "longitude": "-89.96158718168351"
    }
  },
  {
    "service_request": "2024-1085595",
    "request_type": "Trash/Recycling",
    "request_reason": "Illegal Dumping",
    "date_created": "2024-04-17T14:36:07.000",
    "date_modified": "2024-04-17T14:36:07.000",
    "request_status": "Pending",
    "responsible_agency": "Department of Sanitation",
    "final_address": "2451 Law St",
    "address_councildis": "D",
    "status": "Pending",
    "rowid": "1085595",
    "final_x": "3685730.17545",
    "final_y": "541981.861836",
    "longitude": "-90.05434424311846",
    "latitude": "29.98413304365652",
    "geocoded_column": {
      "latitude": "29.98413304365652",
      "longitude": "-90.05434424311846"
    }
  },
  {
    "service_request": "2024-1085594",
    "request_type": "Abandoned Vehicles",
    "request_reason": "Abandoned/Junk Vehicles",
    "date_created": "2024-04-17T14:35:38.000",
    "date_modified": "2024-04-17T14:36:44.000",
    "request_status": "Pending",
    "responsible_agency": "Department of Public Works",
    "final_address": "7910 Branch Dr",
    "address_councildis": "E",
    "status": "Pending",
    "rowid": "1085594",
    "final_x": "3714075.83813",
    "final_y": "569500.069926",
    "longitude": "-89.96377527027582",
    "latitude": "30.058896833533982",
    "geocoded_column": {
      "latitude": "30.058896833533982",
      "longitude": "-89.96377527027582"
    }
  },
  {
    "service_request": "2024-1085593",
    "request_type": "Roads/Drainage",
    "request_reason": "Ditch Issue",
    "date_created": "2024-04-17T14:35:23.000",
    "date_modified": "2024-04-17T14:35:23.000",
    "request_status": "Pending",
    "responsible_agency": "Department of Public Works",
    "final_address": "1627 Richland Rd",
    "address_councildis": "C",
    "status": "Pending",
    "rowid": "1085593",
    "final_x": "3697836.79779",
    "final_y": "525064.276349",
    "longitude": "-90.01671912085858",
    "latitude": "29.93723856344169",
    "geocoded_column": {
      "latitude": "29.93723856344169",
      "longitude": "-90.01671912085858"
    }
  },
  {
    "service_request": "2024-1085592",
    "request_type": "Trash/Recycling",
    "request_reason": "Repair Trash Cart",
    "date_created": "2024-04-17T14:34:40.000",
    "date_modified": "2024-04-17T14:34:41.000",
    "request_status": "Pending",
    "responsible_agency": "Department of Sanitation",
    "final_address": "1571 Henry Clay Ave",
    "address_councildis": "A",
    "status": "Assigned to Contractor",
    "contractor": "IV Waste",
    "rowid": "1085592",
    "final_x": "3665103.08288",
    "final_y": "522618.44953",
    "longitude": "-90.12014370182915",
    "latitude": "29.931506942162873",
    "geocoded_column": {
      "latitude": "29.931506942162873",
      "longitude": "-90.12014370182915"
    }
  },
  {
    "service_request": "2024-1085591",
    "request_type": "Roads/Drainage",
    "request_reason": "Catch Basin - Clogged",
    "date_created": "2024-04-17T14:34:24.000",
    "date_modified": "2024-04-17T14:34:25.000",
    "request_status": "Pending",
    "responsible_agency": "Department of Public Works",
    "final_address": "1220 Jefferson Ave",
    "address_councildis": "A",
    "status": "Pending",
    "rowid": "1085591",
    "final_x": "3666947.63258",
    "final_y": "520046.043256",
    "longitude": "-90.11440704415898",
    "latitude": "29.924379810939076",
    "geocoded_column": {
      "latitude": "29.924379810939076",
      "longitude": "-90.11440704415898"
    }
  },
  {
    "service_request": "2024-1085590",
    "request_type": "Trash/Recycling",
    "request_reason": "Request a Large Item Pick Up",
    "date_created": "2024-04-17T14:34:15.000",
    "date_modified": "2024-04-17T17:35:26.000",
    "case_close_date": "2024-04-17T12:35:26.000",
    "request_status": "Closed",
    "responsible_agency": "Department of Sanitation",
    "final_address": "1326 Lamanche St",
    "address_councildis": "E",
    "status": "Assigned to Contractor",
    "contractor": "Waste Pro",
    "contractor_action": "Completed",
    "rowid": "1085590",
    "final_x": "3698568.89149",
    "final_y": "534633.89671",
    "longitude": "-90.01406002288743",
    "latitude": "29.963528502856104",
    "geocoded_column": {
      "latitude": "29.963528502856104",
      "longitude": "-90.01406002288743"
    }
  },
  {
    "service_request": "2024-1085589",
    "request_type": "Safety & Permits",
    "request_reason": "Licenses & Permits",
    "date_created": "2024-04-17T14:30:28.000",
    "date_modified": "2024-04-17T14:30:28.000",
    "request_status": "Pending",
    "responsible_agency": "Safety and Permits",
    "final_address": "601 Carondelet St",
    "address_councildis": "B",
    "status": "Pending",
    "rowid": "1085589",
    "final_x": "3680189.35125",
    "final_y": "528988.083968",
    "longitude": "-90.07229686349493",
    "latitude": "29.948573495494912",
    "geocoded_column": {
      "latitude": "29.948573495494912",
      "longitude": "-90.07229686349493"
    }
  },
  {
    "service_request": "2024-1085588",
    "request_type": "Roads/Drainage",
    "request_reason": "Catch Basin - Clogged",
    "date_created": "2024-04-17T14:28:41.000",
    "date_modified": "2024-04-17T14:28:41.000",
    "request_status": "Pending",
    "responsible_agency": "Department of Public Works",
    "final_address": "1220 Jefferson Ave",
    "address_councildis": "A",
    "status": "Pending",
    "rowid": "1085588",
    "final_x": "3666947.63258",
    "final_y": "520046.043256",
    "longitude": "-90.11440704415898",
    "latitude": "29.924379810939076",
    "geocoded_column": {
      "latitude": "29.924379810939076",
      "longitude": "-90.11440704415898"
    }
  },
  {
    "service_request": "2024-1085587",
    "request_type": "Trash/Recycling",
    "request_reason": "Missed Trash Pick-Up",
    "date_created": "2024-04-17T14:28:25.000",
    "date_modified": "2024-04-17T17:01:10.000",
    "case_close_date": "2024-04-17T12:01:10.000",
    "request_status": "Closed",
    "responsible_agency": "Department of Sanitation",
    "final_address": "5525 Wickfield Dr",
    "address_councildis": "D",
    "status": "Invalid Request",
    "contractor": "IV Waste",
    "contractor_action": "Invalid",
    "rowid": "1085587",
    "final_x": "3681122.77877",
    "final_y": "553525.759447",
    "longitude": "-90.06849442385031",
    "latitude": "30.01601524787855",
    "geocoded_column": {
      "latitude": "30.01601524787855",
      "longitude": "-90.06849442385031"
    }
  },
  {
    "service_request": "2024-1085586",
    "request_type": "Abandoned Vehicles",
    "request_reason": "Abandoned/Junk Vehicles",
    "date_created": "2024-04-17T14:28:17.000",
    "date_modified": "2024-04-17T14:29:19.000",
    "request_status": "Pending",
    "responsible_agency": "Department of Public Works",
    "final_address": "7137 Northgate Dr",
    "address_councildis": "E",
    "status": "Pending",
    "rowid": "1085586",
    "final_x": "3713741.30872",
    "final_y": "565172.031586",
    "longitude": "-89.96499604743907",
    "latitude": "30.047007486241124",
    "geocoded_column": {
      "latitude": "30.047007486241124",
      "longitude": "-89.96499604743907"
    }
  },
  {
    "service_request": "2024-1085585",
    "request_type": "Safety & Permits",
    "request_reason": "Licenses & Permits",
    "date_created": "2024-04-17T14:27:53.000",
    "date_modified": "2024-04-17T14:27:53.000",
    "request_status": "Pending",
    "responsible_agency": "Safety and Permits",
    "final_address": "601 Carondelet St",
    "address_councildis": "B",
    "status": "Pending",
    "rowid": "1085585",
    "final_x": "3680189.35125",
    "final_y": "528988.083968",
    "longitude": "-90.07229686349493",
    "latitude": "29.948573495494912",
    "geocoded_column": {
      "latitude": "29.948573495494912",
      "longitude": "-90.07229686349493"
    }
  },
  {
    "service_request": "2024-1085584",
    "request_type": "Mosquito, Termite & Rodent Control",
    "request_reason": "Rodent Complaint (Rats)",
    "date_created": "2024-04-17T14:25:27.000",
    "date_modified": "2024-04-17T14:25:28.000",
    "request_status": "Pending",
    "responsible_agency": "Mosquito, Termite & Rodent Control Board",
    "final_address": "3001 N Claiborne Ave",
    "address_councildis": "D",
    "status": "Pending",
    "rowid": "1085584",
    "final_x": "3688954.22947",
    "final_y": "538064.582089",
    "longitude": "-90.04430014061775",
    "latitude": "29.973262567552087",
    "geocoded_column": {
      "latitude": "29.973262567552087",
      "longitude": "-90.04430014061775"
    }
  },
  {
    "service_request": "2024-1085583",
    "request_type": "Traffic Signals/Signs/Striping/Streetlights",
    "request_reason": "Street Light Outage/Malfunction",
    "date_created": "2024-04-17T14:23:32.000",
    "date_modified": "2024-04-17T14:23:32.000",
    "request_status": "Pending",
    "responsible_agency": "Department of Public Works",
    "final_address": "8000 Brevard Ave",
    "address_councildis": "E",
    "status": "Assigned to Contractor",
    "contractor": "Legacy Professional Services",
    "rowid": "1085583",
    "final_x": "3705745.60004",
    "final_y": "564460.228577",
    "longitude": "-89.99029294810191",
    "latitude": "30.045310428643678",
    "geocoded_column": {
      "latitude": "30.045310428643678",
      "longitude": "-89.99029294810191"
    }
  },
  {
    "service_request": "2024-1085582",
    "request_type": "Parks & Parkways",
    "request_reason": "Request Tree Service (Right of Way/Public Property)",
    "date_created": "2024-04-17T14:22:20.000",
    "date_modified": "2024-04-17T14:22:20.000",
    "request_status": "Pending",
    "responsible_agency": "Department of Parks & Parkway",
    "final_address": "8000 Brevard Ave",
    "address_councildis": "E",
    "status": "Pending",
    "rowid": "1085582",
    "final_x": "3705745.60004",
    "final_y": "564460.228577",
    "longitude": "-89.99029294810191",
    "latitude": "30.045310428643678",
    "geocoded_column": {
      "latitude": "30.045310428643678",
      "longitude": "-89.99029294810191"
    }
  },
  {
    "service_request": "2024-1085581",
    "request_type": "Roads/Drainage",
    "request_reason": "Pothole",
    "date_created": "2024-04-17T14:18:28.000",
    "date_modified": "2024-04-17T14:18:28.000",
    "request_status": "Pending",
    "responsible_agency": "Department of Public Works",
    "final_address": "1300 BLK Harmony St",
    "address_councildis": "B",
    "status": "Pending",
    "rowid": "1085581",
    "final_x": "3675394.37162",
    "final_y": "520792.160303",
    "longitude": "-90.08771796352512",
    "latitude": "29.926181617440925",
    "geocoded_column": {
      "latitude": "29.926181617440925",
      "longitude": "-90.08771796352512"
    }
  },
  {
    "service_request": "2024-1085580",
    "request_type": "Trash/Recycling",
    "request_reason": "Illegal Dumping",
    "date_created": "2024-04-17T14:16:07.000",
    "date_modified": "2024-04-17T14:16:40.000",
    "request_status": "Pending",
    "responsible_agency": "Department of Sanitation",
    "final_address": "1400 Clouet St",
    "address_councildis": "C",
    "status": "Pending",
    "rowid": "1085580",
    "final_x": "3689261.8943",
    "final_y": "537141.589064",
    "longitude": "-90.04336129251212",
    "latitude": "29.970715141204717",
    "geocoded_column": {
      "latitude": "29.970715141204717",
      "longitude": "-90.04336129251212"
    }
  },
  {
    "service_request": "2024-1085579",
    "request_type": "Trash/Recycling",
    "request_reason": "Request a Large Item Pick Up",
    "date_created": "2024-04-17T14:13:44.000",
    "date_modified": "2024-04-17T14:13:44.000",
    "request_status": "Pending",
    "responsible_agency": "Department of Sanitation",
    "final_address": "4321 Trieste St",
    "address_councildis": "E",
    "status": "Assigned to Contractor",
    "contractor": "Waste Pro",
    "rowid": "1085579",
    "final_x": "3760220.06697",
    "final_y": "573504.147946",
    "longitude": "-89.81775378901686",
    "latitude": "30.06830896010249",
    "geocoded_column": {
      "latitude": "30.06830896010249",
      "longitude": "-89.81775378901686"
    }
  },
  {
    "service_request": "2024-1085578",
    "request_type": "Trash/Recycling",
    "request_reason": "Repair Trash Cart",
    "date_created": "2024-04-17T14:12:23.000",
    "date_modified": "2024-04-17T14:12:24.000",
    "request_status": "Pending",
    "responsible_agency": "Department of Sanitation",
    "final_address": "5829 Prytania St",
    "address_councildis": "A",
    "status": "Assigned to Contractor",
    "contractor": "IV Waste",
    "rowid": "1085578",
    "final_x": "3665648.6425",
    "final_y": "520768.444345",
    "longitude": "-90.11848334794823",
    "latitude": "29.926404118778567",
    "geocoded_column": {
      "latitude": "29.926404118778567",
      "longitude": "-90.11848334794823"
    }
  },
  {
    "service_request": "2024-1085577",
    "request_type": "Trash/Recycling",
    "request_reason": "Repair Trash Cart",
    "date_created": "2024-04-17T14:09:04.000",
    "date_modified": "2024-04-17T14:09:04.000",
    "request_status": "Pending",
    "responsible_agency": "Department of Sanitation",
    "final_address": "4905 Marlborough Gate Pl",
    "address_councildis": "B",
    "status": "Assigned to Contractor",
    "contractor": "IV Waste",
    "rowid": "1085577",
    "final_x": "3669074.41313",
    "final_y": "523776.503739",
    "longitude": "-90.10756753822301",
    "latitude": "29.934575005707536",
    "geocoded_column": {
      "latitude": "29.934575005707536",
      "longitude": "-90.10756753822301"
    }
  },
  {
    "service_request": "2024-1085576",
    "request_type": "Trash/Recycling",
    "request_reason": "Repair Trash Cart",
    "date_created": "2024-04-17T14:09:03.000",
    "date_modified": "2024-04-17T14:09:03.000",
    "request_status": "Pending",
    "responsible_agency": "Department of Sanitation",
    "final_address": "3520 Calhoun St",
    "address_councildis": "A",
    "status": "Assigned to Contractor",
    "contractor": "IV Waste",
    "rowid": "1085576",
    "final_x": "3667727.25927",
    "final_y": "529586.036481",
    "longitude": "-90.11162493843771",
    "latitude": "29.950588902266716",
    "geocoded_column": {
      "latitude": "29.950588902266716",
      "longitude": "-90.11162493843771"
    }
  },