[
  {
    "service_request": "2026-1254920",
    "request_type": "Trash/Recycling",
    "request_reason": "Order Recycling Cart",
    "date_created": "2026-01-27T23:00:02.000",
    "date_modified": "2026-01-27T23:00:04.000",
    "request_status": "Pending",
    "responsible_agency": "Department of Sanitation",
    "final_address": "3611 Danneel St",
    "address_councildis": "B",
    "status": "Pending",
    "rowid": "1254920",
    "final_x": "3672891.6004",
    "final_y": "522680.393722",
    "longitude": "-90.09555411925255",
    "latitude": "29.931448224451433",
    "geocoded_column": {
      "latitude": "29.931448224451433",
      "longitude": "-90.09555411925255"
    }
  },
  {
    "service_request": "2026-1254919",
    "request_type": "Traffic Signals",
    "request_reason": "Traffic Signal Malfunctioning or Damaged",
    "date_created": "2026-01-27T21:20:21.000",
    "date_modified": "2026-01-27T21:20:24.000",
    "request_status": "Pending",
    "responsible_agency": "Department of Public Works",
    "final_address": "209 Ringold St",
    "address_councildis": "A",
    "status": "Pending",
    "rowid": "1254919",
    "final_x": "3667056.98484",
    "final_y": "548550.679891",
    "longitude": "-90.11310364561749",
    "latitude": "30.002754940479882",
    "geocoded_column": {
      "latitude": "30.002754940479882",
      "longitude": "-90.11310364561749"
    }
  },
  {
    "service_request": "2026-1254918",
    "request_type": "Streetlights",
    "request_reason": "Streetlight Outage/Malfunction",
    "date_created": "2026-01-27T21:10:03.000",
    "date_modified": "2026-01-27T21:10:04.000",
    "request_status": "Pending",
    "responsible_agency": "Department of Public Works",
    "final_address": "1820 Sophie Wright Pl",
    "address_councildis": "B",
    "status": "Pending",
    "rowid": "1254918",
    "final_x": "3679667.25282",
    "final_y": "523207.660987",
    "longitude": "-90.07414591423982",
    "latitude": "29.93269504006671",
    "geocoded_column": {
      "latitude": "29.93269504006671",
      "longitude": "-90.07414591423982"
    }
  },
  {
    "service_request": "2026-1254917",
    "request_type": "Roads and Streets",
    "request_reason": "Street Subsidence (Sinking)",
    "date_created": "2026-01-27T21:03:22.000",
    "date_modified": "2026-01-27T21:03:25.000",
    "request_status": "Pending",
    "responsible_agency": "Sewerage & Water Board",
    "final_address": "14441 Curran Rd",
    "address_councildis": "E",
    "status": "Pending",
    "rowid": "1254917",
    "final_x": "3719330.74469",
    "final_y": "573346.444394",
    "longitude": "-89.94701807366536",
    "latitude": "30.069299005103698",
    "geocoded_column": {
      "latitude": "30.069299005103698",
      "longitude": "-89.94701807366536"
    }
  },
  {
    "service_request": "2026-1254916",
    "request_type": "General Services",
    "request_reason": "General Service Request",
    "date_created": "2026-01-27T20:56:11.000",
    "date_modified": "2026-01-27T20:56:13.000",
    "request_status": "Pending",
    "responsible_agency": "Orleans Parish Communication District",
    "final_address": "14441 Curran Rd",
    "address_councildis": "E",
    "status": "Pending",
    "rowid": "1254916",
    "final_x": "3719330.74469",
    "final_y": "573346.444394",
    "longitude": "-89.94701807366536",
    "latitude": "30.069299005103698",
    "geocoded_column": {
      "latitude": "30.069299005103698",
      "longitude": "-89.94701807366536"
    }
  },
  {
    "service_request": "2026-1254915",
    "request_type": "Roads and Streets",
    "request_reason": "Debris in Driving Lanes",
    "date_created": "2026-01-27T20:47:06.000",
    "date_modified": "2026-01-27T20:47:08.000",
    "request_status": "Pending",
    "responsible_agency": "Department of Public Works",
    "final_address": "14441 Curran Rd",
    "address_councildis": "E",
    "status": "Pending",
    "rowid": "1254915",
    "final_x": "3719330.74469",
    "final_y": "573346.444394",
    "longitude": "-89.94701807366536",
    "latitude": "30.069299005103698",
    "geocoded_column": {
      "latitude": "30.069299005103698",
      "longitude": "-89.94701807366536"
    }
  },
  {
    "service_request": "2026-1254914",
    "request_type": "Abandoned Vehicles",
    "request_reason": "Abandoned/Junk Vehicles",
    "date_created": "2026-01-27T20:04:57.000",
    "date_modified": "2026-01-27T20:04:59.000",
    "request_status": "Pending",
    "responsible_agency": "Department of Public Works",
    "final_address": "5355 Cameron Blvd",
    "address_councildis": "D",
    "status": "Pending",
    "rowid": "1254914",
    "final_x": "3682631.7748",
    "final_y": "552858.063447",
    "longitude": "-90.06375004584893",
    "latitude": "30.014133439867887",
    "geocoded_column": {
      "latitude": "30.014133439867887",
      "longitude": "-90.06375004584893"
    }
  },
  {
    "service_request": "2026-1254913",
    "request_type": "Streetlights",
    "request_reason": "Streetlight Outage/Malfunction",
    "date_created": "2026-01-27T19:52:42.000",
    "date_modified": "2026-01-27T19:52:44.000",
    "request_status": "Pending",
    "responsible_agency": "Department of Public Works",
    "final_address": "3334 Louisiana Avenue Prkwy",
    "address_councildis": "B",
    "status": "Pending",
    "rowid": "1254913",
    "final_x": "3671675.9938",
    "final_y": "527486.754687",
    "longitude": "-90.09922823199823",
    "latitude": "29.944700208965234",
    "geocoded_column": {
      "latitude": "29.944700208965234",
      "longitude": "-90.09922823199823"
    }
  },
  {
    "service_request": "2026-1254912",
    "request_type": "Trash/Recycling",
    "request_reason": "Order Recycling Cart",
    "date_created": "2026-01-27T19:39:22.000",
    "date_modified": "2026-01-27T19:39:23.000",
    "request_status": "Pending",
    "responsible_agency": "Department of Sanitation",
    "final_address": "18 Couret Pl",
    "address_councildis": "C",
    "status": "Pending",
    "rowid": "1254912",
    "final_x": "3715313.20248",
    "final_y": "517086.909109",
    "longitude": "-89.96184709313412",
    "latitude": "29.914739925265984",
    "geocoded_column": {
      "latitude": "29.914739925265984",
      "longitude": "-89.96184709313412"
    }
  },
  {
    "service_request": "2026-1254911",
    "request_type": "Trash/Recycling",
    "request_reason": "Replace Recycling Cart",
    "date_created": "2026-01-27T19:38:29.000",
    "date_modified": "2026-01-27T19:38:32.000",
    "request_status": "Pending",
    "responsible_agency": "Department of Sanitation",
    "final_address": "4916 Chestnut St",
    "address_councildis": "B",
    "status": "Pending",
    "rowid": "1254911",
    "final_x": "3668854.76378",
    "final_y": "519238.244663",
    "longitude": "-90.10841412828637",
    "latitude": "29.922102698148866",
    "geocoded_column": {
      "latitude": "29.922102698148866",
      "longitude": "-90.10841412828637"
    }
  },
  {
    "service_request": "2026-1254910",
    "request_type": "Trash/Recycling",
    "request_reason": "Illegal Dumping",
    "date_created": "2026-01-27T19:36:55.000",
    "date_modified": "2026-01-27T19:36:57.000",
    "request_status": "Pending",
    "responsible_agency": "Department of Sanitation",
    "final_address": "201 Pacific Ave",
    "address_councildis": "C",
    "status": "Pending",
    "rowid": "1254910",
    "final_x": "3688520.46966",
    "final_y": "531124.080706",
    "longitude": "-90.04591631582338",
    "latitude": "29.954192015713307",
    "geocoded_column": {
      "latitude": "29.954192015713307",
      "longitude": "-90.04591631582338"
    }
  },
  {
    "service_request": "2026-1254909",
    "request_type": "Roads and Streets",
    "request_reason": "Pothole",
    "date_created": "2026-01-27T19:04:14.000",
    "date_modified": "2026-01-27T19:04:16.000",
    "request_status": "Pending",
    "responsible_agency": "Department of Public Works",
    "final_address": "2531 N Claiborne Ave",
    "address_councildis": "D",
    "status": "Pending",
    "rowid": "1254909",
    "final_x": "3687337.88918",
    "final_y": "538381.171465",
    "longitude": "-90.0493936537559",
    "latitude": "29.974182975948104",
    "geocoded_column": {
      "latitude": "29.974182975948104",
      "longitude": "-90.0493936537559"
    }
  },
  {
    "service_request": "2026-1254908",
    "request_type": "Roads and Streets",
    "request_reason": "Pothole",
    "date_created": "2026-01-27T18:52:18.000",
    "date_modified": "2026-01-27T18:52:21.000",
    "request_status": "Pending",
    "responsible_agency": "Department of Public Works",
    "final_address": "4500 Magazine St",
    "address_councildis": "B",
    "status": "Pending",
    "rowid": "1254908",
    "final_x": "3670622.99195",
    "final_y": "518710.399927",
    "longitude": "-90.10285044646265",
    "latitude": "29.920599198235752",
    "geocoded_column": {
      "latitude": "29.920599198235752",
      "longitude": "-90.10285044646265"
    }
  },
  {
    "service_request": "2026-1254907",
    "request_type": "Graffiti Removal",
    "request_reason": "Graffiti Removal",
    "date_created": "2026-01-27T18:50:57.000",
    "date_modified": "2026-01-27T18:51:00.000",
    "request_status": "Pending",
    "responsible_agency": "Department of Code Enforcement",
    "final_address": "0 BLK Interstate 10",
    "status": "Pending",
    "rowid": "1254907",
    "final_x": "3749078.15502",
    "final_y": "605653.561774",
    "longitude": "-89.85166076471643",
    "latitude": "30.157105189447982",
    "geocoded_column": {
      "latitude": "30.157105189447982",
      "longitude": "-89.85166076471643"
    }
  },
  {
    "service_request": "2026-1254906",
    "request_type": "Trash/Recycling",
    "request_reason": "Return Trash Cart",
    "date_created": "2026-01-27T18:33:00.000",
    "date_modified": "2026-01-27T18:33:03.000",
    "request_status": "Pending",
    "responsible_agency": "Department of Sanitation",
    "final_address": "1480 N Robertson St",
    "address_councildis": "C",
    "status": "Assigned to Contractor",
    "contractor": "IV Waste",
    "rowid": "1254906",
    "final_x": "3682035.87055",
    "final_y": "536893.779912",
    "longitude": "-90.06619058888771",
    "latitude": "29.970255456459707",
    "geocoded_column": {
      "latitude": "29.970255456459707",
      "longitude": "-90.06619058888771"
    }
  },
  {
    "service_request": "2026-1254905",
    "request_type": "Trash/Recycling",
    "request_reason": "Request a Large Item Pick Up",
    "date_created": "2026-01-27T18:26:24.000",
    "date_modified": "2026-01-27T18:26:28.000",
    "request_status": "Pending",
    "responsible_agency": "Department of Sanitation",
    "final_address": "2412 State St",
    "address_councildis": "A",
    "status": "Assigned to Contractor",
    "contractor": "IV Waste",
    "rowid": "1254905",
    "final_x": "3666681.97108",
    "final_y": "525576.753661",
    "longitude": "-90.11506002724458",
    "latitude": "29.939595273049484",
    "geocoded_column": {
      "latitude": "29.939595273049484",
      "longitude": "-90.11506002724458"
    }
  },
  {
    "service_request": "2026-1254904",
    "request_type": "Trash/Recycling",
    "request_reason": "Order Recycling Cart",
    "date_created": "2026-01-27T18:24:25.000",
    "date_modified": "2026-01-27T18:24:28.000",
    "request_status": "Pending",
    "responsible_agency": "Department of Sanitation",
    "final_address": "2437 Jefferson Ave",
    "address_councildis": "B",
    "status": "Pending",
    "rowid": "1254904",
    "final_x": "3668116.93569",
    "final_y": "524615.125628",
    "longitude": "-90.11056203085063",
    "latitude": "29.93690907616735",
    "geocoded_column": {
      "latitude": "29.93690907616735",
      "longitude": "-90.11056203085063"
    }
  },
  {
    "service_request": "2026-1254903",
    "request_type": "Roads and Streets",
    "request_reason": "Sidewalk Damaged or Missing",
    "date_created": "2026-01-27T18:18:03.000",
    "date_modified": "2026-01-27T18:18:05.000",
    "request_status": "Pending",
    "responsible_agency": "Department of Public Works",
    "final_address": "2100 BLK Fern St",
    "address_councildis": "A",
    "status": "Pending",
    "rowid": "1254903",
    "final_x": "3664783.66843",
    "final_y": "530317.740661",
    "longitude": "-90.12089487485736",
    "latitude": "29.95268682155625",
    "geocoded_column": {
      "latitude": "29.95268682155625",
      "longitude": "-90.12089487485736"
    }
  },
  {
    "service_request": "2026-1254902",
    "request_type": "Trash/Recycling",
    "request_reason": "Request a Large Item Pick Up",
    "date_created": "2026-01-27T17:39:48.000",
    "date_modified": "2026-01-27T17:39:50.000",
    "request_status": "Pending",
    "responsible_agency": "Department of Sanitation",
    "final_address": "529 Henry Clay Ave",
    "address_councildis": "A",
    "status": "Assigned to Contractor",
    "contractor": "IV Waste",
    "rowid": "1254902",
    "final_x": "3663543.42919",
    "final_y": "518799.926391",
    "longitude": "-90.12519446636342",
    "latitude": "29.92105251488559",
    "geocoded_column": {
      "latitude": "29.92105251488559",
      "longitude": "-90.12519446636342"
    }
  },
  {
    "service_request": "2026-1254901",
    "request_type": "Trash/Recycling",
    "request_reason": "Request a Large Item Pick Up",
    "date_created": "2026-01-27T17:06:37.000",
    "date_modified": "2026-01-27T17:06:39.000",
    "request_status": "Pending",
    "responsible_agency": "Department of Sanitation",
    "final_address": "70 Versailles Blvd",
    "address_councildis": "B",
    "status": "Assigned to Contractor",
    "contractor": "IV Waste",
    "rowid": "1254901",
    "final_x": "3667798.61965",
    "final_y": "530545.575234",
    "longitude": "-90.1113673081981",
    "latitude": "29.953225228317656",
    "geocoded_column": {
      "latitude": "29.953225228317656",
      "longitude": "-90.1113673081981"
    }
  },
  {
    "service_request": "2026-1254900",
    "request_type": "Streetlights",
    "request_reason": "Streetlight Outage/Malfunction",
    "date_created": "2026-01-27T17:00:29.000",
    "date_modified": "2026-01-27T17:00:31.000",
    "request_status": "Pending",
    "responsible_agency": "Department of Public Works",
    "final_address": "2751 Hudson Pl",
    "address_councildis": "C",
    "status": "Pending",
    "rowid": "1254900",
    "final_x": "3703313.25623",
    "final_y": "520543.426232",
    "longitude": "-89.99959585984978",
    "latitude": "29.924633638740907",
    "geocoded_column": {
      "latitude": "29.924633638740907",
      "longitude": "-89.99959585984978"
    }
  },
  {
    "service_request": "2026-1254899",
    "request_type": "Traffic Signals",
    "request_reason": "Traffic Signal Malfunctioning or Damaged",
    "date_created": "2026-01-27T16:49:00.000",
    "date_modified": "2026-01-27T16:49:04.000",
    "request_status": "Pending",
    "responsible_agency": "Department of Public Works",
    "final_address": "FRANKLIN AVE & GENTILLY BLVD",
    "address_councildis": "D",
    "status": "Pending",
    "rowid": "1254899",
    "final_x": "3686927.77",
    "final_y": "548844.3",
    "longitude": "-90.05031889266762",
    "latitude": "30.002965475495987",
    "geocoded_column": {
      "latitude": "30.002965475495987",
      "longitude": "-90.05031889266762"
    }
  },
  {
    "service_request": "2026-1254898",
    "request_type": "Abandoned Vehicles",
    "request_reason": "Abandoned/Junk Vehicles",
    "date_created": "2026-01-27T16:40:59.000",
    "date_modified": "2026-01-27T16:41:00.000",
    "request_status": "Pending",
    "responsible_agency": "Department of Public Works",
    "final_address": "2215 Clara St",
    "address_councildis": "B",
    "status": "Pending",
    "rowid": "1254898",
    "final_x": "3674899.44168",
    "final_y": "527011.44275",
    "longitude": "-90.08906712818555",
    "latitude": "29.94329740234129",
    "geocoded_column": {
      "latitude": "29.94329740234129",
      "longitude": "-90.08906712818555"
    }
  },
  {
    "service_request": "2026-1254897",
    "request_type": "Trash/Recycling",
    "request_reason": "Request a Large Item Pick Up",
    "date_created": "2026-01-27T16:31:39.000",
    "date_modified": "2026-01-27T16:31:41.000",
    "request_status": "Pending",
    "responsible_agency": "Department of Sanitation",
    "final_address": "8600 Lake Forest Blvd",
    "address_councildis": "E",
    "status": "Assigned to Contractor",
    "contractor": "Waste Pro",
    "rowid": "1254897",
    "final_x": "3706233.01867",
    "final_y": "557882.382491",
    "longitude": "-89.98899638685525",
    "latitude": "30.027208226926486",
    "geocoded_column": {
      "latitude": "30.027208226926486",
      "longitude": "-89.98899638685525"
    }
  },
  {
    "service_request": "2026-1254896",
    "request_type": "Property Maintenance",
    "request_reason": "Property Maintenance",
    "date_created": "2026-01-27T16:18:21.000",
    "date_modified": "2026-01-27T16:18:23.000",
    "request_status": "Pending",
    "responsible_agency": "Department of Code Enforcement",
    "final_address": "700 BLK Andry St",
    "address_councildis": "E",
    "status": "Pending",
    "rowid": "1254896",
    "final_x": "3696802.9748",
    "final_y": "532661.505659",
    "longitude": "-90.01970797685685",
    "latitude": "29.958160914011145",
    "geocoded_column": {
      "latitude": "29.958160914011145",
      "longitude": "-90.01970797685685"
    }
  },
  {
    "service_request": "2026-1254895",
    "request_type": "Property Maintenance",
    "request_reason": "Property Maintenance",
    "date_created": "2026-01-27T16:05:30.000",
    "date_modified": "2026-01-27T16:05:32.000",
    "request_status": "Pending",
    "responsible_agency": "Department of Code Enforcement",
    "final_address": "2439 George Nick Connor Dr",
    "address_councildis": "D",
    "status": "Pending",
    "rowid": "1254895",
    "final_x": "3681301.22767",
    "final_y": "541158.3723",
    "longitude": "-90.06836198536443",
    "latitude": "29.982003923821978",
    "geocoded_column": {
      "latitude": "29.982003923821978",
      "longitude": "-90.06836198536443"
    }
  },
  {
    "service_request": "2026-1254894",
    "request_type": "Trash/Recycling",
    "request_reason": "Missed Trash Pick-Up",
    "date_created": "2026-01-27T16:01:21.000",
    "date_modified": "2026-01-27T16:01:23.000",
    "request_status": "Pending",
    "responsible_agency": "Department of Sanitation",
    "final_address": "8160 Old Gentilly Rd",
    "address_councildis": "E",
    "status": "Assigned to Contractor",
    "contractor": "Waste Pro",
    "rowid": "1254894",
    "final_x": "3706882.46622",
    "final_y": "552471.206422",
    "longitude": "-89.98714509312181",
    "latitude": "30.012308622138285",
    "geocoded_column": {
      "latitude": "30.012308622138285",
      "longitude": "-89.98714509312181"
    }
  },
  {
    "service_request": "2026-1254893",
    "request_type": "Roads and Streets",
    "request_reason": "Curb Damage",
    "date_created": "2026-01-27T16:01:04.000",
    "date_modified": "2026-01-27T16:01:06.000",
    "request_status": "Pending",
    "responsible_agency": "Department of Public Works",
    "final_address": "320 Decatur St",
    "address_councildis": "C",
    "status": "Pending",
    "rowid": "1254893",
    "final_x": "3682413.31324",
    "final_y": "530959.820226",
    "longitude": "-90.06520598622917",
    "latitude": "29.953927616646997",
    "geocoded_column": {
      "latitude": "29.953927616646997",
      "longitude": "-90.06520598622917"
    }
  },
  {
    "service_request": "2026-1254892",
    "request_type": "Trash/Recycling",
    "request_reason": "Request a Large Item Pick Up",
    "date_created": "2026-01-27T16:00:42.000",
    "date_modified": "2026-01-27T16:00:44.000",
    "request_status": "Pending",
    "responsible_agency": "Department of Sanitation",
    "final_address": "11121 S Idlewood Ct",
    "address_councildis": "E",
    "status": "Assigned to Contractor",
    "contractor": "Waste Pro",
    "rowid": "1254892",
    "final_x": "3716156.87026",
    "final_y": "559366.633117",
    "longitude": "-89.95758195872506",
    "latitude": "30.03096545071214",
    "geocoded_column": {
      "latitude": "30.03096545071214",
      "longitude": "-89.95758195872506"
    }
  },
  {
    "service_request": "2026-1254891",
    "request_type": "Trash/Recycling",
    "request_reason": "Request a Large Item Pick Up",
    "date_created": "2026-01-27T15:56:42.000",
    "date_modified": "2026-01-27T15:56:44.000",
    "request_status": "Pending",
    "responsible_agency": "Department of Sanitation",
    "final_address": "7422 Alabama St",
    "address_councildis": "D",
    "status": "Assigned to Contractor",
    "contractor": "Waste Pro",
    "rowid": "1254891",
    "final_x": "3695033.67606",
    "final_y": "557977.640795",
    "longitude": "-90.02438169726076",
    "latitude": "30.027826681049838",
    "geocoded_column": {
      "latitude": "30.027826681049838",
      "longitude": "-90.02438169726076"
    }
  },
  {
    "service_request": "2026-1254890",
    "request_type": "Trash/Recycling",
    "request_reason": "Request a Large Item Pick Up",
    "date_created": "2026-01-27T15:53:48.000",
    "date_modified": "2026-01-27T15:53:50.000",
    "request_status": "Pending",
    "responsible_agency": "Department of Sanitation",
    "final_address": "12987 N Lake Carmel Dr",
    "address_councildis": "E",
    "status": "Assigned to Contractor",
    "contractor": "Waste Pro",
    "rowid": "1254890",
    "final_x": "3716627.66488",
    "final_y": "568455.269797",
    "longitude": "-89.95574896286348",
    "latitude": "30.05593995343962",
    "geocoded_column": {
      "latitude": "30.05593995343962",
      "longitude": "-89.95574896286348"
    }
  },
  {
    "service_request": "2026-1254889",
    "request_type": "Abandoned Vehicles",
    "request_reason": "Abandoned/Junk Vehicles",
    "date_created": "2026-01-27T15:53:27.000",
    "date_modified": "2026-01-27T15:53:28.000",
    "request_status": "Pending",
    "responsible_agency": "Department of Public Works",
    "final_address": "1622 St Anthony St",
    "address_councildis": "D",
    "status": "Pending",
    "rowid": "1254889",
    "final_x": "3683316.25071",
    "final_y": "538219.294793",
    "longitude": "-90.06210057429708",
    "latitude": "29.973861167153547",
    "geocoded_column": {
      "latitude": "29.973861167153547",
      "longitude": "-90.06210057429708"
    }
  },
  {
    "service_request": "2026-1254888",
    "request_type": "Trash/Recycling",
    "request_reason": "Illegal Dumping",
    "date_created": "2026-01-27T15:53:12.000",
    "date_modified": "2026-01-27T15:53:14.000",
    "request_status": "Pending",
    "responsible_agency": "Department of Sanitation",
    "final_address": "7TH ST & LOYOLA AVE",
    "address_councildis": "B",
    "status": "Pending",
    "rowid": "1254888",
    "final_x": "3674066.2",
    "final_y": "523870.98",
    "longitude": "-90.09180532040499",
    "latitude": "29.934687008956473",
    "geocoded_column": {
      "latitude": "29.934687008956473",
      "longitude": "-90.09180532040499"
    }
  },
  {
    "service_request": "2026-1254887",
    "request_type": "Street and Traffic Signs",
    "request_reason": "Traffic or Parking Sign Damaged or Missing",
    "date_created": "2026-01-27T15:45:41.000",
    "date_modified": "2026-01-27T15:50:18.000",
    "request_status": "Pending",
    "responsible_agency": "Department of Public Works",
    "final_address": "7100 BLK Pontchartrain Blvd",
    "address_councildis": "A",
    "status": "Pending",
    "rowid": "1254887",
    "final_x": "3666508.85887",
    "final_y": "554723.51206",
    "longitude": "-90.11462784742294",
    "latitude": "30.019744110469908",
    "geocoded_column": {
      "latitude": "30.019744110469908",
      "longitude": "-90.11462784742294"
    }
  },
  {
    "service_request": "2026-1254886",
    "request_type": "Trash/Recycling",
    "request_reason": "Request a Large Item Pick Up",
    "date_created": "2026-01-27T15:36:54.000",
    "date_modified": "2026-01-27T15:36:56.000",
    "request_status": "Pending",
    "responsible_agency": "Department of Sanitation",
    "final_address": "11404 Melvin Pl",
    "address_councildis": "E",
    "status": "Assigned to Contractor",
    "contractor": "Waste Pro",
    "rowid": "1254886",
    "final_x": "3717708.48869",
    "final_y": "561486.956959",
    "longitude": "-89.95259812048937",
    "latitude": "30.036744170650017",
    "geocoded_column": {
      "latitude": "30.036744170650017",
      "longitude": "-89.95259812048937"
    }
  },
  {
    "service_request": "2026-1254885",
    "request_type": "Street and Traffic Signs",
    "request_reason": "New Disabled Parking Sign Request ",
    "date_created": "2026-01-27T15:35:26.000",
    "date_modified": "2026-01-27T15:35:31.000",
    "case_close_date": "2026-01-27T09:35:30.000",
    "request_status": "Closed",
    "responsible_agency": "Department of Public Works",
    "final_address": "924 Burgundy St",
    "address_councildis": "C",
    "status": "Resolved",
    "rowid": "1254885",
    "final_x": "3682283.98306",
    "final_y": "533848.817605",
    "longitude": "-90.06551342386246",
    "latitude": "29.96187531028791",
    "geocoded_column": {
      "latitude": "29.96187531028791",
      "longitude": "-90.06551342386246"
    }
  },
  {
    "service_request": "2026-1254884",
    "request_type": "Trash/Recycling",
    "request_reason": "Request a Large Item Pick Up",
    "date_created": "2026-01-27T15:31:53.000",
    "date_modified": "2026-01-27T15:35:59.000",
    "request_status": "Pending",
    "responsible_agency": "Department of Sanitation",
    "final_address": "5401 S Claiborne Ave",
    "address_councildis": "A",
    "status": "Assigned to Contractor",
    "contractor": "IV Waste",
    "rowid": "1254884",
    "final_x": "3668320.44404",
    "final_y": "526558.557758",
    "longitude": "-90.10985402986397",
    "latitude": "29.942246915184466",
    "geocoded_column": {
      "latitude": "29.942246915184466",
      "longitude": "-90.10985402986397"
    }
  },
  {
    "service_request": "2026-1254883",
    "request_type": "New Orleans Recreation Development Commission (NORDC)",
    "request_reason": "Facilities and Parks Maintenance/Clean Up",
    "date_created": "2026-01-27T15:29:42.000",
    "date_modified": "2026-01-27T15:29:44.000",
    "request_status": "Pending",
    "responsible_agency": "New Orleans Recreation Development Commission",
    "final_address": "1914 St Roch Ave",
    "address_councildis": "D",
    "status": "Pending",
    "rowid": "1254883",
    "final_x": "3686028.5167",
    "final_y": "539494.827402",
    "longitude": "-90.053489661214",
    "latitude": "29.977285416494368",
    "geocoded_column": {
      "latitude": "29.977285416494368",
      "longitude": "-90.053489661214"
    }
  },
  {
    "service_request": "2026-1254882",
    "request_type": "Trash/Recycling",
    "request_reason": "Replace Trash Cart",
    "date_created": "2026-01-27T15:29:39.000",
    "date_modified": "2026-01-27T16:15:34.000",
    "request_status": "Pending",
    "responsible_agency": "Department of Sanitation",
    "final_address": "11 Spanish Fort Blvd",
    "address_councildis": "D",
    "status": "Assigned to Contractor",
    "contractor": "IV Waste",
    "rowid": "1254882",
    "final_x": "3674154.56168",
    "final_y": "554744.355224",
    "longitude": "-90.09046916692729",
    "latitude": "30.019575607632405",
    "geocoded_column": {
      "latitude": "30.019575607632405",
      "longitude": "-90.09046916692729"
    }
  },
  {
    "service_request": "2026-1254881",
    "request_type": "Abandoned Vehicles",
    "request_reason": "Abandoned/Junk Vehicles",
    "date_created": "2026-01-27T15:28:22.000",
    "date_modified": "2026-01-27T15:28:24.000",
    "request_status": "Pending",
    "responsible_agency": "Department of Public Works",
    "final_address": "1914 St Roch Ave",
    "address_councildis": "D",
    "status": "Pending",
    "rowid": "1254881",
    "final_x": "3686028.5167",
    "final_y": "539494.827402",
    "longitude": "-90.053489661214",
    "latitude": "29.977285416494368",
    "geocoded_column": {
      "latitude": "29.977285416494368",
      "longitude": "-90.053489661214"
    }
  },
  {
    "service_request": "2026-1254880",
    "request_type": "Roads and Streets",
    "request_reason": "Road Shoulder Damage",
    "date_created": "2026-01-27T15:28:17.000",
    "date_modified": "2026-01-27T15:28:19.000",
    "request_status": "Pending",
    "responsible_agency": "Department of Public Works",
    "final_address": "0 BLK Blanc Pl",
    "address_councildis": "B",
    "status": "Pending",
    "rowid": "1254880",
    "final_x": "3667951.08401",
    "final_y": "520874.262829",
    "longitude": "-90.11121159835395",
    "latitude": "29.926627762655404",
    "geocoded_column": {
      "latitude": "29.926627762655404",
      "longitude": "-90.11121159835395"
    }
  },
  {
    "service_request": "2026-1254879",
    "request_type": "Trash/Recycling",
    "request_reason": "Request a Large Item Pick Up",
    "date_created": "2026-01-27T15:24:02.000",
    "date_modified": "2026-01-27T15:24:03.000",
    "request_status": "Pending",
    "responsible_agency": "Department of Sanitation",
    "final_address": "4775 Knight Dr",
    "address_councildis": "E",
    "status": "Assigned to Contractor",
    "contractor": "Waste Pro",
    "rowid": "1254879",
    "final_x": "3708183.68779",
    "final_y": "555795.159769",
    "longitude": "-89.9829102327282",
    "latitude": "30.02140610772267",
    "geocoded_column": {
      "latitude": "30.02140610772267",
      "longitude": "-89.9829102327282"
    }
  },
  {
    "service_request": "2026-1254878",
    "request_type": "Roads and Streets",
    "request_reason": "Push-up/Pavement Expansion",
    "date_created": "2026-01-27T15:21:34.000",
    "date_modified": "2026-01-27T15:21:36.000",
    "request_status": "Pending",
    "responsible_agency": "Department of Public Works",
    "final_address": "11235 Lake Forest Blvd",
    "address_councildis": "E",
    "status": "Pending",
    "rowid": "1254878",
    "final_x": "3716022.91871",
    "final_y": "561662.083743",
    "longitude": "-89.95791817494204",
    "latitude": "30.037281438664227",
    "geocoded_column": {
      "latitude": "30.037281438664227",
      "longitude": "-89.95791817494204"
    }
  },
  {
    "service_request": "2026-1254877",
    "request_type": "Property Maintenance",
    "request_reason": "Property Maintenance",
    "date_created": "2026-01-27T15:21:31.000",
    "date_modified": "2026-01-27T15:51:23.000",
    "case_close_date": "2026-01-27T09:51:22.000",
    "request_status": "Closed",
    "responsible_agency": "Department of Code Enforcement",
    "final_address": "2701 Metropolitan St",
    "address_councildis": "D",
    "status": "Referred to Code Enforcement",
    "rowid": "1254877",
    "final_x": "3690925.65718",
    "final_y": "542326.531853",
    "longitude": "-90.03792182505401",
    "latitude": "29.984920281868625",
    "geocoded_column": {
      "latitude": "29.984920281868625",
      "longitude": "-90.03792182505401"
    }
  },
  {
    "service_request": "2026-1254876",
    "request_type": "Roads and Streets",
    "request_reason": "Street Subsidence (Sinking)",
    "date_created": "2026-01-27T15:20:50.000",
    "date_modified": "2026-01-27T15:20:52.000",
    "request_status": "Pending",
    "responsible_agency": "Sewerage & Water Board",
    "final_address": "4500 Magazine St",
    "address_councildis": "B",
    "status": "Pending",
    "rowid": "1254876",
    "final_x": "3670622.99195",
    "final_y": "518710.399927",
    "longitude": "-90.10285044646265",
    "latitude": "29.920599198235752",
    "geocoded_column": {
      "latitude": "29.920599198235752",
      "longitude": "-90.10285044646265"
    }
  },
  {
    "service_request": "2026-1254875",
    "request_type": "Trash/Recycling",
    "request_reason": "Order Recycling Cart",
    "date_created": "2026-01-27T15:09:02.000",
    "date_modified": "2026-01-27T15:09:04.000",
    "request_status": "Pending",
    "responsible_agency": "Department of Sanitation",
    "final_address": "4919 Perrier St",
    "address_councildis": "B",
    "status": "Pending",
    "rowid": "1254875",
    "final_x": "3668874.9282",
    "final_y": "519920.679992",
    "longitude": "-90.10832744744748",
    "latitude": "29.923978586442516",
    "geocoded_column": {
      "latitude": "29.923978586442516",
      "longitude": "-90.10832744744748"
    }
  },
  {
    "service_request": "2026-1254874",
    "request_type": "Trash/Recycling",
    "request_reason": "Request a Large Item Pick Up",
    "date_created": "2026-01-27T15:06:09.000",
    "date_modified": "2026-01-27T15:06:11.000",
    "request_status": "Pending",
    "responsible_agency": "Department of Sanitation",
    "final_address": "5314 Zeno Pl",
    "address_councildis": "E",
    "status": "Assigned to Contractor",
    "contractor": "Waste Pro",
    "rowid": "1254874",
    "final_x": "3718279.78143",
    "final_y": "561525.517023",
    "longitude": "-89.95079126598476",
    "latitude": "30.03683125427726",
    "geocoded_column": {
      "latitude": "30.03683125427726",
      "longitude": "-89.95079126598476"
    }
  },
  {
    "service_request": "2026-1254873",
    "request_type": "Trash/Recycling",
    "request_reason": "Replace Trash Cart",
    "date_created": "2026-01-27T15:04:41.000",
    "date_modified": "2026-01-27T16:15:10.000",
    "request_status": "Pending",
    "responsible_agency": "Department of Sanitation",
    "final_address": "6209 Paris Ave",
    "address_councildis": "D",
    "status": "Assigned to Contractor",
    "contractor": "IV Waste",
    "rowid": "1254873",
    "final_x": "3678977.78613",
    "final_y": "555615.783513",
    "longitude": "-90.0751991415517",
    "latitude": "30.021826985686893",
    "geocoded_column": {
      "latitude": "30.021826985686893",
      "longitude": "-90.0751991415517"
    }
  },
  {
    "service_request": "2026-1254872",
    "request_type": "Parks & Parkways",
    "request_reason": "Request Tree Service (Right of Way/Public Property)",
    "date_created": "2026-01-27T15:00:28.000",
    "date_modified": "2026-01-27T15:00:30.000",
    "request_status": "Pending",
    "responsible_agency": "Department of Parks & Parkway",
    "final_address": "2028 N Broad St",
    "address_councildis": "D",
    "status": "Pending",
    "rowid": "1254872",
    "final_x": "3680677.76757",
    "final_y": "542092.172812",
    "longitude": "-90.0702986595725",
    "latitude": "29.984590459556806",
    "geocoded_column": {
      "latitude": "29.984590459556806",
      "longitude": "-90.0702986595725"
    }
  },
  {
    "service_request": "2026-1254871",
    "request_type": "Trash/Recycling",
    "request_reason": "Start Trash Service",
    "date_created": "2026-01-27T14:59:37.000",
    "date_modified": "2026-01-27T14:59:39.000",
    "request_status": "Pending",
    "responsible_agency": "Department of Sanitation",
    "final_address": "817 Hillary St",
    "address_councildis": "A",
    "status": "Assigned to Contractor",
    "contractor": "IV Waste",
    "rowid": "1254871",
    "final_x": "3662481.30541",
    "final_y": "526210.797566",
    "longitude": "-90.12830111767603",
    "latitude": "29.94146082980406",
    "geocoded_column": {
      "latitude": "29.94146082980406",
      "longitude": "-90.12830111767603"
    }
  },
  {
    "service_request": "2026-1254870",
    "request_type": "Trash/Recycling",
    "request_reason": "Illegal Dumping",
    "date_created": "2026-01-27T14:57:46.000",
    "date_modified": "2026-01-27T14:59:20.000",
    "request_status": "Pending",
    "responsible_agency": "Department of Sanitation",
    "final_address": "JOSEPH ST & CAMP ST",
    "address_councildis": "A",
    "status": "Pending",
    "rowid": "1254870",
    "final_x": "3666212.1",
    "final_y": "519294.58",
    "longitude": "-90.11675406179559",
    "latitude": "29.92233501773591",
    "geocoded_column": {
      "latitude": "29.92233501773591",
      "longitude": "-90.11675406179559"
    }
  },
  {
    "service_request": "2026-1254869",
    "request_type": "Property Maintenance",
    "request_reason": "Property Maintenance",
    "date_created": "2026-01-27T14:47:13.000",
    "date_modified": "2026-01-27T14:47:14.000",
    "request_status": "Pending",
    "responsible_agency": "Department of Code Enforcement",
    "final_address": "5564 Bellaire Dr",
    "address_councildis": "A",
    "status": "Pending",
    "rowid": "1254869",
    "final_x": "3664010.66452",
    "final_y": "544717.794319",
    "longitude": "-90.12285534602204",
    "latitude": "29.9923046638887",
    "geocoded_column": {
      "latitude": "29.9923046638887",
      "longitude": "-90.12285534602204"
    }
  },
  {
    "service_request": "2026-1254868",
    "request_type": "Trash/Recycling",
    "request_reason": "Request a Large Item Pick Up",
    "date_created": "2026-01-27T14:40:04.000",
    "date_modified": "2026-01-27T14:40:06.000",
    "request_status": "Pending",
    "responsible_agency": "Department of Sanitation",
    "final_address": "3327 River Oaks Dr",
    "address_councildis": "C",
    "status": "Assigned to Contractor",
    "contractor": "Richards Disposal",
    "rowid": "1254868",
    "final_x": "3701364.34609",
    "final_y": "518848.887287",
    "longitude": "-90.00580984360721",
    "latitude": "29.920036471583398",
    "geocoded_column": {
      "latitude": "29.920036471583398",
      "longitude": "-90.00580984360721"
    }
  },
  {
    "service_request": "2026-1254866",
    "request_type": "Street and Traffic Signs",
    "request_reason": "Traffic or Parking Sign Damaged or Missing",
    "date_created": "2026-01-27T14:36:17.000",
    "date_modified": "2026-01-27T14:37:53.000",
    "request_status": "Pending",
    "responsible_agency": "Department of Public Works",
    "final_address": "8400 BLK Curran Rd",
    "address_councildis": "E",
    "status": "Pending",
    "rowid": "1254866",
    "final_x": "3703534.67557",
    "final_y": "562269.636731",
    "longitude": "-89.99736120831307",
    "latitude": "30.03935823427786",
    "geocoded_column": {
      "latitude": "30.03935823427786",
      "longitude": "-89.99736120831307"
    }
  },
  {
    "service_request": "2026-1254865",
    "request_type": "Property Maintenance",
    "request_reason": "Property Maintenance",
    "date_created": "2026-01-27T14:35:15.000",
    "date_modified": "2026-01-27T14:35:16.000",
    "request_status": "Pending",
    "responsible_agency": "Department of Code Enforcement",
    "final_address": "3305 Touro St",
    "address_councildis": "D",
    "status": "Pending",
    "rowid": "1254865",
    "final_x": "3683587.85813",
    "final_y": "544785.842447",
    "longitude": "-90.06101250145049",
    "latitude": "29.99190857570357",
    "geocoded_column": {
      "latitude": "29.99190857570357",
      "longitude": "-90.06101250145049"
    }
  },
  {
    "service_request": "2026-1254864",
    "request_type": "Trash/Recycling",
    "request_reason": "Repair Trash Cart",
    "date_created": "2026-01-27T14:35:02.000",
    "date_modified": "2026-01-27T16:33:16.000",
    "request_status": "Pending",
    "responsible_agency": "Department of Sanitation",
    "final_address": "65 Thrasher St",
    "address_councildis": "D",
    "status": "Assigned to Contractor",
    "contractor": "IV Waste",
    "rowid": "1254864",
    "final_x": "3672671.50568",
    "final_y": "556388.854042",
    "longitude": "-90.09509899127293",
    "latitude": "30.024141537118428",
    "geocoded_column": {
      "latitude": "30.024141537118428",
      "longitude": "-90.09509899127293"
    }
  },
  {
    "service_request": "2026-1254863",
    "request_type": "Trash/Recycling",
    "request_reason": "Order Recycling Cart",
    "date_created": "2026-01-27T14:34:30.000",
    "date_modified": "2026-01-27T14:34:31.000",
    "request_status": "Pending",
    "responsible_agency": "Department of Sanitation",
    "final_address": "5020 Dauphine St",
    "address_councildis": "E",
    "status": "Pending",
    "rowid": "1254863",
    "final_x": "3695850.03421",
    "final_y": "533049.634372",
    "longitude": "-90.02270306635545",
    "latitude": "29.959258136164213",
    "geocoded_column": {
      "latitude": "29.959258136164213",
      "longitude": "-90.02270306635545"
    }
  },
  {
    "service_request": "2026-1254862",
    "request_type": "Trash/Recycling",
    "request_reason": "Request a Large Item Pick Up",
    "date_created": "2026-01-27T14:27:09.000",
    "date_modified": "2026-01-27T14:29:17.000",
    "request_status": "Pending",
    "responsible_agency": "Department of Sanitation",
    "final_address": "45 Cypress Grove Ct",
    "address_councildis": "C",
    "status": "Assigned to Contractor",
    "contractor": "Richards Disposal",
    "rowid": "1254862",
    "final_x": "3705022.11358",
    "final_y": "512109.639345",
    "longitude": "-89.99451267794883",
    "latitude": "29.901388820787123",
    "geocoded_column": {
      "latitude": "29.901388820787123",
      "longitude": "-89.99451267794883"
    }
  },
  {
    "service_request": "2026-1254861",
    "request_type": "Trash/Recycling",
    "request_reason": "Request a Large Item Pick Up",
    "date_created": "2026-01-27T14:24:48.000",
    "date_modified": "2026-01-27T14:32:00.000",
    "request_status": "Pending",
    "responsible_agency": "Department of Sanitation",
    "final_address": "220 English Turn Dr",
    "address_councildis": "C",
    "status": "Assigned to Contractor",
    "contractor": "Richards Disposal",
    "rowid": "1254861",
    "final_x": "3718557.76191",
    "final_y": "512116.844465",
    "longitude": "-89.95179539311923",
    "latitude": "29.900966825872",
    "geocoded_column": {
      "latitude": "29.900966825872",
      "longitude": "-89.95179539311923"
    }
  },
  {
    "service_request": "2026-1254860",
    "request_type": "Trash/Recycling",
    "request_reason": "Request a Large Item Pick Up",
    "date_created": "2026-01-27T14:21:06.000",
    "date_modified": "2026-01-27T14:23:16.000",
    "request_status": "Pending",
    "responsible_agency": "Department of Sanitation",
    "final_address": "6051 Wright Rd",
    "address_councildis": "E",
    "status": "Assigned to Contractor",
    "contractor": "Waste Pro",
    "rowid": "1254860",
    "final_x": "3713128.3955",
    "final_y": "562948.985888",
    "longitude": "-89.96701694125174",
    "latitude": "30.040915119271215",
    "geocoded_column": {
      "latitude": "30.040915119271215",
      "longitude": "-89.96701694125174"
    }
  },
  {
    "service_request": "2026-1254859",
    "request_type": "Trash/Recycling",
    "request_reason": "Request a Large Item Pick Up",
    "date_created": "2026-01-27T14:21:01.000",
    "date_modified": "2026-01-27T15:31:17.000",
    "case_close_date": "2026-01-27T09:31:15.000",
    "request_status": "Closed",
    "responsible_agency": "Department of Sanitation",
    "final_address": "4822 Shalimar Dr",
    "address_councildis": "D",
    "status": "Duplicate Request",
    "contractor": "Waste Pro",
    "contractor_action": "Duplicate",
    "rowid": "1254859",
    "final_x": "3697082.13251",
    "final_y": "554641.327576",
    "longitude": "-90.0180297703339",
    "latitude": "30.018588586440167",
    "geocoded_column": {
      "latitude": "30.018588586440167",
      "longitude": "-90.0180297703339"
    }
  },
  {
    "service_request": "2026-1254858",
    "request_type": "Property Maintenance",
    "request_reason": "Property Maintenance",
    "date_created": "2026-01-27T14:17:20.000",
    "date_modified": "2026-01-27T14:28:56.000",
    "request_status": "Pending",
    "responsible_agency": "Department of Code Enforcement",
    "final_address": "1825 Calhoun St",
    "address_councildis": "A",
    "status": "Pending",
    "rowid": "1254858",
    "final_x": "3665361.54637",
    "final_y": "523965.069692",
    "longitude": "-90.11928271809629",
    "latitude": "29.93520219279467",
    "geocoded_column": {
      "latitude": "29.93520219279467",
      "longitude": "-90.11928271809629"
    }
  },
  {
    "service_request": "2026-1254857",
    "request_type": "Trash/Recycling",
    "request_reason": "Request a Large Item Pick Up",
    "date_created": "2026-01-27T14:08:38.000",
    "date_modified": "2026-01-27T14:08:40.000",
    "request_status": "Pending",
    "responsible_agency": "Department of Sanitation",
    "final_address": "4400 Dodt Ave",
    "address_councildis": "E",
    "status": "Assigned to Contractor",
    "contractor": "Waste Pro",
    "rowid": "1254857",
    "final_x": "3705547.19121",
    "final_y": "553369.434647",
    "longitude": "-89.99133054046223",
    "latitude": "30.014821472401433",
    "geocoded_column": {
      "latitude": "30.014821472401433",
      "longitude": "-89.99133054046223"
    }
  },
  {
    "service_request": "2026-1254856",
    "request_type": "Trash/Recycling",
    "request_reason": "Replace Recycling Cart",
    "date_created": "2026-01-27T14:07:59.000",
    "date_modified": "2026-01-27T14:14:48.000",
    "request_status": "Pending",
    "responsible_agency": "Department of Sanitation",
    "final_address": "1729 Calhoun St",
    "address_councildis": "A",
    "status": "Pending",
    "rowid": "1254856",
    "final_x": "3665231.09485",
    "final_y": "523635.942203",
    "longitude": "-90.11970556024689",
    "latitude": "29.934300996731718",
    "geocoded_column": {
      "latitude": "29.934300996731718",
      "longitude": "-90.11970556024689"
    }
  },
  {
    "service_request": "2026-1254855",
    "request_type": "Trash/Recycling",
    "request_reason": "Request a Large Item Pick Up",
    "date_created": "2026-01-27T14:01:05.000",
    "date_modified": "2026-01-27T14:03:13.000",
    "request_status": "Pending",
    "responsible_agency": "Department of Sanitation",
    "final_address": "7301 Ebbtide Dr",
    "address_councildis": "E",
    "status": "Assigned to Contractor",
    "contractor": "Waste Pro",
    "rowid": "1254855",
    "final_x": "3702663.11153",
    "final_y": "560476.154782",
    "longitude": "-90.00018153280496",
    "latitude": "30.034454773097114",
    "geocoded_column": {
      "latitude": "30.034454773097114",
      "longitude": "-90.00018153280496"
    }
  },
  {
    "service_request": "2026-1254854",
    "request_type": "Trash/Recycling",
    "request_reason": "Request a Large Item Pick Up",
    "date_created": "2026-01-27T13:59:19.000",
    "date_modified": "2026-01-27T14:02:21.000",
    "request_status": "Pending",
    "responsible_agency": "Department of Sanitation",
    "final_address": "5207 N Robertson St",
    "address_councildis": "E",
    "status": "Assigned to Contractor",
    "contractor": "Waste Pro",
    "rowid": "1254854",
    "final_x": "3697053.78877",
    "final_y": "535660.883654",
    "longitude": "-90.01880732490967",
    "latitude": "29.966400230042886",
    "geocoded_column": {
      "latitude": "29.966400230042886",
      "longitude": "-90.01880732490967"
    }
  },
  {
    "service_request": "2026-1254853",
    "request_type": "General Services",
    "request_reason": "General Service Request",
    "date_created": "2026-01-27T13:58:38.000",
    "date_modified": "2026-01-27T14:02:46.000",
    "case_close_date": "2026-01-27T08:00:32.000",
    "request_status": "Pending",
    "responsible_agency": "Orleans Parish Communication District",
    "final_address": "13541 St Marie Ct",
    "address_councildis": "E",
    "status": "Pending",
    "rowid": "1254853",
    "final_x": "3724018.27263",
    "final_y": "569361.36215",
    "longitude": "-89.93235389073793",
    "latitude": "30.058184943433286",
    "geocoded_column": {
      "latitude": "30.058184943433286",
      "longitude": "-89.93235389073793"
    }
  },
  {
    "service_request": "2026-1254852",
    "request_type": "Trash/Recycling",
    "request_reason": "Replace Trash Cart",
    "date_created": "2026-01-27T13:57:25.000",
    "date_modified": "2026-01-27T16:14:51.000",
    "request_status": "Pending",
    "responsible_agency": "Department of Sanitation",
    "final_address": "730 Ursulines Ave",
    "address_councildis": "C",
    "status": "Assigned to Contractor",
    "contractor": "IV Waste",
    "rowid": "1254852",
    "final_x": "3683205.45487",
    "final_y": "533759.065797",
    "longitude": "-90.06260670835019",
    "latitude": "29.961600456820953",
    "geocoded_column": {
      "latitude": "29.961600456820953",
      "longitude": "-90.06260670835019"
    }
  },
  {
    "service_request": "2026-1254851",
    "request_type": "Property Maintenance",
    "request_reason": "Property Maintenance",
    "date_created": "2026-01-27T13:55:22.000",
    "date_modified": "2026-01-27T13:55:26.000",
    "request_status": "Pending",
    "responsible_agency": "Department of Code Enforcement",
    "final_address": "3737 Clematis St",
    "address_councildis": "D",
    "status": "Pending",
    "rowid": "1254851",
    "final_x": "3685999.82057",
    "final_y": "546811.502353",
    "longitude": "-90.0533221497647",
    "latitude": "29.997404552693684",
    "geocoded_column": {
      "latitude": "29.997404552693684",
      "longitude": "-90.0533221497647"
    }
  },
  {
    "service_request": "2026-1254850",
    "request_type": "Property Maintenance",
    "request_reason": "Property Maintenance",
    "date_created": "2026-01-27T13:52:28.000",
    "date_modified": "2026-01-27T13:52:29.000",
    "request_status": "Pending",
    "responsible_agency": "Department of Code Enforcement",
    "final_address": "816 Dufossat St",
    "address_councildis": "B",
    "status": "Pending",
    "rowid": "1254850",
    "final_x": "3667983.71482",
    "final_y": "518409.570998",
    "longitude": "-90.11119157606002",
    "latitude": "29.919849682062978",
    "geocoded_column": {
      "latitude": "29.919849682062978",
      "longitude": "-90.11119157606002"
    }
  },
  {
    "service_request": "2026-1254849",
    "request_type": "Trash/Recycling",
    "request_reason": "Replace Trash Cart",
    "date_created": "2026-01-27T13:49:53.000",
    "date_modified": "2026-01-27T13:51:37.000",
    "request_status": "Pending",
    "responsible_agency": "Department of Sanitation",
    "final_address": "11159 Winchester Park Dr",
    "address_councildis": "E",
    "status": "Assigned to Contractor",
    "contractor": "Waste Pro",
    "rowid": "1254849",
    "final_x": "3715172.27122",
    "final_y": "561617.620703",
    "longitude": "-89.96060806924517",
    "latitude": "30.03718723154017",
    "geocoded_column": {
      "latitude": "30.03718723154017",
      "longitude": "-89.96060806924517"
    }
  },
  {
    "service_request": "2026-1254848",
    "request_type": "Trash/Recycling",
    "request_reason": "MIssed Recycling Pick-Up",
    "date_created": "2026-01-27T13:46:59.000",
    "date_modified": "2026-01-27T15:14:20.000",
    "case_close_date": "2026-01-27T09:14:19.000",
    "request_status": "Closed",
    "responsible_agency": "Department of Sanitation",
    "final_address": "1414 Cambronne St",
    "address_councildis": "A",
    "status": "Invalid Request",
    "contractor": "IV Waste",
    "contractor_action": "Invalid Request",
    "rowid": "1254848",
    "final_x": "3661698.22381",
    "final_y": "529742.504769",
    "longitude": "-90.1306564385348",
    "latitude": "29.951194517655612",
    "geocoded_column": {
      "latitude": "29.951194517655612",
      "longitude": "-90.1306564385348"
    }
  },
  {
    "service_request": "2026-1254847",
    "request_type": "Trash/Recycling",
    "request_reason": "Replace Trash Cart",
    "date_created": "2026-01-27T13:45:37.000",
    "date_modified": "2026-01-27T16:13:42.000",
    "request_status": "Pending",
    "responsible_agency": "Department of Sanitation",
    "final_address": "3216 Grand-Route St John St",
    "address_councildis": "A",
    "status": "Assigned to Contractor",
    "contractor": "IV Waste",
    "rowid": "1254847",
    "final_x": "3676017.87265",
    "final_y": "540281.094859",
    "longitude": "-90.08507955191497",
    "latitude": "29.979751033046064",
    "geocoded_column": {
      "latitude": "29.979751033046064",
      "longitude": "-90.08507955191497"
    }
  },
  {
    "service_request": "2026-1254846",
    "request_type": "Trash/Recycling",
    "request_reason": "Request a Large Item Pick Up",
    "date_created": "2026-01-27T13:35:38.000",
    "date_modified": "2026-01-27T13:35:40.000",
    "request_status": "Pending",
    "responsible_agency": "Department of Sanitation",
    "final_address": "4822 Shalimar Dr",
    "address_councildis": "D",
    "status": "Assigned to Contractor",
    "contractor": "Waste Pro",
    "rowid": "1254846",
    "final_x": "3697082.13251",
    "final_y": "554641.327576",
    "longitude": "-90.0180297703339",
    "latitude": "30.018588586440167",
    "geocoded_column": {
      "latitude": "30.018588586440167",
      "longitude": "-90.0180297703339"
    }
  },
  {
    "service_request": "2026-1254845",
    "request_type": "Trash/Recycling",
    "request_reason": "Repair Trash Cart",
    "date_created": "2026-01-27T13:33:20.000",
    "date_modified": "2026-01-27T16:32:55.000",
    "request_status": "Pending",
    "responsible_agency": "Department of Sanitation",
    "final_address": "3503 St Anthony Ave",
    "address_councildis": "D",
    "status": "Assigned to Contractor",
    "contractor": "IV Waste",
    "rowid": "1254845",
    "final_x": "3682882.23618",
    "final_y": "545451.703568",
    "longitude": "-90.06321809789046",
    "latitude": "29.993760982202712",
    "geocoded_column": {
      "latitude": "29.993760982202712",
      "longitude": "-90.06321809789046"
    }
  },
  {
    "service_request": "2026-1254844",
    "request_type": "Trash/Recycling",
    "request_reason": "Request a Large Item Pick Up",
    "date_created": "2026-01-27T13:33:02.000",
    "date_modified": "2026-01-27T13:33:04.000",
    "request_status": "Pending",
    "responsible_agency": "Department of Sanitation",
    "final_address": "3406 Jackson Ave",
    "address_councildis": "B",
    "status": "Assigned to Contractor",
    "contractor": "IV Waste",
    "rowid": "1254844",
    "final_x": "3673653.81422",
    "final_y": "528791.437888",
    "longitude": "-90.092939060487",
    "latitude": "29.948228937453873",
    "geocoded_column": {
      "latitude": "29.948228937453873",
      "longitude": "-90.092939060487"
    }
  },
  {
    "service_request": "2026-1254843",
    "request_type": "Property Maintenance",
    "request_reason": "Property Maintenance",
    "date_created": "2026-01-27T13:25:40.000",
    "date_modified": "2026-01-27T13:25:42.000",
    "request_status": "Pending",
    "responsible_agency": "Department of Code Enforcement",
    "final_address": "4872 Chantilly Dr",
    "address_councildis": "E",
    "status": "Pending",
    "rowid": "1254843",
    "final_x": "3700728.74615",
    "final_y": "554944.396632",
    "longitude": "-90.00649678181237",
    "latitude": "30.019306309029762",
    "geocoded_column": {
      "latitude": "30.019306309029762",
      "longitude": "-90.00649678181237"
    }
  },
  {
    "service_request": "2026-1254842",
    "request_type": "Trash/Recycling",
    "request_reason": "Request a Large Item Pick Up",
    "date_created": "2026-01-27T13:23:13.000",
    "date_modified": "2026-01-27T13:29:21.000",
    "request_status": "Pending",
    "responsible_agency": "Department of Sanitation",
    "final_address": "7347 Canterbury St",
    "address_councildis": "E",
    "status": "Pending",
    "contractor": "Waste Pro",
    "rowid": "1254842",
    "final_x": "3698935.17239",
    "final_y": "559355.335965",
    "longitude": "-90.01200311519065",
    "latitude": "30.03149168809216",
    "geocoded_column": {
      "latitude": "30.03149168809216",
      "longitude": "-90.01200311519065"
    }
  },
  {
    "service_request": "2026-1254841",
    "request_type": "Trash/Recycling",
    "request_reason": "Request a Large Item Pick Up",
    "date_created": "2026-01-27T13:19:47.000",
    "date_modified": "2026-01-27T13:19:49.000",
    "request_status": "Pending",
    "responsible_agency": "Department of Sanitation",
    "final_address": "6911 W Laverne St",
    "address_councildis": "D",
    "status": "Assigned to Contractor",
    "contractor": "Waste Pro",
    "rowid": "1254841",
    "final_x": "3696079.70781",
    "final_y": "556206.078618",
    "longitude": "-90.02114043435607",
    "latitude": "30.022922661117008",
    "geocoded_column": {
      "latitude": "30.022922661117008",
      "longitude": "-90.02114043435607"
    }
  },
  {
    "service_request": "2026-1254840",
    "request_type": "Trash/Recycling",
    "request_reason": "Request a Large Item Pick Up",
    "date_created": "2026-01-27T13:19:18.000",
    "date_modified": "2026-01-27T13:19:19.000",
    "request_status": "Pending",
    "responsible_agency": "Department of Sanitation",
    "final_address": "4561 Francisco Verrett Dr",
    "address_councildis": "E",
    "status": "Assigned to Contractor",
    "contractor": "Waste Pro",
    "rowid": "1254840",
    "final_x": "3704392.21009",
    "final_y": "553971.293528",
    "longitude": "-89.99495748454189",
    "latitude": "30.016513497493005",
    "geocoded_column": {
      "latitude": "30.016513497493005",
      "longitude": "-89.99495748454189"
    }
  },
  {
    "service_request": "2026-1254839",
    "request_type": "Trash/Recycling",
    "request_reason": "Order Trash Cart",
    "date_created": "2026-01-27T13:18:00.000",
    "date_modified": "2026-01-27T16:37:38.000",
    "request_status": "Pending",
    "responsible_agency": "Department of Sanitation",
    "final_address": "5824 Fontainebleau Dr",
    "address_councildis": "A",
    "status": "Assigned to Contractor",
    "contractor": "IV Waste",
    "rowid": "1254839",
    "final_x": "3668293.90209",
    "final_y": "529775.657985",
    "longitude": "-90.10982937351963",
    "latitude": "29.9510936749149",
    "geocoded_column": {
      "latitude": "29.9510936749149",
      "longitude": "-90.10982937351963"
    }
  },
  {
    "service_request": "2026-1254838",
    "request_type": "Abandoned Vehicles",
    "request_reason": "Abandoned/Junk Vehicles",
    "date_created": "2026-01-27T13:15:47.000",
    "date_modified": "2026-01-27T13:15:48.000",
    "request_status": "Pending",
    "responsible_agency": "Department of Public Works",
    "final_address": "2601 Somerset Dr",
    "address_councildis": "C",
    "status": "Pending",
    "rowid": "1254838",
    "final_x": "3702827.94756",
    "final_y": "521486.093305",
    "longitude": "-90.00109320739932",
    "latitude": "29.927241170307255",
    "geocoded_column": {
      "latitude": "29.927241170307255",
      "longitude": "-90.00109320739932"
    }
  },
  {
    "service_request": "2026-1254837",
    "request_type": "Trash/Recycling",
    "request_reason": "Order Trash Cart",
    "date_created": "2026-01-27T13:09:46.000",
    "date_modified": "2026-01-27T13:09:48.000",
    "request_status": "Pending",
    "responsible_agency": "Department of Sanitation",
    "final_address": "7721 Arcadia Ln",
    "address_councildis": "E",
    "status": "Assigned to Contractor",
    "contractor": "Waste Pro",
    "rowid": "1254837",
    "final_x": "3712196.22866",
    "final_y": "567412.675108",
    "longitude": "-89.96979501046883",
    "latitude": "30.05321898919813",
    "geocoded_column": {
      "latitude": "30.05321898919813",
      "longitude": "-89.96979501046883"
    }
  },
  {
    "service_request": "2026-1254836",
    "request_type": "Streetlights",
    "request_reason": "Streetlight Outage/Malfunction",
    "date_created": "2026-01-27T13:07:35.000",
    "date_modified": "2026-01-27T13:07:36.000",
    "request_status": "Pending",
    "responsible_agency": "Department of Public Works",
    "final_address": "5019 Bancroft Dr",
    "address_councildis": "D",
    "status": "Pending",
    "rowid": "1254836",
    "final_x": "3676277.61179",
    "final_y": "550605.0109",
    "longitude": "-90.08390363936228",
    "latitude": "30.008130404742875",
    "geocoded_column": {
      "latitude": "30.008130404742875",
      "longitude": "-90.08390363936228"
    }
  },
  {
    "service_request": "2026-1254835",
    "request_type": "Trash/Recycling",
    "request_reason": "Missed Trash Pick-Up",
    "date_created": "2026-01-27T13:07:06.000",
    "date_modified": "2026-01-27T13:07:08.000",
    "request_status": "Pending",
    "responsible_agency": "Department of Sanitation",
    "final_address": "10250 Heritage Dr",
    "address_councildis": "E",
    "status": "Assigned to Contractor",
    "contractor": "Waste Pro",
    "rowid": "1254835",
    "final_x": "3709558.31115",
    "final_y": "564240.394145",
    "longitude": "-89.97825126603402",
    "latitude": "30.044582543764577",
    "geocoded_column": {
      "latitude": "30.044582543764577",
      "longitude": "-89.97825126603402"
    }
  },
  {
    "service_request": "2026-1254834",
    "request_type": "Trash/Recycling",
    "request_reason": "Return Trash Cart",
    "date_created": "2026-01-27T13:06:25.000",
    "date_modified": "2026-01-27T13:06:27.000",
    "request_status": "Pending",
    "responsible_agency": "Department of Sanitation",
    "final_address": "3141 St Philip St",
    "address_councildis": "A",
    "status": "Assigned to Contractor",
    "contractor": "IV Waste",
    "rowid": "1254834",
    "final_x": "3675719.54421",
    "final_y": "539194.374602",
    "longitude": "-90.08605915716954",
    "latitude": "29.97677185812415",
    "geocoded_column": {
      "latitude": "29.97677185812415",
      "longitude": "-90.08605915716954"
    }
  },
  {
    "service_request": "2026-1254833",
    "request_type": "Trash/Recycling",
    "request_reason": "Request a Large Item Pick Up",
    "date_created": "2026-01-27T13:03:10.000",
    "date_modified": "2026-01-27T13:19:39.000",
    "request_status": "Pending",
    "responsible_agency": "Department of Sanitation",
    "final_address": "5626 Chamberlain Dr",
    "address_councildis": "D",
    "status": "Assigned to Contractor",
    "contractor": "IV Waste",
    "rowid": "1254833",
    "final_x": "3679316.21967",
    "final_y": "553186.916119",
    "longitude": "-90.07421411261487",
    "latitude": "30.015138260189325",
    "geocoded_column": {
      "latitude": "30.015138260189325",
      "longitude": "-90.07421411261487"
    }
  },
  {
    "service_request": "2026-1254832",
    "request_type": "Trash/Recycling",
    "request_reason": "Dead Animal Pick Up",
    "date_created": "2026-01-27T13:01:36.000",
    "date_modified": "2026-01-27T15:11:14.000",
    "case_close_date": "2026-01-27T09:11:13.000",
    "request_status": "Closed",
    "responsible_agency": "Department of Sanitation",
    "final_address": "HENDERSTON ST & CONVENTION CENTER BLVD",
    "address_councildis": "B",
    "status": "Assigned to Contractor",
    "contractor": "IV Waste",
    "contractor_action": "Completed",
    "rowid": "1254832",
    "final_x": "3682783.17",
    "final_y": "524077.03",
    "longitude": "-90.06427883146027",
    "latitude": "29.934990995722508",
    "geocoded_column": {
      "latitude": "29.934990995722508",
      "longitude": "-90.06427883146027"
    }
  },
  {
    "service_request": "2026-1254831",
    "request_type": "Parks & Parkways",
    "request_reason": "Request Tree Service (Right of Way/Public Property)",
    "date_created": "2026-01-27T13:01:21.000",
    "date_modified": "2026-01-27T13:01:22.000",
    "request_status": "Pending",
    "responsible_agency": "Department of Parks & Parkway",
    "final_address": "1809 N Salcedo St",
    "address_councildis": "A",
    "status": "Pending",
    "rowid": "1254831",
    "final_x": "3677332.8292",
    "final_y": "543030.799629",
    "longitude": "-90.08083144979074",
    "latitude": "29.987272314005967",
    "geocoded_column": {
      "latitude": "29.987272314005967",
      "longitude": "-90.08083144979074"
    }
  },
  {
    "service_request": "2026-1254830",
    "request_type": "Trash/Recycling",
    "request_reason": "Repair Recycling Cart",
    "date_created": "2026-01-27T12:57:00.000",
    "date_modified": "2026-01-27T12:57:01.000",
    "request_status": "Pending",
    "responsible_agency": "Department of Sanitation",
    "final_address": "145 Pelican Ave",
    "address_councildis": "C",
    "status": "Pending",
    "rowid": "1254830",
    "final_x": "3685749.44662",
    "final_y": "529890.663489",
    "longitude": "-90.05470953657188",
    "latitude": "29.95088585672812",
    "geocoded_column": {
      "latitude": "29.95088585672812",
      "longitude": "-90.05470953657188"
    }
  },
  {
    "service_request": "2026-1254829",
    "request_type": "Property Maintenance",
    "request_reason": "Property Maintenance",
    "date_created": "2026-01-27T12:56:17.000",
    "date_modified": "2026-01-27T12:56:19.000",
    "request_status": "Pending",
    "responsible_agency": "Department of Code Enforcement",
    "final_address": "2328 Annunciation St",
    "address_councildis": "B",
    "status": "Pending",
    "rowid": "1254829",
    "final_x": "3679026.62287",
    "final_y": "520788.680121",
    "longitude": "-90.07625210995661",
    "latitude": "29.926062976598562",
    "geocoded_column": {
      "latitude": "29.926062976598562",
      "longitude": "-90.07625210995661"
    }
  },
  {
    "service_request": "2026-1254828",
    "request_type": "Property Maintenance",
    "request_reason": "Property Maintenance",
    "date_created": "2026-01-27T12:54:38.000",
    "date_modified": "2026-01-27T12:54:39.000",
    "request_status": "Pending",
    "responsible_agency": "Department of Code Enforcement",
    "final_address": "2318 Chippewa St",
    "address_councildis": "B",
    "status": "Pending",
    "rowid": "1254828",
    "final_x": "3679321.7044",
    "final_y": "520562.510392",
    "longitude": "-90.0753284618938",
    "latitude": "29.92543217884726",
    "geocoded_column": {
      "latitude": "29.92543217884726",
      "longitude": "-90.0753284618938"
    }
  },
  {
    "service_request": "2026-1254827",
    "request_type": "Property Maintenance",
    "request_reason": "Property Maintenance",
    "date_created": "2026-01-27T12:53:04.000",
    "date_modified": "2026-01-27T12:53:06.000",
    "request_status": "Pending",
    "responsible_agency": "Department of Code Enforcement",
    "final_address": "617 First St",
    "address_councildis": "B",
    "status": "Pending",
    "rowid": "1254827",
    "final_x": "3679028.40936",
    "final_y": "520117.103224",
    "longitude": "-90.07626972804592",
    "latitude": "29.92421630502302",
    "geocoded_column": {
      "latitude": "29.92421630502302",
      "longitude": "-90.07626972804592"
    }
  },
  {
    "service_request": "2026-1254826",
    "request_type": "Trash/Recycling",
    "request_reason": "Damaged Caused By Contractor",
    "date_created": "2026-01-27T12:52:09.000",
    "date_modified": "2026-01-27T12:52:12.000",
    "request_status": "Pending",
    "responsible_agency": "Department of Sanitation",
    "final_address": "3600 Cleveland Ave",
    "address_councildis": "B",
    "status": "Assigned to Contractor",
    "contractor": "IV Waste",
    "rowid": "1254826",
    "final_x": "3672268.78747",
    "final_y": "536824.941",
    "longitude": "-90.09703849239135",
    "latitude": "29.970359549983883",
    "geocoded_column": {
      "latitude": "29.970359549983883",
      "longitude": "-90.09703849239135"
    }
  },
  {
    "service_request": "2026-1254825",
    "request_type": "Property Maintenance",
    "request_reason": "Property Maintenance",
    "date_created": "2026-01-27T12:50:21.000",
    "date_modified": "2026-01-27T12:50:34.000",
    "request_status": "Pending",
    "responsible_agency": "Department of Code Enforcement",
    "final_address": "735 Washington Ave",
    "address_councildis": "B",
    "status": "Pending",
    "rowid": "1254825",
    "final_x": "3677763.81627",
    "final_y": "519831.099448",
    "longitude": "-90.08027148113962",
    "latitude": "29.923467974233546",
    "geocoded_column": {
      "latitude": "29.923467974233546",
      "longitude": "-90.08027148113962"
    }
  },
  {
    "service_request": "2026-1254824",
    "request_type": "Trash/Recycling",
    "request_reason": "Return Recycling Cart",
    "date_created": "2026-01-27T12:46:58.000",
    "date_modified": "2026-01-27T12:46:59.000",
    "request_status": "Pending",
    "responsible_agency": "Department of Sanitation",
    "final_address": "1436 Athis St",
    "address_councildis": "D",
    "status": "Pending",
    "rowid": "1254824",
    "final_x": "3677806.85614",
    "final_y": "553645.553431",
    "longitude": "-90.07896712801612",
    "latitude": "30.016444865998274",
    "geocoded_column": {
      "latitude": "30.016444865998274",
      "longitude": "-90.07896712801612"
    }
  },
  {
    "service_request": "2026-1254823",
    "request_type": "Property Maintenance",
    "request_reason": "Property Maintenance",
    "date_created": "2026-01-27T12:46:39.000",
    "date_modified": "2026-01-27T12:46:43.000",
    "request_status": "Pending",
    "responsible_agency": "Department of Code Enforcement",
    "final_address": "2718 St Thomas St",
    "address_councildis": "B",
    "status": "Pending",
    "rowid": "1254823",
    "final_x": "3678191.43803",
    "final_y": "519355.620599",
    "longitude": "-90.07893806942859",
    "latitude": "29.92214769616893",
    "geocoded_column": {
      "latitude": "29.92214769616893",
      "longitude": "-90.07893806942859"
    }
  },
  {
    "service_request": "2026-1254822",
    "request_type": "Abandoned Vehicles",
    "request_reason": "Abandoned/Junk Vehicles",
    "date_created": "2026-01-27T12:46:35.000",
    "date_modified": "2026-01-27T12:46:37.000",
    "request_status": "Pending",
    "responsible_agency": "Department of Public Works",
    "final_address": "709 Park Blvd",
    "address_councildis": "C",
    "status": "Pending",
    "rowid": "1254822",
    "final_x": "3688176.59439",
    "final_y": "525854.715645",
    "longitude": "-90.04718889146514",
    "latitude": "29.9397136803815",
    "geocoded_column": {
      "latitude": "29.9397136803815",
      "longitude": "-90.04718889146514"
    }
  },
  {
    "service_request": "2026-1254821",
    "request_type": "Mosquito, Termite & Rodent Control",
    "request_reason": "Rodent Complaint (Mice & Rats)",
    "date_created": "2026-01-27T12:42:25.000",
    "date_modified": "2026-01-27T12:42:26.000",
    "request_status": "Pending",
    "responsible_agency": "Mosquito, Termite & Rodent Control Board",
    "final_address": "9600 Lake Forest Blvd",
    "address_councildis": "E",
    "status": "Pending",
    "rowid": "1254821",
    "final_x": "3708616.80081",
    "final_y": "558345.998684",
    "longitude": "-89.98144663383816",
    "latitude": "30.028405874469446",
    "geocoded_column": {
      "latitude": "30.028405874469446",
      "longitude": "-89.98144663383816"
    }
  },
  {
    "service_request": "2026-1254820",
    "request_type": "Trash/Recycling",
    "request_reason": "Repair Trash Cart",
    "date_created": "2026-01-27T12:42:01.000",
    "date_modified": "2026-01-27T16:31:30.000",
    "request_status": "Pending",
    "responsible_agency": "Department of Sanitation",
    "final_address": "3113 Louisiana Avenue Prkwy",
    "address_councildis": "B",
    "status": "Assigned to Contractor",
    "contractor": "IV Waste",
    "rowid": "1254820",
    "final_x": "3672106.74049",
    "final_y": "526706.198846",
    "longitude": "-90.09789480483356",
    "latitude": "29.94254117201094",
    "geocoded_column": {
      "latitude": "29.94254117201094",
      "longitude": "-90.09789480483356"
    }
  },
  {
    "service_request": "2026-1254819",
    "request_type": "Street and Traffic Signs",
    "request_reason": "Traffic or Parking Sign Damaged or Missing",
    "date_created": "2026-01-27T12:39:52.000",
    "date_modified": "2026-01-27T12:39:54.000",
    "request_status": "Pending",
    "responsible_agency": "Department of Public Works",
    "final_address": "1600 BLK Canal St",
    "address_councildis": "B",
    "status": "Pending",
    "rowid": "1254819",
    "final_x": "3678530.16882",
    "final_y": "532644.284565",
    "longitude": "-90.07740906934869",
    "latitude": "29.95867692324275",
    "geocoded_column": {
      "latitude": "29.95867692324275",
      "longitude": "-90.07740906934869"
    }
  },
  {
    "service_request": "2026-1254818",
    "request_type": "Trash/Recycling",
    "request_reason": "Request a Large Item Pick Up",
    "date_created": "2026-01-27T12:36:33.000",
    "date_modified": "2026-01-27T12:36:36.000",
    "request_status": "Pending",
    "responsible_agency": "Department of Sanitation",
    "final_address": "11110 Ivy Ln",
    "address_councildis": "E",
    "status": "Assigned to Contractor",
    "contractor": "Waste Pro",
    "rowid": "1254818",
    "final_x": "3716024.41765",
    "final_y": "559739.394013",
    "longitude": "-89.95798636936546",
    "latitude": "30.031994765798473",
    "geocoded_column": {
      "latitude": "30.031994765798473",
      "longitude": "-89.95798636936546"
    }
  },
  {
    "service_request": "2026-1254817",
    "request_type": "Abandoned Vehicles",
    "request_reason": "Abandoned/Junk Vehicles",
    "date_created": "2026-01-27T12:36:04.000",
    "date_modified": "2026-01-27T12:36:24.000",
    "request_status": "Pending",
    "responsible_agency": "Department of Public Works",
    "final_address": "2608 Chippewa St",
    "address_councildis": "B",
    "status": "Pending",
    "rowid": "1254817",
    "final_x": "3678335.1901",
    "final_y": "519835.319736",
    "longitude": "-90.07846772080597",
    "latitude": "29.923462385226948",
    "geocoded_column": {
      "latitude": "29.923462385226948",
      "longitude": "-90.07846772080597"
    }
  },
  {
    "service_request": "2026-1254816",
    "request_type": "Abandoned Vehicles",
    "request_reason": "Abandoned/Junk Vehicles",
    "date_created": "2026-01-27T12:35:54.000",
    "date_modified": "2026-01-27T12:39:26.000",
    "request_status": "Pending",
    "responsible_agency": "Department of Public Works",
    "final_address": "1148 S Peters St",
    "address_councildis": "B",
    "status": "Pending",
    "rowid": "1254816",
    "final_x": "3682414.34952",
    "final_y": "525698.845693",
    "longitude": "-90.06538653660286",
    "latitude": "29.93946167553848",
    "geocoded_column": {
      "latitude": "29.93946167553848",
      "longitude": "-90.06538653660286"
    }
  },
  {
    "service_request": "2026-1254815",
    "request_type": "Property Maintenance",
    "request_reason": "Property Maintenance",
    "date_created": "2026-01-27T12:35:41.000",
    "date_modified": "2026-01-27T12:35:43.000",
    "request_status": "Pending",
    "responsible_agency": "Department of Code Enforcement",
    "final_address": "5321 Edenboro Rd",
    "address_councildis": "E",
    "status": "Pending",
    "rowid": "1254815",
    "final_x": "3708452.47089",
    "final_y": "557656.223963",
    "longitude": "-89.9819916087192",
    "latitude": "30.02651459445265",
    "geocoded_column": {
      "latitude": "30.02651459445265",
      "longitude": "-89.9819916087192"
    }
  },
  {
    "service_request": "2026-1254814",
    "request_type": "Abandoned Vehicles",
    "request_reason": "Abandoned/Junk Vehicles",
    "date_created": "2026-01-27T12:31:26.000",
    "date_modified": "2026-01-27T12:31:29.000",
    "request_status": "Pending",
    "responsible_agency": "Department of Public Works",
    "final_address": "8800 BLK Tilford Rd",
    "address_councildis": "E",
    "status": "Pending",
    "rowid": "1254814",
    "final_x": "3707642.84879",
    "final_y": "557270.503029",
    "longitude": "-89.98456424843066",
    "latitude": "30.025480241866063",
    "geocoded_column": {
      "latitude": "30.025480241866063",
      "longitude": "-89.98456424843066"
    }
  },
  {
    "service_request": "2026-1254813",
    "request_type": "Abandoned Vehicles",
    "request_reason": "Abandoned/Junk Vehicles",
    "date_created": "2026-01-27T12:29:08.000",
    "date_modified": "2026-01-27T12:29:10.000",
    "request_status": "Pending",
    "responsible_agency": "Department of Public Works",
    "final_address": "2608 Chippewa St",
    "address_councildis": "B",
    "status": "Pending",
    "rowid": "1254813",
    "final_x": "3678335.1901",
    "final_y": "519835.319736",
    "longitude": "-90.07846772080597",
    "latitude": "29.923462385226948",
    "geocoded_column": {
      "latitude": "29.923462385226948",
      "longitude": "-90.07846772080597"
    }
  },
  {
    "service_request": "2026-1254812",
    "request_type": "Abandoned Vehicles",
    "request_reason": "Abandoned/Junk Vehicles",
    "date_created": "2026-01-27T12:27:11.000",
    "date_modified": "2026-01-27T12:27:12.000",
    "request_status": "Pending",
    "responsible_agency": "Department of Public Works",
    "final_address": "5321 Edenboro Rd",
    "address_councildis": "E",
    "status": "Pending",
    "rowid": "1254812",
    "final_x": "3708452.47089",
    "final_y": "557656.223963",
    "longitude": "-89.9819916087192",
    "latitude": "30.02651459445265",
    "geocoded_column": {
      "latitude": "30.02651459445265",
      "longitude": "-89.9819916087192"
    }
  },
  {
    "service_request": "2026-1254811",
    "request_type": "Trash/Recycling",
    "request_reason": "Replace Trash Cart",
    "date_created": "2026-01-27T12:26:18.000",
    "date_modified": "2026-01-27T16:13:10.000",
    "request_status": "Pending",
    "responsible_agency": "Department of Sanitation",
    "final_address": "627 S Tonti St",
    "address_councildis": "B",
    "status": "Assigned to Contractor",
    "contractor": "IV Waste",
    "rowid": "1254811",
    "final_x": "3675054.64897",
    "final_y": "532565.186948",
    "longitude": "-90.08838658681513",
    "latitude": "29.95856371986607",
    "geocoded_column": {
      "latitude": "29.95856371986607",
      "longitude": "-90.08838658681513"
    }
  },
  {
    "service_request": "2026-1254810",
    "request_type": "Trash/Recycling",
    "request_reason": "Replace Trash Cart",
    "date_created": "2026-01-27T12:24:51.000",
    "date_modified": "2026-01-27T16:12:40.000",
    "request_status": "Pending",
    "responsible_agency": "Department of Sanitation",
    "final_address": "531 S Tonti St",
    "address_councildis": "B",
    "status": "Assigned to Contractor",
    "contractor": "IV Waste",
    "rowid": "1254810",
    "final_x": "3675311.08795",
    "final_y": "532889.892036",
    "longitude": "-90.08756567149986",
    "latitude": "29.959448886414037",
    "geocoded_column": {
      "latitude": "29.959448886414037",
      "longitude": "-90.08756567149986"
    }
  },
  {
    "service_request": "2026-1254809",
    "request_type": "Trash/Recycling",
    "request_reason": "Order Trash Cart",
    "date_created": "2026-01-27T12:23:44.000",
    "date_modified": "2026-01-27T12:26:13.000",
    "request_status": "Pending",
    "responsible_agency": "Department of Sanitation",
    "final_address": "941 Verret St",
    "address_councildis": "C",
    "status": "Assigned to Contractor",
    "contractor": "Richards Disposal",
    "rowid": "1254809",
    "final_x": "3687155.38665",
    "final_y": "528014.678079",
    "longitude": "-90.05033662440367",
    "latitude": "29.94568432338038",
    "geocoded_column": {
      "latitude": "29.94568432338038",
      "longitude": "-90.05033662440367"
    }
  },
  {
    "service_request": "2026-1254808",
    "request_type": "Street and Traffic Signs",
    "request_reason": "One Way Sign Missing or Damaged",
    "date_created": "2026-01-27T12:20:05.000",
    "date_modified": "2026-01-27T12:20:06.000",
    "request_status": "Pending",
    "responsible_agency": "Department of Public Works",
    "final_address": "JULIA ST & S PETERS ST",
    "address_councildis": "B",
    "status": "Pending",
    "rowid": "1254808",
    "final_x": "3682258.1",
    "final_y": "527566.58",
    "longitude": "-90.06581460801043",
    "latitude": "29.94460207313212",
    "geocoded_column": {
      "latitude": "29.94460207313212",
      "longitude": "-90.06581460801043"
    }
  },
  {
    "service_request": "2026-1254807",
    "request_type": "Abandoned Vehicles",
    "request_reason": "Abandoned/Junk Vehicles",
    "date_created": "2026-01-27T12:18:41.000",
    "date_modified": "2026-01-27T12:18:42.000",
    "request_status": "Pending",
    "responsible_agency": "Department of Public Works",
    "final_address": "4134 Paris Ave",
    "address_councildis": "D",
    "status": "Pending",
    "rowid": "1254807",
    "final_x": "3679421.99458",
    "final_y": "547630.880274",
    "longitude": "-90.07407283446783",
    "latitude": "29.999857956629654",
    "geocoded_column": {
      "latitude": "29.999857956629654",
      "longitude": "-90.07407283446783"
    }
  },
  {
    "service_request": "2026-1254806",
    "request_type": "Healthy Homes",
    "request_reason": "Healthy Homes",
    "date_created": "2026-01-27T12:18:01.000",
    "date_modified": "2026-01-27T12:18:03.000",
    "request_status": "Pending",
    "responsible_agency": "Department of Code Enforcement",
    "final_address": "1920 Wilton Dr",
    "address_councildis": "D",
    "status": "Pending",
    "rowid": "1254806",
    "final_x": "3681665.09352",
    "final_y": "550839.656917",
    "longitude": "-90.06687475401554",
    "latitude": "30.008612967778376",
    "geocoded_column": {
      "latitude": "30.008612967778376",
      "longitude": "-90.06687475401554"
    }
  },
  {
    "service_request": "2026-1254805",
    "request_type": "Trash/Recycling",
    "request_reason": "Request a Large Item Pick Up",
    "date_created": "2026-01-27T12:10:38.000",
    "date_modified": "2026-01-27T12:34:32.000",
    "request_status": "Pending",
    "responsible_agency": "Department of Sanitation",
    "final_address": "7153 Yorktown Dr",
    "address_councildis": "E",
    "status": "Assigned to Contractor",
    "contractor": "Waste Pro",
    "rowid": "1254805",
    "final_x": "3705924.62686",
    "final_y": "561153.058462",
    "longitude": "-89.98984969247604",
    "latitude": "30.03621124924804",
    "geocoded_column": {
      "latitude": "30.03621124924804",
      "longitude": "-89.98984969247604"
    }
  },
  {
    "service_request": "2026-1254804",
    "request_type": "Trash/Recycling",
    "request_reason": "Return Recycling Cart",
    "date_created": "2026-01-27T12:02:27.000",
    "date_modified": "2026-01-27T12:02:29.000",
    "request_status": "Pending",
    "responsible_agency": "Department of Sanitation",
    "final_address": "7541 Trapier Ave",
    "address_councildis": "E",
    "status": "Pending",
    "rowid": "1254804",
    "final_x": "3706738.38187",
    "final_y": "563429.973472",
    "longitude": "-89.98719355657234",
    "latitude": "30.042445604174286",
    "geocoded_column": {
      "latitude": "30.042445604174286",
      "longitude": "-89.98719355657234"
    }
  },
  {
    "service_request": "2026-1254803",
    "request_type": "Trash/Recycling",
    "request_reason": "Request a Large Item Pick Up",
    "date_created": "2026-01-27T12:01:35.000",
    "date_modified": "2026-01-27T12:01:36.000",
    "request_status": "Pending",
    "responsible_agency": "Department of Sanitation",
    "final_address": "722 Wagner St",
    "address_councildis": "C",
    "status": "Assigned to Contractor",
    "contractor": "Richards Disposal",
    "rowid": "1254803",
    "final_x": "3690599.40169",
    "final_y": "528804.619072",
    "longitude": "-90.03943460845481",
    "latitude": "29.947749906268523",
    "geocoded_column": {
      "latitude": "29.947749906268523",
      "longitude": "-90.03943460845481"
    }
  },
  {
    "service_request": "2026-1254802",
    "request_type": "Trash/Recycling",
    "request_reason": "Request a Large Item Pick Up",
    "date_created": "2026-01-27T11:59:33.000",
    "date_modified": "2026-01-27T11:59:35.000",
    "request_status": "Pending",
    "responsible_agency": "Department of Sanitation",
    "final_address": "4118 St Peter St",
    "address_councildis": "A",
    "status": "Assigned to Contractor",
    "contractor": "IV Waste",
    "rowid": "1254802",
    "final_x": "3672386.27783",
    "final_y": "540024.505995",
    "longitude": "-90.09655837921024",
    "latitude": "29.97915378268119",
    "geocoded_column": {
      "latitude": "29.97915378268119",
      "longitude": "-90.09655837921024"
    }
  },
  {
    "service_request": "2026-1254801",
    "request_type": "Roads and Streets",
    "request_reason": "Curb Damage",
    "date_created": "2026-01-27T11:59:30.000",
    "date_modified": "2026-01-27T11:59:31.000",
    "request_status": "Pending",
    "responsible_agency": "Department of Public Works",
    "final_address": "338 N Bernadotte St",
    "address_councildis": "A",
    "status": "Pending",
    "rowid": "1254801",
    "final_x": "3669534.69319",
    "final_y": "540951.090379",
    "longitude": "-90.10553345935945",
    "latitude": "29.98178589873715",
    "geocoded_column": {
      "latitude": "29.98178589873715",
      "longitude": "-90.10553345935945"
    }
  },
  {
    "service_request": "2026-1254800",
    "request_type": "Trash/Recycling",
    "request_reason": "Request a Large Item Pick Up",
    "date_created": "2026-01-27T11:55:49.000",
    "date_modified": "2026-01-27T12:05:37.000",
    "case_close_date": "2026-01-27T05:55:51.000",
    "request_status": "Pending",
    "responsible_agency": "Department of Sanitation",
    "final_address": "5523 Montegut Dr",
    "address_councildis": "D",
    "status": "Assigned to Contractor",
    "contractor": "IV Waste",
    "rowid": "1254800",
    "final_x": "3689741.58102",
    "final_y": "553625.485207",
    "longitude": "-90.04125937048336",
    "latitude": "30.016025043392904",
    "geocoded_column": {
      "latitude": "30.016025043392904",
      "longitude": "-90.04125937048336"
    }
  },
  {
    "service_request": "2026-1254799",
    "request_type": "Trash/Recycling",
    "request_reason": "Order Recycling Cart",
    "date_created": "2026-01-27T11:51:58.000",
    "date_modified": "2026-01-27T11:52:00.000",
    "request_status": "Pending",
    "responsible_agency": "Department of Sanitation",
    "final_address": "1107 Cambronne St",
    "address_councildis": "A",
    "status": "Pending",
    "rowid": "1254799",
    "final_x": "3661015.8441",
    "final_y": "528865.143104",
    "longitude": "-90.13284009077154",
    "latitude": "29.94880173033053",
    "geocoded_column": {
      "latitude": "29.94880173033053",
      "longitude": "-90.13284009077154"
    }
  },
  {
    "service_request": "2026-1254798",
    "request_type": "Trash/Recycling",
    "request_reason": "Request a Large Item Pick Up",
    "date_created": "2026-01-27T11:51:56.000",
    "date_modified": "2026-01-27T11:51:57.000",
    "request_status": "Pending",
    "responsible_agency": "Department of Sanitation",
    "final_address": "6200 Morrison Rd",
    "address_councildis": "D",
    "status": "Assigned to Contractor",
    "contractor": "Waste Pro",
    "rowid": "1254798",
    "final_x": "3696290.34211",
    "final_y": "557667.375131",
    "longitude": "-90.02042197491433",
    "latitude": "30.02693403655978",
    "geocoded_column": {
      "latitude": "30.02693403655978",
      "longitude": "-90.02042197491433"
    }
  },
  {
    "service_request": "2026-1254797",
    "request_type": "Trash/Recycling",
    "request_reason": "Request a Large Item Pick Up",
    "date_created": "2026-01-27T11:50:57.000",
    "date_modified": "2026-01-27T12:04:38.000",
    "request_status": "Pending",
    "responsible_agency": "Department of Sanitation",
    "final_address": "264 Lowerline St",
    "address_councildis": "A",
    "status": "Assigned to Contractor",
    "contractor": "IV Waste",
    "rowid": "1254797",
    "final_x": "3661223.08781",
    "final_y": "523222.965243",
    "longitude": "-90.13237244796392",
    "latitude": "29.933281558424163",
    "geocoded_column": {
      "latitude": "29.933281558424163",
      "longitude": "-90.13237244796392"
    }
  },
  {
    "service_request": "2026-1254796",
    "request_type": "Safety & Permits",
    "request_reason": "Zoning Enforcement",
    "date_created": "2026-01-27T11:41:51.000",
    "date_modified": "2026-01-27T11:41:53.000",
    "request_status": "Pending",
    "responsible_agency": "Safety and Permits",
    "final_address": "2023 Baronne St",
    "address_councildis": "B",
    "status": "Pending",
    "rowid": "1254796",
    "final_x": "3677415.00667",
    "final_y": "524817.884924",
    "longitude": "-90.08120052691078",
    "latitude": "29.937190491049872",
    "geocoded_column": {
      "latitude": "29.937190491049872",
      "longitude": "-90.08120052691078"
    }
  },
  {
    "service_request": "2026-1254795",
    "request_type": "Trash/Recycling",
    "request_reason": "Replace Trash Cart",
    "date_created": "2026-01-27T11:39:09.000",
    "date_modified": "2026-01-27T16:12:12.000",
    "request_status": "Pending",
    "responsible_agency": "Department of Sanitation",
    "final_address": "2916 Cadiz St",
    "address_councildis": "B",
    "status": "Assigned to Contractor",
    "contractor": "IV Waste",
    "rowid": "1254795",
    "final_x": "3669592.19834",
    "final_y": "525508.587325",
    "longitude": "-90.10587432044166",
    "latitude": "29.93932243665956",
    "geocoded_column": {
      "latitude": "29.93932243665956",
      "longitude": "-90.10587432044166"
    }
  },
  {
    "service_request": "2026-1254794",
    "request_type": "Trash/Recycling",
    "request_reason": "Request a Large Item Pick Up",
    "date_created": "2026-01-27T11:36:49.000",
    "date_modified": "2026-01-27T11:36:51.000",
    "request_status": "Pending",
    "responsible_agency": "Department of Sanitation",
    "final_address": "6953 Salem Dr",
    "address_councildis": "E",
    "status": "Assigned to Contractor",
    "contractor": "Waste Pro",
    "rowid": "1254794",
    "final_x": "3706827.43678",
    "final_y": "560573.186078",
    "longitude": "-89.98701819213845",
    "latitude": "30.034587692259898",
    "geocoded_column": {
      "latitude": "30.034587692259898",
      "longitude": "-89.98701819213845"
    }
  },
  {
    "service_request": "2026-1254793",
    "request_type": "Trash/Recycling",
    "request_reason": "Repair Trash Cart",
    "date_created": "2026-01-27T11:35:19.000",
    "date_modified": "2026-01-27T11:35:26.000",
    "request_status": "Pending",
    "responsible_agency": "Department of Sanitation",
    "final_address": "1115 Casa Calvo St",
    "address_councildis": "C",
    "status": "Assigned to Contractor",
    "contractor": "Richards Disposal",
    "rowid": "1254793",
    "final_x": "3692065.88739",
    "final_y": "527209.520191",
    "longitude": "-90.03486142452067",
    "latitude": "29.94331831825191",
    "geocoded_column": {
      "latitude": "29.94331831825191",
      "longitude": "-90.03486142452067"
    }
  },
  {
    "service_request": "2026-1254792",
    "request_type": "Streetlights",
    "request_reason": "Streetlight Outage/Malfunction",
    "date_created": "2026-01-27T11:33:26.000",
    "date_modified": "2026-01-27T11:33:28.000",
    "request_status": "Pending",
    "responsible_agency": "Department of Public Works",
    "final_address": "1200 Canal St",
    "address_councildis": "B",
    "status": "Pending",
    "rowid": "1254792",
    "final_x": "3679661.38056",
    "final_y": "531734.515203",
    "longitude": "-90.07386857354199",
    "latitude": "29.956141223983263",
    "geocoded_column": {
      "latitude": "29.956141223983263",
      "longitude": "-90.07386857354199"
    }
  },
  {
    "service_request": "2026-1254791",
    "request_type": "Trash/Recycling",
    "request_reason": "Replace Trash Cart",
    "date_created": "2026-01-27T11:29:04.000",
    "date_modified": "2026-01-27T16:11:25.000",
    "request_status": "Pending",
    "responsible_agency": "Department of Sanitation",
    "final_address": "321 N White St",
    "address_councildis": "B",
    "status": "Assigned to Contractor",
    "contractor": "IV Waste",
    "rowid": "1254791",
    "final_x": "3675455.40635",
    "final_y": "536284.071687",
    "longitude": "-90.08699336656507",
    "latitude": "29.968777420144193",
    "geocoded_column": {
      "latitude": "29.968777420144193",
      "longitude": "-90.08699336656507"
    }
  },
  {
    "service_request": "2026-1254790",
    "request_type": "Trash/Recycling",
    "request_reason": "Request a Large Item Pick Up",
    "date_created": "2026-01-27T11:28:16.000",
    "date_modified": "2026-01-27T11:28:18.000",
    "request_status": "Pending",
    "responsible_agency": "Department of Sanitation",
    "final_address": "12710 Curran Rd",
    "address_councildis": "E",
    "status": "Assigned to Contractor",
    "contractor": "Waste Pro",
    "rowid": "1254790",
    "final_x": "3714908.13381",
    "final_y": "569129.649574",
    "longitude": "-89.96115850548756",
    "latitude": "30.057850950967577",
    "geocoded_column": {
      "latitude": "30.057850950967577",
      "longitude": "-89.96115850548756"
    }
  },
  {
    "service_request": "2026-1254789",
    "request_type": "Graffiti Removal",
    "request_reason": "Graffiti Removal",
    "date_created": "2026-01-27T11:26:42.000",
    "date_modified": "2026-01-27T11:26:44.000",
    "request_status": "Pending",
    "responsible_agency": "Department of Code Enforcement",
    "final_address": "1250 N Claiborne Ave",
    "address_councildis": "D",
    "status": "Pending",
    "rowid": "1254789",
    "final_x": "3681279.45864",
    "final_y": "536396.580935",
    "longitude": "-90.06859674849626",
    "latitude": "29.96891130936739",
    "geocoded_column": {
      "latitude": "29.96891130936739",
      "longitude": "-90.06859674849626"
    }
  },
  {
    "service_request": "2026-1254788",
    "request_type": "Graffiti Removal",
    "request_reason": "Graffiti Removal",
    "date_created": "2026-01-27T11:24:57.000",
    "date_modified": "2026-01-27T11:24:58.000",
    "request_status": "Pending",
    "responsible_agency": "Department of Code Enforcement",
    "final_address": "700 BLK N Broad St",
    "address_councildis": "D",
    "status": "Pending",
    "rowid": "1254788",
    "final_x": "3676868.52713",
    "final_y": "537114.118473",
    "longitude": "-90.08250202766835",
    "latitude": "29.971017426255898",
    "geocoded_column": {
      "latitude": "29.971017426255898",
      "longitude": "-90.08250202766835"
    }
  },
  {
    "service_request": "2026-1254787",
    "request_type": "Trash/Recycling",
    "request_reason": "Illegal Dumping",
    "date_created": "2026-01-27T11:24:47.000",
    "date_modified": "2026-01-27T11:24:49.000",
    "request_status": "Pending",
    "responsible_agency": "Department of Sanitation",
    "final_address": "W LAVERNE ST & WALES ST",
    "address_councildis": "E",
    "status": "Pending",
    "rowid": "1254787",
    "final_x": "3694915.9",
    "final_y": "559376.58",
    "longitude": "-90.02470337388502",
    "latitude": "30.031676929326274",
    "geocoded_column": {
      "latitude": "30.031676929326274",
      "longitude": "-90.02470337388502"
    }
  },
  {
    "service_request": "2026-1254786",
    "request_type": "Trash/Recycling",
    "request_reason": "Illegal Dumping",
    "date_created": "2026-01-27T11:23:43.000",
    "date_modified": "2026-01-27T11:23:46.000",
    "request_status": "Pending",
    "responsible_agency": "Department of Sanitation",
    "final_address": "WALES ST & SWIFT ST",
    "address_councildis": "E",
    "status": "Pending",
    "rowid": "1254786",
    "final_x": "3695206.8",
    "final_y": "559468.58",
    "longitude": "-90.02378079662675",
    "latitude": "30.031920755897495",
    "geocoded_column": {
      "latitude": "30.031920755897495",
      "longitude": "-90.02378079662675"
    }
  },
  {
    "service_request": "2026-1254785",
    "request_type": "Graffiti Removal",
    "request_reason": "Graffiti Removal",
    "date_created": "2026-01-27T11:21:26.000",
    "date_modified": "2026-01-27T11:21:27.000",
    "request_status": "Pending",
    "responsible_agency": "Department of Code Enforcement",
    "final_address": "3101 Esplanade Ave",
    "address_councildis": "A",
    "status": "Pending",
    "rowid": "1254785",
    "final_x": "3676433.40021",
    "final_y": "540432.980043",
    "longitude": "-90.0837619140005",
    "latitude": "29.980156211666714",
    "geocoded_column": {
      "latitude": "29.980156211666714",
      "longitude": "-90.0837619140005"
    }
  },
  {
    "service_request": "2026-1254784",
    "request_type": "Graffiti Removal",
    "request_reason": "Graffiti Removal",
    "date_created": "2026-01-27T11:19:53.000",
    "date_modified": "2026-01-27T11:19:57.000",
    "request_status": "Pending",
    "responsible_agency": "Department of Code Enforcement",
    "final_address": "2200 BLK Decatur St",
    "address_councildis": "C",
    "status": "Pending",
    "rowid": "1254784",
    "final_x": "3685406.93131",
    "final_y": "534172.584658",
    "longitude": "-90.05564026554156",
    "latitude": "29.962670176778097",
    "geocoded_column": {
      "latitude": "29.962670176778097",
      "longitude": "-90.05564026554156"
    }
  },
  {
    "service_request": "2026-1254783",
    "request_type": "Trash/Recycling",
    "request_reason": "Request a Large Item Pick Up",
    "date_created": "2026-01-27T11:18:54.000",
    "date_modified": "2026-01-27T11:18:56.000",
    "request_status": "Pending",
    "responsible_agency": "Department of Sanitation",
    "final_address": "6920 Coventry St",
    "address_councildis": "E",
    "status": "Assigned to Contractor",
    "contractor": "Waste Pro",
    "rowid": "1254783",
    "final_x": "3698915.83108",
    "final_y": "559734.374749",
    "longitude": "-90.01205042252808",
    "latitude": "30.032534511770212",
    "geocoded_column": {
      "latitude": "30.032534511770212",
      "longitude": "-90.01205042252808"
    }
  },
  {
    "service_request": "2026-1254782",
    "request_type": "Trash/Recycling",
    "request_reason": "Request a Large Item Pick Up",
    "date_created": "2026-01-27T11:18:22.000",
    "date_modified": "2026-01-27T11:18:24.000",
    "request_status": "Pending",
    "responsible_agency": "Department of Sanitation",
    "final_address": "6200 Eastover Dr",
    "address_councildis": "E",
    "status": "Assigned to Contractor",
    "contractor": "Waste Pro",
    "rowid": "1254782",
    "final_x": "3717498.93983",
    "final_y": "564868.848546",
    "longitude": "-89.95313159758682",
    "latitude": "30.046049938574868",
    "geocoded_column": {
      "latitude": "30.046049938574868",
      "longitude": "-89.95313159758682"
    }
  },
  {
    "service_request": "2026-1254781",
    "request_type": "Graffiti Removal",
    "request_reason": "Graffiti Removal",
    "date_created": "2026-01-27T11:17:50.000",
    "date_modified": "2026-01-27T11:17:52.000",
    "request_status": "Pending",
    "responsible_agency": "Department of Code Enforcement",
    "final_address": "2301 St Claude Ave",
    "address_councildis": "C",
    "status": "Pending",
    "rowid": "1254781",
    "final_x": "3685825.77154",
    "final_y": "536481.709127",
    "longitude": "-90.05423622729539",
    "latitude": "29.96900661987439",
    "geocoded_column": {
      "latitude": "29.96900661987439",
      "longitude": "-90.05423622729539"
    }
  },