[
  {
    "service_request": "2025-1210833",
    "request_type": "Property Maintenance",
    "request_reason": "Property Maintenance",
    "date_created": "2025-07-18T22:17:39.000",
    "date_modified": "2025-07-18T22:17:42.000",
    "request_status": "Pending",
    "responsible_agency": "Department of Code Enforcement",
    "final_address": "5545 West End Blvd",
    "address_councildis": "A",
    "status": "Pending",
    "rowid": "1210833",
    "final_x": "3666365.89933",
    "final_y": "544688.167951",
    "longitude": "-90.11541658474441",
    "latitude": "29.992154577292478",
    "geocoded_column": {
      "latitude": "29.992154577292478",
      "longitude": "-90.11541658474441"
    }
  },
  {
    "service_request": "2025-1210832",
    "request_type": "Trash/Recycling",
    "request_reason": "MIssed Recycling Pick-Up",
    "date_created": "2025-07-18T21:40:09.000",
    "date_modified": "2025-07-18T21:40:11.000",
    "request_status": "Pending",
    "responsible_agency": "Department of Sanitation",
    "final_address": "1124 Jackson Ave",
    "address_councildis": "B",
    "status": "Assigned to Contractor",
    "contractor": "IV Waste",
    "rowid": "1210832",
    "final_x": "3678674.23976",
    "final_y": "522220.253882",
    "longitude": "-90.07731494512066",
    "latitude": "29.93000996235017",
    "geocoded_column": {
      "latitude": "29.93000996235017",
      "longitude": "-90.07731494512066"
    }
  },
  {
    "service_request": "2025-1210831",
    "request_type": "General Services",
    "request_reason": "General Service Request",
    "date_created": "2025-07-18T21:21:09.000",
    "date_modified": "2025-07-18T21:21:12.000",
    "request_status": "Pending",
    "responsible_agency": "Orleans Parish Communication District",
    "final_address": "231 N St Patrick St",
    "address_councildis": "A",
    "status": "Pending",
    "rowid": "1210831",
    "final_x": "3669515.22042",
    "final_y": "540438.289355",
    "longitude": "-90.10561231782718",
    "latitude": "29.980376443621708",
    "geocoded_column": {
      "latitude": "29.980376443621708",
      "longitude": "-90.10561231782718"
    }
  },
  {
    "service_request": "2025-1210830",
    "request_type": "Roads and Streets",
    "request_reason": "Sidewalk Damaged or Missing",
    "date_created": "2025-07-18T21:18:11.000",
    "date_modified": "2025-07-18T21:18:13.000",
    "request_status": "Pending",
    "responsible_agency": "Department of Public Works",
    "final_address": "4200 Iris St",
    "address_councildis": "D",
    "status": "Pending",
    "rowid": "1210830",
    "final_x": "3686202.21551",
    "final_y": "548363.294482",
    "longitude": "-90.05262800204227",
    "latitude": "30.001665202925277",
    "geocoded_column": {
      "latitude": "30.001665202925277",
      "longitude": "-90.05262800204227"
    }
  },
  {
    "service_request": "2025-1210829",
    "request_type": "Property Maintenance",
    "request_reason": "Property Maintenance",
    "date_created": "2025-07-18T20:53:31.000",
    "date_modified": "2025-07-18T20:53:33.000",
    "request_status": "Pending",
    "responsible_agency": "Department of Code Enforcement",
    "final_address": "13091 Deauville Ct",
    "address_councildis": "E",
    "status": "Pending",
    "rowid": "1210829",
    "final_x": "3724443.97516",
    "final_y": "560929.703326",
    "longitude": "-89.93133440532809",
    "latitude": "30.034987066068787",
    "geocoded_column": {
      "latitude": "30.034987066068787",
      "longitude": "-89.93133440532809"
    }
  },
  {
    "service_request": "2025-1210828",
    "request_type": "Trash/Recycling",
    "request_reason": "Damaged Caused By Contractor",
    "date_created": "2025-07-18T20:48:37.000",
    "date_modified": "2025-07-18T20:48:39.000",
    "request_status": "Pending",
    "responsible_agency": "Department of Sanitation",
    "final_address": "6424 Louis Xiv St",
    "address_councildis": "A",
    "status": "Assigned to Contractor",
    "contractor": "IV Waste",
    "rowid": "1210828",
    "final_x": "3668303.46471",
    "final_y": "550309.427412",
    "longitude": "-90.1091064712375",
    "latitude": "30.007554325857686",
    "geocoded_column": {
      "latitude": "30.007554325857686",
      "longitude": "-90.1091064712375"
    }
  },
  {
    "service_request": "2025-1210827",
    "request_type": "Abandoned Vehicles",
    "request_reason": "Abandoned/Junk Vehicles",
    "date_created": "2025-07-18T20:21:53.000",
    "date_modified": "2025-07-18T20:21:55.000",
    "request_status": "Pending",
    "responsible_agency": "Department of Public Works",
    "final_address": "2130 Painters St",
    "address_councildis": "D",
    "status": "Pending",
    "rowid": "1210827",
    "final_x": "3687210.0301",
    "final_y": "540460.367947",
    "longitude": "-90.04972390027345",
    "latitude": "29.97990397244672",
    "geocoded_column": {
      "latitude": "29.97990397244672",
      "longitude": "-90.04972390027345"
    }
  },
  {
    "service_request": "2025-1210826",
    "request_type": "Trash/Recycling",
    "request_reason": "Repair Trash Cart",
    "date_created": "2025-07-18T20:21:52.000",
    "date_modified": "2025-07-18T20:21:54.000",
    "request_status": "Pending",
    "responsible_agency": "Department of Sanitation",
    "final_address": "4326 Dryades St",
    "address_councildis": "B",
    "status": "Assigned to Contractor",
    "contractor": "IV Waste",
    "rowid": "1210826",
    "final_x": "3670867.35943",
    "final_y": "521924.185466",
    "longitude": "-90.10197007381907",
    "latitude": "29.929428865280663",
    "geocoded_column": {
      "latitude": "29.929428865280663",
      "longitude": "-90.10197007381907"
    }
  },
  {
    "service_request": "2025-1210825",
    "request_type": "Trash/Recycling",
    "request_reason": "Replace Trash Cart",
    "date_created": "2025-07-18T20:13:19.000",
    "date_modified": "2025-07-18T20:13:21.000",
    "request_status": "Pending",
    "responsible_agency": "Department of Sanitation",
    "final_address": "1835 Napoleon Ave",
    "address_councildis": "B",
    "status": "Assigned to Contractor",
    "contractor": "IV Waste",
    "rowid": "1210825",
    "final_x": "3670865.48935",
    "final_y": "521884.955258",
    "longitude": "-90.10197730818261",
    "latitude": "29.929321050044077",
    "geocoded_column": {
      "latitude": "29.929321050044077",
      "longitude": "-90.10197730818261"
    }
  },
  {
    "service_request": "2025-1210824",
    "request_type": "Trash/Recycling",
    "request_reason": "Request a Large Item Pick Up",
    "date_created": "2025-07-18T19:44:54.000",
    "date_modified": "2025-07-18T19:44:56.000",
    "request_status": "Pending",
    "responsible_agency": "Department of Sanitation",
    "final_address": "931 Verret St",
    "address_councildis": "C",
    "status": "Assigned to Contractor",
    "contractor": "Richards Disposal",
    "rowid": "1210824",
    "final_x": "3687153.11958",
    "final_y": "528065.950527",
    "longitude": "-90.05034196966824",
    "latitude": "29.945825374970298",
    "geocoded_column": {
      "latitude": "29.945825374970298",
      "longitude": "-90.05034196966824"
    }
  },
  {
    "service_request": "2025-1210823",
    "request_type": "Trash/Recycling",
    "request_reason": "Request a Large Item Pick Up",
    "date_created": "2025-07-18T19:41:15.000",
    "date_modified": "2025-07-18T19:41:18.000",
    "request_status": "Pending",
    "responsible_agency": "Department of Sanitation",
    "final_address": "931 Verret St",
    "address_councildis": "C",
    "status": "Assigned to Contractor",
    "contractor": "Richards Disposal",
    "rowid": "1210823",
    "final_x": "3687153.11958",
    "final_y": "528065.950527",
    "longitude": "-90.05034196966824",
    "latitude": "29.945825374970298",
    "geocoded_column": {
      "latitude": "29.945825374970298",
      "longitude": "-90.05034196966824"
    }
  },
  {
    "service_request": "2025-1210822",
    "request_type": "Trash/Recycling",
    "request_reason": "Repair Recycling Cart",
    "date_created": "2025-07-18T19:33:11.000",
    "date_modified": "2025-07-18T19:33:13.000",
    "request_status": "Pending",
    "responsible_agency": "Department of Sanitation",
    "final_address": "823 Mandeville St",
    "address_councildis": "C",
    "status": "Pending",
    "rowid": "1210822",
    "final_x": "3685876.34089",
    "final_y": "535485.945798",
    "longitude": "-90.05411163362024",
    "latitude": "29.966267064439148",
    "geocoded_column": {
      "latitude": "29.966267064439148",
      "longitude": "-90.05411163362024"
    }
  },
  {
    "service_request": "2025-1210821",
    "request_type": "Parks & Parkways",
    "request_reason": "Request Grass Cutting Service (City Owned Property)",
    "date_created": "2025-07-18T19:23:22.000",
    "date_modified": "2025-07-18T19:23:25.000",
    "request_status": "Pending",
    "responsible_agency": "Department of Parks & Parkway",
    "final_address": "4831 Lennox Blvd",
    "address_councildis": "C",
    "status": "Pending",
    "rowid": "1210821",
    "final_x": "3700623.52042",
    "final_y": "512668.296817",
    "longitude": "-90.00837384579427",
    "latitude": "29.903065525062637",
    "geocoded_column": {
      "latitude": "29.903065525062637",
      "longitude": "-90.00837384579427"
    }
  },
  {
    "service_request": "2025-1210820",
    "request_type": "Abandoned Vehicles",
    "request_reason": "Abandoned/Junk Vehicles",
    "date_created": "2025-07-18T19:22:35.000",
    "date_modified": "2025-07-18T19:22:37.000",
    "request_status": "Pending",
    "responsible_agency": "Department of Public Works",
    "final_address": "2130 Painters St",
    "address_councildis": "D",
    "status": "Pending",
    "rowid": "1210820",
    "final_x": "3687210.0301",
    "final_y": "540460.367947",
    "longitude": "-90.04972390027345",
    "latitude": "29.97990397244672",
    "geocoded_column": {
      "latitude": "29.97990397244672",
      "longitude": "-90.04972390027345"
    }
  },
  {
    "service_request": "2025-1210818",
    "request_type": "Trash/Recycling",
    "request_reason": "Replace Trash Cart",
    "date_created": "2025-07-18T18:15:22.000",
    "date_modified": "2025-07-18T18:15:23.000",
    "request_status": "Pending",
    "responsible_agency": "Department of Sanitation",
    "final_address": "4032 Walmsley Ave",
    "address_councildis": "B",
    "status": "Assigned to Contractor",
    "contractor": "IV Waste",
    "rowid": "1210818",
    "final_x": "3670414.89242",
    "final_y": "529514.978433",
    "longitude": "-90.10314116449995",
    "latitude": "29.950314448207255",
    "geocoded_column": {
      "latitude": "29.950314448207255",
      "longitude": "-90.10314116449995"
    }
  },
  {
    "service_request": "2025-1210819",
    "request_type": "Trash/Recycling",
    "request_reason": "Replace Trash Cart",
    "date_created": "2025-07-18T18:15:22.000",
    "date_modified": "2025-07-18T18:15:23.000",
    "request_status": "Pending",
    "responsible_agency": "Department of Sanitation",
    "final_address": "4032 Walmsley Ave",
    "address_councildis": "B",
    "status": "Assigned to Contractor",
    "contractor": "IV Waste",
    "rowid": "1210819",
    "final_x": "3670414.89242",
    "final_y": "529514.978433",
    "longitude": "-90.10314116449995",
    "latitude": "29.950314448207255",
    "geocoded_column": {
      "latitude": "29.950314448207255",
      "longitude": "-90.10314116449995"
    }
  },
  {
    "service_request": "2025-1210817",
    "request_type": "Safety & Permits",
    "request_reason": "Zoning Enforcement",
    "date_created": "2025-07-18T18:15:08.000",
    "date_modified": "2025-07-18T18:15:09.000",
    "request_status": "Pending",
    "responsible_agency": "Safety and Permits",
    "final_address": "1215 St Anthony St",
    "address_councildis": "C",
    "status": "Pending",
    "rowid": "1210817",
    "final_x": "3683554.72373",
    "final_y": "536318.237191",
    "longitude": "-90.06141407059715",
    "latitude": "29.968626641401414",
    "geocoded_column": {
      "latitude": "29.968626641401414",
      "longitude": "-90.06141407059715"
    }
  },
  {
    "service_request": "2025-1210816",
    "request_type": "Health Related Request",
    "request_reason": "Homeless Encampment Complaint",
    "date_created": "2025-07-18T18:10:53.000",
    "date_modified": "2025-07-18T18:10:55.000",
    "request_status": "Pending",
    "responsible_agency": "Office Of Homeless Services And Strategy",
    "final_address": "936 N Rampart St",
    "address_councildis": "C",
    "status": "Pending",
    "rowid": "1210816",
    "final_x": "3682056.74408",
    "final_y": "534152.878149",
    "longitude": "-90.0662203900141",
    "latitude": "29.962718284240946",
    "geocoded_column": {
      "latitude": "29.962718284240946",
      "longitude": "-90.0662203900141"
    }
  },
  {
    "service_request": "2025-1210815",
    "request_type": "Parks & Parkways",
    "request_reason": "Request Tree Service (Right of Way/Public Property)",
    "date_created": "2025-07-18T18:05:52.000",
    "date_modified": "2025-07-18T18:05:54.000",
    "request_status": "Pending",
    "responsible_agency": "Department of Parks & Parkway",
    "final_address": "7914 Michigan St",
    "address_councildis": "E",
    "status": "Pending",
    "rowid": "1210815",
    "final_x": "3711106.21086",
    "final_y": "567459.160612",
    "longitude": "-89.97323848924515",
    "latitude": "30.053382425880244",
    "geocoded_column": {
      "latitude": "30.053382425880244",
      "longitude": "-89.97323848924515"
    }
  },
  {
    "service_request": "2025-1210814",
    "request_type": "Trash/Recycling",
    "request_reason": "Request a Large Item Pick Up",
    "date_created": "2025-07-18T17:42:15.000",
    "date_modified": "2025-07-18T17:42:17.000",
    "request_status": "Pending",
    "responsible_agency": "Department of Sanitation",
    "final_address": "7914 Michigan St",
    "address_councildis": "E",
    "status": "Assigned to Contractor",
    "contractor": "Waste Pro",
    "rowid": "1210814",
    "final_x": "3711106.21086",
    "final_y": "567459.160612",
    "longitude": "-89.97323848924515",
    "latitude": "30.053382425880244",
    "geocoded_column": {
      "latitude": "30.053382425880244",
      "longitude": "-89.97323848924515"
    }
  },
  {
    "service_request": "2025-1210813",
    "request_type": "General Services",
    "request_reason": "General Service Request",
    "date_created": "2025-07-18T17:30:47.000",
    "date_modified": "2025-07-18T17:30:49.000",
    "request_status": "Pending",
    "responsible_agency": "Orleans Parish Communication District",
    "final_address": "514 David St",
    "address_councildis": "A",
    "status": "Pending",
    "rowid": "1210813",
    "final_x": "3671940.61844",
    "final_y": "539743.45057",
    "longitude": "-90.09797551815768",
    "latitude": "29.978394194975806",
    "geocoded_column": {
      "latitude": "29.978394194975806",
      "longitude": "-90.09797551815768"
    }
  },
  {
    "service_request": "2025-1210812",
    "request_type": "Abandoned Vehicles",
    "request_reason": "Abandoned/Junk Vehicles",
    "date_created": "2025-07-18T17:29:25.000",
    "date_modified": "2025-07-18T17:29:27.000",
    "request_status": "Pending",
    "responsible_agency": "Department of Public Works",
    "final_address": "2118 Robert St",
    "address_councildis": "B",
    "status": "Pending",
    "rowid": "1210812",
    "final_x": "3668750.5193",
    "final_y": "523393.269435",
    "longitude": "-90.1086029987522",
    "latitude": "29.933530757489702",
    "geocoded_column": {
      "latitude": "29.933530757489702",
      "longitude": "-90.1086029987522"
    }
  },
  {
    "service_request": "2025-1210811",
    "request_type": "Roads and Streets",
    "request_reason": "Sidewalk Damaged or Missing",
    "date_created": "2025-07-18T17:23:48.000",
    "date_modified": "2025-07-18T17:23:53.000",
    "request_status": "Pending",
    "responsible_agency": "Department of Public Works",
    "final_address": "2100 BLK Saint Thomas St",
    "address_councildis": "B",
    "status": "Pending",
    "rowid": "1210811",
    "final_x": "3680123.53014",
    "final_y": "520757.095085",
    "longitude": "-90.07279059083827",
    "latitude": "29.92594299300261",
    "geocoded_column": {
      "latitude": "29.92594299300261",
      "longitude": "-90.07279059083827"
    }
  },
  {
    "service_request": "2025-1210810",
    "request_type": "Drainage",
    "request_reason": "Catch Basin Clogged",
    "date_created": "2025-07-18T17:12:18.000",
    "date_modified": "2025-07-18T17:12:20.000",
    "request_status": "Pending",
    "responsible_agency": "Sewerage & Water Board",
    "final_address": "2100 BLK Saint Thomas St",
    "address_councildis": "B",
    "status": "Pending",
    "rowid": "1210810",
    "final_x": "3680123.53014",
    "final_y": "520757.095085",
    "longitude": "-90.07279059083827",
    "latitude": "29.92594299300261",
    "geocoded_column": {
      "latitude": "29.92594299300261",
      "longitude": "-90.07279059083827"
    }
  },
  {
    "service_request": "2025-1210809",
    "request_type": "Drainage",
    "request_reason": "Catch Basin Clogged",
    "date_created": "2025-07-18T17:08:28.000",
    "date_modified": "2025-07-18T17:08:30.000",
    "request_status": "Pending",
    "responsible_agency": "Sewerage & Water Board",
    "final_address": "2100 BLK Saint Thomas St",
    "address_councildis": "B",
    "status": "Pending",
    "rowid": "1210809",
    "final_x": "3680123.53014",
    "final_y": "520757.095085",
    "longitude": "-90.07279059083827",
    "latitude": "29.92594299300261",
    "geocoded_column": {
      "latitude": "29.92594299300261",
      "longitude": "-90.07279059083827"
    }
  },
  {
    "service_request": "2025-1210808",
    "request_type": "Abandoned Vehicles",
    "request_reason": "Abandoned/Junk Vehicles",
    "date_created": "2025-07-18T17:06:07.000",
    "date_modified": "2025-07-18T17:06:08.000",
    "request_status": "Pending",
    "responsible_agency": "Department of Public Works",
    "final_address": "2037 Soniat St",
    "address_councildis": "B",
    "status": "Pending",
    "rowid": "1210808",
    "final_x": "3668528.85076",
    "final_y": "523178.183099",
    "longitude": "-90.10931004985449",
    "latitude": "29.9329458518581",
    "geocoded_column": {
      "latitude": "29.9329458518581",
      "longitude": "-90.10931004985449"
    }
  },
  {
    "service_request": "2025-1210807",
    "request_type": "Drainage",
    "request_reason": "Catch Basin Damaged",
    "date_created": "2025-07-18T17:05:31.000",
    "date_modified": "2025-07-18T17:05:36.000",
    "request_status": "Pending",
    "responsible_agency": "Sewerage & Water Board",
    "final_address": "2100 BLK Saint Thomas St",
    "address_councildis": "B",
    "status": "Pending",
    "rowid": "1210807",
    "final_x": "3680123.53014",
    "final_y": "520757.095085",
    "longitude": "-90.07279059083827",
    "latitude": "29.92594299300261",
    "geocoded_column": {
      "latitude": "29.92594299300261",
      "longitude": "-90.07279059083827"
    }
  },
  {
    "service_request": "2025-1210806",
    "request_type": "Drainage",
    "request_reason": "Catch Basin Damaged",
    "date_created": "2025-07-18T17:00:34.000",
    "date_modified": "2025-07-18T17:00:36.000",
    "request_status": "Pending",
    "responsible_agency": "Sewerage & Water Board",
    "final_address": "2100 BLK Saint Thomas St",
    "address_councildis": "B",
    "status": "Pending",
    "rowid": "1210806",
    "final_x": "3680123.53014",
    "final_y": "520757.095085",
    "longitude": "-90.07279059083827",
    "latitude": "29.92594299300261",
    "geocoded_column": {
      "latitude": "29.92594299300261",
      "longitude": "-90.07279059083827"
    }
  },
  {
    "service_request": "2025-1210805",
    "request_type": "Roads and Streets",
    "request_reason": "Sidewalk Damaged or Missing",
    "date_created": "2025-07-18T16:59:49.000",
    "date_modified": "2025-07-18T16:59:51.000",
    "request_status": "Pending",
    "responsible_agency": "Department of Public Works",
    "final_address": "7611 Freret St",
    "address_councildis": "A",
    "status": "Pending",
    "rowid": "1210805",
    "final_x": "3662763.66707",
    "final_y": "526755.851838",
    "longitude": "-90.12739153119163",
    "latitude": "29.942951387199336",
    "geocoded_column": {
      "latitude": "29.942951387199336",
      "longitude": "-90.12739153119163"
    }
  },
  {
    "service_request": "2025-1210804",
    "request_type": "Trash/Recycling",
    "request_reason": "Repair Trash Cart",
    "date_created": "2025-07-18T16:56:12.000",
    "date_modified": "2025-07-18T16:56:16.000",
    "request_status": "Pending",
    "responsible_agency": "Department of Sanitation",
    "final_address": "7341 Beryl St",
    "address_councildis": "D",
    "status": "Assigned to Contractor",
    "contractor": "IV Waste",
    "rowid": "1210804",
    "final_x": "3668686.17057",
    "final_y": "555921.290969",
    "longitude": "-90.10770774922283",
    "latitude": "30.02297372154776",
    "geocoded_column": {
      "latitude": "30.02297372154776",
      "longitude": "-90.10770774922283"
    }
  },
  {
    "service_request": "2025-1210803",
    "request_type": "Trash/Recycling",
    "request_reason": "Request a Large Item Pick Up",
    "date_created": "2025-07-18T16:52:52.000",
    "date_modified": "2025-07-18T16:54:40.000",
    "request_status": "Pending",
    "responsible_agency": "Department of Sanitation",
    "final_address": "5010 S Claiborne Ave",
    "address_councildis": "B",
    "status": "Assigned to Contractor",
    "contractor": "IV Waste",
    "rowid": "1210803",
    "final_x": "3668779.70324",
    "final_y": "525868.956477",
    "longitude": "-90.10842731726262",
    "latitude": "29.94033724282379",
    "geocoded_column": {
      "latitude": "29.94033724282379",
      "longitude": "-90.10842731726262"
    }
  },
  {
    "service_request": "2025-1210802",
    "request_type": "Trash/Recycling",
    "request_reason": "Repair Recycling Cart",
    "date_created": "2025-07-18T16:48:12.000",
    "date_modified": "2025-07-18T16:48:14.000",
    "request_status": "Pending",
    "responsible_agency": "Department of Sanitation",
    "final_address": "618 Arabella St",
    "address_councildis": "A",
    "status": "Pending",
    "rowid": "1210802",
    "final_x": "3665681.94573",
    "final_y": "518439.873142",
    "longitude": "-90.11845615388452",
    "latitude": "29.920000308633313",
    "geocoded_column": {
      "latitude": "29.920000308633313",
      "longitude": "-90.11845615388452"
    }
  },
  {
    "service_request": "2025-1210801",
    "request_type": "Trash/Recycling",
    "request_reason": "Request a Large Item Pick Up",
    "date_created": "2025-07-18T16:47:16.000",
    "date_modified": "2025-07-18T16:47:18.000",
    "request_status": "Pending",
    "responsible_agency": "Department of Sanitation",
    "final_address": "2120 Comet St",
    "address_councildis": "C",
    "status": "Assigned to Contractor",
    "contractor": "Richards Disposal",
    "rowid": "1210801",
    "final_x": "3700275.0385",
    "final_y": "523242.632187",
    "longitude": "-90.00908795780097",
    "latitude": "29.93215241410604",
    "geocoded_column": {
      "latitude": "29.93215241410604",
      "longitude": "-90.00908795780097"
    }
  },
  {
    "service_request": "2025-1210800",
    "request_type": "Trash/Recycling",
    "request_reason": "Replace Trash Cart",
    "date_created": "2025-07-18T16:43:18.000",
    "date_modified": "2025-07-18T16:43:20.000",
    "request_status": "Pending",
    "responsible_agency": "Department of Sanitation",
    "final_address": "1801 Annunciation St",
    "address_councildis": "B",
    "status": "Assigned to Contractor",
    "contractor": "IV Waste",
    "rowid": "1210800",
    "final_x": "3680605.90338",
    "final_y": "522356.562746",
    "longitude": "-90.07121226715309",
    "latitude": "29.93032640394743",
    "geocoded_column": {
      "latitude": "29.93032640394743",
      "longitude": "-90.07121226715309"
    }
  },
  {
    "service_request": "2025-1210799",
    "request_type": "Trash/Recycling",
    "request_reason": "Request a Large Item Pick Up",
    "date_created": "2025-07-18T16:39:32.000",
    "date_modified": "2025-07-18T16:39:34.000",
    "request_status": "Pending",
    "responsible_agency": "Department of Sanitation",
    "final_address": "3125 Urquhart St",
    "address_councildis": "C",
    "status": "Assigned to Contractor",
    "contractor": "IV Waste",
    "rowid": "1210799",
    "final_x": "3689405.90211",
    "final_y": "536711.504135",
    "longitude": "-90.04292179607815",
    "latitude": "29.969528100224544",
    "geocoded_column": {
      "latitude": "29.969528100224544",
      "longitude": "-90.04292179607815"
    }
  },
  {
    "service_request": "2025-1210798",
    "request_type": "Drainage",
    "request_reason": "Catch Basin Clogged",
    "date_created": "2025-07-18T16:38:31.000",
    "date_modified": "2025-07-18T16:38:33.000",
    "request_status": "Pending",
    "responsible_agency": "Sewerage & Water Board",
    "final_address": "4800 Canal St",
    "address_councildis": "A",
    "status": "Pending",
    "rowid": "1210798",
    "final_x": "3668726.27777",
    "final_y": "540033.165771",
    "longitude": "-90.10811782560283",
    "latitude": "29.979285710546975",
    "geocoded_column": {
      "latitude": "29.979285710546975",
      "longitude": "-90.10811782560283"
    }
  },
  {
    "service_request": "2025-1210797",
    "request_type": "Drainage",
    "request_reason": "Catch Basin Clogged",
    "date_created": "2025-07-18T16:36:47.000",
    "date_modified": "2025-07-18T16:36:49.000",
    "request_status": "Pending",
    "responsible_agency": "Sewerage & Water Board",
    "final_address": "4800 Canal St",
    "address_councildis": "A",
    "status": "Pending",
    "rowid": "1210797",
    "final_x": "3668726.27777",
    "final_y": "540033.165771",
    "longitude": "-90.10811782560283",
    "latitude": "29.979285710546975",
    "geocoded_column": {
      "latitude": "29.979285710546975",
      "longitude": "-90.10811782560283"
    }
  },
  {
    "service_request": "2025-1210796",
    "request_type": "Drainage",
    "request_reason": "Catch Basin Clogged",
    "date_created": "2025-07-18T16:34:15.000",
    "date_modified": "2025-07-18T16:34:16.000",
    "request_status": "Pending",
    "responsible_agency": "Sewerage & Water Board",
    "final_address": "141 S Bernadotte St",
    "address_councildis": "A",
    "status": "Pending",
    "rowid": "1210796",
    "final_x": "3668547.09748",
    "final_y": "539793.901578",
    "longitude": "-90.1086918257576",
    "latitude": "29.978633081720428",
    "geocoded_column": {
      "latitude": "29.978633081720428",
      "longitude": "-90.1086918257576"
    }
  },
  {
    "service_request": "2025-1210795",
    "request_type": "Roads and Streets",
    "request_reason": "Pothole",
    "date_created": "2025-07-18T16:33:54.000",
    "date_modified": "2025-07-18T16:34:26.000",
    "request_status": "Pending",
    "responsible_agency": "Department of Public Works",
    "final_address": "READ BLVD & LAKE FOREST BLVD",
    "address_councildis": "E",
    "status": "Pending",
    "rowid": "1210795",
    "final_x": "3711272.3",
    "final_y": "559911.18",
    "longitude": "-89.97299676064361",
    "latitude": "30.03262308973152",
    "geocoded_column": {
      "latitude": "30.03262308973152",
      "longitude": "-89.97299676064361"
    }
  },
  {
    "service_request": "2025-1210794",
    "request_type": "Abandoned Vehicles",
    "request_reason": "Abandoned/Junk Vehicles",
    "date_created": "2025-07-18T16:24:29.000",
    "date_modified": "2025-07-18T16:25:18.000",
    "request_status": "Pending",
    "responsible_agency": "Department of Public Works",
    "final_address": "2900 BLK Benefit St",
    "address_councildis": "D",
    "status": "Pending",
    "rowid": "1210794",
    "final_x": "3690384.51421",
    "final_y": "544473.338662",
    "longitude": "-90.03955449476146",
    "latitude": "29.990840039614273",
    "geocoded_column": {
      "latitude": "29.990840039614273",
      "longitude": "-90.03955449476146"
    }
  },
  {
    "service_request": "2025-1210793",
    "request_type": "Trash/Recycling",
    "request_reason": "Repair Trash Cart",
    "date_created": "2025-07-18T16:23:07.000",
    "date_modified": "2025-07-18T16:23:09.000",
    "request_status": "Pending",
    "responsible_agency": "Department of Sanitation",
    "final_address": "204 Neil Ave",
    "address_councildis": "C",
    "status": "Assigned to Contractor",
    "contractor": "Richards Disposal",
    "rowid": "1210793",
    "final_x": "3706266.33393",
    "final_y": "518810.191479",
    "longitude": "-89.99033819157233",
    "latitude": "29.919773001164593",
    "geocoded_column": {
      "latitude": "29.919773001164593",
      "longitude": "-89.99033819157233"
    }
  },
  {
    "service_request": "2025-1210792",
    "request_type": "Roads and Streets",
    "request_reason": "Pothole",
    "date_created": "2025-07-18T16:22:18.000",
    "date_modified": "2025-07-18T16:22:20.000",
    "request_status": "Pending",
    "responsible_agency": "Department of Public Works",
    "final_address": "4300 BLK Werner Dr",
    "address_councildis": "E",
    "status": "Pending",
    "rowid": "1210792",
    "final_x": "3704971.63005",
    "final_y": "553271.488061",
    "longitude": "-89.99315264124357",
    "latitude": "30.014570679404642",
    "geocoded_column": {
      "latitude": "30.014570679404642",
      "longitude": "-89.99315264124357"
    }
  },
  {
    "service_request": "2025-1210791",
    "request_type": "Trash/Recycling",
    "request_reason": "Request a Large Item Pick Up",
    "date_created": "2025-07-18T16:21:26.000",
    "date_modified": "2025-07-18T16:21:28.000",
    "request_status": "Pending",
    "responsible_agency": "Department of Sanitation",
    "final_address": "1 Avoyelles Pl",
    "address_councildis": "E",
    "status": "Assigned to Contractor",
    "contractor": "Waste Pro",
    "rowid": "1210791",
    "final_x": "3725686.17913",
    "final_y": "564251.192289",
    "longitude": "-89.92728010386251",
    "latitude": "30.044077937776677",
    "geocoded_column": {
      "latitude": "30.044077937776677",
      "longitude": "-89.92728010386251"
    }
  },
  {
    "service_request": "2025-1210790",
    "request_type": "Street and Traffic Signs",
    "request_reason": "Additional Signage Request",
    "date_created": "2025-07-18T16:19:48.000",
    "date_modified": "2025-07-18T16:19:49.000",
    "request_status": "Pending",
    "responsible_agency": "Department of Public Works",
    "final_address": "1 Poland Ave Wharf",
    "address_councildis": "C",
    "status": "Pending",
    "rowid": "1210790",
    "final_x": "3691609.96163",
    "final_y": "532943.105732",
    "longitude": "-90.03609595088157",
    "latitude": "29.95909789300001",
    "geocoded_column": {
      "latitude": "29.95909789300001",
      "longitude": "-90.03609595088157"
    }
  },
  {
    "service_request": "2025-1210789",
    "request_type": "Property Maintenance",
    "request_reason": "Property Maintenance",
    "date_created": "2025-07-18T16:17:30.000",
    "date_modified": "2025-07-18T16:17:32.000",
    "request_status": "Pending",
    "responsible_agency": "Department of Code Enforcement",
    "final_address": "1200 BLK Charbonnet St",
    "address_councildis": "E",
    "status": "Pending",
    "rowid": "1210789",
    "final_x": "3698762.69168",
    "final_y": "534147.170667",
    "longitude": "-90.01346573077848",
    "latitude": "29.96218404302104",
    "geocoded_column": {
      "latitude": "29.96218404302104",
      "longitude": "-90.01346573077848"
    }
  },
  {
    "service_request": "2025-1210788",
    "request_type": "Trash/Recycling",
    "request_reason": "Request a Large Item Pick Up",
    "date_created": "2025-07-18T16:15:24.000",
    "date_modified": "2025-07-18T16:15:27.000",
    "request_status": "Pending",
    "responsible_agency": "Department of Sanitation",
    "final_address": "29 Christopher Ct",
    "address_councildis": "E",
    "status": "Assigned to Contractor",
    "contractor": "Waste Pro",
    "rowid": "1210788",
    "final_x": "3716375.96056",
    "final_y": "570075.287463",
    "longitude": "-89.95648301674474",
    "latitude": "30.060402650545566",
    "geocoded_column": {
      "latitude": "30.060402650545566",
      "longitude": "-89.95648301674474"
    }
  },
  {
    "service_request": "2025-1210787",
    "request_type": "Street and Traffic Signs",
    "request_reason": "Traffic or Parking Sign Damaged or Missing",
    "date_created": "2025-07-18T16:10:48.000",
    "date_modified": "2025-07-18T16:10:49.000",
    "request_status": "Pending",
    "responsible_agency": "Department of Public Works",
    "final_address": "2911 Milan St",
    "address_councildis": "B",
    "status": "Pending",
    "rowid": "1210787",
    "final_x": "3671172.65652",
    "final_y": "525643.733053",
    "longitude": "-90.10088001003571",
    "latitude": "29.939647396045327",
    "geocoded_column": {
      "latitude": "29.939647396045327",
      "longitude": "-90.10088001003571"
    }
  },
  {
    "service_request": "2025-1210786",
    "request_type": "Trash/Recycling",
    "request_reason": "Request a Large Item Pick Up",
    "date_created": "2025-07-18T16:09:07.000",
    "date_modified": "2025-07-18T16:09:09.000",
    "request_status": "Pending",
    "responsible_agency": "Department of Sanitation",
    "final_address": "4106 Duplessis St",
    "address_councildis": "D",
    "status": "Assigned to Contractor",
    "contractor": "IV Waste",
    "rowid": "1210786",
    "final_x": "3678296.5092",
    "final_y": "547330.676625",
    "longitude": "-90.07763868629011",
    "latitude": "29.99906646498025",
    "geocoded_column": {
      "latitude": "29.99906646498025",
      "longitude": "-90.07763868629011"
    }
  },
  {
    "service_request": "2025-1210785",
    "request_type": "Trash/Recycling",
    "request_reason": "Repair Trash Cart",
    "date_created": "2025-07-18T16:07:39.000",
    "date_modified": "2025-07-18T16:07:40.000",
    "request_status": "Pending",
    "responsible_agency": "Department of Sanitation",
    "final_address": "6530 Harbourview Dr",
    "address_councildis": "E",
    "status": "Assigned to Contractor",
    "contractor": "Waste Pro",
    "rowid": "1210785",
    "final_x": "3698695.51408",
    "final_y": "555887.996697",
    "longitude": "-90.01288670775591",
    "latitude": "30.021965430693932",
    "geocoded_column": {
      "latitude": "30.021965430693932",
      "longitude": "-90.01288670775591"
    }
  },
  {
    "service_request": "2025-1210784",
    "request_type": "Trash/Recycling",
    "request_reason": "Request a Large Item Pick Up",
    "date_created": "2025-07-18T16:06:17.000",
    "date_modified": "2025-07-18T16:06:26.000",
    "request_status": "Pending",
    "responsible_agency": "Department of Sanitation",
    "final_address": "427 S Olympia St",
    "address_councildis": "A",
    "status": "Assigned to Contractor",
    "contractor": "IV Waste",
    "rowid": "1210784",
    "final_x": "3668490.86734",
    "final_y": "538467.548041",
    "longitude": "-90.10891418605041",
    "latitude": "29.97498770846052",
    "geocoded_column": {
      "latitude": "29.97498770846052",
      "longitude": "-90.10891418605041"
    }
  },
  {
    "service_request": "2025-1210783",
    "request_type": "Drainage",
    "request_reason": "Street Flooding",
    "date_created": "2025-07-18T16:03:37.000",
    "date_modified": "2025-07-18T16:03:39.000",
    "request_status": "Pending",
    "responsible_agency": "Sewerage & Water Board",
    "final_address": "2227 Easter Ln",
    "address_councildis": "C",
    "status": "Pending",
    "rowid": "1210783",
    "final_x": "3699216.92746",
    "final_y": "523003.939643",
    "longitude": "-90.01243697585005",
    "latitude": "29.931529674116884",
    "geocoded_column": {
      "latitude": "29.931529674116884",
      "longitude": "-90.01243697585005"
    }
  },
  {
    "service_request": "2025-1210782",
    "request_type": "Abandoned Vehicles",
    "request_reason": "Abandoned/Junk Vehicles",
    "date_created": "2025-07-18T16:03:11.000",
    "date_modified": "2025-07-18T16:03:13.000",
    "request_status": "Pending",
    "responsible_agency": "Department of Public Works",
    "final_address": "1950 Soniat St",
    "address_councildis": "B",
    "status": "Pending",
    "rowid": "1210782",
    "final_x": "3668323.64078",
    "final_y": "522693.923066",
    "longitude": "-90.10997420679513",
    "latitude": "29.931620317540272",
    "geocoded_column": {
      "latitude": "29.931620317540272",
      "longitude": "-90.10997420679513"
    }
  },
  {
    "service_request": "2025-1210781",
    "request_type": "Trash/Recycling",
    "request_reason": "Request a Large Item Pick Up",
    "date_created": "2025-07-18T16:01:51.000",
    "date_modified": "2025-07-18T16:01:53.000",
    "request_status": "Pending",
    "responsible_agency": "Department of Sanitation",
    "final_address": "8419 Beechwood Ct",
    "address_councildis": "E",
    "status": "Assigned to Contractor",
    "contractor": "Waste Pro",
    "rowid": "1210781",
    "final_x": "3704155.51671",
    "final_y": "560668.513054",
    "longitude": "-89.99545826237454",
    "latitude": "30.03493585494704",
    "geocoded_column": {
      "latitude": "30.03493585494704",
      "longitude": "-89.99545826237454"
    }
  },
  {
    "service_request": "2025-1210780",
    "request_type": "Trash/Recycling",
    "request_reason": "Illegal Dumping",
    "date_created": "2025-07-18T16:01:41.000",
    "date_modified": "2025-07-18T16:01:42.000",
    "request_status": "Pending",
    "responsible_agency": "Department of Sanitation",
    "final_address": "4557 N Rampart St",
    "address_councildis": "C",
    "status": "Pending",
    "rowid": "1210780",
    "final_x": "3693626.57072",
    "final_y": "534454.546245",
    "longitude": "-90.02967372290381",
    "latitude": "29.96319089269427",
    "geocoded_column": {
      "latitude": "29.96319089269427",
      "longitude": "-90.02967372290381"
    }
  },
  {
    "service_request": "2025-1210779",
    "request_type": "Property Maintenance",
    "request_reason": "Property Maintenance",
    "date_created": "2025-07-18T15:57:45.000",
    "date_modified": "2025-07-18T15:57:47.000",
    "request_status": "Pending",
    "responsible_agency": "Department of Code Enforcement",
    "final_address": "4730 Freret St",
    "address_councildis": "B",
    "status": "Pending",
    "rowid": "1210779",
    "final_x": "3669235.8617",
    "final_y": "523857.789691",
    "longitude": "-90.10705510078016",
    "latitude": "29.934793766018775",
    "geocoded_column": {
      "latitude": "29.934793766018775",
      "longitude": "-90.10705510078016"
    }
  },
  {
    "service_request": "2025-1210778",
    "request_type": "Parks & Parkways",
    "request_reason": "Request Tree Service (Right of Way/Public Property)",
    "date_created": "2025-07-18T15:57:41.000",
    "date_modified": "2025-07-18T15:57:43.000",
    "request_status": "Pending",
    "responsible_agency": "Department of Parks & Parkway",
    "final_address": "4837 Wright Rd",
    "address_councildis": "E",
    "status": "Pending",
    "rowid": "1210778",
    "final_x": "3716704.7749",
    "final_y": "557411.980123",
    "longitude": "-89.95592483461265",
    "latitude": "30.025572837320343",
    "geocoded_column": {
      "latitude": "30.025572837320343",
      "longitude": "-89.95592483461265"
    }
  },
  {
    "service_request": "2025-1210777",
    "request_type": "Trash/Recycling",
    "request_reason": "Request a Large Item Pick Up",
    "date_created": "2025-07-18T15:55:06.000",
    "date_modified": "2025-07-18T15:55:08.000",
    "request_status": "Pending",
    "responsible_agency": "Department of Sanitation",
    "final_address": "1640 Flanders St",
    "address_councildis": "C",
    "status": "Assigned to Contractor",
    "contractor": "Richards Disposal",
    "rowid": "1210777",
    "final_x": "3696726.04419",
    "final_y": "525183.870909",
    "longitude": "-90.02022149337064",
    "latitude": "29.9376024543686",
    "geocoded_column": {
      "latitude": "29.9376024543686",
      "longitude": "-90.02022149337064"
    }
  },
  {
    "service_request": "2025-1210776",
    "request_type": "Parks & Parkways",
    "request_reason": "Request Tree Service (Right of Way/Public Property)",
    "date_created": "2025-07-18T15:54:46.000",
    "date_modified": "2025-07-18T15:54:48.000",
    "request_status": "Pending",
    "responsible_agency": "Department of Parks & Parkway",
    "final_address": "7608 Maple St",
    "address_councildis": "A",
    "status": "Pending",
    "rowid": "1210776",
    "final_x": "3662236.2969",
    "final_y": "526176.73555",
    "longitude": "-90.1290757916544",
    "latitude": "29.941374252767226",
    "geocoded_column": {
      "latitude": "29.941374252767226",
      "longitude": "-90.1290757916544"
    }
  },
  {
    "service_request": "2025-1210775",
    "request_type": "Abandoned Vehicles",
    "request_reason": "Abandoned/Junk Vehicles",
    "date_created": "2025-07-18T15:51:33.000",
    "date_modified": "2025-07-18T15:51:35.000",
    "request_status": "Pending",
    "responsible_agency": "Department of Public Works",
    "final_address": "7040 Whitmore Pl",
    "address_councildis": "E",
    "status": "Pending",
    "rowid": "1210775",
    "final_x": "3718941.14988",
    "final_y": "569288.06711",
    "longitude": "-89.94840472707584",
    "latitude": "30.05815312016157",
    "geocoded_column": {
      "latitude": "30.05815312016157",
      "longitude": "-89.94840472707584"
    }
  },
  {
    "service_request": "2025-1210774",
    "request_type": "Trash/Recycling",
    "request_reason": "Request a Large Item Pick Up",
    "date_created": "2025-07-18T15:51:26.000",
    "date_modified": "2025-07-18T15:51:28.000",
    "request_status": "Pending",
    "responsible_agency": "Department of Sanitation",
    "final_address": "618 Arabella St",
    "address_councildis": "A",
    "status": "Assigned to Contractor",
    "contractor": "IV Waste",
    "rowid": "1210774",
    "final_x": "3665681.94573",
    "final_y": "518439.873142",
    "longitude": "-90.11845615388452",
    "latitude": "29.920000308633313",
    "geocoded_column": {
      "latitude": "29.920000308633313",
      "longitude": "-90.11845615388452"
    }
  },
  {
    "service_request": "2025-1210773",
    "request_type": "Abandoned Vehicles",
    "request_reason": "Abandoned/Junk Vehicles",
    "date_created": "2025-07-18T15:45:55.000",
    "date_modified": "2025-07-18T15:46:57.000",
    "request_status": "Pending",
    "responsible_agency": "Department of Public Works",
    "final_address": "3300 BLK Albert St",
    "address_councildis": "C",
    "status": "Pending",
    "rowid": "1210773",
    "final_x": "3711953.33852",
    "final_y": "518114.33331",
    "longitude": "-89.97241337726622",
    "latitude": "29.91767513167149",
    "geocoded_column": {
      "latitude": "29.91767513167149",
      "longitude": "-89.97241337726622"
    }
  },
  {
    "service_request": "2025-1210772",
    "request_type": "Trash/Recycling",
    "request_reason": "Repair Trash Cart",
    "date_created": "2025-07-18T15:44:38.000",
    "date_modified": "2025-07-18T15:44:40.000",
    "request_status": "Pending",
    "responsible_agency": "Department of Sanitation",
    "final_address": "5173 Warrington Dr",
    "address_councildis": "D",
    "status": "Assigned to Contractor",
    "contractor": "IV Waste",
    "rowid": "1210772",
    "final_x": "3681127.72648",
    "final_y": "551627.828053",
    "longitude": "-90.06854498248445",
    "latitude": "30.010796474135116",
    "geocoded_column": {
      "latitude": "30.010796474135116",
      "longitude": "-90.06854498248445"
    }
  },
  {
    "service_request": "2025-1210771",
    "request_type": "Safety & Permits",
    "request_reason": "Licenses & Permits",
    "date_created": "2025-07-18T15:39:46.000",
    "date_modified": "2025-07-18T15:39:48.000",
    "request_status": "Pending",
    "responsible_agency": "Safety and Permits",
    "final_address": "5526 Pratt Dr",
    "address_councildis": "D",
    "status": "Pending",
    "rowid": "1210771",
    "final_x": "3680253.77973",
    "final_y": "552844.851542",
    "longitude": "-90.07126377001349",
    "latitude": "30.01416934507166",
    "geocoded_column": {
      "latitude": "30.01416934507166",
      "longitude": "-90.07126377001349"
    }
  },
  {
    "service_request": "2025-1210770",
    "request_type": "Trash/Recycling",
    "request_reason": "Missed Trash Pick-Up",
    "date_created": "2025-07-18T15:38:08.000",
    "date_modified": "2025-07-18T16:10:32.000",
    "case_close_date": "2025-07-18T11:10:30.000",
    "request_status": "Closed",
    "responsible_agency": "Department of Sanitation",
    "final_address": "425 Celeste St",
    "address_councildis": "B",
    "status": "Invalid Request",
    "contractor": "IV Waste",
    "contractor_action": "Invalid",
    "rowid": "1210770",
    "final_x": "3682253.27951",
    "final_y": "521476.733881",
    "longitude": "-90.06604248169063",
    "latitude": "29.927857167766927",
    "geocoded_column": {
      "latitude": "29.927857167766927",
      "longitude": "-90.06604248169063"
    }
  },
  {
    "service_request": "2025-1210769",
    "request_type": "Trash/Recycling",
    "request_reason": "Change Size of Trash Cart",
    "date_created": "2025-07-18T15:36:21.000",
    "date_modified": "2025-07-18T15:36:22.000",
    "request_status": "Pending",
    "responsible_agency": "Department of Sanitation",
    "final_address": "724 Evelina St",
    "address_councildis": "C",
    "status": "Assigned to Contractor",
    "contractor": "Richards Disposal",
    "rowid": "1210769",
    "final_x": "3687712.863",
    "final_y": "529546.164929",
    "longitude": "-90.04852227392078",
    "latitude": "29.94987821405223",
    "geocoded_column": {
      "latitude": "29.94987821405223",
      "longitude": "-90.04852227392078"
    }
  },
  {
    "service_request": "2025-1210768",
    "request_type": "Safety & Permits",
    "request_reason": "Zoning Enforcement",
    "date_created": "2025-07-18T15:36:13.000",
    "date_modified": "2025-07-18T15:36:14.000",
    "request_status": "Pending",
    "responsible_agency": "Safety and Permits",
    "final_address": "5526 Pratt Dr",
    "address_councildis": "D",
    "status": "Pending",
    "rowid": "1210768",
    "final_x": "3680253.77973",
    "final_y": "552844.851542",
    "longitude": "-90.07126377001349",
    "latitude": "30.01416934507166",
    "geocoded_column": {
      "latitude": "30.01416934507166",
      "longitude": "-90.07126377001349"
    }
  },
  {
    "service_request": "2025-1210767",
    "request_type": "Safety & Permits",
    "request_reason": "Zoning Enforcement",
    "date_created": "2025-07-18T15:26:32.000",
    "date_modified": "2025-07-18T15:26:33.000",
    "request_status": "Pending",
    "responsible_agency": "Safety and Permits",
    "final_address": "4814 Cleveland Ave",
    "address_councildis": "A",
    "status": "Pending",
    "rowid": "1210767",
    "final_x": "3668410.4299",
    "final_y": "539768.936458",
    "longitude": "-90.10912431664998",
    "latitude": "29.978568451679966",
    "geocoded_column": {
      "latitude": "29.978568451679966",
      "longitude": "-90.10912431664998"
    }
  },
  {
    "service_request": "2025-1210766",
    "request_type": "Trash/Recycling",
    "request_reason": "Order Recycling Cart",
    "date_created": "2025-07-18T15:23:57.000",
    "date_modified": "2025-07-18T15:23:59.000",
    "request_status": "Pending",
    "responsible_agency": "Department of Sanitation",
    "final_address": "2955 Seine St",
    "address_councildis": "C",
    "status": "Pending",
    "rowid": "1210766",
    "final_x": "3694291.12451",
    "final_y": "520479.946168",
    "longitude": "-90.0280778460513",
    "latitude": "29.92474476620032",
    "geocoded_column": {
      "latitude": "29.92474476620032",
      "longitude": "-90.0280778460513"
    }
  },
  {
    "service_request": "2025-1210765",
    "request_type": "Trash/Recycling",
    "request_reason": "Request a Large Item Pick Up",
    "date_created": "2025-07-18T15:22:48.000",
    "date_modified": "2025-07-18T15:22:50.000",
    "request_status": "Pending",
    "responsible_agency": "Department of Sanitation",
    "final_address": "2955 Seine St",
    "address_councildis": "C",
    "status": "Assigned to Contractor",
    "contractor": "Richards Disposal",
    "rowid": "1210765",
    "final_x": "3694291.12451",
    "final_y": "520479.946168",
    "longitude": "-90.0280778460513",
    "latitude": "29.92474476620032",
    "geocoded_column": {
      "latitude": "29.92474476620032",
      "longitude": "-90.0280778460513"
    }
  },
  {
    "service_request": "2025-1210764",
    "request_type": "Drainage",
    "request_reason": "Street Flooding",
    "date_created": "2025-07-18T15:21:43.000",
    "date_modified": "2025-07-18T15:21:45.000",
    "request_status": "Pending",
    "responsible_agency": "Sewerage & Water Board",
    "final_address": "4918 Marque Dr",
    "address_councildis": "E",
    "status": "Pending",
    "rowid": "1210764",
    "final_x": "3709912.88069",
    "final_y": "556817.110554",
    "longitude": "-89.97740829733503",
    "latitude": "30.024159923553768",
    "geocoded_column": {
      "latitude": "30.024159923553768",
      "longitude": "-89.97740829733503"
    }
  },
  {
    "service_request": "2025-1210763",
    "request_type": "Mosquito, Termite & Rodent Control",
    "request_reason": "Rodent Complaint (Mice & Rats)",
    "date_created": "2025-07-18T15:21:25.000",
    "date_modified": "2025-07-18T15:21:26.000",
    "request_status": "Pending",
    "responsible_agency": "Mosquito, Termite & Rodent Control Board",
    "final_address": "5542 Pratt Dr",
    "address_councildis": "D",
    "status": "Pending",
    "rowid": "1210763",
    "final_x": "3680244.85423",
    "final_y": "552965.284759",
    "longitude": "-90.07128777912374",
    "latitude": "30.014500763127213",
    "geocoded_column": {
      "latitude": "30.014500763127213",
      "longitude": "-90.07128777912374"
    }
  },
  {
    "service_request": "2025-1210762",
    "request_type": "Streetlights",
    "request_reason": "Streetlight Outage/Malfunction",
    "date_created": "2025-07-18T15:20:49.000",
    "date_modified": "2025-07-18T15:20:50.000",
    "request_status": "Pending",
    "responsible_agency": "Department of Public Works",
    "final_address": "4918 Marque Dr",
    "address_councildis": "E",
    "status": "Pending",
    "contractor": "Legacy Professional Services",
    "rowid": "1210762",
    "final_x": "3709912.88069",
    "final_y": "556817.110554",
    "longitude": "-89.97740829733503",
    "latitude": "30.024159923553768",
    "geocoded_column": {
      "latitude": "30.024159923553768",
      "longitude": "-89.97740829733503"
    }
  },
  {
    "service_request": "2025-1210761",
    "request_type": "Trash/Recycling",
    "request_reason": "Dead Animal Pick Up",
    "date_created": "2025-07-18T15:17:02.000",
    "date_modified": "2025-07-18T15:17:04.000",
    "request_status": "Pending",
    "responsible_agency": "Department of Sanitation",
    "final_address": "S CLAIBORNE AVE & S CARROLLTON AVE",
    "address_councildis": "A",
    "status": "Assigned to Contractor",
    "contractor": "IV Waste",
    "rowid": "1210761",
    "final_x": "3664835.3",
    "final_y": "531467.18",
    "longitude": "-90.12069343480607",
    "latitude": "29.955845903907996",
    "geocoded_column": {
      "latitude": "29.955845903907996",
      "longitude": "-90.12069343480607"
    }
  },
  {
    "service_request": "2025-1210760",
    "request_type": "Property Maintenance",
    "request_reason": "Property Maintenance",
    "date_created": "2025-07-18T15:15:47.000",
    "date_modified": "2025-07-18T15:33:33.000",
    "case_close_date": "2025-07-18T10:33:32.000",
    "request_status": "Closed",
    "responsible_agency": "Department of Code Enforcement",
    "final_address": "5403 N Miro St",
    "address_councildis": "E",
    "status": "Referred to Code Enforcement",
    "rowid": "1210760",
    "final_x": "3698351.38295",
    "final_y": "538106.917513",
    "longitude": "-90.01462066717477",
    "latitude": "29.973084949281226",
    "geocoded_column": {
      "latitude": "29.973084949281226",
      "longitude": "-90.01462066717477"
    }
  },
  {
    "service_request": "2025-1210759",
    "request_type": "Trash/Recycling",
    "request_reason": "Request a Large Item Pick Up",
    "date_created": "2025-07-18T15:13:39.000",
    "date_modified": "2025-07-18T15:13:40.000",
    "request_status": "Pending",
    "responsible_agency": "Department of Sanitation",
    "final_address": "5210 Lakeview Ct",
    "address_councildis": "E",
    "status": "Assigned to Contractor",
    "contractor": "Waste Pro",
    "rowid": "1210759",
    "final_x": "3698923.65751",
    "final_y": "556604.981402",
    "longitude": "-90.01213971541299",
    "latitude": "30.02392963393038",
    "geocoded_column": {
      "latitude": "30.02392963393038",
      "longitude": "-90.01213971541299"
    }
  },
  {
    "service_request": "2025-1210758",
    "request_type": "Property Maintenance",
    "request_reason": "Property Maintenance",
    "date_created": "2025-07-18T15:11:53.000",
    "date_modified": "2025-07-18T15:41:20.000",
    "case_close_date": "2025-07-18T10:41:19.000",
    "request_status": "Closed",
    "responsible_agency": "Department of Code Enforcement",
    "final_address": "5542 Pratt Dr",
    "address_councildis": "D",
    "status": "Referred to Code Enforcement",
    "rowid": "1210758",
    "final_x": "3680244.85423",
    "final_y": "552965.284759",
    "longitude": "-90.07128777912374",
    "latitude": "30.014500763127213",
    "geocoded_column": {
      "latitude": "30.014500763127213",
      "longitude": "-90.07128777912374"
    }
  },
  {
    "service_request": "2025-1210757",
    "request_type": "Trash/Recycling",
    "request_reason": "Order Trash Cart",
    "date_created": "2025-07-18T15:10:23.000",
    "date_modified": "2025-07-18T15:10:25.000",
    "request_status": "Pending",
    "responsible_agency": "Department of Sanitation",
    "final_address": "2315 Reynes St",
    "address_councildis": "E",
    "status": "Assigned to Contractor",
    "contractor": "Waste Pro",
    "rowid": "1210757",
    "final_x": "3697381.86224",
    "final_y": "538885.516361",
    "longitude": "-90.01765435253601",
    "latitude": "29.97525646061177",
    "geocoded_column": {
      "latitude": "29.97525646061177",
      "longitude": "-90.01765435253601"
    }
  },
  {
    "service_request": "2025-1210756",
    "request_type": "Property Maintenance",
    "request_reason": "Property Maintenance",
    "date_created": "2025-07-18T15:08:02.000",
    "date_modified": "2025-07-18T15:08:04.000",
    "request_status": "Pending",
    "responsible_agency": "Department of Code Enforcement",
    "final_address": "4950 Marque Dr",
    "address_councildis": "E",
    "status": "Pending",
    "rowid": "1210756",
    "final_x": "3709903.31096",
    "final_y": "557018.91113",
    "longitude": "-89.97743099013114",
    "latitude": "30.024715107374643",
    "geocoded_column": {
      "latitude": "30.024715107374643",
      "longitude": "-89.97743099013114"
    }
  },
  {
    "service_request": "2025-1210755",
    "request_type": "Trash/Recycling",
    "request_reason": "Request a Large Item Pick Up",
    "date_created": "2025-07-18T15:03:34.000",
    "date_modified": "2025-07-18T15:03:36.000",
    "request_status": "Pending",
    "responsible_agency": "Department of Sanitation",
    "final_address": "7533 Mayo Rd",
    "address_councildis": "E",
    "status": "Assigned to Contractor",
    "contractor": "Waste Pro",
    "rowid": "1210755",
    "final_x": "3700957.18609",
    "final_y": "560656.151134",
    "longitude": "-90.00556586869983",
    "latitude": "30.035004157111405",
    "geocoded_column": {
      "latitude": "30.035004157111405",
      "longitude": "-90.00556586869983"
    }
  },
  {
    "service_request": "2025-1210754",
    "request_type": "Healthy Homes",
    "request_reason": "Healthy Homes",
    "date_created": "2025-07-18T15:03:31.000",
    "date_modified": "2025-07-18T15:03:33.000",
    "request_status": "Pending",
    "responsible_agency": "Department of Code Enforcement",
    "final_address": "823 Flood St",
    "address_councildis": "E",
    "status": "Pending",
    "rowid": "1210754",
    "final_x": "3697515.52016",
    "final_y": "532880.223236",
    "longitude": "-90.01745003645206",
    "latitude": "29.958739829231554",
    "geocoded_column": {
      "latitude": "29.958739829231554",
      "longitude": "-90.01745003645206"
    }
  },
  {
    "service_request": "2025-1210753",
    "request_type": "Trash/Recycling",
    "request_reason": "Dead Animal Pick Up",
    "date_created": "2025-07-18T15:03:22.000",
    "date_modified": "2025-07-18T15:03:24.000",
    "request_status": "Pending",
    "responsible_agency": "Department of Sanitation",
    "final_address": "1866 Lauradale Dr",
    "address_councildis": "C",
    "status": "Assigned to Contractor",
    "contractor": "Richards Disposal",
    "rowid": "1210753",
    "final_x": "3692765.29872",
    "final_y": "524184.94086",
    "longitude": "-90.03276160277204",
    "latitude": "29.934979949247094",
    "geocoded_column": {
      "latitude": "29.934979949247094",
      "longitude": "-90.03276160277204"
    }
  },
  {
    "service_request": "2025-1210752",
    "request_type": "Trash/Recycling",
    "request_reason": "Request a Large Item Pick Up",
    "date_created": "2025-07-18T15:01:20.000",
    "date_modified": "2025-07-18T15:01:24.000",
    "request_status": "Pending",
    "responsible_agency": "Department of Sanitation",
    "final_address": "7830 Butterfield Rd",
    "address_councildis": "E",
    "status": "Assigned to Contractor",
    "contractor": "Waste Pro",
    "rowid": "1210752",
    "final_x": "3699474.276",
    "final_y": "561017.443998",
    "longitude": "-90.01023888525636",
    "latitude": "30.036044737254745",
    "geocoded_column": {
      "latitude": "30.036044737254745",
      "longitude": "-90.01023888525636"
    }
  },
  {
    "service_request": "2025-1210751",
    "request_type": "Trash/Recycling",
    "request_reason": "Request a Large Item Pick Up",
    "date_created": "2025-07-18T15:00:04.000",
    "date_modified": "2025-07-18T15:00:07.000",
    "request_status": "Pending",
    "responsible_agency": "Department of Sanitation",
    "final_address": "11214 Prentiss Ave",
    "address_councildis": "E",
    "status": "Assigned to Contractor",
    "contractor": "Waste Pro",
    "rowid": "1210751",
    "final_x": "3716895.87506",
    "final_y": "556684.081754",
    "longitude": "-89.95534865261683",
    "latitude": "30.02356508906327",
    "geocoded_column": {
      "latitude": "30.02356508906327",
      "longitude": "-89.95534865261683"
    }
  },
  {
    "service_request": "2025-1210750",
    "request_type": "Drainage",
    "request_reason": "Catch Basin Clogged",
    "date_created": "2025-07-18T14:58:20.000",
    "date_modified": "2025-07-18T14:58:22.000",
    "request_status": "Pending",
    "responsible_agency": "Sewerage & Water Board",
    "final_address": "4319 Lotus St",
    "address_councildis": "D",
    "status": "Pending",
    "rowid": "1210750",
    "final_x": "3687735.20175",
    "final_y": "548636.915731",
    "longitude": "-90.047775457693",
    "latitude": "30.002370360075975",
    "geocoded_column": {
      "latitude": "30.002370360075975",
      "longitude": "-90.047775457693"
    }
  },
  {
    "service_request": "2025-1210749",
    "request_type": "Property Maintenance",
    "request_reason": "Property Maintenance",
    "date_created": "2025-07-18T14:57:10.000",
    "date_modified": "2025-07-18T14:57:11.000",
    "request_status": "Pending",
    "responsible_agency": "Department of Code Enforcement",
    "final_address": "2176 L. B. Landry Ave",
    "address_councildis": "C",
    "status": "Pending",
    "rowid": "1210749",
    "final_x": "3689994.44515",
    "final_y": "522314.684154",
    "longitude": "-90.04157569609916",
    "latitude": "29.92992356165575",
    "geocoded_column": {
      "latitude": "29.92992356165575",
      "longitude": "-90.04157569609916"
    }
  },
  {
    "service_request": "2025-1210748",
    "request_type": "Trash/Recycling",
    "request_reason": "Order Second Trash Cart",
    "date_created": "2025-07-18T14:53:57.000",
    "date_modified": "2025-07-18T14:53:59.000",
    "request_status": "Pending",
    "responsible_agency": "Department of Sanitation",
    "final_address": "1607 Gentilly Blvd",
    "address_councildis": "A",
    "status": "Assigned to Contractor",
    "contractor": "IV Waste",
    "rowid": "1210748",
    "final_x": "3678343.98312",
    "final_y": "540566.946251",
    "longitude": "-90.07772285186216",
    "latitude": "29.980467143762745",
    "geocoded_column": {
      "latitude": "29.980467143762745",
      "longitude": "-90.07772285186216"
    }
  },
  {
    "service_request": "2025-1210747",
    "request_type": "Property Maintenance",
    "request_reason": "Property Maintenance",
    "date_created": "2025-07-18T14:49:04.000",
    "date_modified": "2025-07-18T14:49:07.000",
    "request_status": "Pending",
    "responsible_agency": "Department of Code Enforcement",
    "final_address": "6794 Deanne St",
    "address_councildis": "D",
    "status": "Pending",
    "rowid": "1210747",
    "final_x": "3695725.61309",
    "final_y": "555903.535129",
    "longitude": "-90.02227022634015",
    "latitude": "30.02210192617483",
    "geocoded_column": {
      "latitude": "30.02210192617483",
      "longitude": "-90.02227022634015"
    }
  },
  {
    "service_request": "2025-1210746",
    "request_type": "Property Maintenance",
    "request_reason": "Property Maintenance",
    "date_created": "2025-07-18T14:46:26.000",
    "date_modified": "2025-07-18T14:46:28.000",
    "request_status": "Pending",
    "responsible_agency": "Department of Code Enforcement",
    "final_address": "5543 Pratt Dr",
    "address_councildis": "D",
    "status": "Pending",
    "rowid": "1210746",
    "final_x": "3680434.80213",
    "final_y": "552992.616599",
    "longitude": "-90.07068668585653",
    "latitude": "30.014570161859936",
    "geocoded_column": {
      "latitude": "30.014570161859936",
      "longitude": "-90.07068668585653"
    }
  },
  {
    "service_request": "2025-1210745",
    "request_type": "Trash/Recycling",
    "request_reason": "Replace Trash Cart",
    "date_created": "2025-07-18T14:45:57.000",
    "date_modified": "2025-07-18T14:45:59.000",
    "request_status": "Pending",
    "responsible_agency": "Department of Sanitation",
    "final_address": "5207 Wentworth Dr",
    "address_councildis": "E",
    "status": "Assigned to Contractor",
    "contractor": "Waste Pro",
    "rowid": "1210745",
    "final_x": "3704693.48721",
    "final_y": "557006.049306",
    "longitude": "-89.99389349983927",
    "latitude": "30.024848225521236",
    "geocoded_column": {
      "latitude": "30.024848225521236",
      "longitude": "-89.99389349983927"
    }
  },
  {
    "service_request": "2025-1210744",
    "request_type": "Trash/Recycling",
    "request_reason": "Request a Large Item Pick Up",
    "date_created": "2025-07-18T14:45:26.000",
    "date_modified": "2025-07-18T14:45:28.000",
    "request_status": "Pending",
    "responsible_agency": "Department of Sanitation",
    "final_address": "7541 Morel St",
    "address_councildis": "E",
    "status": "Assigned to Contractor",
    "contractor": "Waste Pro",
    "rowid": "1210744",
    "final_x": "3719149.11903",
    "final_y": "571603.356904",
    "longitude": "-89.94765886612052",
    "latitude": "30.064512287519054",
    "geocoded_column": {
      "latitude": "30.064512287519054",
      "longitude": "-89.94765886612052"
    }
  },
  {
    "service_request": "2025-1210743",
    "request_type": "Trash/Recycling",
    "request_reason": "Request a Large Item Pick Up",
    "date_created": "2025-07-18T14:44:22.000",
    "date_modified": "2025-07-18T15:41:15.000",
    "request_status": "Pending",
    "responsible_agency": "Department of Sanitation",
    "final_address": "8220 Lomond Rd",
    "address_councildis": "E",
    "status": "Assigned to Contractor",
    "contractor": "Waste Pro",
    "rowid": "1210743",
    "final_x": "3702951.96023",
    "final_y": "561614.192159",
    "longitude": "-89.99922686474089",
    "latitude": "30.037574687026478",
    "geocoded_column": {
      "latitude": "30.037574687026478",
      "longitude": "-89.99922686474089"
    }
  },
  {
    "service_request": "2025-1210742",
    "request_type": "Drainage",
    "request_reason": "Ditch and Culvert Maintenance",
    "date_created": "2025-07-18T14:43:55.000",
    "date_modified": "2025-07-18T14:44:02.000",
    "request_status": "Pending",
    "responsible_agency": "Department of Public Works",
    "final_address": "1823 Horace St",
    "address_councildis": "C",
    "status": "Pending",
    "rowid": "1210742",
    "final_x": "3696238.77277",
    "final_y": "524479.699132",
    "longitude": "-90.02178528331564",
    "latitude": "29.935681569856296",
    "geocoded_column": {
      "latitude": "29.935681569856296",
      "longitude": "-90.02178528331564"
    }
  },
  {
    "service_request": "2025-1210741",
    "request_type": "Street and Traffic Signs",
    "request_reason": "Traffic or Parking Sign Damaged or Missing",
    "date_created": "2025-07-18T14:41:07.000",
    "date_modified": "2025-07-18T14:41:08.000",
    "request_status": "Pending",
    "responsible_agency": "Department of Public Works",
    "final_address": "3640 Live Oak St",
    "address_councildis": "A",
    "status": "Pending",
    "rowid": "1210741",
    "final_x": "3664479.3026",
    "final_y": "538050.165321",
    "longitude": "-90.1215977331394",
    "latitude": "29.97395730369093",
    "geocoded_column": {
      "latitude": "29.97395730369093",
      "longitude": "-90.1215977331394"
    }
  },
  {
    "service_request": "2025-1210740",
    "request_type": "Parks & Parkways",
    "request_reason": "Request Tree Service (Right of Way/Public Property)",
    "date_created": "2025-07-18T14:39:26.000",
    "date_modified": "2025-07-18T14:39:28.000",
    "request_status": "Pending",
    "responsible_agency": "Department of Parks & Parkway",
    "final_address": "6928 E Laverne St",
    "address_councildis": "D",
    "status": "Pending",
    "rowid": "1210740",
    "final_x": "3697117.02563",
    "final_y": "556686.854618",
    "longitude": "-90.01784532124445",
    "latitude": "30.024211908139605",
    "geocoded_column": {
      "latitude": "30.024211908139605",
      "longitude": "-90.01784532124445"
    }
  },
  {
    "service_request": "2025-1210739",
    "request_type": "Trash/Recycling",
    "request_reason": "Request a Large Item Pick Up",
    "date_created": "2025-07-18T14:39:17.000",
    "date_modified": "2025-07-18T14:40:15.000",
    "request_status": "Pending",
    "responsible_agency": "Department of Sanitation",
    "final_address": "1035 St Maurice Ave",
    "address_councildis": "E",
    "status": "Assigned to Contractor",
    "contractor": "Waste Pro",
    "rowid": "1210739",
    "final_x": "3699806.1217",
    "final_y": "532989.708356",
    "longitude": "-90.010212960607",
    "latitude": "29.958968345094647",
    "geocoded_column": {
      "latitude": "29.958968345094647",
      "longitude": "-90.010212960607"
    }
  },
  {
    "service_request": "2025-1210738",
    "request_type": "Abandoned Vehicles",
    "request_reason": "Abandoned/Junk Vehicles",
    "date_created": "2025-07-18T14:36:53.000",
    "date_modified": "2025-07-18T14:36:56.000",
    "request_status": "Pending",
    "responsible_agency": "Department of Public Works",
    "final_address": "2614 Hollygrove St",
    "address_councildis": "A",
    "status": "Pending",
    "rowid": "1210738",
    "final_x": "3663115.36295",
    "final_y": "534419.945413",
    "longitude": "-90.12602618180237",
    "latitude": "29.964014984364105",
    "geocoded_column": {
      "latitude": "29.964014984364105",
      "longitude": "-90.12602618180237"
    }
  },
  {
    "service_request": "2025-1210737",
    "request_type": "Trash/Recycling",
    "request_reason": "Missed Trash Pick-Up",
    "date_created": "2025-07-18T14:35:09.000",
    "date_modified": "2025-07-18T14:39:42.000",
    "case_close_date": "2025-07-18T09:39:40.000",
    "request_status": "Closed",
    "responsible_agency": "Department of Sanitation",
    "final_address": "4525 Chef Menteur Hwy",
    "address_councildis": "D",
    "status": "Invalid Request",
    "contractor": "IV Waste",
    "contractor_action": "Invalid",
    "rowid": "1210737",
    "final_x": "3691232.07824",
    "final_y": "549838.73378",
    "longitude": "-90.03668546912071",
    "latitude": "30.005566579555065",
    "geocoded_column": {
      "latitude": "30.005566579555065",
      "longitude": "-90.03668546912071"
    }
  },
  {
    "service_request": "2025-1210736",
    "request_type": "Abandoned Vehicles",
    "request_reason": "Abandoned/Junk Vehicles",
    "date_created": "2025-07-18T14:34:50.000",
    "date_modified": "2025-07-18T14:34:53.000",
    "request_status": "Pending",
    "responsible_agency": "Department of Public Works",
    "final_address": "4730 Freret St",
    "address_councildis": "B",
    "status": "Pending",
    "rowid": "1210736",
    "final_x": "3669235.8617",
    "final_y": "523857.789691",
    "longitude": "-90.10705510078016",
    "latitude": "29.934793766018775",
    "geocoded_column": {
      "latitude": "29.934793766018775",
      "longitude": "-90.10705510078016"
    }
  },
  {
    "service_request": "2025-1210735",
    "request_type": "Abandoned Vehicles",
    "request_reason": "Abandoned/Junk Vehicles",
    "date_created": "2025-07-18T14:34:24.000",
    "date_modified": "2025-07-18T14:34:25.000",
    "request_status": "Pending",
    "responsible_agency": "Department of Public Works",
    "final_address": "2619 Hollygrove St",
    "address_councildis": "A",
    "status": "Pending",
    "rowid": "1210735",
    "final_x": "3663172.40064",
    "final_y": "534375.527429",
    "longitude": "-90.12584753922891",
    "latitude": "29.96389119684972",
    "geocoded_column": {
      "latitude": "29.96389119684972",
      "longitude": "-90.12584753922891"
    }
  },
  {
    "service_request": "2025-1210734",
    "request_type": "Trash/Recycling",
    "request_reason": "Replace Trash Cart",
    "date_created": "2025-07-18T14:33:59.000",
    "date_modified": "2025-07-18T14:34:00.000",
    "request_status": "Pending",
    "responsible_agency": "Department of Sanitation",
    "final_address": "1255 Foy St",
    "address_councildis": "D",
    "status": "Assigned to Contractor",
    "contractor": "IV Waste",
    "rowid": "1210734",
    "final_x": "3677072.98894",
    "final_y": "546449.048081",
    "longitude": "-90.08153423895939",
    "latitude": "29.996679108277736",
    "geocoded_column": {
      "latitude": "29.996679108277736",
      "longitude": "-90.08153423895939"
    }
  },
  {
    "service_request": "2025-1210733",
    "request_type": "Drainage",
    "request_reason": "Catch Basin Clogged",
    "date_created": "2025-07-18T14:32:39.000",
    "date_modified": "2025-07-18T14:32:41.000",
    "request_status": "Pending",
    "responsible_agency": "Sewerage & Water Board",
    "final_address": "332 Calhoun St",
    "address_councildis": "A",
    "status": "Pending",
    "rowid": "1210733",
    "final_x": "3662835.88397",
    "final_y": "518370.209974",
    "longitude": "-90.12744215448869",
    "latitude": "29.9198914223849",
    "geocoded_column": {
      "latitude": "29.9198914223849",
      "longitude": "-90.12744215448869"
    }
  },
  {
    "service_request": "2025-1210732",
    "request_type": "Property Maintenance",
    "request_reason": "Property Maintenance",
    "date_created": "2025-07-18T14:32:29.000",
    "date_modified": "2025-07-18T14:32:31.000",
    "request_status": "Pending",
    "responsible_agency": "Department of Code Enforcement",
    "final_address": "3829 Buchanan St",
    "address_councildis": "D",
    "status": "Pending",
    "rowid": "1210732",
    "final_x": "3677397.71208",
    "final_y": "546302.75912",
    "longitude": "-90.0805135089712",
    "latitude": "29.9962671067406",
    "geocoded_column": {
      "latitude": "29.9962671067406",
      "longitude": "-90.0805135089712"
    }
  },
  {
    "service_request": "2025-1210731",
    "request_type": "Abandoned Vehicles",
    "request_reason": "Abandoned/Junk Vehicles",
    "date_created": "2025-07-18T14:27:37.000",
    "date_modified": "2025-07-18T14:27:39.000",
    "request_status": "Pending",
    "responsible_agency": "Department of Public Works",
    "final_address": "7600 BLK Cohn St",
    "address_councildis": "A",
    "status": "Pending",
    "rowid": "1210731",
    "final_x": "3664829.48231",
    "final_y": "529088.363855",
    "longitude": "-90.12079129251529",
    "latitude": "29.949305100271765",
    "geocoded_column": {
      "latitude": "29.949305100271765",
      "longitude": "-90.12079129251529"
    }
  },
  {
    "service_request": "2025-1210730",
    "request_type": "Property Maintenance",
    "request_reason": "Property Maintenance",
    "date_created": "2025-07-18T14:27:27.000",
    "date_modified": "2025-07-18T14:27:30.000",
    "request_status": "Pending",
    "responsible_agency": "Department of Code Enforcement",
    "final_address": "1310 Foy St",
    "address_councildis": "D",
    "status": "Pending",
    "rowid": "1210730",
    "final_x": "3677461.41858",
    "final_y": "546414.149713",
    "longitude": "-90.08030841655628",
    "latitude": "29.996571476247805",
    "geocoded_column": {
      "latitude": "29.996571476247805",
      "longitude": "-90.08030841655628"
    }
  },
  {
    "service_request": "2025-1210729",
    "request_type": "Trash/Recycling",
    "request_reason": "Request a Large Item Pick Up",
    "date_created": "2025-07-18T14:26:07.000",
    "date_modified": "2025-07-18T14:26:09.000",
    "request_status": "Pending",
    "responsible_agency": "Department of Sanitation",
    "final_address": "15 Christopher Ct",
    "address_councildis": "E",
    "status": "Assigned to Contractor",
    "contractor": "Waste Pro",
    "rowid": "1210729",
    "final_x": "3716824.24056",
    "final_y": "570601.843559",
    "longitude": "-89.9550460166337",
    "latitude": "30.061835642633227",
    "geocoded_column": {
      "latitude": "30.061835642633227",
      "longitude": "-89.9550460166337"
    }
  },
  {
    "service_request": "2025-1210728",
    "request_type": "Trash/Recycling",
    "request_reason": "Return Trash Cart",
    "date_created": "2025-07-18T14:25:40.000",
    "date_modified": "2025-07-18T14:25:42.000",
    "request_status": "Pending",
    "responsible_agency": "Department of Sanitation",
    "final_address": "4919 Perelli Dr",
    "address_councildis": "E",
    "status": "Assigned to Contractor",
    "contractor": "Waste Pro",
    "rowid": "1210728",
    "final_x": "3711693.59627",
    "final_y": "557097.012058",
    "longitude": "-89.97177111551093",
    "latitude": "30.0248714821004",
    "geocoded_column": {
      "latitude": "30.0248714821004",
      "longitude": "-89.97177111551093"
    }
  },
  {
    "service_request": "2025-1210727",
    "request_type": "Trash/Recycling",
    "request_reason": "Request a Large Item Pick Up",
    "date_created": "2025-07-18T14:23:34.000",
    "date_modified": "2025-07-18T14:23:35.000",
    "request_status": "Pending",
    "responsible_agency": "Department of Sanitation",
    "final_address": "332 Calhoun St",
    "address_councildis": "A",
    "status": "Assigned to Contractor",
    "contractor": "IV Waste",
    "rowid": "1210727",
    "final_x": "3662835.88397",
    "final_y": "518370.209974",
    "longitude": "-90.12744215448869",
    "latitude": "29.9198914223849",
    "geocoded_column": {
      "latitude": "29.9198914223849",
      "longitude": "-90.12744215448869"
    }
  },
  {
    "service_request": "2025-1210726",
    "request_type": "Streetlights",
    "request_reason": "Streetlight Outage/Malfunction",
    "date_created": "2025-07-18T14:22:58.000",
    "date_modified": "2025-07-18T14:22:59.000",
    "request_status": "Pending",
    "responsible_agency": "Department of Public Works",
    "final_address": "449 Audubon Blvd",
    "address_councildis": "B",
    "status": "Pending",
    "contractor": "Legacy Professional Services",
    "rowid": "1210726",
    "final_x": "3667670.37396",
    "final_y": "530614.901314",
    "longitude": "-90.11176992040356",
    "latitude": "29.953419612359244",
    "geocoded_column": {
      "latitude": "29.953419612359244",
      "longitude": "-90.11176992040356"
    }
  },
  {
    "service_request": "2025-1210725",
    "request_type": "Trash/Recycling",
    "request_reason": "Request a Large Item Pick Up",
    "date_created": "2025-07-18T14:22:53.000",
    "date_modified": "2025-07-18T14:22:55.000",
    "request_status": "Pending",
    "responsible_agency": "Department of Sanitation",
    "final_address": "7833 Arcadia Ln",
    "address_councildis": "E",
    "status": "Assigned to Contractor",
    "contractor": "Waste Pro",
    "rowid": "1210725",
    "final_x": "3711986.8707",
    "final_y": "567719.67114",
    "longitude": "-89.97044518733966",
    "latitude": "30.054069951802283",
    "geocoded_column": {
      "latitude": "30.054069951802283",
      "longitude": "-89.97044518733966"
    }
  },
  {
    "service_request": "2025-1210724",
    "request_type": "Drainage",
    "request_reason": "Catch Basin Clogged",
    "date_created": "2025-07-18T14:18:14.000",
    "date_modified": "2025-07-18T14:18:15.000",
    "request_status": "Pending",
    "responsible_agency": "Sewerage & Water Board",
    "final_address": "3800 BLK Clio St",
    "address_councildis": "B",
    "status": "Pending",
    "rowid": "1210724",
    "final_x": "3673052.57545",
    "final_y": "530554.721159",
    "longitude": "-90.09477724229731",
    "latitude": "29.953095266708434",
    "geocoded_column": {
      "latitude": "29.953095266708434",
      "longitude": "-90.09477724229731"
    }
  },
  {
    "service_request": "2025-1210723",
    "request_type": "Trash/Recycling",
    "request_reason": "Repair Trash Cart",
    "date_created": "2025-07-18T14:15:26.000",
    "date_modified": "2025-07-18T14:15:28.000",
    "request_status": "Pending",
    "responsible_agency": "Department of Sanitation",
    "final_address": "3519 Broadway St",
    "address_councildis": "B",
    "status": "Assigned to Contractor",
    "contractor": "IV Waste",
    "rowid": "1210723",
    "final_x": "3668868.08999",
    "final_y": "533389.167748",
    "longitude": "-90.10789434658419",
    "latitude": "29.9610127674551",
    "geocoded_column": {
      "latitude": "29.9610127674551",
      "longitude": "-90.10789434658419"
    }
  },
  {
    "service_request": "2025-1210722",
    "request_type": "Drainage",
    "request_reason": "Catch Basin Clogged",
    "date_created": "2025-07-18T14:14:41.000",
    "date_modified": "2025-07-18T14:14:42.000",
    "request_status": "Pending",
    "responsible_agency": "Sewerage & Water Board",
    "final_address": "2400 Laurel St",
    "address_councildis": "B",
    "status": "Pending",
    "rowid": "1210722",
    "final_x": "3678478.25179",
    "final_y": "520835.763641",
    "longitude": "-90.07798152986324",
    "latitude": "29.92620897181711",
    "geocoded_column": {
      "latitude": "29.92620897181711",
      "longitude": "-90.07798152986324"
    }
  },
  {
    "service_request": "2025-1210721",
    "request_type": "Abandoned Vehicles",
    "request_reason": "Abandoned/Junk Vehicles",
    "date_created": "2025-07-18T14:14:16.000",
    "date_modified": "2025-07-18T14:14:18.000",
    "request_status": "Pending",
    "responsible_agency": "Department of Public Works",
    "final_address": "1900 BLK N Roman St",
    "address_councildis": "D",
    "status": "Pending",
    "rowid": "1210721",
    "final_x": "3683845.88982",
    "final_y": "538804.744357",
    "longitude": "-90.06040731875268",
    "latitude": "29.97545478182952",
    "geocoded_column": {
      "latitude": "29.97545478182952",
      "longitude": "-90.06040731875268"
    }
  },
  {
    "service_request": "2025-1210720",
    "request_type": "Property Maintenance",
    "request_reason": "Property Maintenance",
    "date_created": "2025-07-18T14:09:58.000",
    "date_modified": "2025-07-18T15:36:14.000",
    "case_close_date": "2025-07-18T10:36:13.000",
    "request_status": "Closed",
    "responsible_agency": "Department of Code Enforcement",
    "final_address": "1700 Feliciana St",
    "address_councildis": "D",
    "status": "Referred to Code Enforcement",
    "rowid": "1210720",
    "final_x": "3689273.69481",
    "final_y": "538361.335113",
    "longitude": "-90.04328065601315",
    "latitude": "29.974068647894367",
    "geocoded_column": {
      "latitude": "29.974068647894367",
      "longitude": "-90.04328065601315"
    }
  },
  {
    "service_request": "2025-1210719",
    "request_type": "Trash/Recycling",
    "request_reason": "Request a Large Item Pick Up",
    "date_created": "2025-07-18T14:07:02.000",
    "date_modified": "2025-07-18T14:07:04.000",
    "request_status": "Pending",
    "responsible_agency": "Department of Sanitation",
    "final_address": "923 Cherokee St",
    "address_councildis": "A",
    "status": "Assigned to Contractor",
    "contractor": "IV Waste",
    "rowid": "1210719",
    "final_x": "3663008.66701",
    "final_y": "526306.801726",
    "longitude": "-90.12663293377673",
    "latitude": "29.94170955031631",
    "geocoded_column": {
      "latitude": "29.94170955031631",
      "longitude": "-90.12663293377673"
    }
  },
  {
    "service_request": "2025-1210718",
    "request_type": "Abandoned Vehicles",
    "request_reason": "Abandoned/Junk Vehicles",
    "date_created": "2025-07-18T14:05:19.000",
    "date_modified": "2025-07-18T14:05:21.000",
    "request_status": "Pending",
    "responsible_agency": "Department of Public Works",
    "final_address": "2800 BLK Amazon St",
    "address_councildis": "C",
    "status": "Pending",
    "rowid": "1210718",
    "final_x": "3693947.29514",
    "final_y": "521340.478104",
    "longitude": "-90.02913227772477",
    "latitude": "29.927121702575125",
    "geocoded_column": {
      "latitude": "29.927121702575125",
      "longitude": "-90.02913227772477"
    }
  },
  {
    "service_request": "2025-1210717",
    "request_type": "Abandoned Vehicles",
    "request_reason": "Abandoned/Junk Vehicles",
    "date_created": "2025-07-18T14:04:21.000",
    "date_modified": "2025-07-18T14:04:23.000",
    "request_status": "Pending",
    "responsible_agency": "Department of Public Works",
    "final_address": "2700 BLK Amazon St",
    "address_councildis": "C",
    "status": "Pending",
    "rowid": "1210717",
    "final_x": "3693639.14517",
    "final_y": "521484.758655",
    "longitude": "-90.0300998432951",
    "latitude": "29.927528065721294",
    "geocoded_column": {
      "latitude": "29.927528065721294",
      "longitude": "-90.0300998432951"
    }
  },
  {
    "service_request": "2025-1210716",
    "request_type": "Health Related Request",
    "request_reason": "Noise Ordinance Complaint",
    "date_created": "2025-07-18T14:02:30.000",
    "date_modified": "2025-07-18T14:02:31.000",
    "request_status": "Pending",
    "responsible_agency": "Health Department",
    "final_address": "2917 Esplanade Ave",
    "address_councildis": "A",
    "status": "Pending",
    "rowid": "1210716",
    "final_x": "3677065.04392",
    "final_y": "539929.039946",
    "longitude": "-90.08178430125871",
    "latitude": "29.978751594731275",
    "geocoded_column": {
      "latitude": "29.978751594731275",
      "longitude": "-90.08178430125871"
    }
  },
  {
    "service_request": "2025-1210715",
    "request_type": "Trash/Recycling",
    "request_reason": "Request a Large Item Pick Up",
    "date_created": "2025-07-18T14:00:34.000",
    "date_modified": "2025-07-18T14:00:36.000",
    "request_status": "Pending",
    "responsible_agency": "Department of Sanitation",
    "final_address": "6643 Coventry St",
    "address_councildis": "E",
    "status": "Assigned to Contractor",
    "contractor": "Waste Pro",
    "rowid": "1210715",
    "final_x": "3697771.64701",
    "final_y": "559422.910877",
    "longitude": "-90.01567743255546",
    "latitude": "30.031714334163297",
    "geocoded_column": {
      "latitude": "30.031714334163297",
      "longitude": "-90.01567743255546"
    }
  },
  {
    "service_request": "2025-1210714",
    "request_type": "Trash/Recycling",
    "request_reason": "Missed Trash Pick-Up",
    "date_created": "2025-07-18T13:57:57.000",
    "date_modified": "2025-07-18T13:57:59.000",
    "request_status": "Pending",
    "responsible_agency": "Department of Sanitation",
    "final_address": "20035 Victory Rd, New Orleans, Louisiana, 70129",
    "address_councildis": "E",
    "status": "Assigned to Contractor",
    "contractor": "Waste Pro",
    "rowid": "1210714",
    "final_x": "3756318.82095",
    "final_y": "573963.296746",
    "longitude": "-89.83006710218368",
    "latitude": "30.06971271392661",
    "geocoded_column": {
      "latitude": "30.06971271392661",
      "longitude": "-89.83006710218368"
    }
  },
  {
    "service_request": "2025-1210713",
    "request_type": "Trash/Recycling",
    "request_reason": "Illegal Dumping",
    "date_created": "2025-07-18T13:56:27.000",
    "date_modified": "2025-07-18T13:56:28.000",
    "request_status": "Pending",
    "responsible_agency": "Department of Sanitation",
    "final_address": "4500 BLK N Rampart St",
    "address_councildis": "C",
    "status": "Pending",
    "rowid": "1210713",
    "final_x": "3693458.76495",
    "final_y": "534431.210125",
    "longitude": "-90.03020446971715",
    "latitude": "29.96313197510511",
    "geocoded_column": {
      "latitude": "29.96313197510511",
      "longitude": "-90.03020446971715"
    }
  },
  {
    "service_request": "2025-1210712",
    "request_type": "Abandoned Vehicles",
    "request_reason": "Abandoned/Junk Vehicles",
    "date_created": "2025-07-18T13:54:06.000",
    "date_modified": "2025-07-18T13:54:08.000",
    "request_status": "Pending",
    "responsible_agency": "Department of Public Works",
    "final_address": "4500 BLK N Rampart St",
    "address_councildis": "C",
    "status": "Pending",
    "rowid": "1210712",
    "final_x": "3693458.76495",
    "final_y": "534431.210125",
    "longitude": "-90.03020446971715",
    "latitude": "29.96313197510511",
    "geocoded_column": {
      "latitude": "29.96313197510511",
      "longitude": "-90.03020446971715"
    }
  },
  {
    "service_request": "2025-1210711",
    "request_type": "Abandoned Vehicles",
    "request_reason": "Abandoned/Junk Vehicles",
    "date_created": "2025-07-18T13:54:03.000",
    "date_modified": "2025-07-18T13:54:05.000",
    "request_status": "Pending",
    "responsible_agency": "Department of Public Works",
    "final_address": "2839 Amazon St",
    "address_councildis": "C",
    "status": "Pending",
    "rowid": "1210711",
    "final_x": "3693801.5656",
    "final_y": "521343.178041",
    "longitude": "-90.02959220929611",
    "latitude": "29.927133686559937",
    "geocoded_column": {
      "latitude": "29.927133686559937",
      "longitude": "-90.02959220929611"
    }
  },
  {
    "service_request": "2025-1210710",
    "request_type": "Trash/Recycling",
    "request_reason": "Order Recycling Cart",
    "date_created": "2025-07-18T13:53:24.000",
    "date_modified": "2025-07-18T13:53:25.000",
    "request_status": "Pending",
    "responsible_agency": "Department of Sanitation",
    "final_address": "1630 Caton St",
    "address_councildis": "D",
    "status": "Pending",
    "rowid": "1210710",
    "final_x": "3679796.57999",
    "final_y": "546829.278737",
    "longitude": "-90.07291735786129",
    "latitude": "29.997642512386232",
    "geocoded_column": {
      "latitude": "29.997642512386232",
      "longitude": "-90.07291735786129"
    }
  },
  {
    "service_request": "2025-1210709",
    "request_type": "Trash/Recycling",
    "request_reason": "Repair Trash Cart",
    "date_created": "2025-07-18T13:52:02.000",
    "date_modified": "2025-07-18T13:52:04.000",
    "request_status": "Pending",
    "responsible_agency": "Department of Sanitation",
    "final_address": "1630 Caton St",
    "address_councildis": "D",
    "status": "Assigned to Contractor",
    "contractor": "IV Waste",
    "rowid": "1210709",
    "final_x": "3679796.57999",
    "final_y": "546829.278737",
    "longitude": "-90.07291735786129",
    "latitude": "29.997642512386232",
    "geocoded_column": {
      "latitude": "29.997642512386232",
      "longitude": "-90.07291735786129"
    }
  },
  {
    "service_request": "2025-1210708",
    "request_type": "Roads and Streets",
    "request_reason": "Pothole",
    "date_created": "2025-07-18T13:51:28.000",
    "date_modified": "2025-07-18T13:51:31.000",
    "request_status": "Pending",
    "responsible_agency": "Department of Public Works",
    "final_address": "1526 St Mary St",
    "address_councildis": "B",
    "status": "Pending",
    "rowid": "1210708",
    "final_x": "3678529.54926",
    "final_y": "524063.157116",
    "longitude": "-90.0777079575921",
    "latitude": "29.935081701983325",
    "geocoded_column": {
      "latitude": "29.935081701983325",
      "longitude": "-90.0777079575921"
    }
  },
  {
    "service_request": "2025-1210707",
    "request_type": "Trash/Recycling",
    "request_reason": "Request a Large Item Pick Up",
    "date_created": "2025-07-18T13:48:37.000",
    "date_modified": "2025-07-18T13:48:39.000",
    "request_status": "Pending",
    "responsible_agency": "Department of Sanitation",
    "final_address": "13018 Cherbourg St",
    "address_councildis": "E",
    "status": "Assigned to Contractor",
    "contractor": "Waste Pro",
    "rowid": "1210707",
    "final_x": "3723947.68185",
    "final_y": "560864.729246",
    "longitude": "-89.93290525718156",
    "latitude": "30.034825101458203",
    "geocoded_column": {
      "latitude": "30.034825101458203",
      "longitude": "-89.93290525718156"
    }
  },
  {
    "service_request": "2025-1210706",
    "request_type": "Roads and Streets",
    "request_reason": "Pothole",
    "date_created": "2025-07-18T13:43:48.000",
    "date_modified": "2025-07-18T13:43:50.000",
    "request_status": "Pending",
    "responsible_agency": "Department of Public Works",
    "final_address": "1900 BLK Duels St",
    "address_councildis": "D",
    "status": "Pending",
    "rowid": "1210706",
    "final_x": "3682828.34002",
    "final_y": "542428.904431",
    "longitude": "-90.06349416645806",
    "latitude": "29.98545099649482",
    "geocoded_column": {
      "latitude": "29.98545099649482",
      "longitude": "-90.06349416645806"
    }
  },
  {
    "service_request": "2025-1210705",
    "request_type": "Trash/Recycling",
    "request_reason": "Request a Large Item Pick Up",
    "date_created": "2025-07-18T13:40:35.000",
    "date_modified": "2025-07-18T13:40:37.000",
    "request_status": "Pending",
    "responsible_agency": "Department of Sanitation",
    "final_address": "7717 Woodbine Dr",
    "address_councildis": "E",
    "status": "Assigned to Contractor",
    "contractor": "Waste Pro",
    "rowid": "1210705",
    "final_x": "3701930.11927",
    "final_y": "561693.984927",
    "longitude": "-90.00245317479602",
    "latitude": "30.037826759519366",
    "geocoded_column": {
      "latitude": "30.037826759519366",
      "longitude": "-90.00245317479602"
    }
  },
  {
    "service_request": "2025-1210704",
    "request_type": "Abandoned Vehicles",
    "request_reason": "Abandoned/Junk Vehicles",
    "date_created": "2025-07-18T13:39:52.000",
    "date_modified": "2025-07-18T13:39:54.000",
    "request_status": "Pending",
    "responsible_agency": "Department of Public Works",
    "final_address": "2103 Rousseau St",
    "address_councildis": "B",
    "status": "Pending",
    "rowid": "1210704",
    "final_x": "3680477.78632",
    "final_y": "520531.234808",
    "longitude": "-90.07168015933938",
    "latitude": "29.925311230396805",
    "geocoded_column": {
      "latitude": "29.925311230396805",
      "longitude": "-90.07168015933938"
    }
  },
  {
    "service_request": "2025-1210703",
    "request_type": "Trash/Recycling",
    "request_reason": "Request a Large Item Pick Up",
    "date_created": "2025-07-18T13:39:38.000",
    "date_modified": "2025-07-18T13:39:40.000",
    "request_status": "Pending",
    "responsible_agency": "Department of Sanitation",
    "final_address": "5406 Urquhart St",
    "address_councildis": "E",
    "status": "Assigned to Contractor",
    "contractor": "Waste Pro",
    "rowid": "1210703",
    "final_x": "3697455.61693",
    "final_y": "534649.244614",
    "longitude": "-90.01757504963702",
    "latitude": "29.96360590164388",
    "geocoded_column": {
      "latitude": "29.96360590164388",
      "longitude": "-90.01757504963702"
    }
  },
  {
    "service_request": "2025-1210702",
    "request_type": "Trash/Recycling",
    "request_reason": "Repair Trash Cart",
    "date_created": "2025-07-18T13:37:45.000",
    "date_modified": "2025-07-18T13:37:47.000",
    "request_status": "Pending",
    "responsible_agency": "Department of Sanitation",
    "final_address": "13018 Cherbourg St",
    "address_councildis": "E",
    "status": "Assigned to Contractor",
    "contractor": "Waste Pro",
    "rowid": "1210702",
    "final_x": "3723947.68185",
    "final_y": "560864.729246",
    "longitude": "-89.93290525718156",
    "latitude": "30.034825101458203",
    "geocoded_column": {
      "latitude": "30.034825101458203",
      "longitude": "-89.93290525718156"
    }
  },
  {
    "service_request": "2025-1210701",
    "request_type": "Drainage",
    "request_reason": "Catch Basin Clogged",
    "date_created": "2025-07-18T13:37:25.000",
    "date_modified": "2025-07-18T13:37:27.000",
    "request_status": "Pending",
    "responsible_agency": "Sewerage & Water Board",
    "final_address": "1219 Alvar St",
    "address_councildis": "D",
    "status": "Pending",
    "rowid": "1210701",
    "final_x": "3691704.70908",
    "final_y": "535884.916615",
    "longitude": "-90.03569156111529",
    "latitude": "29.967183891481003",
    "geocoded_column": {
      "latitude": "29.967183891481003",
      "longitude": "-90.03569156111529"
    }
  },
  {
    "service_request": "2025-1210700",
    "request_type": "Abandoned Vehicles",
    "request_reason": "Abandoned/Junk Vehicles",
    "date_created": "2025-07-18T13:35:48.000",
    "date_modified": "2025-07-18T13:35:50.000",
    "request_status": "Pending",
    "responsible_agency": "Department of Public Works",
    "final_address": "607 S Hennessey St",
    "address_councildis": "A",
    "status": "Pending",
    "rowid": "1210700",
    "final_x": "3669016.30222",
    "final_y": "537324.812424",
    "longitude": "-90.10729333933214",
    "latitude": "29.971830120328097",
    "geocoded_column": {
      "latitude": "29.971830120328097",
      "longitude": "-90.10729333933214"
    }
  },
  {
    "service_request": "2025-1210699",
    "request_type": "Drainage",
    "request_reason": "Street Flooding",
    "date_created": "2025-07-18T13:33:51.000",
    "date_modified": "2025-07-18T13:33:52.000",
    "request_status": "Pending",
    "responsible_agency": "Sewerage & Water Board",
    "final_address": "2525 Pauger St",
    "address_councildis": "D",
    "status": "Pending",
    "rowid": "1210699",
    "final_x": "3683683.11893",
    "final_y": "538985.459978",
    "longitude": "-90.06091505474598",
    "latitude": "29.975956657774084",
    "geocoded_column": {
      "latitude": "29.975956657774084",
      "longitude": "-90.06091505474598"
    }
  },
  {
    "service_request": "2025-1210698",
    "request_type": "Abandoned Vehicles",
    "request_reason": "Abandoned/Junk Vehicles",
    "date_created": "2025-07-18T13:33:28.000",
    "date_modified": "2025-07-18T13:33:29.000",
    "request_status": "Pending",
    "responsible_agency": "Department of Public Works",
    "final_address": "607 S Hennessey St",
    "address_councildis": "A",
    "status": "Pending",
    "rowid": "1210698",
    "final_x": "3669016.30222",
    "final_y": "537324.812424",
    "longitude": "-90.10729333933214",
    "latitude": "29.971830120328097",
    "geocoded_column": {
      "latitude": "29.971830120328097",
      "longitude": "-90.10729333933214"
    }
  },
  {
    "service_request": "2025-1210697",
    "request_type": "Streetlights",
    "request_reason": "Streetlight Outage/Malfunction",
    "date_created": "2025-07-18T13:31:41.000",
    "date_modified": "2025-07-18T13:31:42.000",
    "request_status": "Pending",
    "responsible_agency": "Department of Public Works",
    "final_address": "7901 Sandy Cove Dr",
    "address_councildis": "E",
    "status": "Pending",
    "contractor": "Legacy Professional Services",
    "rowid": "1210697",
    "final_x": "3715064.60619",
    "final_y": "570176.955943",
    "longitude": "-89.96062426203768",
    "latitude": "30.060725458099952",
    "geocoded_column": {
      "latitude": "30.060725458099952",
      "longitude": "-89.96062426203768"
    }
  },
  {
    "service_request": "2025-1210696",
    "request_type": "Abandoned Vehicles",
    "request_reason": "Abandoned/Junk Vehicles",
    "date_created": "2025-07-18T13:30:59.000",
    "date_modified": "2025-07-18T13:31:01.000",
    "request_status": "Pending",
    "responsible_agency": "Department of Public Works",
    "final_address": "607 S Hennessey St",
    "address_councildis": "A",
    "status": "Pending",
    "rowid": "1210696",
    "final_x": "3669016.30222",
    "final_y": "537324.812424",
    "longitude": "-90.10729333933214",
    "latitude": "29.971830120328097",
    "geocoded_column": {
      "latitude": "29.971830120328097",
      "longitude": "-90.10729333933214"
    }
  },
  {
    "service_request": "2025-1210695",
    "request_type": "Abandoned Vehicles",
    "request_reason": "Abandoned/Junk Vehicles",
    "date_created": "2025-07-18T13:29:16.000",
    "date_modified": "2025-07-18T13:29:17.000",
    "request_status": "Pending",
    "responsible_agency": "Department of Public Works",
    "final_address": "1221 Mandeville St",
    "address_councildis": "C",
    "status": "Pending",
    "rowid": "1210695",
    "final_x": "3685781.83106",
    "final_y": "536909.194312",
    "longitude": "-90.05435992518647",
    "latitude": "29.970183403943796",
    "geocoded_column": {
      "latitude": "29.970183403943796",
      "longitude": "-90.05435992518647"
    }
  },
  {
    "service_request": "2025-1210694",
    "request_type": "Drainage",
    "request_reason": "Catch Basin Clogged",
    "date_created": "2025-07-18T13:26:59.000",
    "date_modified": "2025-07-18T13:27:31.000",
    "request_status": "Pending",
    "responsible_agency": "Sewerage & Water Board",
    "final_address": "3624 St Bernard Ave",
    "address_councildis": "D",
    "status": "Pending",
    "rowid": "1210694",
    "final_x": "3678040.35323",
    "final_y": "545597.367248",
    "longitude": "-90.07850785177475",
    "latitude": "29.994308191689107",
    "geocoded_column": {
      "latitude": "29.994308191689107",
      "longitude": "-90.07850785177475"
    }
  },