[
  {
    "service_request": "2025-1197523",
    "request_type": "Trash/Recycling",
    "request_reason": "Request a Large Item Pick Up",
    "date_created": "2025-06-02T23:53:25.000",
    "date_modified": "2025-06-02T23:53:27.000",
    "request_status": "Pending",
    "responsible_agency": "Department of Sanitation",
    "final_address": "4311 Prytania St",
    "address_councildis": "B",
    "status": "Assigned to Contractor",
    "contractor": "IV Waste",
    "rowid": "1197523",
    "final_x": "3671186.97755",
    "final_y": "520394.180984",
    "longitude": "-90.10101304075984",
    "latitude": "29.92521239443595",
    "geocoded_column": {
      "latitude": "29.92521239443595",
      "longitude": "-90.10101304075984"
    }
  },
  {
    "service_request": "2025-1197522",
    "request_type": "Trash/Recycling",
    "request_reason": "Request a Large Item Pick Up",
    "date_created": "2025-06-02T23:34:39.000",
    "date_modified": "2025-06-02T23:34:42.000",
    "request_status": "Pending",
    "responsible_agency": "Department of Sanitation",
    "final_address": "2768 N Dorgenois St",
    "address_councildis": "D",
    "status": "Assigned to Contractor",
    "contractor": "IV Waste",
    "rowid": "1197522",
    "final_x": "3687828.54582",
    "final_y": "541684.987532",
    "longitude": "-90.04772698133753",
    "latitude": "29.983252175589712",
    "geocoded_column": {
      "latitude": "29.983252175589712",
      "longitude": "-90.04772698133753"
    }
  },
  {
    "service_request": "2025-1197521",
    "request_type": "Traffic Safety",
    "request_reason": "Request for Traffic Calming due to Speeding",
    "date_created": "2025-06-02T23:01:31.000",
    "date_modified": "2025-06-02T23:01:33.000",
    "request_status": "Pending",
    "responsible_agency": "Department of Public Works",
    "final_address": "6631 Wales St",
    "address_councildis": "E",
    "status": "Pending",
    "rowid": "1197521",
    "final_x": "3697415.24637",
    "final_y": "560364.121246",
    "longitude": "-90.01676949706949",
    "latitude": "30.03431356468654",
    "geocoded_column": {
      "latitude": "30.03431356468654",
      "longitude": "-90.01676949706949"
    }
  },
  {
    "service_request": "2025-1197520",
    "request_type": "Streetlights",
    "request_reason": "Streetlight Outage/Malfunction",
    "date_created": "2025-06-02T22:51:08.000",
    "date_modified": "2025-06-02T22:51:10.000",
    "request_status": "Pending",
    "responsible_agency": "Department of Public Works",
    "final_address": "1538 Fourth St",
    "address_councildis": "B",
    "status": "Pending",
    "contractor": "Legacy Professional Services",
    "rowid": "1197520",
    "final_x": "3676234.72405",
    "final_y": "522472.433978",
    "longitude": "-90.08500742450362",
    "latitude": "29.93077667877585",
    "geocoded_column": {
      "latitude": "29.93077667877585",
      "longitude": "-90.08500742450362"
    }
  },
  {
    "service_request": "2025-1197519",
    "request_type": "Streetlights",
    "request_reason": "Streetlight Outage/Malfunction",
    "date_created": "2025-06-02T22:45:47.000",
    "date_modified": "2025-06-02T22:45:49.000",
    "request_status": "Pending",
    "responsible_agency": "Department of Public Works",
    "final_address": "1448 Fourth St",
    "address_councildis": "B",
    "status": "Pending",
    "contractor": "Legacy Professional Services",
    "rowid": "1197519",
    "final_x": "3676470.50683",
    "final_y": "522139.540154",
    "longitude": "-90.0842745467903",
    "latitude": "29.929854263891034",
    "geocoded_column": {
      "latitude": "29.929854263891034",
      "longitude": "-90.0842745467903"
    }
  },
  {
    "service_request": "2025-1197518",
    "request_type": "Streetlights",
    "request_reason": "Streetlight Outage/Malfunction",
    "date_created": "2025-06-02T22:39:12.000",
    "date_modified": "2025-06-02T22:39:17.000",
    "request_status": "Pending",
    "responsible_agency": "Department of Public Works",
    "final_address": "1427 Fourth St",
    "address_councildis": "B",
    "status": "Pending",
    "contractor": "Legacy Professional Services",
    "rowid": "1197518",
    "final_x": "3676663.83816",
    "final_y": "522116.97049",
    "longitude": "-90.08366500946069",
    "latitude": "29.929786408398083",
    "geocoded_column": {
      "latitude": "29.929786408398083",
      "longitude": "-90.08366500946069"
    }
  },
  {
    "service_request": "2025-1197517",
    "request_type": "Streetlights",
    "request_reason": "Streetlight Outage/Malfunction",
    "date_created": "2025-06-02T22:34:34.000",
    "date_modified": "2025-06-02T22:34:36.000",
    "request_status": "Pending",
    "responsible_agency": "Department of Public Works",
    "final_address": "1312 Fourth St",
    "address_councildis": "B",
    "status": "Pending",
    "contractor": "Legacy Professional Services",
    "rowid": "1197517",
    "final_x": "3676798.07061",
    "final_y": "521688.551033",
    "longitude": "-90.08325601535799",
    "latitude": "29.928604368207992",
    "geocoded_column": {
      "latitude": "29.928604368207992",
      "longitude": "-90.08325601535799"
    }
  },
  {
    "service_request": "2025-1197516",
    "request_type": "Trash/Recycling",
    "request_reason": "Request a Large Item Pick Up",
    "date_created": "2025-06-02T22:31:24.000",
    "date_modified": "2025-06-02T22:31:27.000",
    "request_status": "Pending",
    "responsible_agency": "Department of Sanitation",
    "final_address": "217 S Bernadotte St",
    "address_councildis": "A",
    "status": "Assigned to Contractor",
    "contractor": "IV Waste",
    "rowid": "1197516",
    "final_x": "3668428.0377",
    "final_y": "539632.651466",
    "longitude": "-90.10907330349652",
    "latitude": "29.97819319664289",
    "geocoded_column": {
      "latitude": "29.97819319664289",
      "longitude": "-90.10907330349652"
    }
  },
  {
    "service_request": "2025-1197515",
    "request_type": "Streetlights",
    "request_reason": "Streetlight Outage/Malfunction",
    "date_created": "2025-06-02T22:24:06.000",
    "date_modified": "2025-06-02T22:24:09.000",
    "request_status": "Pending",
    "responsible_agency": "Department of Public Works",
    "final_address": "1121 Fourth St",
    "address_councildis": "B",
    "status": "Pending",
    "contractor": "Legacy Professional Services",
    "rowid": "1197515",
    "final_x": "3677252.03419",
    "final_y": "521170.882297",
    "longitude": "-90.08184079565642",
    "latitude": "29.927167321720603",
    "geocoded_column": {
      "latitude": "29.927167321720603",
      "longitude": "-90.08184079565642"
    }
  },
  {
    "service_request": "2025-1197514",
    "request_type": "Parks & Parkways",
    "request_reason": "Request Tree Service (Right of Way/Public Property)",
    "date_created": "2025-06-02T22:20:08.000",
    "date_modified": "2025-06-02T22:20:10.000",
    "request_status": "Pending",
    "responsible_agency": "Department of Parks & Parkway",
    "final_address": "1432 Third St",
    "address_councildis": "B",
    "status": "Pending",
    "rowid": "1197514",
    "final_x": "3676719.59425",
    "final_y": "522292.952314",
    "longitude": "-90.08348293729901",
    "latitude": "29.93026862896363",
    "geocoded_column": {
      "latitude": "29.93026862896363",
      "longitude": "-90.08348293729901"
    }
  },
  {
    "service_request": "2025-1197513",
    "request_type": "Streetlights",
    "request_reason": "Streetlight Outage/Malfunction",
    "date_created": "2025-06-02T22:17:07.000",
    "date_modified": "2025-06-02T22:17:09.000",
    "request_status": "Pending",
    "responsible_agency": "Department of Public Works",
    "final_address": "1432 Third St",
    "address_councildis": "B",
    "status": "Pending",
    "contractor": "Legacy Professional Services",
    "rowid": "1197513",
    "final_x": "3676719.59425",
    "final_y": "522292.952314",
    "longitude": "-90.08348293729901",
    "latitude": "29.93026862896363",
    "geocoded_column": {
      "latitude": "29.93026862896363",
      "longitude": "-90.08348293729901"
    }
  },
  {
    "service_request": "2025-1197512",
    "request_type": "Trash/Recycling",
    "request_reason": "Request a Large Item Pick Up",
    "date_created": "2025-06-02T22:16:51.000",
    "date_modified": "2025-06-02T22:16:53.000",
    "request_status": "Pending",
    "responsible_agency": "Department of Sanitation",
    "final_address": "6361 General Haig",
    "address_councildis": "A",
    "status": "Assigned to Contractor",
    "contractor": "IV Waste",
    "rowid": "1197512",
    "final_x": "3670801.28667",
    "final_y": "549610.555155",
    "longitude": "-90.10123885394201",
    "latitude": "30.005559056201598",
    "geocoded_column": {
      "latitude": "30.005559056201598",
      "longitude": "-90.10123885394201"
    }
  },
  {
    "service_request": "2025-1197511",
    "request_type": "Streetlights",
    "request_reason": "Streetlight Outage/Malfunction",
    "date_created": "2025-06-02T22:10:55.000",
    "date_modified": "2025-06-02T22:10:56.000",
    "request_status": "Pending",
    "responsible_agency": "Department of Public Works",
    "final_address": "1516 Third St",
    "address_councildis": "B",
    "status": "Pending",
    "contractor": "Legacy Professional Services",
    "rowid": "1197511",
    "final_x": "3676596.32846",
    "final_y": "522546.545978",
    "longitude": "-90.08386333864131",
    "latitude": "29.93096962542866",
    "geocoded_column": {
      "latitude": "29.93096962542866",
      "longitude": "-90.08386333864131"
    }
  },
  {
    "service_request": "2025-1197510",
    "request_type": "Streetlights",
    "request_reason": "Streetlight Outage/Malfunction",
    "date_created": "2025-06-02T22:02:10.000",
    "date_modified": "2025-06-02T22:02:12.000",
    "request_status": "Pending",
    "responsible_agency": "Department of Public Works",
    "final_address": "2300 BLK Prytania St",
    "address_councildis": "B",
    "status": "Pending",
    "contractor": "Legacy Professional Services",
    "rowid": "1197510",
    "final_x": "3677434.03814",
    "final_y": "522900.380496",
    "longitude": "-90.08120659545365",
    "latitude": "29.93191741068095",
    "geocoded_column": {
      "latitude": "29.93191741068095",
      "longitude": "-90.08120659545365"
    }
  },
  {
    "service_request": "2025-1197509",
    "request_type": "Parks & Parkways",
    "request_reason": "Request Tree Service (Right of Way/Public Property)",
    "date_created": "2025-06-02T21:52:41.000",
    "date_modified": "2025-06-02T21:52:43.000",
    "request_status": "Pending",
    "responsible_agency": "Department of Parks & Parkway",
    "final_address": "2800 BLK Prytania St",
    "address_councildis": "B",
    "status": "Pending",
    "rowid": "1197509",
    "final_x": "3676102.89349",
    "final_y": "522021.877004",
    "longitude": "-90.08543908549876",
    "latitude": "29.929541742067183",
    "geocoded_column": {
      "latitude": "29.929541742067183",
      "longitude": "-90.08543908549876"
    }
  },
  {
    "service_request": "2025-1197508",
    "request_type": "Trash/Recycling",
    "request_reason": "Replace Trash Cart",
    "date_created": "2025-06-02T21:48:59.000",
    "date_modified": "2025-06-02T21:49:02.000",
    "request_status": "Pending",
    "responsible_agency": "Department of Sanitation",
    "final_address": "6549 Bellaire Dr New Orleans 70124",
    "address_councildis": "A",
    "status": "Assigned to Contractor",
    "contractor": "IV Waste",
    "rowid": "1197508",
    "final_x": "3664571.30554",
    "final_y": "551762.945749",
    "longitude": "-90.12084889630714",
    "latitude": "30.011660110034192",
    "geocoded_column": {
      "latitude": "30.011660110034192",
      "longitude": "-90.12084889630714"
    }
  },
  {
    "service_request": "2025-1197507",
    "request_type": "Parks & Parkways",
    "request_reason": "Request Tree Service (Right of Way/Public Property)",
    "date_created": "2025-06-02T21:48:33.000",
    "date_modified": "2025-06-02T21:48:35.000",
    "request_status": "Pending",
    "responsible_agency": "Department of Parks & Parkway",
    "final_address": "2911 Prytania St",
    "address_councildis": "B",
    "status": "Pending",
    "rowid": "1197507",
    "final_x": "3675655.60853",
    "final_y": "521790.124026",
    "longitude": "-90.08685904318283",
    "latitude": "29.92891788326267",
    "geocoded_column": {
      "latitude": "29.92891788326267",
      "longitude": "-90.08685904318283"
    }
  },
  {
    "service_request": "2025-1197506",
    "request_type": "Healthy Homes",
    "request_reason": "Healthy Homes",
    "date_created": "2025-06-02T21:47:40.000",
    "date_modified": "2025-06-02T21:47:42.000",
    "request_status": "Pending",
    "responsible_agency": "Department of Code Enforcement",
    "final_address": "3135 N Prieur St",
    "address_councildis": "D",
    "status": "Pending",
    "rowid": "1197506",
    "final_x": "3690022.55676",
    "final_y": "538984.702986",
    "longitude": "-90.04089338116097",
    "latitude": "29.975759485052492",
    "geocoded_column": {
      "latitude": "29.975759485052492",
      "longitude": "-90.04089338116097"
    }
  },
  {
    "service_request": "2025-1197505",
    "request_type": "Streetlights",
    "request_reason": "Streetlight Outage/Malfunction",
    "date_created": "2025-06-02T21:43:53.000",
    "date_modified": "2025-06-02T21:43:55.000",
    "request_status": "Pending",
    "responsible_agency": "Department of Public Works",
    "final_address": "2922 Prytania St",
    "address_councildis": "B",
    "status": "Pending",
    "contractor": "Legacy Professional Services",
    "rowid": "1197505",
    "final_x": "3675643.12251",
    "final_y": "521660.108281",
    "longitude": "-90.08690292372772",
    "latitude": "29.92856075559509",
    "geocoded_column": {
      "latitude": "29.92856075559509",
      "longitude": "-90.08690292372772"
    }
  },
  {
    "service_request": "2025-1197504",
    "request_type": "Mosquito, Termite & Rodent Control",
    "request_reason": "Non-Rodent Complaint (Possums & Snakes)",
    "date_created": "2025-06-02T21:40:07.000",
    "date_modified": "2025-06-02T21:40:09.000",
    "request_status": "Pending",
    "responsible_agency": "Mosquito, Termite & Rodent Control Board",
    "final_address": "1820 Nunez St",
    "address_councildis": "C",
    "status": "Pending",
    "rowid": "1197504",
    "final_x": "3687334.60175",
    "final_y": "524693.173116",
    "longitude": "-90.04988824943945",
    "latitude": "29.936545790426052",
    "geocoded_column": {
      "latitude": "29.936545790426052",
      "longitude": "-90.04988824943945"
    }
  },
  {
    "service_request": "2025-1197503",
    "request_type": "Parks & Parkways",
    "request_reason": "Request Tree Service (Right of Way/Public Property)",
    "date_created": "2025-06-02T21:37:57.000",
    "date_modified": "2025-06-02T21:38:00.000",
    "request_status": "Pending",
    "responsible_agency": "Department of Parks & Parkway",
    "final_address": "3219 Coliseum St",
    "address_councildis": "B",
    "status": "Pending",
    "rowid": "1197503",
    "final_x": "3675138.38357",
    "final_y": "520894.682489",
    "longitude": "-90.08852252936254",
    "latitude": "29.92647116960814",
    "geocoded_column": {
      "latitude": "29.92647116960814",
      "longitude": "-90.08852252936254"
    }
  },
  {
    "service_request": "2025-1197502",
    "request_type": "Trash/Recycling",
    "request_reason": "Request a Large Item Pick Up",
    "date_created": "2025-06-02T21:35:22.000",
    "date_modified": "2025-06-02T21:35:26.000",
    "request_status": "Pending",
    "responsible_agency": "Department of Sanitation",
    "final_address": "11425 N Easterlyn Cir",
    "address_councildis": "E",
    "status": "Assigned to Contractor",
    "contractor": "Waste Pro",
    "rowid": "1197502",
    "final_x": "3718472.88761",
    "final_y": "561024.710494",
    "longitude": "-89.95020012046852",
    "latitude": "30.0354478312785",
    "geocoded_column": {
      "latitude": "30.0354478312785",
      "longitude": "-89.95020012046852"
    }
  },
  {
    "service_request": "2025-1197501",
    "request_type": "Streetlights",
    "request_reason": "Streetlight Outage/Malfunction",
    "date_created": "2025-06-02T21:32:14.000",
    "date_modified": "2025-06-02T21:32:16.000",
    "request_status": "Pending",
    "responsible_agency": "Department of Public Works",
    "final_address": "1300 BLK Toledano St",
    "address_councildis": "B",
    "status": "Pending",
    "contractor": "Legacy Professional Services",
    "rowid": "1197501",
    "final_x": "3675042.89003",
    "final_y": "520611.834548",
    "longitude": "-90.0888336737875",
    "latitude": "29.925696281291348",
    "geocoded_column": {
      "latitude": "29.925696281291348",
      "longitude": "-90.0888336737875"
    }
  },
  {
    "service_request": "2025-1197500",
    "request_type": "Streetlights",
    "request_reason": "Streetlight Outage/Malfunction",
    "date_created": "2025-06-02T21:31:30.000",
    "date_modified": "2025-06-02T21:31:33.000",
    "request_status": "Pending",
    "responsible_agency": "Department of Public Works",
    "final_address": "1200 Thayer St",
    "address_councildis": "C",
    "status": "Pending",
    "contractor": "Legacy Professional Services",
    "rowid": "1197500",
    "final_x": "3689455.07036",
    "final_y": "527097.591679",
    "longitude": "-90.04310839199127",
    "latitude": "29.943091646110986",
    "geocoded_column": {
      "latitude": "29.943091646110986",
      "longitude": "-90.04310839199127"
    }
  },
  {
    "service_request": "2025-1197499",
    "request_type": "Property Maintenance",
    "request_reason": "Property Maintenance",
    "date_created": "2025-06-02T21:26:28.000",
    "date_modified": "2025-06-02T21:26:29.000",
    "request_status": "Pending",
    "responsible_agency": "Department of Code Enforcement",
    "final_address": "3600 White Oak Ave",
    "address_councildis": "C",
    "status": "Pending",
    "rowid": "1197499",
    "final_x": "3703608.94833",
    "final_y": "514406.507699",
    "longitude": "-89.99888807424152",
    "latitude": "29.907749754742866",
    "geocoded_column": {
      "latitude": "29.907749754742866",
      "longitude": "-89.99888807424152"
    }
  },
  {
    "service_request": "2025-1197498",
    "request_type": "Parks & Parkways",
    "request_reason": "Request Tree Service (Right of Way/Public Property)",
    "date_created": "2025-06-02T21:26:16.000",
    "date_modified": "2025-06-02T21:26:18.000",
    "request_status": "Pending",
    "responsible_agency": "Department of Parks & Parkway",
    "final_address": "1300 BLK Toledano St",
    "address_councildis": "B",
    "status": "Pending",
    "rowid": "1197498",
    "final_x": "3675042.89003",
    "final_y": "520611.834548",
    "longitude": "-90.0888336737875",
    "latitude": "29.925696281291348",
    "geocoded_column": {
      "latitude": "29.925696281291348",
      "longitude": "-90.0888336737875"
    }
  },
  {
    "service_request": "2025-1197497",
    "request_type": "Property Maintenance",
    "request_reason": "Property Maintenance",
    "date_created": "2025-06-02T21:23:54.000",
    "date_modified": "2025-06-02T21:23:56.000",
    "request_status": "Pending",
    "responsible_agency": "Department of Code Enforcement",
    "final_address": "3501 White Oak Ave",
    "address_councildis": "C",
    "status": "Pending",
    "rowid": "1197497",
    "final_x": "3703122.45732",
    "final_y": "514421.443699",
    "longitude": "-90.00042294326816",
    "latitude": "29.907806393443558",
    "geocoded_column": {
      "latitude": "29.907806393443558",
      "longitude": "-90.00042294326816"
    }
  },
  {
    "service_request": "2025-1197496",
    "request_type": "Property Maintenance",
    "request_reason": "Property Maintenance",
    "date_created": "2025-06-02T21:22:10.000",
    "date_modified": "2025-06-02T21:22:12.000",
    "request_status": "Pending",
    "responsible_agency": "Department of Code Enforcement",
    "final_address": "3661 White Oak Ave",
    "address_councildis": "C",
    "status": "Pending",
    "rowid": "1197496",
    "final_x": "3703841.54628",
    "final_y": "514109.561522",
    "longitude": "-89.99816489105514",
    "latitude": "29.906925803496318",
    "geocoded_column": {
      "latitude": "29.906925803496318",
      "longitude": "-89.99816489105514"
    }
  },
  {
    "service_request": "2025-1197495",
    "request_type": "Streetlights",
    "request_reason": "Streetlight Outage/Malfunction",
    "date_created": "2025-06-02T21:20:09.000",
    "date_modified": "2025-06-02T21:20:11.000",
    "request_status": "Pending",
    "responsible_agency": "Department of Public Works",
    "final_address": "1500 BLK Pleasant St",
    "address_councildis": "B",
    "status": "Pending",
    "contractor": "Legacy Professional Services",
    "rowid": "1197495",
    "final_x": "3674741.12194",
    "final_y": "521457.961793",
    "longitude": "-90.08975727766195",
    "latitude": "29.92803186667896",
    "geocoded_column": {
      "latitude": "29.92803186667896",
      "longitude": "-90.08975727766195"
    }
  },
  {
    "service_request": "2025-1197494",
    "request_type": "Property Maintenance",
    "request_reason": "Property Maintenance",
    "date_created": "2025-06-02T21:18:50.000",
    "date_modified": "2025-06-02T21:18:53.000",
    "request_status": "Pending",
    "responsible_agency": "Department of Code Enforcement",
    "final_address": "3501 Post Oak Ave",
    "address_councildis": "C",
    "status": "Pending",
    "rowid": "1197494",
    "final_x": "3703189.50897",
    "final_y": "514688.693043",
    "longitude": "-90.0002015076095",
    "latitude": "29.908539093264267",
    "geocoded_column": {
      "latitude": "29.908539093264267",
      "longitude": "-90.0002015076095"
    }
  },
  {
    "service_request": "2025-1197493",
    "request_type": "Trash/Recycling",
    "request_reason": "Repair Trash Cart",
    "date_created": "2025-06-02T20:57:11.000",
    "date_modified": "2025-06-02T20:57:12.000",
    "request_status": "Pending",
    "responsible_agency": "Department of Sanitation",
    "final_address": "3600 Palmyra St",
    "address_councildis": "B",
    "status": "Assigned to Contractor",
    "contractor": "IV Waste",
    "rowid": "1197493",
    "final_x": "3672052.04295",
    "final_y": "536558.964615",
    "longitude": "-90.09773205480246",
    "latitude": "29.969634632961814",
    "geocoded_column": {
      "latitude": "29.969634632961814",
      "longitude": "-90.09773205480246"
    }
  },
  {
    "service_request": "2025-1197492",
    "request_type": "Trash/Recycling",
    "request_reason": "Request a Large Item Pick Up",
    "date_created": "2025-06-02T20:55:00.000",
    "date_modified": "2025-06-02T20:55:02.000",
    "request_status": "Pending",
    "responsible_agency": "Department of Sanitation",
    "final_address": "2713 Allen St",
    "address_councildis": "D",
    "status": "Assigned to Contractor",
    "contractor": "IV Waste",
    "rowid": "1197492",
    "final_x": "3682331.23861",
    "final_y": "542150.941901",
    "longitude": "-90.0650740212092",
    "latitude": "29.98470183558248",
    "geocoded_column": {
      "latitude": "29.98470183558248",
      "longitude": "-90.0650740212092"
    }
  },
  {
    "service_request": "2025-1197491",
    "request_type": "General Services",
    "request_reason": "General Service Request",
    "date_created": "2025-06-02T20:49:27.000",
    "date_modified": "2025-06-02T20:49:29.000",
    "request_status": "Pending",
    "responsible_agency": "Orleans Parish Communication District",
    "final_address": "926 Topaz St",
    "address_councildis": "D",
    "status": "Pending",
    "rowid": "1197491",
    "final_x": "3671072.02932",
    "final_y": "556847.26601",
    "longitude": "-90.10013746122536",
    "latitude": "30.02544943450805",
    "geocoded_column": {
      "latitude": "30.02544943450805",
      "longitude": "-90.10013746122536"
    }
  },
  {
    "service_request": "2025-1197490",
    "request_type": "Streetlights",
    "request_reason": "Streetlight Outage/Malfunction",
    "date_created": "2025-06-02T20:45:54.000",
    "date_modified": "2025-06-02T20:45:58.000",
    "request_status": "Pending",
    "responsible_agency": "Department of Public Works",
    "final_address": "4306 Dumaine St",
    "address_councildis": "A",
    "status": "Pending",
    "contractor": "Legacy Professional Services",
    "rowid": "1197490",
    "final_x": "3672015.26561",
    "final_y": "541357.7243",
    "longitude": "-90.09768477393202",
    "latitude": "29.98283068395863",
    "geocoded_column": {
      "latitude": "29.98283068395863",
      "longitude": "-90.09768477393202"
    }
  },
  {
    "service_request": "2025-1197489",
    "request_type": "Trash/Recycling",
    "request_reason": "Order Second Trash Cart",
    "date_created": "2025-06-02T20:31:21.000",
    "date_modified": "2025-06-02T20:31:23.000",
    "request_status": "Pending",
    "responsible_agency": "Department of Sanitation",
    "final_address": "2444 Mithra St",
    "address_councildis": "D",
    "status": "Assigned to Contractor",
    "contractor": "IV Waste",
    "rowid": "1197489",
    "final_x": "3685601.46012",
    "final_y": "552775.655894",
    "longitude": "-90.05437026034308",
    "latitude": "30.013816041147322",
    "geocoded_column": {
      "latitude": "30.013816041147322",
      "longitude": "-90.05437026034308"
    }
  },
  {
    "service_request": "2025-1197488",
    "request_type": "Trash/Recycling",
    "request_reason": "Order Trash Cart",
    "date_created": "2025-06-02T20:05:59.000",
    "date_modified": "2025-06-02T20:06:02.000",
    "request_status": "Pending",
    "responsible_agency": "Department of Sanitation",
    "final_address": "6908 Orleans Ave",
    "address_councildis": "A",
    "status": "Assigned to Contractor",
    "contractor": "IV Waste",
    "rowid": "1197488",
    "final_x": "3671355.97147",
    "final_y": "553283.230743",
    "longitude": "-90.09936152350217",
    "latitude": "30.01564120567205",
    "geocoded_column": {
      "latitude": "30.01564120567205",
      "longitude": "-90.09936152350217"
    }
  },
  {
    "service_request": "2025-1197487",
    "request_type": "Trash/Recycling",
    "request_reason": "Request a Large Item Pick Up",
    "date_created": "2025-06-02T19:55:19.000",
    "date_modified": "2025-06-02T19:55:30.000",
    "request_status": "Pending",
    "responsible_agency": "Department of Sanitation",
    "final_address": "7601 Berg Rd",
    "address_councildis": "E",
    "status": "Assigned to Contractor",
    "contractor": "Waste Pro",
    "rowid": "1197487",
    "final_x": "3712142.36107",
    "final_y": "566511.358755",
    "longitude": "-89.96999916537659",
    "latitude": "30.050742498190353",
    "geocoded_column": {
      "latitude": "30.050742498190353",
      "longitude": "-89.96999916537659"
    }
  },
  {
    "service_request": "2025-1197486",
    "request_type": "Parks & Parkways",
    "request_reason": "Request Tree Service (Right of Way/Public Property)",
    "date_created": "2025-06-02T19:51:08.000",
    "date_modified": "2025-06-02T19:51:10.000",
    "request_status": "Pending",
    "responsible_agency": "Department of Parks & Parkway",
    "final_address": "929 Howard Ave",
    "address_councildis": "B",
    "status": "Pending",
    "rowid": "1197486",
    "final_x": "3679276.18325",
    "final_y": "527801.571583",
    "longitude": "-90.07522125306808",
    "latitude": "29.945338584507894",
    "geocoded_column": {
      "latitude": "29.945338584507894",
      "longitude": "-90.07522125306808"
    }
  },
  {
    "service_request": "2025-1197485",
    "request_type": "Trash/Recycling",
    "request_reason": "Replace Trash Cart",
    "date_created": "2025-06-02T19:46:05.000",
    "date_modified": "2025-06-02T19:46:09.000",
    "request_status": "Pending",
    "responsible_agency": "Department of Sanitation",
    "final_address": "3732 Toledano St",
    "address_councildis": "B",
    "status": "Assigned to Contractor",
    "contractor": "IV Waste",
    "rowid": "1197485",
    "final_x": "3671381.54395",
    "final_y": "529035.9232",
    "longitude": "-90.10010525802015",
    "latitude": "29.948968631901483",
    "geocoded_column": {
      "latitude": "29.948968631901483",
      "longitude": "-90.10010525802015"
    }
  },
  {
    "service_request": "2025-1197484",
    "request_type": "Roads and Streets",
    "request_reason": "Street Subsidence (Sinking)",
    "date_created": "2025-06-02T19:29:07.000",
    "date_modified": "2025-06-02T19:29:09.000",
    "request_status": "Pending",
    "responsible_agency": "Department of Public Works",
    "final_address": "6739 Bellaire Dr",
    "address_councildis": "A",
    "status": "Pending",
    "rowid": "1197484",
    "final_x": "3664666.18874",
    "final_y": "553114.753751",
    "longitude": "-90.12050391308844",
    "latitude": "30.01537434932352",
    "geocoded_column": {
      "latitude": "30.01537434932352",
      "longitude": "-90.12050391308844"
    }
  },
  {
    "service_request": "2025-1197483",
    "request_type": "Abandoned Vehicles",
    "request_reason": "Abandoned/Junk Vehicles",
    "date_created": "2025-06-02T19:07:00.000",
    "date_modified": "2025-06-02T19:07:02.000",
    "request_status": "Pending",
    "responsible_agency": "Department of Public Works",
    "final_address": "4910 Mexico St",
    "address_councildis": "D",
    "status": "Pending",
    "rowid": "1197483",
    "final_x": "3690737.6982",
    "final_y": "556461.932122",
    "longitude": "-90.03801078296839",
    "latitude": "30.02379329076201",
    "geocoded_column": {
      "latitude": "30.02379329076201",
      "longitude": "-90.03801078296839"
    }
  },
  {
    "service_request": "2025-1197482",
    "request_type": "Trash/Recycling",
    "request_reason": "Replace Trash Cart",
    "date_created": "2025-06-02T19:06:22.000",
    "date_modified": "2025-06-02T19:06:23.000",
    "request_status": "Pending",
    "responsible_agency": "Department of Sanitation",
    "final_address": "127 S Gayoso St",
    "address_councildis": "B",
    "status": "Assigned to Contractor",
    "contractor": "IV Waste",
    "rowid": "1197482",
    "final_x": "3674141.7963",
    "final_y": "535673.905223",
    "longitude": "-90.09116272192135",
    "latitude": "29.967138890909293",
    "geocoded_column": {
      "latitude": "29.967138890909293",
      "longitude": "-90.09116272192135"
    }
  },
  {
    "service_request": "2025-1197481",
    "request_type": "Trash/Recycling",
    "request_reason": "Replace Trash Cart",
    "date_created": "2025-06-02T19:03:14.000",
    "date_modified": "2025-06-02T19:03:16.000",
    "request_status": "Pending",
    "responsible_agency": "Department of Sanitation",
    "final_address": "3128 Ursulines Ave",
    "address_councildis": "A",
    "status": "Assigned to Contractor",
    "contractor": "IV Waste",
    "rowid": "1197481",
    "final_x": "3675901.56725",
    "final_y": "539414.377738",
    "longitude": "-90.08547670380095",
    "latitude": "29.977371341988764",
    "geocoded_column": {
      "latitude": "29.977371341988764",
      "longitude": "-90.08547670380095"
    }
  },
  {
    "service_request": "2025-1197480",
    "request_type": "Property Maintenance",
    "request_reason": "Property Maintenance",
    "date_created": "2025-06-02T19:03:06.000",
    "date_modified": "2025-06-02T19:03:08.000",
    "request_status": "Pending",
    "responsible_agency": "Department of Code Enforcement",
    "final_address": "6317 Debore Dr",
    "address_councildis": "D",
    "status": "Pending",
    "rowid": "1197480",
    "final_x": "3690885.27216",
    "final_y": "556740.80009",
    "longitude": "-90.03753451522314",
    "latitude": "30.024555485079574",
    "geocoded_column": {
      "latitude": "30.024555485079574",
      "longitude": "-90.03753451522314"
    }
  },
  {
    "service_request": "2025-1197479",
    "request_type": "Trash/Recycling",
    "request_reason": "Missed Trash Pick-Up",
    "date_created": "2025-06-02T18:56:47.000",
    "date_modified": "2025-06-02T18:56:50.000",
    "request_status": "Pending",
    "responsible_agency": "Department of Sanitation",
    "final_address": "4733 Patterson St",
    "address_councildis": "C",
    "status": "Assigned to Contractor",
    "contractor": "Richards Disposal",
    "rowid": "1197479",
    "final_x": "3701585.47261",
    "final_y": "524809.38758",
    "longitude": "-90.00489373244972",
    "latitude": "29.93641873785952",
    "geocoded_column": {
      "latitude": "29.93641873785952",
      "longitude": "-90.00489373244972"
    }
  },
  {
    "service_request": "2025-1197478",
    "request_type": "Abandoned Vehicles",
    "request_reason": "Abandoned/Junk Vehicles",
    "date_created": "2025-06-02T18:52:48.000",
    "date_modified": "2025-06-02T18:52:49.000",
    "request_status": "Pending",
    "responsible_agency": "Department of Public Works",
    "final_address": "831 Desire St",
    "address_councildis": "C",
    "status": "Pending",
    "rowid": "1197478",
    "final_x": "3689990.61225",
    "final_y": "534804.109318",
    "longitude": "-90.04114316915458",
    "latitude": "29.964265314403786",
    "geocoded_column": {
      "latitude": "29.964265314403786",
      "longitude": "-90.04114316915458"
    }
  },
  {
    "service_request": "2025-1197477",
    "request_type": "Roads and Streets",
    "request_reason": "Pothole",
    "date_created": "2025-06-02T18:50:25.000",
    "date_modified": "2025-06-02T18:50:26.000",
    "request_status": "Pending",
    "responsible_agency": "Department of Public Works",
    "final_address": "PERDIDO ST & S RAMPART ST",
    "address_councildis": "B",
    "status": "Pending",
    "rowid": "1197477",
    "final_x": "3679446.1",
    "final_y": "530137.98",
    "longitude": "-90.07460373628203",
    "latitude": "29.951757794575734",
    "geocoded_column": {
      "latitude": "29.951757794575734",
      "longitude": "-90.07460373628203"
    }
  },
  {
    "service_request": "2025-1197476",
    "request_type": "Trash/Recycling",
    "request_reason": "Illegal Dumping",
    "date_created": "2025-06-02T18:49:33.000",
    "date_modified": "2025-06-02T18:49:35.000",
    "request_status": "Pending",
    "responsible_agency": "Department of Sanitation",
    "final_address": "12441 Morrison Rd",
    "address_councildis": "E",
    "status": "Pending",
    "rowid": "1197476",
    "final_x": "3715033.6757",
    "final_y": "567960.433189",
    "longitude": "-89.96080595577186",
    "latitude": "30.05463195240162",
    "geocoded_column": {
      "latitude": "30.05463195240162",
      "longitude": "-89.96080595577186"
    }
  },
  {
    "service_request": "2025-1197475",
    "request_type": "Trash/Recycling",
    "request_reason": "Request a Large Item Pick Up",
    "date_created": "2025-06-02T18:26:57.000",
    "date_modified": "2025-06-02T18:26:59.000",
    "request_status": "Pending",
    "responsible_agency": "Department of Sanitation",
    "final_address": "403 Park Blvd",
    "address_councildis": "C",
    "status": "Assigned to Contractor",
    "contractor": "Richards Disposal",
    "rowid": "1197475",
    "final_x": "3686808.57302",
    "final_y": "525752.162493",
    "longitude": "-90.0515115392569",
    "latitude": "29.939473844907887",
    "geocoded_column": {
      "latitude": "29.939473844907887",
      "longitude": "-90.0515115392569"
    }
  },
  {
    "service_request": "2025-1197474",
    "request_type": "Streetlights",
    "request_reason": "Streetlight Outage/Malfunction",
    "date_created": "2025-06-02T18:22:29.000",
    "date_modified": "2025-06-02T18:22:31.000",
    "request_status": "Pending",
    "responsible_agency": "Department of Public Works",
    "final_address": "1524 N Dupre St",
    "address_councildis": "A",
    "status": "Pending",
    "contractor": "Legacy Professional Services",
    "rowid": "1197474",
    "final_x": "3677357.47989",
    "final_y": "540132.680779",
    "longitude": "-90.08085364769552",
    "latitude": "29.979302750757483",
    "geocoded_column": {
      "latitude": "29.979302750757483",
      "longitude": "-90.08085364769552"
    }
  },
  {
    "service_request": "2025-1197473",
    "request_type": "Trash/Recycling",
    "request_reason": "Request a Large Item Pick Up",
    "date_created": "2025-06-02T18:20:28.000",
    "date_modified": "2025-06-02T18:20:30.000",
    "request_status": "Pending",
    "responsible_agency": "Department of Sanitation",
    "final_address": "7430 Camberley Dr",
    "address_councildis": "E",
    "status": "Assigned to Contractor",
    "contractor": "Waste Pro",
    "rowid": "1197473",
    "final_x": "3712692.96523",
    "final_y": "565553.582626",
    "longitude": "-89.96829497604182",
    "latitude": "30.04809097801865",
    "geocoded_column": {
      "latitude": "30.04809097801865",
      "longitude": "-89.96829497604182"
    }
  },
  {
    "service_request": "2025-1197472",
    "request_type": "Roads and Streets",
    "request_reason": "Pothole",
    "date_created": "2025-06-02T18:15:16.000",
    "date_modified": "2025-06-02T18:15:18.000",
    "request_status": "Pending",
    "responsible_agency": "Department of Public Works",
    "final_address": "1524 N Dupre St",
    "address_councildis": "A",
    "status": "Pending",
    "rowid": "1197472",
    "final_x": "3677357.47989",
    "final_y": "540132.680779",
    "longitude": "-90.08085364769552",
    "latitude": "29.979302750757483",
    "geocoded_column": {
      "latitude": "29.979302750757483",
      "longitude": "-90.08085364769552"
    }
  },
  {
    "service_request": "2025-1197471",
    "request_type": "Trash/Recycling",
    "request_reason": "Repair Trash Cart",
    "date_created": "2025-06-02T18:04:14.000",
    "date_modified": "2025-06-02T18:04:16.000",
    "request_status": "Pending",
    "responsible_agency": "Department of Sanitation",
    "final_address": "1555 Senate St",
    "address_councildis": "D",
    "status": "Assigned to Contractor",
    "contractor": "IV Waste",
    "rowid": "1197471",
    "final_x": "3679217.17909",
    "final_y": "547423.509009",
    "longitude": "-90.07472705130208",
    "latitude": "29.99929394680217",
    "geocoded_column": {
      "latitude": "29.99929394680217",
      "longitude": "-90.07472705130208"
    }
  },
  {
    "service_request": "2025-1197470",
    "request_type": "Trash/Recycling",
    "request_reason": "Request a Large Item Pick Up",
    "date_created": "2025-06-02T18:03:30.000",
    "date_modified": "2025-06-02T18:03:32.000",
    "request_status": "Pending",
    "responsible_agency": "Department of Sanitation",
    "final_address": "5730 Rosemary Pl",
    "address_councildis": "A",
    "status": "Assigned to Contractor",
    "contractor": "IV Waste",
    "rowid": "1197470",
    "final_x": "3667274.85076",
    "final_y": "545747.546832",
    "longitude": "-90.11250972497538",
    "latitude": "29.995040909849457",
    "geocoded_column": {
      "latitude": "29.995040909849457",
      "longitude": "-90.11250972497538"
    }
  },
  {
    "service_request": "2025-1197469",
    "request_type": "Trash/Recycling",
    "request_reason": "Replace Trash Cart",
    "date_created": "2025-06-02T17:53:23.000",
    "date_modified": "2025-06-02T17:53:26.000",
    "request_status": "Pending",
    "responsible_agency": "Department of Sanitation",
    "final_address": "1553 Senate St",
    "address_councildis": "D",
    "status": "Assigned to Contractor",
    "contractor": "IV Waste",
    "rowid": "1197469",
    "final_x": "3679217.17909",
    "final_y": "547423.509009",
    "longitude": "-90.07472705130208",
    "latitude": "29.99929394680217",
    "geocoded_column": {
      "latitude": "29.99929394680217",
      "longitude": "-90.07472705130208"
    }
  },
  {
    "service_request": "2025-1197468",
    "request_type": "Streetlights",
    "request_reason": "New Streetlight Request",
    "date_created": "2025-06-02T17:23:49.000",
    "date_modified": "2025-06-02T17:23:51.000",
    "request_status": "Pending",
    "responsible_agency": "Department of Public Works",
    "final_address": "2842 Mercedes Blvd",
    "address_councildis": "C",
    "status": "Pending",
    "contractor": "Legacy Professional Services",
    "rowid": "1197468",
    "final_x": "3698057.67907",
    "final_y": "520722.881273",
    "longitude": "-90.01617934098225",
    "latitude": "29.925294240685155",
    "geocoded_column": {
      "latitude": "29.925294240685155",
      "longitude": "-90.01617934098225"
    }
  },
  {
    "service_request": "2025-1197467",
    "request_type": "Trash/Recycling",
    "request_reason": "Request a Large Item Pick Up",
    "date_created": "2025-06-02T17:20:40.000",
    "date_modified": "2025-06-02T17:20:44.000",
    "request_status": "Pending",
    "responsible_agency": "Department of Sanitation",
    "final_address": "32 Marywood Ct",
    "address_councildis": "E",
    "status": "Assigned to Contractor",
    "contractor": "Waste Pro",
    "rowid": "1197467",
    "final_x": "3712386.95301",
    "final_y": "566925.27274",
    "longitude": "-89.96921052782896",
    "latitude": "30.051872589223922",
    "geocoded_column": {
      "latitude": "30.051872589223922",
      "longitude": "-89.96921052782896"
    }
  },
  {
    "service_request": "2025-1197466",
    "request_type": "Trash/Recycling",
    "request_reason": "Request a Large Item Pick Up",
    "date_created": "2025-06-02T17:17:06.000",
    "date_modified": "2025-06-02T17:17:09.000",
    "request_status": "Pending",
    "responsible_agency": "Department of Sanitation",
    "final_address": "1721 Valence St",
    "address_councildis": "B",
    "status": "Assigned to Contractor",
    "contractor": "IV Waste",
    "rowid": "1197466",
    "final_x": "3669739.31905",
    "final_y": "521312.809081",
    "longitude": "-90.1055517792907",
    "latitude": "29.927781059805483",
    "geocoded_column": {
      "latitude": "29.927781059805483",
      "longitude": "-90.1055517792907"
    }
  },
  {
    "service_request": "2025-1197465",
    "request_type": "Drainage",
    "request_reason": "Catch Basin Clogged",
    "date_created": "2025-06-02T17:14:48.000",
    "date_modified": "2025-06-02T17:14:51.000",
    "request_status": "Pending",
    "responsible_agency": "Sewerage & Water Board",
    "final_address": "1705 Tupelo St",
    "address_councildis": "E",
    "status": "Pending",
    "rowid": "1197465",
    "final_x": "3700399.45002",
    "final_y": "535466.055942",
    "longitude": "-90.00824896158304",
    "latitude": "29.965758562683696",
    "geocoded_column": {
      "latitude": "29.965758562683696",
      "longitude": "-90.00824896158304"
    }
  },
  {
    "service_request": "2025-1197464",
    "request_type": "Parks & Parkways",
    "request_reason": "Request Tree Service (Right of Way/Public Property)",
    "date_created": "2025-06-02T17:07:24.000",
    "date_modified": "2025-06-02T17:07:35.000",
    "request_status": "Pending",
    "responsible_agency": "Department of Parks & Parkway",
    "final_address": "1308 Broadway St",
    "address_councildis": "A",
    "status": "Pending",
    "rowid": "1197464",
    "final_x": "3664364.94036",
    "final_y": "526902.923838",
    "longitude": "-90.12233099248506",
    "latitude": "29.943309351750788",
    "geocoded_column": {
      "latitude": "29.943309351750788",
      "longitude": "-90.12233099248506"
    }
  },
  {
    "service_request": "2025-1197463",
    "request_type": "Trash/Recycling",
    "request_reason": "Request a Large Item Pick Up",
    "date_created": "2025-06-02T17:06:16.000",
    "date_modified": "2025-06-02T17:06:18.000",
    "request_status": "Pending",
    "responsible_agency": "Department of Sanitation",
    "final_address": "5443 Douglass St",
    "address_councildis": "E",
    "status": "Assigned to Contractor",
    "contractor": "Waste Pro",
    "rowid": "1197463",
    "final_x": "3696896.53475",
    "final_y": "531794.170179",
    "longitude": "-90.01944394668868",
    "latitude": "29.955773097806762",
    "geocoded_column": {
      "latitude": "29.955773097806762",
      "longitude": "-90.01944394668868"
    }
  },
  {
    "service_request": "2025-1197462",
    "request_type": "Drainage",
    "request_reason": "Catch Basin Clogged",
    "date_created": "2025-06-02T17:03:58.000",
    "date_modified": "2025-06-02T17:04:00.000",
    "request_status": "Pending",
    "responsible_agency": "Sewerage & Water Board",
    "final_address": "5701 St Claude Ave",
    "address_councildis": "E",
    "status": "Pending",
    "rowid": "1197462",
    "final_x": "3698446.03748",
    "final_y": "533815.449797",
    "longitude": "-90.01447772870067",
    "latitude": "29.961281954189833",
    "geocoded_column": {
      "latitude": "29.961281954189833",
      "longitude": "-90.01447772870067"
    }
  },
  {
    "service_request": "2025-1197461",
    "request_type": "Trash/Recycling",
    "request_reason": "Request a Large Item Pick Up",
    "date_created": "2025-06-02T16:59:10.000",
    "date_modified": "2025-06-02T16:59:11.000",
    "request_status": "Pending",
    "responsible_agency": "Department of Sanitation",
    "final_address": "1608 S Norman C Francis Prkwy",
    "address_councildis": "B",
    "status": "Assigned to Contractor",
    "contractor": "IV Waste",
    "rowid": "1197461",
    "final_x": "3669525.36366",
    "final_y": "531169.341826",
    "longitude": "-90.10589388221253",
    "latitude": "29.954889634395727",
    "geocoded_column": {
      "latitude": "29.954889634395727",
      "longitude": "-90.10589388221253"
    }
  },
  {
    "service_request": "2025-1197460",
    "request_type": "Drainage",
    "request_reason": "Catch Basin Clogged",
    "date_created": "2025-06-02T16:58:18.000",
    "date_modified": "2025-06-02T16:58:20.000",
    "request_status": "Pending",
    "responsible_agency": "Sewerage & Water Board",
    "final_address": "1704 Lesseps St",
    "address_councildis": "D",
    "status": "Pending",
    "rowid": "1197460",
    "final_x": "3693190.22326",
    "final_y": "537384.936968",
    "longitude": "-90.03094647046638",
    "latitude": "29.971262074450753",
    "geocoded_column": {
      "latitude": "29.971262074450753",
      "longitude": "-90.03094647046638"
    }
  },
  {
    "service_request": "2025-1197459",
    "request_type": "Trash/Recycling",
    "request_reason": "Request a Large Item Pick Up",
    "date_created": "2025-06-02T16:57:17.000",
    "date_modified": "2025-06-02T16:57:18.000",
    "request_status": "Pending",
    "responsible_agency": "Department of Sanitation",
    "final_address": "7525 Shorewood Blvd",
    "address_councildis": "E",
    "status": "Assigned to Contractor",
    "contractor": "Waste Pro",
    "rowid": "1197459",
    "final_x": "3720381.18796",
    "final_y": "572545.709865",
    "longitude": "-89.94372810697084",
    "latitude": "30.067062336422953",
    "geocoded_column": {
      "latitude": "30.067062336422953",
      "longitude": "-89.94372810697084"
    }
  },
  {
    "service_request": "2025-1197458",
    "request_type": "Trash/Recycling",
    "request_reason": "Request a Large Item Pick Up",
    "date_created": "2025-06-02T16:56:56.000",
    "date_modified": "2025-06-02T16:56:57.000",
    "request_status": "Pending",
    "responsible_agency": "Department of Sanitation",
    "final_address": "11140 Woodvine Ln",
    "address_councildis": "E",
    "status": "Assigned to Contractor",
    "contractor": "Waste Pro",
    "rowid": "1197458",
    "final_x": "3716218.03666",
    "final_y": "559596.455645",
    "longitude": "-89.9573799524483",
    "latitude": "30.03159535108372",
    "geocoded_column": {
      "latitude": "30.03159535108372",
      "longitude": "-89.9573799524483"
    }
  },
  {
    "service_request": "2025-1197457",
    "request_type": "Roads and Streets",
    "request_reason": "Curb Damage",
    "date_created": "2025-06-02T16:56:43.000",
    "date_modified": "2025-06-02T16:56:44.000",
    "request_status": "Pending",
    "responsible_agency": "Department of Public Works",
    "final_address": "9524 Palmetto St",
    "address_councildis": "A",
    "status": "Pending",
    "rowid": "1197457",
    "final_x": "3664297.47252",
    "final_y": "538557.624073",
    "longitude": "-90.12215505525288",
    "latitude": "29.975357932513564",
    "geocoded_column": {
      "latitude": "29.975357932513564",
      "longitude": "-90.12215505525288"
    }
  },
  {
    "service_request": "2025-1197456",
    "request_type": "Trash/Recycling",
    "request_reason": "Request a Large Item Pick Up",
    "date_created": "2025-06-02T16:54:54.000",
    "date_modified": "2025-06-02T16:54:55.000",
    "request_status": "Pending",
    "responsible_agency": "Department of Sanitation",
    "final_address": "7566 Lehigh St",
    "address_councildis": "E",
    "status": "Assigned to Contractor",
    "contractor": "Waste Pro",
    "rowid": "1197456",
    "final_x": "3710664.75582",
    "final_y": "565405.84861",
    "longitude": "-89.97471075160608",
    "latitude": "30.047751049365516",
    "geocoded_column": {
      "latitude": "30.047751049365516",
      "longitude": "-89.97471075160608"
    }
  },
  {
    "service_request": "2025-1197455",
    "request_type": "Parks & Parkways",
    "request_reason": "Request Tree Service (Right of Way/Public Property)",
    "date_created": "2025-06-02T16:54:50.000",
    "date_modified": "2025-06-02T16:54:51.000",
    "request_status": "Pending",
    "responsible_agency": "Department of Parks & Parkway",
    "final_address": "1300 Hendee St",
    "address_councildis": "C",
    "status": "Pending",
    "rowid": "1197455",
    "final_x": "3690796.31606",
    "final_y": "526611.510398",
    "longitude": "-90.03889109951281",
    "latitude": "29.941713493797145",
    "geocoded_column": {
      "latitude": "29.941713493797145",
      "longitude": "-90.03889109951281"
    }
  },
  {
    "service_request": "2025-1197454",
    "request_type": "Trash/Recycling",
    "request_reason": "Request a Large Item Pick Up",
    "date_created": "2025-06-02T16:52:48.000",
    "date_modified": "2025-06-02T16:52:50.000",
    "request_status": "Pending",
    "responsible_agency": "Department of Sanitation",
    "final_address": "1220 Adams St",
    "address_councildis": "A",
    "status": "Assigned to Contractor",
    "contractor": "IV Waste",
    "rowid": "1197454",
    "final_x": "3663155.98503",
    "final_y": "527546.955903",
    "longitude": "-90.12612656737066",
    "latitude": "29.945115311316627",
    "geocoded_column": {
      "latitude": "29.945115311316627",
      "longitude": "-90.12612656737066"
    }
  },
  {
    "service_request": "2025-1197453",
    "request_type": "Trash/Recycling",
    "request_reason": "Request a Large Item Pick Up",
    "date_created": "2025-06-02T16:47:27.000",
    "date_modified": "2025-06-02T16:47:28.000",
    "request_status": "Pending",
    "responsible_agency": "Department of Sanitation",
    "final_address": "410 S Telemachus St",
    "address_councildis": "B",
    "status": "Assigned to Contractor",
    "contractor": "IV Waste",
    "rowid": "1197453",
    "final_x": "3671532.20539",
    "final_y": "536277.786567",
    "longitude": "-90.09938331366833",
    "latitude": "29.96887689110327",
    "geocoded_column": {
      "latitude": "29.96887689110327",
      "longitude": "-90.09938331366833"
    }
  },
  {
    "service_request": "2025-1197452",
    "request_type": "Street and Traffic Signs",
    "request_reason": "Stop Sign Missing or Damaged",
    "date_created": "2025-06-02T16:46:33.000",
    "date_modified": "2025-06-02T16:46:36.000",
    "request_status": "Pending",
    "responsible_agency": "Department of Public Works",
    "final_address": "1700 BLK Saint Roch Ave",
    "address_councildis": "D",
    "status": "Pending",
    "rowid": "1197452",
    "final_x": "3686261.9506",
    "final_y": "538814.549455",
    "longitude": "-90.05277641307016",
    "latitude": "29.97540771976965",
    "geocoded_column": {
      "latitude": "29.97540771976965",
      "longitude": "-90.05277641307016"
    }
  },
  {
    "service_request": "2025-1197451",
    "request_type": "Trash/Recycling",
    "request_reason": "Request a Large Item Pick Up",
    "date_created": "2025-06-02T16:41:32.000",
    "date_modified": "2025-06-02T16:41:34.000",
    "request_status": "Pending",
    "responsible_agency": "Department of Sanitation",
    "final_address": "4710 Coronado Dr",
    "address_councildis": "E",
    "status": "Assigned to Contractor",
    "contractor": "Waste Pro",
    "rowid": "1197451",
    "final_x": "3714076.47493",
    "final_y": "556287.308954",
    "longitude": "-89.96427226083689",
    "latitude": "30.022567048205087",
    "geocoded_column": {
      "latitude": "30.022567048205087",
      "longitude": "-89.96427226083689"
    }
  },
  {
    "service_request": "2025-1197450",
    "request_type": "Trash/Recycling",
    "request_reason": "Order Second Trash Cart",
    "date_created": "2025-06-02T16:37:15.000",
    "date_modified": "2025-06-02T16:37:18.000",
    "request_status": "Pending",
    "responsible_agency": "Department of Sanitation",
    "final_address": "1507 Spain St",
    "address_councildis": "C",
    "status": "Assigned to Contractor",
    "contractor": "IV Waste",
    "rowid": "1197450",
    "final_x": "3686046.17039",
    "final_y": "537943.074505",
    "longitude": "-90.05348864617203",
    "latitude": "29.973018097884374",
    "geocoded_column": {
      "latitude": "29.973018097884374",
      "longitude": "-90.05348864617203"
    }
  },
  {
    "service_request": "2025-1197449",
    "request_type": "Trash/Recycling",
    "request_reason": "Request a Large Item Pick Up",
    "date_created": "2025-06-02T16:35:22.000",
    "date_modified": "2025-06-02T16:35:24.000",
    "request_status": "Pending",
    "responsible_agency": "Department of Sanitation",
    "final_address": "1964 Hendee St",
    "address_councildis": "C",
    "status": "Assigned to Contractor",
    "contractor": "Richards Disposal",
    "rowid": "1197449",
    "final_x": "3690650.06633",
    "final_y": "523596.367547",
    "longitude": "-90.03946033044735",
    "latitude": "29.933427418472206",
    "geocoded_column": {
      "latitude": "29.933427418472206",
      "longitude": "-90.03946033044735"
    }
  },
  {
    "service_request": "2025-1197448",
    "request_type": "Trash/Recycling",
    "request_reason": "Repair Trash Cart",
    "date_created": "2025-06-02T16:35:19.000",
    "date_modified": "2025-06-02T16:35:21.000",
    "request_status": "Pending",
    "responsible_agency": "Department of Sanitation",
    "final_address": "1116 N Miro St",
    "address_councildis": "D",
    "status": "Assigned to Contractor",
    "contractor": "IV Waste",
    "rowid": "1197448",
    "final_x": "3679125.16207",
    "final_y": "537220.00564",
    "longitude": "-90.075371607226",
    "latitude": "29.97124065145865",
    "geocoded_column": {
      "latitude": "29.97124065145865",
      "longitude": "-90.075371607226"
    }
  },
  {
    "service_request": "2025-1197447",
    "request_type": "Trash/Recycling",
    "request_reason": "Request a Large Item Pick Up",
    "date_created": "2025-06-02T16:26:58.000",
    "date_modified": "2025-06-02T16:27:00.000",
    "request_status": "Pending",
    "responsible_agency": "Department of Sanitation",
    "final_address": "10940 Roger Dr",
    "address_councildis": "E",
    "status": "Assigned to Contractor",
    "contractor": "Waste Pro",
    "rowid": "1197447",
    "final_x": "3712138.98622",
    "final_y": "563385.519136",
    "longitude": "-89.97012737042596",
    "latitude": "30.042147812759573",
    "geocoded_column": {
      "latitude": "30.042147812759573",
      "longitude": "-89.97012737042596"
    }
  },
  {
    "service_request": "2025-1197446",
    "request_type": "Graffiti Removal",
    "request_reason": "Graffiti Removal",
    "date_created": "2025-06-02T16:26:50.000",
    "date_modified": "2025-06-02T16:26:51.000",
    "request_status": "Pending",
    "responsible_agency": "Department of Code Enforcement",
    "final_address": "2345 St Claude Ave",
    "address_councildis": "C",
    "status": "Pending",
    "rowid": "1197446",
    "final_x": "3686168.65353",
    "final_y": "536510.655175",
    "longitude": "-90.05315236383208",
    "latitude": "29.969075682448935",
    "geocoded_column": {
      "latitude": "29.969075682448935",
      "longitude": "-90.05315236383208"
    }
  },
  {
    "service_request": "2025-1197445",
    "request_type": "Streetlights",
    "request_reason": "Streetlight Outage/Malfunction",
    "date_created": "2025-06-02T16:26:06.000",
    "date_modified": "2025-06-02T16:26:08.000",
    "request_status": "Pending",
    "responsible_agency": "Department of Public Works",
    "final_address": "7001 Bundy Rd",
    "address_councildis": "E",
    "status": "Pending",
    "contractor": "Legacy Professional Services",
    "rowid": "1197445",
    "final_x": "3707172.18622",
    "final_y": "561290.770526",
    "longitude": "-89.985902077464",
    "latitude": "30.036549623983145",
    "geocoded_column": {
      "latitude": "30.036549623983145",
      "longitude": "-89.985902077464"
    }
  },
  {
    "service_request": "2025-1197444",
    "request_type": "Graffiti Removal",
    "request_reason": "Graffiti Removal",
    "date_created": "2025-06-02T16:26:03.000",
    "date_modified": "2025-06-02T16:26:06.000",
    "request_status": "Pending",
    "responsible_agency": "Department of Code Enforcement",
    "final_address": "2337 St Claude Ave",
    "address_councildis": "C",
    "status": "Pending",
    "rowid": "1197444",
    "final_x": "3686086.57033",
    "final_y": "536499.694663",
    "longitude": "-90.05341197439402",
    "latitude": "29.969048066223202",
    "geocoded_column": {
      "latitude": "29.969048066223202",
      "longitude": "-90.05341197439402"
    }
  },
  {
    "service_request": "2025-1197443",
    "request_type": "Trash/Recycling",
    "request_reason": "Request a Large Item Pick Up",
    "date_created": "2025-06-02T16:24:44.000",
    "date_modified": "2025-06-02T16:24:47.000",
    "request_status": "Pending",
    "responsible_agency": "Department of Sanitation",
    "final_address": "11020 Roger Dr Apt A",
    "address_councildis": "E",
    "status": "Assigned to Contractor",
    "contractor": "Waste Pro",
    "rowid": "1197443",
    "final_x": "3712311.19576",
    "final_y": "563473.6168",
    "longitude": "-89.96957981411714",
    "latitude": "30.042384411417178",
    "geocoded_column": {
      "latitude": "30.042384411417178",
      "longitude": "-89.96957981411714"
    }
  },
  {
    "service_request": "2025-1197442",
    "request_type": "Street and Traffic Signs",
    "request_reason": "Traffic or Parking Sign Damaged or Missing",
    "date_created": "2025-06-02T16:24:37.000",
    "date_modified": "2025-06-02T16:24:39.000",
    "request_status": "Pending",
    "responsible_agency": "Department of Public Works",
    "final_address": "616 N Rampart St",
    "address_councildis": "C",
    "status": "Pending",
    "rowid": "1197442",
    "final_x": "3681282.83106",
    "final_y": "533131.966788",
    "longitude": "-90.06869988534581",
    "latitude": "29.95993463577507",
    "geocoded_column": {
      "latitude": "29.95993463577507",
      "longitude": "-90.06869988534581"
    }
  },
  {
    "service_request": "2025-1197441",
    "request_type": "Trash/Recycling",
    "request_reason": "Request a Large Item Pick Up",
    "date_created": "2025-06-02T16:23:46.000",
    "date_modified": "2025-06-02T16:23:48.000",
    "request_status": "Pending",
    "responsible_agency": "Department of Sanitation",
    "final_address": "1832 Governor Nicholls St",
    "address_councildis": "D",
    "status": "Assigned to Contractor",
    "contractor": "IV Waste",
    "rowid": "1197441",
    "final_x": "3680342.0013",
    "final_y": "536428.860359",
    "longitude": "-90.0715561756207",
    "latitude": "29.969028484953554",
    "geocoded_column": {
      "latitude": "29.969028484953554",
      "longitude": "-90.0715561756207"
    }
  },
  {
    "service_request": "2025-1197440",
    "request_type": "Trash/Recycling",
    "request_reason": "Request a Large Item Pick Up",
    "date_created": "2025-06-02T16:21:48.000",
    "date_modified": "2025-06-02T16:21:51.000",
    "request_status": "Pending",
    "responsible_agency": "Department of Sanitation",
    "final_address": "11040 Roger Dr Apt A",
    "address_councildis": "E",
    "status": "Assigned to Contractor",
    "contractor": "Waste Pro",
    "rowid": "1197440",
    "final_x": "3712420.08466",
    "final_y": "563553.061216",
    "longitude": "-89.96923269717058",
    "latitude": "30.04259928770898",
    "geocoded_column": {
      "latitude": "30.04259928770898",
      "longitude": "-89.96923269717058"
    }
  },
  {
    "service_request": "2025-1197439",
    "request_type": "Graffiti Removal",
    "request_reason": "Graffiti Removal",
    "date_created": "2025-06-02T16:21:08.000",
    "date_modified": "2025-06-02T16:21:09.000",
    "request_status": "Pending",
    "responsible_agency": "Department of Code Enforcement",
    "final_address": "2650 Canal St",
    "address_councildis": "B",
    "status": "Pending",
    "rowid": "1197439",
    "final_x": "3675384.02734",
    "final_y": "534913.722694",
    "longitude": "-90.08726584790539",
    "latitude": "29.96501155880365",
    "geocoded_column": {
      "latitude": "29.96501155880365",
      "longitude": "-90.08726584790539"
    }
  },
  {
    "service_request": "2025-1197438",
    "request_type": "Drainage",
    "request_reason": "Catch Basin Damaged",
    "date_created": "2025-06-02T16:20:26.000",
    "date_modified": "2025-06-02T16:20:27.000",
    "request_status": "Pending",
    "responsible_agency": "Sewerage & Water Board",
    "final_address": "6104 N Galvez St",
    "address_councildis": "E",
    "status": "Pending",
    "rowid": "1197438",
    "final_x": "3701000.47172",
    "final_y": "536769.990472",
    "longitude": "-90.00630328011266",
    "latitude": "29.969324787744803",
    "geocoded_column": {
      "latitude": "29.969324787744803",
      "longitude": "-90.00630328011266"
    }
  },
  {
    "service_request": "2025-1197437",
    "request_type": "Roads and Streets",
    "request_reason": "Street Subsidence (Sinking)",
    "date_created": "2025-06-02T16:19:06.000",
    "date_modified": "2025-06-02T16:19:07.000",
    "request_status": "Pending",
    "responsible_agency": "Department of Public Works",
    "final_address": "5400 BLK Saint Claude Ave",
    "address_councildis": "E",
    "status": "Pending",
    "rowid": "1197437",
    "final_x": "3697622.21988",
    "final_y": "533859.864483",
    "longitude": "-90.01707757290187",
    "latitude": "29.96143012557386",
    "geocoded_column": {
      "latitude": "29.96143012557386",
      "longitude": "-90.01707757290187"
    }
  },
  {
    "service_request": "2025-1197436",
    "request_type": "Abandoned Vehicles",
    "request_reason": "Abandoned/Junk Vehicles",
    "date_created": "2025-06-02T16:18:53.000",
    "date_modified": "2025-06-02T16:18:55.000",
    "request_status": "Pending",
    "responsible_agency": "Department of Public Works",
    "final_address": "1925 Urquhart St",
    "address_councildis": "C",
    "status": "Pending",
    "rowid": "1197436",
    "final_x": "3684029.33961",
    "final_y": "536991.468808",
    "longitude": "-90.05989158088961",
    "latitude": "29.970463300169826",
    "geocoded_column": {
      "latitude": "29.970463300169826",
      "longitude": "-90.05989158088961"
    }
  },
  {
    "service_request": "2025-1197435",
    "request_type": "Abandoned Vehicles",
    "request_reason": "Abandoned/Junk Vehicles",
    "date_created": "2025-06-02T16:18:01.000",
    "date_modified": "2025-06-02T16:18:05.000",
    "request_status": "Pending",
    "responsible_agency": "Department of Public Works",
    "final_address": "2841 Chestnut St",
    "address_councildis": "B",
    "status": "Pending",
    "rowid": "1197435",
    "final_x": "3676325.50881",
    "final_y": "521271.979129",
    "longitude": "-90.08476212396538",
    "latitude": "29.92747309818333",
    "geocoded_column": {
      "latitude": "29.92747309818333",
      "longitude": "-90.08476212396538"
    }
  },
  {
    "service_request": "2025-1197434",
    "request_type": "Trash/Recycling",
    "request_reason": "Request a Large Item Pick Up",
    "date_created": "2025-06-02T16:17:46.000",
    "date_modified": "2025-06-02T16:17:48.000",
    "request_status": "Pending",
    "responsible_agency": "Department of Sanitation",
    "final_address": "7815 Means Ave",
    "address_councildis": "E",
    "status": "Assigned to Contractor",
    "contractor": "Waste Pro",
    "rowid": "1197434",
    "final_x": "3707797.6963",
    "final_y": "565314.973602",
    "longitude": "-89.98377557151363",
    "latitude": "30.047594340190887",
    "geocoded_column": {
      "latitude": "30.047594340190887",
      "longitude": "-89.98377557151363"
    }
  },
  {
    "service_request": "2025-1197433",
    "request_type": "Trash/Recycling",
    "request_reason": "Request a Large Item Pick Up",
    "date_created": "2025-06-02T16:17:15.000",
    "date_modified": "2025-06-02T16:17:19.000",
    "request_status": "Pending",
    "responsible_agency": "Department of Sanitation",
    "final_address": "612 Wagner St",
    "address_councildis": "C",
    "status": "Assigned to Contractor",
    "contractor": "Richards Disposal",
    "rowid": "1197433",
    "final_x": "3690608.96656",
    "final_y": "529247.947457",
    "longitude": "-90.03938860163355",
    "latitude": "29.948968609800293",
    "geocoded_column": {
      "latitude": "29.948968609800293",
      "longitude": "-90.03938860163355"
    }
  },
  {
    "service_request": "2025-1197432",
    "request_type": "Trash/Recycling",
    "request_reason": "Request a Large Item Pick Up",
    "date_created": "2025-06-02T16:15:37.000",
    "date_modified": "2025-06-02T16:15:39.000",
    "request_status": "Pending",
    "responsible_agency": "Department of Sanitation",
    "final_address": "1001 Poland Ave A",
    "address_councildis": "C",
    "status": "Assigned to Contractor",
    "contractor": "IV Waste",
    "rowid": "1197432",
    "final_x": "3692995.2696",
    "final_y": "534574.671109",
    "longitude": "-90.03166298048473",
    "latitude": "29.96354092814744",
    "geocoded_column": {
      "latitude": "29.96354092814744",
      "longitude": "-90.03166298048473"
    }
  },
  {
    "service_request": "2025-1197431",
    "request_type": "Property Maintenance",
    "request_reason": "Property Maintenance",
    "date_created": "2025-06-02T16:15:36.000",
    "date_modified": "2025-06-02T16:16:47.000",
    "request_status": "Pending",
    "responsible_agency": "Department of Code Enforcement",
    "final_address": "1119 Shirley Dr",
    "address_councildis": "C",
    "status": "Pending",
    "rowid": "1197431",
    "final_x": "3693040.00822",
    "final_y": "527010.50931",
    "longitude": "-90.03179302715816",
    "latitude": "29.942740717930505",
    "geocoded_column": {
      "latitude": "29.942740717930505",
      "longitude": "-90.03179302715816"
    }
  },
  {
    "service_request": "2025-1197430",
    "request_type": "Property Maintenance",
    "request_reason": "Property Maintenance",
    "date_created": "2025-06-02T16:15:01.000",
    "date_modified": "2025-06-02T16:27:24.000",
    "request_status": "Pending",
    "responsible_agency": "Department of Code Enforcement",
    "final_address": "7534 Burthe St",
    "address_councildis": "A",
    "status": "Pending",
    "rowid": "1197430",
    "final_x": "3662600.03507",
    "final_y": "526328.69395",
    "longitude": "-90.12792234729974",
    "latitude": "29.94178157346363",
    "geocoded_column": {
      "latitude": "29.94178157346363",
      "longitude": "-90.12792234729974"
    }
  },
  {
    "service_request": "2025-1197429",
    "request_type": "Trash/Recycling",
    "request_reason": "Request a Large Item Pick Up",
    "date_created": "2025-06-02T16:14:07.000",
    "date_modified": "2025-06-02T16:14:17.000",
    "request_status": "Pending",
    "responsible_agency": "Department of Sanitation",
    "final_address": "4675 Redwood St",
    "address_councildis": "E",
    "status": "Assigned to Contractor",
    "contractor": "Waste Pro",
    "rowid": "1197429",
    "final_x": "3712600.60562",
    "final_y": "555817.756505",
    "longitude": "-89.96895327614952",
    "latitude": "30.02132436757413",
    "geocoded_column": {
      "latitude": "30.02132436757413",
      "longitude": "-89.96895327614952"
    }
  },
  {
    "service_request": "2025-1197428",
    "request_type": "Trash/Recycling",
    "request_reason": "Request a Large Item Pick Up",
    "date_created": "2025-06-02T16:09:37.000",
    "date_modified": "2025-06-02T16:09:39.000",
    "request_status": "Pending",
    "responsible_agency": "Department of Sanitation",
    "final_address": "2615 Valence St",
    "address_councildis": "B",
    "status": "Assigned to Contractor",
    "contractor": "IV Waste",
    "rowid": "1197428",
    "final_x": "3669422.05268",
    "final_y": "524428.90566",
    "longitude": "-90.10644799160872",
    "latitude": "29.936358670871954",
    "geocoded_column": {
      "latitude": "29.936358670871954",
      "longitude": "-90.10644799160872"
    }
  },
  {
    "service_request": "2025-1197427",
    "request_type": "Trash/Recycling",
    "request_reason": "Repair Trash Cart",
    "date_created": "2025-06-02T16:05:25.000",
    "date_modified": "2025-06-02T16:05:27.000",
    "request_status": "Pending",
    "responsible_agency": "Department of Sanitation",
    "final_address": "3772 Red Cypress Dr",
    "address_councildis": "C",
    "status": "Assigned to Contractor",
    "contractor": "Richards Disposal",
    "rowid": "1197427",
    "final_x": "3703458.59306",
    "final_y": "512276.326193",
    "longitude": "-89.99944087632159",
    "latitude": "29.90189729293975",
    "geocoded_column": {
      "latitude": "29.90189729293975",
      "longitude": "-89.99944087632159"
    }
  },
  {
    "service_request": "2025-1197426",
    "request_type": "Trash/Recycling",
    "request_reason": "Request a Large Item Pick Up",
    "date_created": "2025-06-02T16:04:42.000",
    "date_modified": "2025-06-02T16:04:44.000",
    "request_status": "Pending",
    "responsible_agency": "Department of Sanitation",
    "final_address": "5415 N Rampart St",
    "address_councildis": "E",
    "status": "Assigned to Contractor",
    "contractor": "Waste Pro",
    "rowid": "1197426",
    "final_x": "3697188.79127",
    "final_y": "533544.065541",
    "longitude": "-90.01845770164934",
    "latitude": "29.960575473614583",
    "geocoded_column": {
      "latitude": "29.960575473614583",
      "longitude": "-90.01845770164934"
    }
  },
  {
    "service_request": "2025-1197425",
    "request_type": "Trash/Recycling",
    "request_reason": "Request a Large Item Pick Up",
    "date_created": "2025-06-02T16:00:20.000",
    "date_modified": "2025-06-02T16:00:29.000",
    "request_status": "Pending",
    "responsible_agency": "Department of Sanitation",
    "final_address": "9834 E Wheaton Cir",
    "address_councildis": "E",
    "status": "Assigned to Contractor",
    "contractor": "Waste Pro",
    "rowid": "1197425",
    "final_x": "3708741.33048",
    "final_y": "562600.602272",
    "longitude": "-89.98089444682266",
    "latitude": "30.040100311290583",
    "geocoded_column": {
      "latitude": "30.040100311290583",
      "longitude": "-89.98089444682266"
    }
  },
  {
    "service_request": "2025-1197424",
    "request_type": "Property Maintenance",
    "request_reason": "Property Maintenance",
    "date_created": "2025-06-02T15:58:30.000",
    "date_modified": "2025-06-02T15:58:32.000",
    "request_status": "Pending",
    "responsible_agency": "Department of Code Enforcement",
    "final_address": "6045 Pines Blvd",
    "address_councildis": "D",
    "status": "Pending",
    "rowid": "1197424",
    "final_x": "3696160.49968",
    "final_y": "556142.66857",
    "longitude": "-90.02088744651574",
    "latitude": "30.022745763298637",
    "geocoded_column": {
      "latitude": "30.022745763298637",
      "longitude": "-90.02088744651574"
    }
  },
  {
    "service_request": "2025-1197423",
    "request_type": "Parks & Parkways",
    "request_reason": "Request Tree Service (Right of Way/Public Property)",
    "date_created": "2025-06-02T15:58:14.000",
    "date_modified": "2025-06-02T15:58:17.000",
    "request_status": "Pending",
    "responsible_agency": "Department of Parks & Parkway",
    "final_address": "4783 Hickerson Dr",
    "address_councildis": "E",
    "status": "Pending",
    "rowid": "1197423",
    "final_x": "3710346.06206",
    "final_y": "556055.075161",
    "longitude": "-89.97606805991322",
    "latitude": "30.022050523122193",
    "geocoded_column": {
      "latitude": "30.022050523122193",
      "longitude": "-89.97606805991322"
    }
  },
  {
    "service_request": "2025-1197422",
    "request_type": "Trash/Recycling",
    "request_reason": "Missed Trash Pick-Up",
    "date_created": "2025-06-02T15:55:29.000",
    "date_modified": "2025-06-02T15:55:32.000",
    "request_status": "Pending",
    "responsible_agency": "Department of Sanitation",
    "final_address": "7230 Queensway Dr",
    "address_councildis": "E",
    "status": "Assigned to Contractor",
    "contractor": "Waste Pro",
    "rowid": "1197422",
    "final_x": "3718550.67333",
    "final_y": "570220.805991",
    "longitude": "-89.94960336191922",
    "latitude": "30.060730735147263",
    "geocoded_column": {
      "latitude": "30.060730735147263",
      "longitude": "-89.94960336191922"
    }
  },
  {
    "service_request": "2025-1197421",
    "request_type": "Trash/Recycling",
    "request_reason": "Request a Large Item Pick Up",
    "date_created": "2025-06-02T15:55:18.000",
    "date_modified": "2025-06-02T15:55:20.000",
    "request_status": "Pending",
    "responsible_agency": "Department of Sanitation",
    "final_address": "7911 Unity Dr",
    "address_councildis": "E",
    "status": "Assigned to Contractor",
    "contractor": "Waste Pro",
    "rowid": "1197421",
    "final_x": "3711604.71032",
    "final_y": "567806.83114",
    "longitude": "-89.97164981914547",
    "latitude": "30.054322099134065",
    "geocoded_column": {
      "latitude": "30.054322099134065",
      "longitude": "-89.97164981914547"
    }
  },
  {
    "service_request": "2025-1197420",
    "request_type": "Trash/Recycling",
    "request_reason": "Repair Trash Cart",
    "date_created": "2025-06-02T15:53:12.000",
    "date_modified": "2025-06-02T15:53:14.000",
    "request_status": "Pending",
    "responsible_agency": "Department of Sanitation",
    "final_address": "3400 Elysian Fields Ave",
    "address_councildis": "D",
    "status": "Assigned to Contractor",
    "contractor": "IV Waste",
    "rowid": "1197420",
    "final_x": "3684149.08975",
    "final_y": "545188.160399",
    "longitude": "-90.05922555892747",
    "latitude": "29.99299765959722",
    "geocoded_column": {
      "latitude": "29.99299765959722",
      "longitude": "-90.05922555892747"
    }
  },
  {
    "service_request": "2025-1197419",
    "request_type": "Trash/Recycling",
    "request_reason": "Request a Large Item Pick Up",
    "date_created": "2025-06-02T15:51:06.000",
    "date_modified": "2025-06-02T18:26:15.000",
    "case_close_date": "2025-06-02T13:26:13.000",
    "request_status": "Closed",
    "responsible_agency": "Department of Sanitation",
    "final_address": "13702 N Lemans St",
    "address_councildis": "E",
    "status": "Assigned to Contractor",
    "contractor": "Waste Pro",
    "contractor_action": "Completed",
    "rowid": "1197419",
    "final_x": "3726610.93395",
    "final_y": "563565.982176",
    "longitude": "-89.9243841395227",
    "latitude": "30.042162660958805",
    "geocoded_column": {
      "latitude": "30.042162660958805",
      "longitude": "-89.9243841395227"
    }
  },
  {
    "service_request": "2025-1197418",
    "request_type": "Abandoned Vehicles",
    "request_reason": "Abandoned/Junk Vehicles",
    "date_created": "2025-06-02T15:49:18.000",
    "date_modified": "2025-06-02T15:53:32.000",
    "request_status": "Pending",
    "responsible_agency": "Department of Public Works",
    "final_address": "1119 Shirley Dr",
    "address_councildis": "C",
    "status": "Pending",
    "rowid": "1197418",
    "final_x": "3693040.00822",
    "final_y": "527010.50931",
    "longitude": "-90.03179302715816",
    "latitude": "29.942740717930505",
    "geocoded_column": {
      "latitude": "29.942740717930505",
      "longitude": "-90.03179302715816"
    }
  },
  {
    "service_request": "2025-1197417",
    "request_type": "Trash/Recycling",
    "request_reason": "Request a Large Item Pick Up",
    "date_created": "2025-06-02T15:48:57.000",
    "date_modified": "2025-06-02T15:49:00.000",
    "request_status": "Pending",
    "responsible_agency": "Department of Sanitation",
    "final_address": "4750 Schindler Dr",
    "address_councildis": "E",
    "status": "Assigned to Contractor",
    "contractor": "Waste Pro",
    "rowid": "1197417",
    "final_x": "3714259.1829",
    "final_y": "556737.08905",
    "longitude": "-89.96367796532816",
    "latitude": "30.023797761841156",
    "geocoded_column": {
      "latitude": "30.023797761841156",
      "longitude": "-89.96367796532816"
    }
  },
  {
    "service_request": "2025-1197416",
    "request_type": "Abandoned Vehicles",
    "request_reason": "Abandoned/Junk Vehicles",
    "date_created": "2025-06-02T15:48:51.000",
    "date_modified": "2025-06-02T15:48:53.000",
    "request_status": "Pending",
    "responsible_agency": "Department of Public Works",
    "final_address": "2841 Chestnut St",
    "address_councildis": "B",
    "status": "Pending",
    "rowid": "1197416",
    "final_x": "3676325.50881",
    "final_y": "521271.979129",
    "longitude": "-90.08476212396538",
    "latitude": "29.92747309818333",
    "geocoded_column": {
      "latitude": "29.92747309818333",
      "longitude": "-90.08476212396538"
    }
  },
  {
    "service_request": "2025-1197415",
    "request_type": "Trash/Recycling",
    "request_reason": "Order Trash Cart",
    "date_created": "2025-06-02T15:48:34.000",
    "date_modified": "2025-06-02T15:48:36.000",
    "request_status": "Pending",
    "responsible_agency": "Department of Sanitation",
    "final_address": "4017 N Roman St",
    "address_councildis": "D",
    "status": "Assigned to Contractor",
    "contractor": "IV Waste",
    "rowid": "1197415",
    "final_x": "3692634.27741",
    "final_y": "537928.808521",
    "longitude": "-90.03268272058625",
    "latitude": "29.97277489150138",
    "geocoded_column": {
      "latitude": "29.97277489150138",
      "longitude": "-90.03268272058625"
    }
  },
  {
    "service_request": "2025-1197414",
    "request_type": "Trash/Recycling",
    "request_reason": "Repair Trash Cart",
    "date_created": "2025-06-02T15:47:27.000",
    "date_modified": "2025-06-02T15:47:29.000",
    "request_status": "Pending",
    "responsible_agency": "Department of Sanitation",
    "final_address": "5824 Canal Blvd",
    "address_councildis": "A",
    "status": "Assigned to Contractor",
    "contractor": "IV Waste",
    "rowid": "1197414",
    "final_x": "3668245.34292",
    "final_y": "546212.405392",
    "longitude": "-90.10942835053643",
    "latitude": "29.99629064377171",
    "geocoded_column": {
      "latitude": "29.99629064377171",
      "longitude": "-90.10942835053643"
    }
  },
  {
    "service_request": "2025-1197413",
    "request_type": "Trash/Recycling",
    "request_reason": "Request a Large Item Pick Up",
    "date_created": "2025-06-02T15:47:17.000",
    "date_modified": "2025-06-02T15:47:19.000",
    "request_status": "Pending",
    "responsible_agency": "Department of Sanitation",
    "final_address": "328 36Th St",
    "address_councildis": "A",
    "status": "Assigned to Contractor",
    "contractor": "IV Waste",
    "rowid": "1197413",
    "final_x": "3665123.34452",
    "final_y": "551879.832534",
    "longitude": "-90.11910085373219",
    "latitude": "30.01196543445022",
    "geocoded_column": {
      "latitude": "30.01196543445022",
      "longitude": "-90.11910085373219"
    }
  },
  {
    "service_request": "2025-1197412",
    "request_type": "Trash/Recycling",
    "request_reason": "Request a Large Item Pick Up",
    "date_created": "2025-06-02T15:43:58.000",
    "date_modified": "2025-06-02T15:44:00.000",
    "request_status": "Pending",
    "responsible_agency": "Department of Sanitation",
    "final_address": "7633 Lady Gray St",
    "address_councildis": "E",
    "status": "Assigned to Contractor",
    "contractor": "Waste Pro",
    "rowid": "1197412",
    "final_x": "3709967.17003",
    "final_y": "565367.27581",
    "longitude": "-89.97691693632764",
    "latitude": "30.047667714060427",
    "geocoded_column": {
      "latitude": "30.047667714060427",
      "longitude": "-89.97691693632764"
    }
  },
  {
    "service_request": "2025-1197411",
    "request_type": "Trash/Recycling",
    "request_reason": "Order Trash Cart",
    "date_created": "2025-06-02T15:40:54.000",
    "date_modified": "2025-06-02T15:40:56.000",
    "request_status": "Pending",
    "responsible_agency": "Department of Sanitation",
    "final_address": "1025 Lowerline St",
    "address_councildis": "A",
    "status": "Assigned to Contractor",
    "contractor": "IV Waste",
    "rowid": "1197411",
    "final_x": "3663434.85709",
    "final_y": "526389.723966",
    "longitude": "-90.12528459840273",
    "latitude": "29.941925211869098",
    "geocoded_column": {
      "latitude": "29.941925211869098",
      "longitude": "-90.12528459840273"
    }
  },
  {
    "service_request": "2025-1197410",
    "request_type": "Parks & Parkways",
    "request_reason": "Request Tree Service (Right of Way/Public Property)",
    "date_created": "2025-06-02T15:40:42.000",
    "date_modified": "2025-06-02T15:40:43.000",
    "request_status": "Pending",
    "responsible_agency": "Department of Parks & Parkway",
    "final_address": "4940 St Roch Ave",
    "address_councildis": "D",
    "status": "Pending",
    "rowid": "1197410",
    "final_x": "3685191.64207",
    "final_y": "551099.410069",
    "longitude": "-90.05572412357968",
    "latitude": "30.009219548236747",
    "geocoded_column": {
      "latitude": "30.009219548236747",
      "longitude": "-90.05572412357968"
    }
  },
  {
    "service_request": "2025-1197409",
    "request_type": "Trash/Recycling",
    "request_reason": "Request a Large Item Pick Up",
    "date_created": "2025-06-02T15:40:33.000",
    "date_modified": "2025-06-02T15:41:20.000",
    "request_status": "Pending",
    "responsible_agency": "Department of Sanitation",
    "final_address": "7805 Birch St",
    "address_councildis": "A",
    "status": "Assigned to Contractor",
    "contractor": "IV Waste",
    "rowid": "1197409",
    "final_x": "3663719.69082",
    "final_y": "528724.078336",
    "longitude": "-90.12430754953232",
    "latitude": "29.948335677701348",
    "geocoded_column": {
      "latitude": "29.948335677701348",
      "longitude": "-90.12430754953232"
    }
  },
  {
    "service_request": "2025-1197408",
    "request_type": "Trash/Recycling",
    "request_reason": "Request a Large Item Pick Up",
    "date_created": "2025-06-02T15:39:30.000",
    "date_modified": "2025-06-02T15:39:32.000",
    "request_status": "Pending",
    "responsible_agency": "Department of Sanitation",
    "final_address": "6316 Fleur-De-Lis Dr",
    "address_councildis": "A",
    "status": "Assigned to Contractor",
    "contractor": "IV Waste",
    "rowid": "1197408",
    "final_x": "3665198.6208",
    "final_y": "550099.13442",
    "longitude": "-90.11892264947501",
    "latitude": "30.00706694008332",
    "geocoded_column": {
      "latitude": "30.00706694008332",
      "longitude": "-90.11892264947501"
    }
  },
  {
    "service_request": "2025-1197407",
    "request_type": "Trash/Recycling",
    "request_reason": "Request a Large Item Pick Up",
    "date_created": "2025-06-02T15:38:39.000",
    "date_modified": "2025-06-02T15:38:41.000",
    "request_status": "Pending",
    "responsible_agency": "Department of Sanitation",
    "final_address": "1000 Poland Ave",
    "address_councildis": "C",
    "status": "Assigned to Contractor",
    "contractor": "IV Waste",
    "rowid": "1197407",
    "final_x": "3692887.71689",
    "final_y": "534630.660166",
    "longitude": "-90.03200061116067",
    "latitude": "29.963698237428737",
    "geocoded_column": {
      "latitude": "29.963698237428737",
      "longitude": "-90.03200061116067"
    }
  },
  {
    "service_request": "2025-1197406",
    "request_type": "Trash/Recycling",
    "request_reason": "Order Trash Cart",
    "date_created": "2025-06-02T15:37:27.000",
    "date_modified": "2025-06-02T15:37:28.000",
    "request_status": "Pending",
    "responsible_agency": "Department of Sanitation",
    "final_address": "1008 Washington Ave",
    "address_councildis": "B",
    "status": "Assigned to Contractor",
    "contractor": "IV Waste",
    "rowid": "1197406",
    "final_x": "3677149.22722",
    "final_y": "520551.761592",
    "longitude": "-90.08218667134116",
    "latitude": "29.925468027878658",
    "geocoded_column": {
      "latitude": "29.925468027878658",
      "longitude": "-90.08218667134116"
    }
  },
  {
    "service_request": "2025-1197405",
    "request_type": "Trash/Recycling",
    "request_reason": "Illegal Dumping",
    "date_created": "2025-06-02T15:36:07.000",
    "date_modified": "2025-06-02T15:36:09.000",
    "request_status": "Pending",
    "responsible_agency": "Department of Sanitation",
    "final_address": "8TH ST & CARONDELET ST",
    "address_councildis": "B",
    "status": "Pending",
    "rowid": "1197405",
    "final_x": "3674773.5",
    "final_y": "522239.78",
    "longitude": "-90.08962827927584",
    "latitude": "29.9301806474183",
    "geocoded_column": {
      "latitude": "29.9301806474183",
      "longitude": "-90.08962827927584"
    }
  },
  {
    "service_request": "2025-1197404",
    "request_type": "Trash/Recycling",
    "request_reason": "Repair Trash Cart",
    "date_created": "2025-06-02T15:36:06.000",
    "date_modified": "2025-06-02T15:36:10.000",
    "request_status": "Pending",
    "responsible_agency": "Department of Sanitation",
    "final_address": "1008 Washington Ave",
    "address_councildis": "B",
    "status": "Assigned to Contractor",
    "contractor": "IV Waste",
    "rowid": "1197404",
    "final_x": "3677149.22722",
    "final_y": "520551.761592",
    "longitude": "-90.08218667134116",
    "latitude": "29.925468027878658",
    "geocoded_column": {
      "latitude": "29.925468027878658",
      "longitude": "-90.08218667134116"
    }
  },
  {
    "service_request": "2025-1197403",
    "request_type": "Streetlights",
    "request_reason": "Streetlight Outage/Malfunction",
    "date_created": "2025-06-02T15:36:03.000",
    "date_modified": "2025-06-02T15:36:06.000",
    "request_status": "Pending",
    "responsible_agency": "Department of Public Works",
    "final_address": "5300 Spain St",
    "address_councildis": "D",
    "status": "Pending",
    "contractor": "Legacy Professional Services",
    "rowid": "1197403",
    "final_x": "3684791.92636",
    "final_y": "552582.134422",
    "longitude": "-90.05693477776543",
    "latitude": "30.01330874829432",
    "geocoded_column": {
      "latitude": "30.01330874829432",
      "longitude": "-90.05693477776543"
    }
  },
  {
    "service_request": "2025-1197402",
    "request_type": "Trash/Recycling",
    "request_reason": "Request a Large Item Pick Up",
    "date_created": "2025-06-02T15:35:20.000",
    "date_modified": "2025-06-02T15:35:21.000",
    "request_status": "Pending",
    "responsible_agency": "Department of Sanitation",
    "final_address": "2103 Lowerline St",
    "address_councildis": "A",
    "status": "Assigned to Contractor",
    "contractor": "IV Waste",
    "rowid": "1197402",
    "final_x": "3665538.93421",
    "final_y": "529519.650049",
    "longitude": "-90.11853679160355",
    "latitude": "29.95047033541114",
    "geocoded_column": {
      "latitude": "29.95047033541114",
      "longitude": "-90.11853679160355"
    }
  },
  {
    "service_request": "2025-1197401",
    "request_type": "Trash/Recycling",
    "request_reason": "Request a Large Item Pick Up",
    "date_created": "2025-06-02T15:33:42.000",
    "date_modified": "2025-06-02T15:33:45.000",
    "request_status": "Pending",
    "responsible_agency": "Department of Sanitation",
    "final_address": "5932 Press Dr",
    "address_councildis": "D",
    "status": "Assigned to Contractor",
    "contractor": "IV Waste",
    "rowid": "1197401",
    "final_x": "3688789.24124",
    "final_y": "555310.324761",
    "longitude": "-90.04420844265967",
    "latitude": "30.020687220444",
    "geocoded_column": {
      "latitude": "30.020687220444",
      "longitude": "-90.04420844265967"
    }
  },
  {
    "service_request": "2025-1197400",
    "request_type": "Trash/Recycling",
    "request_reason": "Order Trash Cart",
    "date_created": "2025-06-02T15:32:32.000",
    "date_modified": "2025-06-02T15:33:20.000",
    "request_status": "Pending",
    "responsible_agency": "Department of Sanitation",
    "final_address": "7020 Crowder Blvd Apt C",
    "address_councildis": "E",
    "status": "Assigned to Contractor",
    "contractor": "Waste Pro",
    "rowid": "1197400",
    "final_x": "3704298.22494",
    "final_y": "559490.320669",
    "longitude": "-89.99505077148842",
    "latitude": "30.031691704348603",
    "geocoded_column": {
      "latitude": "30.031691704348603",
      "longitude": "-89.99505077148842"
    }
  },
  {
    "service_request": "2025-1197399",
    "request_type": "Trash/Recycling",
    "request_reason": "Request a Large Item Pick Up",
    "date_created": "2025-06-02T15:32:01.000",
    "date_modified": "2025-06-02T15:32:04.000",
    "request_status": "Pending",
    "responsible_agency": "Department of Sanitation",
    "final_address": "7438 Strathmore Dr",
    "address_councildis": "E",
    "status": "Assigned to Contractor",
    "contractor": "Waste Pro",
    "rowid": "1197399",
    "final_x": "3714579.00427",
    "final_y": "566719.191779",
    "longitude": "-89.96228999951636",
    "latitude": "30.051234013687996",
    "geocoded_column": {
      "latitude": "30.051234013687996",
      "longitude": "-89.96228999951636"
    }
  },
  {
    "service_request": "2025-1197398",
    "request_type": "Trash/Recycling",
    "request_reason": "Illegal Dumping",
    "date_created": "2025-06-02T15:30:55.000",
    "date_modified": "2025-06-02T15:30:57.000",
    "request_status": "Pending",
    "responsible_agency": "Department of Sanitation",
    "final_address": "10701 Willowbrae Dr",
    "address_councildis": "E",
    "status": "Pending",
    "rowid": "1197398",
    "final_x": "3710687.01976",
    "final_y": "564124.539681",
    "longitude": "-89.97468840313648",
    "latitude": "30.04422723975227",
    "geocoded_column": {
      "latitude": "30.04422723975227",
      "longitude": "-89.97468840313648"
    }
  },
  {
    "service_request": "2025-1197397",
    "request_type": "Trash/Recycling",
    "request_reason": "Repair Trash Cart",
    "date_created": "2025-06-02T15:29:34.000",
    "date_modified": "2025-06-02T15:29:41.000",
    "request_status": "Pending",
    "responsible_agency": "Department of Sanitation",
    "final_address": "7640 Arbor Dr",
    "address_councildis": "E",
    "status": "Assigned to Contractor",
    "contractor": "Waste Pro",
    "rowid": "1197397",
    "final_x": "3702212.74948",
    "final_y": "558234.821084",
    "longitude": "-90.00168704439434",
    "latitude": "30.028306375828727",
    "geocoded_column": {
      "latitude": "30.028306375828727",
      "longitude": "-90.00168704439434"
    }
  },
  {
    "service_request": "2025-1197396",
    "request_type": "Property Maintenance",
    "request_reason": "Property Maintenance",
    "date_created": "2025-06-02T15:29:30.000",
    "date_modified": "2025-06-02T15:29:44.000",
    "request_status": "Pending",
    "responsible_agency": "Department of Code Enforcement",
    "final_address": "500 Amethyst St",
    "address_councildis": "D",
    "status": "Pending",
    "rowid": "1197396",
    "final_x": "3668383.75713",
    "final_y": "556749.545562",
    "longitude": "-90.10863533904195",
    "latitude": "30.025260017164104",
    "geocoded_column": {
      "latitude": "30.025260017164104",
      "longitude": "-90.10863533904195"
    }
  },
  {
    "service_request": "2025-1197395",
    "request_type": "Drainage",
    "request_reason": "Catch Basin Damaged",
    "date_created": "2025-06-02T15:27:00.000",
    "date_modified": "2025-06-02T15:27:02.000",
    "request_status": "Pending",
    "responsible_agency": "Sewerage & Water Board",
    "final_address": "6033 N Galvez St",
    "address_councildis": "E",
    "status": "Pending",
    "rowid": "1197395",
    "final_x": "3700851.88362",
    "final_y": "536950.387528",
    "longitude": "-90.00676593406223",
    "latitude": "29.969825545373148",
    "geocoded_column": {
      "latitude": "29.969825545373148",
      "longitude": "-90.00676593406223"
    }
  },
  {
    "service_request": "2025-1197394",
    "request_type": "Drainage",
    "request_reason": "Catch Basin Damaged",
    "date_created": "2025-06-02T15:26:53.000",
    "date_modified": "2025-06-02T15:26:55.000",
    "request_status": "Pending",
    "responsible_agency": "Sewerage & Water Board",
    "final_address": "6033 N Galvez St",
    "address_councildis": "E",
    "status": "Pending",
    "rowid": "1197394",
    "final_x": "3700851.88362",
    "final_y": "536950.387528",
    "longitude": "-90.00676593406223",
    "latitude": "29.969825545373148",
    "geocoded_column": {
      "latitude": "29.969825545373148",
      "longitude": "-90.00676593406223"
    }
  },
  {
    "service_request": "2025-1197393",
    "request_type": "Health Related Request",
    "request_reason": "Homeless Encampment Complaint",
    "date_created": "2025-06-02T15:26:31.000",
    "date_modified": "2025-06-02T15:26:32.000",
    "request_status": "Pending",
    "responsible_agency": "Health Department",
    "final_address": "2235 Poydras St",
    "address_councildis": "B",
    "status": "Pending",
    "rowid": "1197393",
    "final_x": "3674823.81518",
    "final_y": "532015.183555",
    "longitude": "-90.08913435867468",
    "latitude": "29.95705828858534",
    "geocoded_column": {
      "latitude": "29.95705828858534",
      "longitude": "-90.08913435867468"
    }
  },
  {
    "service_request": "2025-1197392",
    "request_type": "Trash/Recycling",
    "request_reason": "Request a Large Item Pick Up",
    "date_created": "2025-06-02T15:26:22.000",
    "date_modified": "2025-06-02T15:26:24.000",
    "request_status": "Pending",
    "responsible_agency": "Department of Sanitation",
    "final_address": "6037 Marigny St",
    "address_councildis": "D",
    "status": "Assigned to Contractor",
    "contractor": "IV Waste",
    "rowid": "1197392",
    "final_x": "3683945.40181",
    "final_y": "555306.207641",
    "longitude": "-90.05951366399522",
    "latitude": "30.02082485304492",
    "geocoded_column": {
      "latitude": "30.02082485304492",
      "longitude": "-90.05951366399522"
    }
  },
  {
    "service_request": "2025-1197391",
    "request_type": "Trash/Recycling",
    "request_reason": "Repair Trash Cart",
    "date_created": "2025-06-02T15:25:33.000",
    "date_modified": "2025-06-02T15:25:34.000",
    "request_status": "Pending",
    "responsible_agency": "Department of Sanitation",
    "final_address": "9423 Fig St",
    "address_councildis": "A",
    "status": "Assigned to Contractor",
    "contractor": "IV Waste",
    "rowid": "1197391",
    "final_x": "3662808.54227",
    "final_y": "536370.618567",
    "longitude": "-90.1269302419908",
    "latitude": "29.969387580954443",
    "geocoded_column": {
      "latitude": "29.969387580954443",
      "longitude": "-90.1269302419908"
    }
  },
  {
    "service_request": "2025-1197390",
    "request_type": "Roads and Streets",
    "request_reason": "Pothole",
    "date_created": "2025-06-02T15:21:29.000",
    "date_modified": "2025-06-02T15:25:01.000",
    "request_status": "Pending",
    "responsible_agency": "Department of Public Works",
    "final_address": "5935 Memphis St",
    "address_councildis": "A",
    "status": "Pending",
    "rowid": "1197390",
    "final_x": "3669237.95527",
    "final_y": "546829.263569",
    "longitude": "-90.10627187965513",
    "latitude": "29.99795760038073",
    "geocoded_column": {
      "latitude": "29.99795760038073",
      "longitude": "-90.10627187965513"
    }
  },
  {
    "service_request": "2025-1197389",
    "request_type": "Parks & Parkways",
    "request_reason": "Tree Stump (removal, grind)",
    "date_created": "2025-06-02T15:17:30.000",
    "date_modified": "2025-06-02T15:22:02.000",
    "request_status": "Pending",
    "responsible_agency": "Department of Parks & Parkway",
    "final_address": "7620 Hansbrough Ave",
    "address_councildis": "E",
    "status": "Pending",
    "rowid": "1197389",
    "final_x": "3707578.44171",
    "final_y": "564487.094049",
    "longitude": "-89.98449933284098",
    "latitude": "30.0453251012345",
    "geocoded_column": {
      "latitude": "30.0453251012345",
      "longitude": "-89.98449933284098"
    }
  },
  {
    "service_request": "2025-1197388",
    "request_type": "Trash/Recycling",
    "request_reason": "Request a Large Item Pick Up",
    "date_created": "2025-06-02T15:16:33.000",
    "date_modified": "2025-06-02T15:16:34.000",
    "request_status": "Pending",
    "responsible_agency": "Department of Sanitation",
    "final_address": "1436 Dante St",
    "address_councildis": "A",
    "status": "Assigned to Contractor",
    "contractor": "IV Waste",
    "rowid": "1197388",
    "final_x": "3662078.09344",
    "final_y": "529639.805697",
    "longitude": "-90.12946039961201",
    "latitude": "29.950901159498322",
    "geocoded_column": {
      "latitude": "29.950901159498322",
      "longitude": "-90.12946039961201"
    }
  },
  {
    "service_request": "2025-1197387",
    "request_type": "Trash/Recycling",
    "request_reason": "Request a Large Item Pick Up",
    "date_created": "2025-06-02T15:16:10.000",
    "date_modified": "2025-06-02T15:16:11.000",
    "request_status": "Pending",
    "responsible_agency": "Department of Sanitation",
    "final_address": "7620 Hansbrough Ave",
    "address_councildis": "E",
    "status": "Assigned to Contractor",
    "contractor": "Waste Pro",
    "rowid": "1197387",
    "final_x": "3707578.44171",
    "final_y": "564487.094049",
    "longitude": "-89.98449933284098",
    "latitude": "30.0453251012345",
    "geocoded_column": {
      "latitude": "30.0453251012345",
      "longitude": "-89.98449933284098"
    }
  },