[
  {
    "service_request": "2023-1030891",
    "request_type": "Trash/Recycling",
    "request_reason": "Start Trash Service",
    "date_created": "2023-08-31T01:40:33.000",
    "date_modified": "2023-08-31T01:40:34.000",
    "request_status": "Pending",
    "responsible_agency": "Department of Sanitation",
    "status": "Assigned to Contractor",
    "rowid": "1030891",
    "longitude": "0.0",
    "latitude": "0.0",
    "geocoded_column": {
      "latitude": "0.0",
      "longitude": "0.0"
    }
  },
  {
    "service_request": "2023-1030890",
    "request_type": "Trash/Recycling",
    "request_reason": "Order Recycling Cart",
    "date_created": "2023-08-31T01:39:31.000",
    "date_modified": "2023-08-31T01:39:31.000",
    "request_status": "Pending",
    "responsible_agency": "Department of Sanitation",
    "status": "Pending",
    "rowid": "1030890",
    "longitude": "0.0",
    "latitude": "0.0",
    "geocoded_column": {
      "latitude": "0.0",
      "longitude": "0.0"
    }
  },
  {
    "service_request": "2023-1030889",
    "request_type": "Traffic Signals/Signs/Striping/Streetlights",
    "request_reason": "Street Light Outage/Malfunction",
    "date_created": "2023-08-30T22:33:16.000",
    "date_modified": "2023-08-30T22:33:17.000",
    "request_status": "Pending",
    "responsible_agency": "Department of Public Works",
    "final_address": "1824 Marais St",
    "address_councildis": "C",
    "status": "Assigned to Contractor",
    "contractor": "Legacy Professional Services",
    "rowid": "1030889",
    "final_x": "3683714.57538",
    "final_y": "536537.442759",
    "longitude": "-90.06090156348291",
    "latitude": "29.969224500863017",
    "geocoded_column": {
      "latitude": "29.969224500863017",
      "longitude": "-90.06090156348291"
    }
  },
  {
    "service_request": "2023-1030888",
    "request_type": "Traffic Signals/Signs/Striping/Streetlights",
    "request_reason": "Street Light Outage/Malfunction",
    "date_created": "2023-08-30T22:12:35.000",
    "date_modified": "2023-08-30T22:12:35.000",
    "request_status": "Pending",
    "responsible_agency": "Department of Public Works",
    "final_address": "3952 Constance St",
    "address_councildis": "B",
    "status": "Assigned to Contractor",
    "contractor": "Legacy Professional Services",
    "rowid": "1030888",
    "final_x": "3672746.83323",
    "final_y": "518542.044215",
    "longitude": "-90.09615218957754",
    "latitude": "29.920073390208113",
    "geocoded_column": {
      "latitude": "29.920073390208113",
      "longitude": "-90.09615218957754"
    }
  },
  {
    "service_request": "2023-1030887",
    "request_type": "Trash/Recycling",
    "request_reason": "Request a Large Item Pick Up",
    "date_created": "2023-08-30T21:50:28.000",
    "date_modified": "2023-08-30T21:50:29.000",
    "request_status": "Pending",
    "responsible_agency": "Department of Sanitation",
    "final_address": "4516 S Miro St",
    "address_councildis": "B",
    "status": "Assigned to Contractor",
    "contractor": "Richards Disposal",
    "rowid": "1030887",
    "final_x": "3669595.28154",
    "final_y": "527722.034239",
    "longitude": "-90.1057897220994",
    "latitude": "29.94540860700847",
    "geocoded_column": {
      "latitude": "29.94540860700847",
      "longitude": "-90.1057897220994"
    }
  },
  {
    "service_request": "2023-1030886",
    "request_type": "Traffic Signals/Signs/Striping/Streetlights",
    "request_reason": "Street Light Outage/Malfunction",
    "date_created": "2023-08-30T21:50:15.000",
    "date_modified": "2023-08-30T21:50:15.000",
    "request_status": "Pending",
    "responsible_agency": "Department of Public Works",
    "final_address": "4644 Crowder Blvd",
    "address_councildis": "E",
    "status": "Assigned to Contractor",
    "contractor": "Legacy Professional Services",
    "rowid": "1030886",
    "final_x": "3706376.05284",
    "final_y": "555152.142105",
    "longitude": "-89.98864566007819",
    "latitude": "30.019696511743522",
    "geocoded_column": {
      "latitude": "30.019696511743522",
      "longitude": "-89.98864566007819"
    }
  },
  {
    "service_request": "2023-1030885",
    "request_type": "Roads/Drainage",
    "request_reason": "Road Shoulder Repair",
    "date_created": "2023-08-30T21:47:03.000",
    "date_modified": "2023-08-30T21:47:03.000",
    "request_status": "Pending",
    "responsible_agency": "Department of Public Works",
    "final_address": "3900 BLK Pitt St",
    "address_councildis": "B",
    "status": "Pending",
    "rowid": "1030885",
    "final_x": "3672519.83603",
    "final_y": "520734.901231",
    "longitude": "-90.09679401515201",
    "latitude": "29.926109783282126",
    "geocoded_column": {
      "latitude": "29.926109783282126",
      "longitude": "-90.09679401515201"
    }
  },
  {
    "service_request": "2023-1030884",
    "request_type": "Abandoned Vehicles",
    "request_reason": "Abandoned/Junk Vehicles",
    "date_created": "2023-08-30T21:34:28.000",
    "date_modified": "2023-08-30T21:34:28.000",
    "request_status": "Pending",
    "responsible_agency": "Department of Public Works",
    "final_address": "2029 Foucher St",
    "address_councildis": "B",
    "status": "Pending",
    "rowid": "1030884",
    "final_x": "3672978.23566",
    "final_y": "522874.729211",
    "longitude": "-90.09527399300259",
    "latitude": "29.93198001063561",
    "geocoded_column": {
      "latitude": "29.93198001063561",
      "longitude": "-90.09527399300259"
    }
  },
  {
    "service_request": "2023-1030883",
    "request_type": "Roads/Drainage",
    "request_reason": "Road Shoulder Repair",
    "date_created": "2023-08-30T21:34:06.000",
    "date_modified": "2023-08-30T21:34:06.000",
    "request_status": "Pending",
    "responsible_agency": "Department of Public Works",
    "final_address": "4300 BLK Coliseum St",
    "address_councildis": "B",
    "status": "Pending",
    "rowid": "1030883",
    "final_x": "3671171.73078",
    "final_y": "519844.933195",
    "longitude": "-90.10107981563857",
    "latitude": "29.923702589131413",
    "geocoded_column": {
      "latitude": "29.923702589131413",
      "longitude": "-90.10107981563857"
    }
  },
  {
    "service_request": "2023-1030881",
    "request_type": "Traffic Signals/Signs/Striping/Streetlights",
    "request_reason": "Street Light Outage/Malfunction",
    "date_created": "2023-08-30T21:28:44.000",
    "date_modified": "2023-08-30T21:28:45.000",
    "request_status": "Pending",
    "responsible_agency": "Department of Public Works",
    "final_address": "7540 Branch Dr",
    "address_councildis": "E",
    "status": "Assigned to Contractor",
    "contractor": "Legacy Professional Services",
    "rowid": "1030881",
    "final_x": "3715032.694",
    "final_y": "568226.425509",
    "longitude": "-89.9607989879478",
    "latitude": "30.05536335437866",
    "geocoded_column": {
      "latitude": "30.05536335437866",
      "longitude": "-89.9607989879478"
    }
  },
  {
    "service_request": "2023-1030880",
    "request_type": "Traffic Signals/Signs/Striping/Streetlights",
    "request_reason": "Street Light Outage/Malfunction",
    "date_created": "2023-08-30T21:28:00.000",
    "date_modified": "2023-08-30T21:28:01.000",
    "request_status": "Pending",
    "responsible_agency": "Department of Public Works",
    "final_address": "6854 General Haig St",
    "address_councildis": "A",
    "status": "Assigned to Contractor",
    "contractor": "Legacy Professional Services",
    "rowid": "1030880",
    "final_x": "3670957.52987",
    "final_y": "552940.598935",
    "longitude": "-90.1006320666859",
    "latitude": "30.01471088208776",
    "geocoded_column": {
      "latitude": "30.01471088208776",
      "longitude": "-90.1006320666859"
    }
  },
  {
    "service_request": "2023-1030879",
    "request_type": "Trash/Recycling",
    "request_reason": "Request a Large Item Pick Up",
    "date_created": "2023-08-30T21:09:01.000",
    "date_modified": "2023-08-30T21:09:02.000",
    "request_status": "Pending",
    "responsible_agency": "Department of Sanitation",
    "final_address": "221 S Genois St",
    "address_councildis": "B",
    "status": "Assigned to Contractor",
    "contractor": "Richards Disposal",
    "rowid": "1030879",
    "final_x": "3672170.85627",
    "final_y": "536748.918728",
    "longitude": "-90.09735036031731",
    "latitude": "29.970153419346236",
    "geocoded_column": {
      "latitude": "29.970153419346236",
      "longitude": "-90.09735036031731"
    }
  },
  {
    "service_request": "2023-1030878",
    "request_type": "Traffic Signals/Signs/Striping/Streetlights",
    "request_reason": "Street Light Outage/Malfunction",
    "date_created": "2023-08-30T20:45:09.000",
    "date_modified": "2023-08-30T20:45:10.000",
    "request_status": "Pending",
    "responsible_agency": "Department of Public Works",
    "final_address": "5947 Memphis St",
    "address_councildis": "A",
    "status": "Assigned to Contractor",
    "contractor": "Legacy Professional Services",
    "rowid": "1030878",
    "final_x": "3669251.50516",
    "final_y": "546978.153105",
    "longitude": "-90.10622403865115",
    "latitude": "29.998366596083763",
    "geocoded_column": {
      "latitude": "29.998366596083763",
      "longitude": "-90.10622403865115"
    }
  },
  {
    "service_request": "2023-1030877",
    "request_type": "Traffic Signals/Signs/Striping/Streetlights",
    "request_reason": "Street Light Outage/Malfunction",
    "date_created": "2023-08-30T20:44:20.000",
    "date_modified": "2023-08-30T20:44:21.000",
    "request_status": "Pending",
    "responsible_agency": "Department of Public Works",
    "final_address": "3213 Maurepas St",
    "address_councildis": "A",
    "status": "Assigned to Contractor",
    "contractor": "Legacy Professional Services",
    "rowid": "1030877",
    "final_x": "3676023.80053",
    "final_y": "540790.899531",
    "longitude": "-90.08504328786734",
    "latitude": "29.981152642774752",
    "geocoded_column": {
      "latitude": "29.981152642774752",
      "longitude": "-90.08504328786734"
    }
  },
  {
    "service_request": "2023-1030876",
    "request_type": "Trash/Recycling",
    "request_reason": "Replace Recycling Cart",
    "date_created": "2023-08-30T20:38:15.000",
    "date_modified": "2023-08-30T20:38:15.000",
    "request_status": "Pending",
    "responsible_agency": "Department of Sanitation",
    "final_address": "2849 Carondelet St",
    "address_councildis": "B",
    "status": "Pending",
    "rowid": "1030876",
    "final_x": "3675355.83592",
    "final_y": "522660.253946",
    "longitude": "-90.08777550750061",
    "latitude": "29.93131942144872",
    "geocoded_column": {
      "latitude": "29.93131942144872",
      "longitude": "-90.08777550750061"
    }
  },
  {
    "service_request": "2023-1030875",
    "request_type": "Trash/Recycling",
    "request_reason": "Order Trash Cart",
    "date_created": "2023-08-30T20:30:08.000",
    "date_modified": "2023-08-30T20:30:09.000",
    "request_status": "Pending",
    "responsible_agency": "Department of Sanitation",
    "final_address": "2414 Gravier St",
    "address_councildis": "B",
    "status": "Assigned to Contractor",
    "contractor": "Richards Disposal",
    "rowid": "1030875",
    "final_x": "3675077.36622",
    "final_y": "532751.298436",
    "longitude": "-90.08830846600397",
    "latitude": "29.95907478541103",
    "geocoded_column": {
      "latitude": "29.95907478541103",
      "longitude": "-90.08830846600397"
    }
  },
  {
    "service_request": "2023-1030874",
    "request_type": "Roads/Drainage",
    "request_reason": "Debris in Roadway",
    "date_created": "2023-08-30T20:26:26.000",
    "date_modified": "2023-08-30T20:26:26.000",
    "request_status": "Pending",
    "responsible_agency": "Department of Public Works",
    "final_address": "PALMYRA ST & S CORTEZ ST",
    "address_councildis": "A",
    "status": "Pending",
    "rowid": "1030874",
    "final_x": "3671593.8",
    "final_y": "536967.38",
    "longitude": "-90.09916533697928",
    "latitude": "29.970771216998013",
    "geocoded_column": {
      "latitude": "29.970771216998013",
      "longitude": "-90.09916533697928"
    }
  },
  {
    "service_request": "2023-1030873",
    "request_type": "Trash/Recycling",
    "request_reason": "Missed Trash Pick-Up",
    "date_created": "2023-08-30T20:02:10.000",
    "date_modified": "2023-08-30T20:02:10.000",
    "request_status": "Pending",
    "responsible_agency": "Department of Sanitation",
    "final_address": "7631 Means Ave",
    "address_councildis": "E",
    "status": "Assigned to Contractor",
    "contractor": "Waste Pro",
    "rowid": "1030873",
    "final_x": "3708092.70206",
    "final_y": "564843.894114",
    "longitude": "-89.98286074515215",
    "latitude": "30.046289503388092",
    "geocoded_column": {
      "latitude": "30.046289503388092",
      "longitude": "-89.98286074515215"
    }
  },
  {
    "service_request": "2023-1030872",
    "request_type": "Roads/Drainage",
    "request_reason": "Street Flooding / Drainage",
    "date_created": "2023-08-30T19:56:57.000",
    "date_modified": "2023-08-30T19:56:57.000",
    "request_status": "Pending",
    "responsible_agency": "Department of Public Works",
    "final_address": "4235 S Carrollton Ave",
    "address_councildis": "A",
    "status": "Pending",
    "rowid": "1030872",
    "final_x": "3669655.08826",
    "final_y": "536861.454216",
    "longitude": "-90.10529163046427",
    "latitude": "29.97053723140887",
    "geocoded_column": {
      "latitude": "29.97053723140887",
      "longitude": "-90.10529163046427"
    }
  },
  {
    "service_request": "2023-1030871",
    "request_type": "Roads/Drainage",
    "request_reason": "Pothole",
    "date_created": "2023-08-30T19:54:51.000",
    "date_modified": "2023-08-30T19:54:51.000",
    "request_status": "Pending",
    "responsible_agency": "Department of Public Works",
    "final_address": "4235 S Carrollton Ave",
    "address_councildis": "A",
    "status": "Pending",
    "rowid": "1030871",
    "final_x": "3669655.08826",
    "final_y": "536861.454216",
    "longitude": "-90.10529163046427",
    "latitude": "29.97053723140887",
    "geocoded_column": {
      "latitude": "29.97053723140887",
      "longitude": "-90.10529163046427"
    }
  },
  {
    "service_request": "2023-1030870",
    "request_type": "Abandoned Vehicles",
    "request_reason": "Abandoned/Junk Vehicles",
    "date_created": "2023-08-30T19:17:14.000",
    "date_modified": "2023-08-30T19:17:14.000",
    "request_status": "Pending",
    "responsible_agency": "Department of Public Works",
    "final_address": "2923 Annunciation St",
    "address_councildis": "B",
    "status": "Pending",
    "rowid": "1030870",
    "final_x": "3677041.22504",
    "final_y": "519538.703031",
    "longitude": "-90.08256250858915",
    "latitude": "29.922685687003884",
    "geocoded_column": {
      "latitude": "29.922685687003884",
      "longitude": "-90.08256250858915"
    }
  },
  {
    "service_request": "2023-1030869",
    "request_type": "Traffic Signals/Signs/Striping/Streetlights",
    "request_reason": "Traffic Signal Malfunctioning/Damaged",
    "date_created": "2023-08-30T18:50:41.000",
    "date_modified": "2023-08-30T18:50:41.000",
    "request_status": "Pending",
    "responsible_agency": "Department of Public Works",
    "final_address": "ST CHARLES AVE & NASHVILLE AVE",
    "address_councildis": "A",
    "status": "Pending",
    "rowid": "1030869",
    "final_x": "3666231.1",
    "final_y": "522124.98",
    "longitude": "-90.11659921430268",
    "latitude": "29.93011716947148",
    "geocoded_column": {
      "latitude": "29.93011716947148",
      "longitude": "-90.11659921430268"
    }
  },
  {
    "service_request": "2023-1030868",
    "request_type": "Trash/Recycling",
    "request_reason": "Request a Large Item Pick Up",
    "date_created": "2023-08-30T18:46:14.000",
    "date_modified": "2023-08-30T18:46:15.000",
    "request_status": "Pending",
    "responsible_agency": "Department of Sanitation",
    "final_address": "1709 Clouet St",
    "address_councildis": "D",
    "status": "Assigned to Contractor",
    "contractor": "IV Waste",
    "rowid": "1030868",
    "final_x": "3689621.51151",
    "final_y": "538329.610313",
    "longitude": "-90.04218330419317",
    "latitude": "29.973970643897168",
    "geocoded_column": {
      "latitude": "29.973970643897168",
      "longitude": "-90.04218330419317"
    }
  },
  {
    "service_request": "2023-1030867",
    "request_type": "Abandoned Vehicles",
    "request_reason": "Abandoned/Junk Vehicles",
    "date_created": "2023-08-30T18:46:03.000",
    "date_modified": "2023-08-30T18:46:03.000",
    "request_status": "Pending",
    "responsible_agency": "Department of Public Works",
    "final_address": "2950 Clio St",
    "address_councildis": "B",
    "status": "Pending",
    "rowid": "1030867",
    "final_x": "3675361.14408",
    "final_y": "529044.330752",
    "longitude": "-90.08753963249511",
    "latitude": "29.948873378787578",
    "geocoded_column": {
      "latitude": "29.948873378787578",
      "longitude": "-90.08753963249511"
    }
  },
  {
    "service_request": "2023-1030866",
    "request_type": "Trash/Recycling",
    "request_reason": "Illegal Dumping",
    "date_created": "2023-08-30T18:41:39.000",
    "date_modified": "2023-08-30T18:41:39.000",
    "request_status": "Pending",
    "responsible_agency": "Department of Sanitation",
    "final_address": "1220 S Derbigny St",
    "address_councildis": "B",
    "status": "Pending",
    "rowid": "1030866",
    "final_x": "3675214.23925",
    "final_y": "528957.366528",
    "longitude": "-90.08800645906568",
    "latitude": "29.948638646919786",
    "geocoded_column": {
      "latitude": "29.948638646919786",
      "longitude": "-90.08800645906568"
    }
  },
  {
    "service_request": "2023-1030865",
    "request_type": "Abandoned Vehicles",
    "request_reason": "Abandoned/Junk Vehicles",
    "date_created": "2023-08-30T18:39:36.000",
    "date_modified": "2023-08-30T18:39:36.000",
    "request_status": "Pending",
    "responsible_agency": "Department of Public Works",
    "final_address": "2538 Conti St",
    "address_councildis": "B",
    "status": "Pending",
    "rowid": "1030865",
    "final_x": "3676564.73621",
    "final_y": "535607.32711",
    "longitude": "-90.08351334469337",
    "latitude": "29.966883377733446",
    "geocoded_column": {
      "latitude": "29.966883377733446",
      "longitude": "-90.08351334469337"
    }
  },
  {
    "service_request": "2023-1030864",
    "request_type": "Trash/Recycling",
    "request_reason": "Request a Large Item Pick Up",
    "date_created": "2023-08-30T18:35:52.000",
    "date_modified": "2023-08-30T18:35:53.000",
    "request_status": "Pending",
    "responsible_agency": "Department of Sanitation",
    "final_address": "14706 Emory Rd",
    "address_councildis": "E",
    "status": "Assigned to Contractor",
    "contractor": "Waste Pro",
    "rowid": "1030864",
    "final_x": "3720342.03244",
    "final_y": "573485.111658",
    "longitude": "-89.94381587154238",
    "latitude": "30.069646600669888",
    "geocoded_column": {
      "latitude": "30.069646600669888",
      "longitude": "-89.94381587154238"
    }
  },
  {
    "service_request": "2023-1030863",
    "request_type": "Trash/Recycling",
    "request_reason": "Replace Trash Cart",
    "date_created": "2023-08-30T18:30:26.000",
    "date_modified": "2023-08-30T18:30:27.000",
    "request_status": "Pending",
    "responsible_agency": "Department of Sanitation",
    "final_address": "1530 Hillary St",
    "address_councildis": "A",
    "status": "Assigned to Contractor",
    "contractor": "Richards Disposal",
    "rowid": "1030863",
    "final_x": "3664099.51821",
    "final_y": "528170.895808",
    "longitude": "-90.12312671950676",
    "latitude": "29.94680357839831",
    "geocoded_column": {
      "latitude": "29.94680357839831",
      "longitude": "-90.12312671950676"
    }
  },
  {
    "service_request": "2023-1030862",
    "request_type": "Trash/Recycling",
    "request_reason": "Replace Trash Cart",
    "date_created": "2023-08-30T18:30:05.000",
    "date_modified": "2023-08-30T18:30:06.000",
    "request_status": "Pending",
    "responsible_agency": "Department of Sanitation",
    "final_address": "1532 Hillary St",
    "address_councildis": "A",
    "status": "Assigned to Contractor",
    "contractor": "Richards Disposal",
    "rowid": "1030862",
    "final_x": "3664099.51821",
    "final_y": "528170.894592",
    "longitude": "-90.12312671954732",
    "latitude": "29.94680357505468",
    "geocoded_column": {
      "latitude": "29.94680357505468",
      "longitude": "-90.12312671954732"
    }
  },
  {
    "service_request": "2023-1030861",
    "request_type": "Property Maintenance",
    "request_reason": "Property Maintenance",
    "date_created": "2023-08-30T18:25:04.000",
    "date_modified": "2023-08-30T18:25:05.000",
    "request_status": "Pending",
    "responsible_agency": "Department of Code Enforcement",
    "final_address": "3836 Virgil Blvd",
    "address_councildis": "D",
    "status": "Pending",
    "rowid": "1030861",
    "final_x": "3680443.35611",
    "final_y": "546606.290449",
    "longitude": "-90.07088197066898",
    "latitude": "29.99700979556607",
    "geocoded_column": {
      "latitude": "29.99700979556607",
      "longitude": "-90.07088197066898"
    }
  },
  {
    "service_request": "2023-1030860",
    "request_type": "Trash/Recycling",
    "request_reason": "Missed Trash Pick-Up",
    "date_created": "2023-08-30T18:20:09.000",
    "date_modified": "2023-08-30T18:20:09.000",
    "request_status": "Pending",
    "responsible_agency": "Department of Sanitation",
    "final_address": "15 Neron Pl",
    "address_councildis": "A",
    "status": "Assigned to Contractor",
    "contractor": "Richards Disposal",
    "rowid": "1030860",
    "final_x": "3664971.9529",
    "final_y": "530921.682178",
    "longitude": "-90.12028016613827",
    "latitude": "29.954341985133834",
    "geocoded_column": {
      "latitude": "29.954341985133834",
      "longitude": "-90.12028016613827"
    }
  },
  {
    "service_request": "2023-1030859",
    "request_type": "Abandoned Vehicles",
    "request_reason": "Abandoned/Junk Vehicles",
    "date_created": "2023-08-30T18:17:07.000",
    "date_modified": "2023-08-30T18:17:07.000",
    "request_status": "Pending",
    "responsible_agency": "Department of Public Works",
    "final_address": "6871 Louisville St",
    "address_councildis": "A",
    "status": "Pending",
    "rowid": "1030859",
    "final_x": "3668377.44154",
    "final_y": "553291.070679",
    "longitude": "-90.10877208598923",
    "latitude": "30.015750624470876",
    "geocoded_column": {
      "latitude": "30.015750624470876",
      "longitude": "-90.10877208598923"
    }
  },
  {
    "service_request": "2023-1030858",
    "request_type": "Trash/Recycling",
    "request_reason": "Replace Trash Cart",
    "date_created": "2023-08-30T18:14:53.000",
    "date_modified": "2023-08-30T18:14:54.000",
    "request_status": "Pending",
    "responsible_agency": "Department of Sanitation",
    "final_address": "2233 Marengo St",
    "address_councildis": "B",
    "status": "Assigned to Contractor",
    "contractor": "Richards Disposal",
    "rowid": "1030858",
    "final_x": "3671758.07796",
    "final_y": "523411.239099",
    "longitude": "-90.09910766904835",
    "latitude": "29.933491433924548",
    "geocoded_column": {
      "latitude": "29.933491433924548",
      "longitude": "-90.09910766904835"
    }
  },
  {
    "service_request": "2023-1030857",
    "request_type": "Trash/Recycling",
    "request_reason": "Request a Large Item Pick Up",
    "date_created": "2023-08-30T18:02:15.000",
    "date_modified": "2023-08-30T18:02:16.000",
    "request_status": "Pending",
    "responsible_agency": "Department of Sanitation",
    "final_address": "4712 Virgilian St",
    "address_councildis": "D",
    "status": "Assigned to Contractor",
    "contractor": "Waste Pro",
    "rowid": "1030857",
    "final_x": "3697415.15741",
    "final_y": "553584.268503",
    "longitude": "-90.01701590657228",
    "latitude": "30.01567155802511",
    "geocoded_column": {
      "latitude": "30.01567155802511",
      "longitude": "-90.01701590657228"
    }
  },
  {
    "service_request": "2023-1030856",
    "request_type": "Trash/Recycling",
    "request_reason": "Request a Large Item Pick Up",
    "date_created": "2023-08-30T17:59:45.000",
    "date_modified": "2023-08-30T17:59:46.000",
    "request_status": "Pending",
    "responsible_agency": "Department of Sanitation",
    "final_address": "3938 Piedmont Dr",
    "address_councildis": "D",
    "status": "Assigned to Contractor",
    "contractor": "IV Waste",
    "rowid": "1030856",
    "final_x": "3685296.72405",
    "final_y": "547149.121873",
    "longitude": "-90.05553131043452",
    "latitude": "29.998354462722652",
    "geocoded_column": {
      "latitude": "29.998354462722652",
      "longitude": "-90.05553131043452"
    }
  },
  {
    "service_request": "2023-1030855",
    "request_type": "Trash/Recycling",
    "request_reason": "MIssed Recycling Pick-Up",
    "date_created": "2023-08-30T17:59:17.000",
    "date_modified": "2023-08-30T17:59:18.000",
    "request_status": "Pending",
    "responsible_agency": "Department of Sanitation",
    "final_address": "2838 St Thomas St",
    "address_councildis": "B",
    "status": "Assigned to Contractor",
    "contractor": "Richards Disposal",
    "rowid": "1030855",
    "final_x": "3677778.20968",
    "final_y": "519151.610167",
    "longitude": "-90.08024950292352",
    "latitude": "29.921599165921023",
    "geocoded_column": {
      "latitude": "29.921599165921023",
      "longitude": "-90.08024950292352"
    }
  },
  {
    "service_request": "2023-1030854",
    "request_type": "Roads/Drainage",
    "request_reason": "Street Subsidence (Sinking)",
    "date_created": "2023-08-30T17:42:00.000",
    "date_modified": "2023-08-30T17:42:00.000",
    "request_status": "Pending",
    "responsible_agency": "Department of Public Works",
    "final_address": "2409 State St",
    "address_councildis": "A",
    "status": "Pending",
    "rowid": "1030854",
    "final_x": "3666778.12532",
    "final_y": "525412.604285",
    "longitude": "-90.11476196539964",
    "latitude": "29.939141103535384",
    "geocoded_column": {
      "latitude": "29.939141103535384",
      "longitude": "-90.11476196539964"
    }
  },
  {
    "service_request": "2023-1030853",
    "request_type": "Trash/Recycling",
    "request_reason": "Missed Trash Pick-Up",
    "date_created": "2023-08-30T17:40:35.000",
    "date_modified": "2023-08-30T17:40:36.000",
    "request_status": "Pending",
    "responsible_agency": "Department of Sanitation",
    "final_address": "6101 Arts St",
    "address_councildis": "D",
    "status": "Assigned to Contractor",
    "contractor": "IV Waste",
    "rowid": "1030853",
    "final_x": "3685718.44214",
    "final_y": "555553.960857",
    "longitude": "-90.053902643852",
    "latitude": "30.021451766373534",
    "geocoded_column": {
      "latitude": "30.021451766373534",
      "longitude": "-90.053902643852"
    }
  },
  {
    "service_request": "2023-1030852",
    "request_type": "Trash/Recycling",
    "request_reason": "Order Trash Cart",
    "date_created": "2023-08-30T17:32:06.000",
    "date_modified": "2023-08-30T17:32:07.000",
    "request_status": "Pending",
    "responsible_agency": "Department of Sanitation",
    "final_address": "1710 New Orleans St",
    "address_councildis": "D",
    "status": "Assigned to Contractor",
    "contractor": "IV Waste",
    "rowid": "1030852",
    "final_x": "3682185.91279",
    "final_y": "538407.471689",
    "longitude": "-90.06566385322495",
    "latitude": "29.974413021510895",
    "geocoded_column": {
      "latitude": "29.974413021510895",
      "longitude": "-90.06566385322495"
    }
  },
  {
    "service_request": "2023-1030851",
    "request_type": "Trash/Recycling",
    "request_reason": "Missed Trash Pick-Up",
    "date_created": "2023-08-30T17:19:28.000",
    "date_modified": "2023-08-30T17:19:29.000",
    "request_status": "Pending",
    "responsible_agency": "Department of Sanitation",
    "final_address": "5530 Norgate Dr",
    "address_councildis": "E",
    "status": "Assigned to Contractor",
    "contractor": "Waste Pro",
    "rowid": "1030851",
    "final_x": "3707020.05534",
    "final_y": "558080.937243",
    "longitude": "-89.98650206835079",
    "latitude": "30.02772876199108",
    "geocoded_column": {
      "latitude": "30.02772876199108",
      "longitude": "-89.98650206835079"
    }
  },
  {
    "service_request": "2023-1030850",
    "request_type": "Roads/Drainage",
    "request_reason": "Debris in Roadway",
    "date_created": "2023-08-30T17:18:16.000",
    "date_modified": "2023-08-30T17:18:16.000",
    "request_status": "Pending",
    "responsible_agency": "Department of Public Works",
    "final_address": "2901 Leon C Simon Dr",
    "address_councildis": "D",
    "status": "Pending",
    "rowid": "1030850",
    "final_x": "3689200.0422",
    "final_y": "558937.249116",
    "longitude": "-90.04278136410075",
    "latitude": "30.030647189520923",
    "geocoded_column": {
      "latitude": "30.030647189520923",
      "longitude": "-90.04278136410075"
    }
  },
  {
    "service_request": "2023-1030849",
    "request_type": "Trash/Recycling",
    "request_reason": "Missed Trash Pick-Up",
    "date_created": "2023-08-30T17:15:51.000",
    "date_modified": "2023-08-30T17:15:51.000",
    "request_status": "Pending",
    "responsible_agency": "Department of Sanitation",
    "final_address": "917 S Carrollton Ave",
    "address_councildis": "A",
    "status": "Assigned to Contractor",
    "contractor": "Richards Disposal",
    "rowid": "1030849",
    "final_x": "3661480.68326",
    "final_y": "527593.346111",
    "longitude": "-90.13141450825945",
    "latitude": "29.945291295623804",
    "geocoded_column": {
      "latitude": "29.945291295623804",
      "longitude": "-90.13141450825945"
    }
  },
  {
    "service_request": "2023-1030848",
    "request_type": "Trash/Recycling",
    "request_reason": "Request a Large Item Pick Up",
    "date_created": "2023-08-30T17:09:33.000",
    "date_modified": "2023-08-30T17:09:34.000",
    "request_status": "Pending",
    "responsible_agency": "Department of Sanitation",
    "final_address": "1326 Frankfort St",
    "address_councildis": "D",
    "status": "Assigned to Contractor",
    "contractor": "IV Waste",
    "rowid": "1030848",
    "final_x": "3677442.3147",
    "final_y": "555754.167001",
    "longitude": "-90.08004605221223",
    "latitude": "30.022253758124553",
    "geocoded_column": {
      "latitude": "30.022253758124553",
      "longitude": "-90.08004605221223"
    }
  },
  {
    "service_request": "2023-1030847",
    "request_type": "Graffiti Removal",
    "request_reason": "Graffiti Removal",
    "date_created": "2023-08-30T17:00:41.000",
    "date_modified": "2023-08-30T17:00:41.000",
    "request_status": "Pending",
    "responsible_agency": "Department of Code Enforcement",
    "final_address": "1400 Louisa Dr",
    "address_councildis": "C",
    "status": "Pending",
    "rowid": "1030847",
    "final_x": "3689822.52259",
    "final_y": "537009.865544",
    "longitude": "-90.04159545566667",
    "latitude": "29.970335581593922",
    "geocoded_column": {
      "latitude": "29.970335581593922",
      "longitude": "-90.04159545566667"
    }
  },
  {
    "service_request": "2023-1030846",
    "request_type": "Parks & Parkways",
    "request_reason": "Request Tree Service (Right of Way/Public Property)",
    "date_created": "2023-08-30T16:57:13.000",
    "date_modified": "2023-08-30T16:57:13.000",
    "request_status": "Pending",
    "responsible_agency": "Department of Parks & Parkway",
    "final_address": "8014 Belfast St",
    "address_councildis": "A",
    "status": "Pending",
    "rowid": "1030846",
    "final_x": "3665815.86304",
    "final_y": "532107.816387",
    "longitude": "-90.11757568320009",
    "latitude": "29.95757887422546",
    "geocoded_column": {
      "latitude": "29.95757887422546",
      "longitude": "-90.11757568320009"
    }
  },
  {
    "service_request": "2023-1030845",
    "request_type": "Traffic Signals/Signs/Striping/Streetlights",
    "request_reason": "Request for Stop Sign",
    "date_created": "2023-08-30T16:55:32.000",
    "date_modified": "2023-08-30T16:55:32.000",
    "request_status": "Pending",
    "responsible_agency": "Department of Public Works",
    "final_address": "MOUTON ST & GENERAL HAIG ST",
    "address_councildis": "A",
    "status": "Pending",
    "rowid": "1030845",
    "final_x": "3671078.4",
    "final_y": "553142.68",
    "longitude": "-90.10024330385494",
    "latitude": "30.01526295734071",
    "geocoded_column": {
      "latitude": "30.01526295734071",
      "longitude": "-90.10024330385494"
    }
  },
  {
    "service_request": "2023-1030844",
    "request_type": "Trash/Recycling",
    "request_reason": "Request a Large Item Pick Up",
    "date_created": "2023-08-30T16:49:50.000",
    "date_modified": "2023-08-30T16:49:51.000",
    "request_status": "Pending",
    "responsible_agency": "Department of Sanitation",
    "final_address": "521 N Hennessey St",
    "address_councildis": "A",
    "status": "Assigned to Contractor",
    "contractor": "Richards Disposal",
    "rowid": "1030844",
    "final_x": "3671288.80993",
    "final_y": "540324.223179",
    "longitude": "-90.10001442865405",
    "latitude": "29.980010428770342",
    "geocoded_column": {
      "latitude": "29.980010428770342",
      "longitude": "-90.10001442865405"
    }
  },
  {
    "service_request": "2023-1030843",
    "request_type": "Trash/Recycling",
    "request_reason": "Request a Large Item Pick Up",
    "date_created": "2023-08-30T16:46:13.000",
    "date_modified": "2023-08-30T16:46:14.000",
    "request_status": "Pending",
    "responsible_agency": "Department of Sanitation",
    "final_address": "5509 Cucullu St",
    "address_councildis": "A",
    "status": "Assigned to Contractor",
    "contractor": "Richards Disposal",
    "rowid": "1030843",
    "final_x": "3667811.26157",
    "final_y": "525803.947581",
    "longitude": "-90.11148704186672",
    "latitude": "29.940186920192858",
    "geocoded_column": {
      "latitude": "29.940186920192858",
      "longitude": "-90.11148704186672"
    }
  },
  {
    "service_request": "2023-1030842",
    "request_type": "Abandoned Vehicles",
    "request_reason": "Abandoned/Junk Vehicles",
    "date_created": "2023-08-30T16:34:09.000",
    "date_modified": "2023-08-30T16:34:09.000",
    "request_status": "Pending",
    "responsible_agency": "Department of Public Works",
    "final_address": "1332 Japonica St",
    "address_councildis": "D",
    "status": "Pending",
    "rowid": "1030842",
    "final_x": "3693889.15926",
    "final_y": "535729.529799",
    "longitude": "-90.02879866405226",
    "latitude": "29.96668842970037",
    "geocoded_column": {
      "latitude": "29.96668842970037",
      "longitude": "-90.02879866405226"
    }
  },
  {
    "service_request": "2023-1030841",
    "request_type": "Property Maintenance",
    "request_reason": "Property Maintenance",
    "date_created": "2023-08-30T16:29:44.000",
    "date_modified": "2023-08-30T16:29:44.000",
    "request_status": "Pending",
    "responsible_agency": "Department of Code Enforcement",
    "final_address": "1917 Leonidas St",
    "address_councildis": "A",
    "status": "Pending",
    "rowid": "1030841",
    "final_x": "3662467.90407",
    "final_y": "531511.979139",
    "longitude": "-90.12816739411406",
    "latitude": "29.95603776509286",
    "geocoded_column": {
      "latitude": "29.95603776509286",
      "longitude": "-90.12816739411406"
    }
  },
  {
    "service_request": "2023-1030840",
    "request_type": "Property Maintenance",
    "request_reason": "Property Maintenance",
    "date_created": "2023-08-30T16:25:44.000",
    "date_modified": "2023-08-30T16:25:44.000",
    "request_status": "Pending",
    "responsible_agency": "Department of Code Enforcement",
    "final_address": "2001 N Miro St",
    "address_councildis": "D",
    "status": "Pending",
    "rowid": "1030840",
    "final_x": "3683231.64655",
    "final_y": "540295.321995",
    "longitude": "-90.06229504323372",
    "latitude": "29.97957209834683",
    "geocoded_column": {
      "latitude": "29.97957209834683",
      "longitude": "-90.06229504323372"
    }
  },
  {
    "service_request": "2023-1030839",
    "request_type": "Trash/Recycling",
    "request_reason": "Request a Large Item Pick Up",
    "date_created": "2023-08-30T16:24:09.000",
    "date_modified": "2023-08-30T16:24:10.000",
    "request_status": "Pending",
    "responsible_agency": "Department of Sanitation",
    "final_address": "8 Heritage Ln Unit 32",
    "address_councildis": "C",
    "status": "Assigned to Contractor",
    "contractor": "Richards Disposal",
    "rowid": "1030839",
    "final_x": "3695915.35587",
    "final_y": "520169.41324",
    "longitude": "-90.02296192462806",
    "latitude": "29.92383993179008",
    "geocoded_column": {
      "latitude": "29.92383993179008",
      "longitude": "-90.02296192462806"
    }
  },
  {
    "service_request": "2023-1030838",
    "request_type": "Trash/Recycling",
    "request_reason": "Missed Trash Pick-Up",
    "date_created": "2023-08-30T16:21:43.000",
    "date_modified": "2023-08-30T16:21:44.000",
    "request_status": "Pending",
    "responsible_agency": "Department of Sanitation",
    "final_address": "2701 N Tonti St",
    "address_councildis": "D",
    "status": "Assigned to Contractor",
    "contractor": "IV Waste",
    "rowid": "1030838",
    "final_x": "3687954.98806",
    "final_y": "541020.277387",
    "longitude": "-90.04735117502351",
    "latitude": "29.981420557338442",
    "geocoded_column": {
      "latitude": "29.981420557338442",
      "longitude": "-90.04735117502351"
    }
  },
  {
    "service_request": "2023-1030837",
    "request_type": "Trash/Recycling",
    "request_reason": "Missed Trash Pick-Up",
    "date_created": "2023-08-30T16:20:45.000",
    "date_modified": "2023-08-30T16:20:46.000",
    "request_status": "Pending",
    "responsible_agency": "Department of Sanitation",
    "final_address": "7319 Heather Ct",
    "address_councildis": "E",
    "status": "Assigned to Contractor",
    "contractor": "Waste Pro",
    "rowid": "1030837",
    "final_x": "3705683.32945",
    "final_y": "562146.296991",
    "longitude": "-89.99057545084975",
    "latitude": "30.038950040582716",
    "geocoded_column": {
      "latitude": "30.038950040582716",
      "longitude": "-89.99057545084975"
    }
  },
  {
    "service_request": "2023-1030836",
    "request_type": "Parks & Parkways",
    "request_reason": "Request Tree Service (Right of Way/Public Property)",
    "date_created": "2023-08-30T16:19:19.000",
    "date_modified": "2023-08-30T16:25:39.000",
    "request_status": "Pending",
    "responsible_agency": "Department of Parks & Parkway",
    "final_address": "5669 Hawthorne Pl",
    "address_councildis": "A",
    "status": "Pending",
    "rowid": "1030836",
    "final_x": "3667977.13268",
    "final_y": "545191.332943",
    "longitude": "-90.11031003876641",
    "latitude": "29.993490920033317",
    "geocoded_column": {
      "latitude": "29.993490920033317",
      "longitude": "-90.11031003876641"
    }
  },
  {
    "service_request": "2023-1030835",
    "request_type": "Trash/Recycling",
    "request_reason": "Illegal Dumping",
    "date_created": "2023-08-30T16:16:59.000",
    "date_modified": "2023-08-30T16:16:59.000",
    "request_status": "Pending",
    "responsible_agency": "Department of Sanitation",
    "final_address": "1443 N Roman St",
    "address_councildis": "D",
    "status": "Pending",
    "rowid": "1030835",
    "final_x": "3680930.1604",
    "final_y": "537387.672392",
    "longitude": "-90.06966533643815",
    "latitude": "29.971647066052427",
    "geocoded_column": {
      "latitude": "29.971647066052427",
      "longitude": "-90.06966533643815"
    }
  },
  {
    "service_request": "2023-1030834",
    "request_type": "Trash/Recycling",
    "request_reason": "Request a Large Item Pick Up",
    "date_created": "2023-08-30T16:16:30.000",
    "date_modified": "2023-08-30T16:16:31.000",
    "request_status": "Pending",
    "responsible_agency": "Department of Sanitation",
    "final_address": "2114 Jena St",
    "address_councildis": "B",
    "status": "Assigned to Contractor",
    "contractor": "Richards Disposal",
    "rowid": "1030834",
    "final_x": "3670175.6626",
    "final_y": "522731.64857",
    "longitude": "-90.10412629417095",
    "latitude": "29.931669550921004",
    "geocoded_column": {
      "latitude": "29.931669550921004",
      "longitude": "-90.10412629417095"
    }
  },
  {
    "service_request": "2023-1030833",
    "request_type": "Trash/Recycling",
    "request_reason": "Order Recycling Cart",
    "date_created": "2023-08-30T16:15:48.000",
    "date_modified": "2023-08-30T16:15:49.000",
    "request_status": "Pending",
    "responsible_agency": "Department of Sanitation",
    "final_address": "8543 Fordham Ct",
    "address_councildis": "E",
    "status": "Pending",
    "rowid": "1030833",
    "final_x": "3705062.14507",
    "final_y": "560464.349086",
    "longitude": "-89.9926007482196",
    "latitude": "30.034345346221347",
    "geocoded_column": {
      "latitude": "30.034345346221347",
      "longitude": "-89.9926007482196"
    }
  },
  {
    "service_request": "2023-1030832",
    "request_type": "Trash/Recycling",
    "request_reason": "Request a Large Item Pick Up",
    "date_created": "2023-08-30T16:12:01.000",
    "date_modified": "2023-08-30T16:12:02.000",
    "request_status": "Pending",
    "responsible_agency": "Department of Sanitation",
    "final_address": "4224 Banks St",
    "address_councildis": "A",
    "status": "Assigned to Contractor",
    "contractor": "Richards Disposal",
    "rowid": "1030832",
    "final_x": "3669645.00788",
    "final_y": "537790.72564",
    "longitude": "-90.10529201272193",
    "latitude": "29.973092712951487",
    "geocoded_column": {
      "latitude": "29.973092712951487",
      "longitude": "-90.10529201272193"
    }
  },
  {
    "service_request": "2023-1030831",
    "request_type": "Abandoned Vehicles",
    "request_reason": "Abandoned/Junk Vehicles",
    "date_created": "2023-08-30T16:11:36.000",
    "date_modified": "2023-08-30T16:11:36.000",
    "request_status": "Pending",
    "responsible_agency": "Department of Public Works",
    "final_address": "2102 Josephine St",
    "address_councildis": "B",
    "status": "Pending",
    "rowid": "1030831",
    "final_x": "3676694.90958",
    "final_y": "525469.846653",
    "longitude": "-90.08345146719219",
    "latitude": "29.93900478900346",
    "geocoded_column": {
      "latitude": "29.93900478900346",
      "longitude": "-90.08345146719219"
    }
  },
  {
    "service_request": "2023-1030830",
    "request_type": "Trash/Recycling",
    "request_reason": "Replace Trash Cart",
    "date_created": "2023-08-30T16:11:03.000",
    "date_modified": "2023-08-30T16:11:04.000",
    "request_status": "Pending",
    "responsible_agency": "Department of Sanitation",
    "final_address": "532 S Dorgenois St",
    "address_councildis": "B",
    "status": "Assigned to Contractor",
    "contractor": "Richards Disposal",
    "rowid": "1030830",
    "final_x": "3674694.37352",
    "final_y": "533205.161412",
    "longitude": "-90.08950230652962",
    "latitude": "29.960334193542735",
    "geocoded_column": {
      "latitude": "29.960334193542735",
      "longitude": "-90.08950230652962"
    }
  },
  {
    "service_request": "2023-1030829",
    "request_type": "Roads/Drainage",
    "request_reason": "Pothole",
    "date_created": "2023-08-30T16:09:49.000",
    "date_modified": "2023-08-30T16:09:49.000",
    "request_status": "Pending",
    "responsible_agency": "Department of Public Works",
    "final_address": "1312 Milan St",
    "address_councildis": "B",
    "status": "Pending",
    "rowid": "1030829",
    "final_x": "3671625.82823",
    "final_y": "520286.919608",
    "longitude": "-90.09963137110304",
    "latitude": "29.92490447494246",
    "geocoded_column": {
      "latitude": "29.92490447494246",
      "longitude": "-90.09963137110304"
    }
  },
  {
    "service_request": "2023-1030828",
    "request_type": "Trash/Recycling",
    "request_reason": "Request a Large Item Pick Up",
    "date_created": "2023-08-30T16:04:11.000",
    "date_modified": "2023-08-30T16:04:11.000",
    "request_status": "Pending",
    "responsible_agency": "Department of Sanitation",
    "final_address": "1318 Foucher St",
    "address_councildis": "B",
    "status": "Assigned to Contractor",
    "contractor": "Richards Disposal",
    "rowid": "1030828",
    "final_x": "3673829.94139",
    "final_y": "520141.272824",
    "longitude": "-90.09267867502054",
    "latitude": "29.92443855592867",
    "geocoded_column": {
      "latitude": "29.92443855592867",
      "longitude": "-90.09267867502054"
    }
  },
  {
    "service_request": "2023-1030827",
    "request_type": "Roads/Drainage",
    "request_reason": "Pothole",
    "date_created": "2023-08-30T15:58:33.000",
    "date_modified": "2023-08-30T15:58:33.000",
    "request_status": "Pending",
    "responsible_agency": "Department of Public Works",
    "final_address": "1421 Constantinople St",
    "address_councildis": "B",
    "status": "Pending",
    "rowid": "1030827",
    "final_x": "3672433.24257",
    "final_y": "520667.657465",
    "longitude": "-90.09706965638372",
    "latitude": "29.925927453713577",
    "geocoded_column": {
      "latitude": "29.925927453713577",
      "longitude": "-90.09706965638372"
    }
  },
  {
    "service_request": "2023-1030826",
    "request_type": "Trash/Recycling",
    "request_reason": "Request a Large Item Pick Up",
    "date_created": "2023-08-30T15:53:33.000",
    "date_modified": "2023-08-30T15:53:34.000",
    "request_status": "Pending",
    "responsible_agency": "Department of Sanitation",
    "final_address": "5823 Magazine St",
    "address_councildis": "A",
    "status": "Assigned to Contractor",
    "contractor": "Richards Disposal",
    "rowid": "1030826",
    "final_x": "3665369.49191",
    "final_y": "519072.934263",
    "longitude": "-90.11942125395646",
    "latitude": "29.92175013391954",
    "geocoded_column": {
      "latitude": "29.92175013391954",
      "longitude": "-90.11942125395646"
    }
  },
  {
    "service_request": "2023-1030825",
    "request_type": "Roads/Drainage",
    "request_reason": "Pothole",
    "date_created": "2023-08-30T15:51:59.000",
    "date_modified": "2023-08-30T15:51:59.000",
    "request_status": "Pending",
    "responsible_agency": "Department of Public Works",
    "final_address": "4216 Chestnut St",
    "address_councildis": "B",
    "status": "Pending",
    "rowid": "1030825",
    "final_x": "3671574.31393",
    "final_y": "519539.203703",
    "longitude": "-90.09981939416457",
    "latitude": "29.922850019854593",
    "geocoded_column": {
      "latitude": "29.922850019854593",
      "longitude": "-90.09981939416457"
    }
  },
  {
    "service_request": "2023-1030824",
    "request_type": "Trash/Recycling",
    "request_reason": "Repair Trash Cart",
    "date_created": "2023-08-30T15:50:27.000",
    "date_modified": "2023-08-30T15:50:28.000",
    "request_status": "Pending",
    "responsible_agency": "Department of Sanitation",
    "final_address": "3824 Bruxelles St",
    "address_councildis": "D",
    "status": "Assigned to Contractor",
    "contractor": "IV Waste",
    "rowid": "1030824",
    "final_x": "3679965.82331",
    "final_y": "546517.877649",
    "longitude": "-90.07239354794002",
    "latitude": "29.996781149789303",
    "geocoded_column": {
      "latitude": "29.996781149789303",
      "longitude": "-90.07239354794002"
    }
  },
  {
    "service_request": "2023-1030823",
    "request_type": "Traffic Signals/Signs/Striping/Streetlights",
    "request_reason": "Traffic Sign Missing/Damaged",
    "date_created": "2023-08-30T15:49:24.000",
    "date_modified": "2023-08-30T15:49:24.000",
    "request_status": "Pending",
    "responsible_agency": "Department of Public Works",
    "final_address": "BELFAST ST & MONROE ST",
    "address_councildis": "A",
    "status": "Pending",
    "rowid": "1030823",
    "final_x": "3664020.1",
    "final_y": "533791.38",
    "longitude": "-90.12319005468927",
    "latitude": "29.962260392732436",
    "geocoded_column": {
      "latitude": "29.962260392732436",
      "longitude": "-90.12319005468927"
    }
  },
  {
    "service_request": "2023-1030822",
    "request_type": "Trash/Recycling",
    "request_reason": "Request a Large Item Pick Up",
    "date_created": "2023-08-30T15:45:35.000",
    "date_modified": "2023-08-30T15:45:35.000",
    "request_status": "Pending",
    "responsible_agency": "Department of Sanitation",
    "final_address": "6216 Paris Ave",
    "address_councildis": "D",
    "status": "Assigned to Contractor",
    "contractor": "IV Waste",
    "rowid": "1030822",
    "final_x": "3678726.65435",
    "final_y": "555709.315545",
    "longitude": "-90.07598940986219",
    "latitude": "30.022091744257125",
    "geocoded_column": {
      "latitude": "30.022091744257125",
      "longitude": "-90.07598940986219"
    }
  },
  {
    "service_request": "2023-1030821",
    "request_type": "Trash/Recycling",
    "request_reason": "Request a Large Item Pick Up",
    "date_created": "2023-08-30T15:43:09.000",
    "date_modified": "2023-08-30T15:43:09.000",
    "request_status": "Pending",
    "responsible_agency": "Department of Sanitation",
    "final_address": "206 Fairway Dr",
    "address_councildis": "A",
    "status": "Assigned to Contractor",
    "contractor": "IV Waste",
    "rowid": "1030821",
    "final_x": "3664089.48871",
    "final_y": "540911.066315",
    "longitude": "-90.12273339797012",
    "latitude": "29.981835156162713",
    "geocoded_column": {
      "latitude": "29.981835156162713",
      "longitude": "-90.12273339797012"
    }
  },
  {
    "service_request": "2023-1030820",
    "request_type": "Abandoned Vehicles",
    "request_reason": "Abandoned/Junk Vehicles",
    "date_created": "2023-08-30T15:42:58.000",
    "date_modified": "2023-08-30T15:45:35.000",
    "request_status": "Pending",
    "responsible_agency": "Department of Public Works",
    "final_address": "3109 Milan St",
    "address_councildis": "B",
    "status": "Pending",
    "rowid": "1030820",
    "final_x": "3671087.49735",
    "final_y": "526417.534398",
    "longitude": "-90.10112259851958",
    "latitude": "29.94177761664842",
    "geocoded_column": {
      "latitude": "29.94177761664842",
      "longitude": "-90.10112259851958"
    }
  },
  {
    "service_request": "2023-1030819",
    "request_type": "Parks & Parkways",
    "request_reason": "Request Tree Service (Right of Way/Public Property)",
    "date_created": "2023-08-30T15:41:29.000",
    "date_modified": "2023-08-30T15:41:30.000",
    "request_status": "Pending",
    "responsible_agency": "Department of Parks & Parkway",
    "final_address": "3607 Clermont Dr",
    "address_councildis": "D",
    "status": "Pending",
    "rowid": "1030819",
    "final_x": "3685960.57564",
    "final_y": "545758.980304",
    "longitude": "-90.05348326027618",
    "latitude": "29.994511700343057",
    "geocoded_column": {
      "latitude": "29.994511700343057",
      "longitude": "-90.05348326027618"
    }
  },
  {
    "service_request": "2023-1030818",
    "request_type": "Roads/Drainage",
    "request_reason": "Pothole",
    "date_created": "2023-08-30T15:37:08.000",
    "date_modified": "2023-08-30T15:37:08.000",
    "request_status": "Pending",
    "responsible_agency": "Department of Public Works",
    "final_address": "1300 Milan St",
    "address_councildis": "B",
    "status": "Pending",
    "rowid": "1030818",
    "final_x": "3671629.15374",
    "final_y": "520175.7502",
    "longitude": "-90.0996246518961",
    "latitude": "29.924598696141217",
    "geocoded_column": {
      "latitude": "29.924598696141217",
      "longitude": "-90.0996246518961"
    }
  },
  {
    "service_request": "2023-1030816",
    "request_type": "Parks & Parkways",
    "request_reason": "Request Tree Service (Right of Way/Public Property)",
    "date_created": "2023-08-30T15:35:38.000",
    "date_modified": "2023-08-30T15:35:38.000",
    "request_status": "Pending",
    "responsible_agency": "Department of Parks & Parkway",
    "final_address": "7821 Belfast St",
    "address_councildis": "A",
    "status": "Pending",
    "rowid": "1030816",
    "final_x": "3666338.05172",
    "final_y": "531741.301635",
    "longitude": "-90.11593905484541",
    "latitude": "29.956555833692743",
    "geocoded_column": {
      "latitude": "29.956555833692743",
      "longitude": "-90.11593905484541"
    }
  },
  {
    "service_request": "2023-1030815",
    "request_type": "Trash/Recycling",
    "request_reason": "MIssed Recycling Pick-Up",
    "date_created": "2023-08-30T15:34:16.000",
    "date_modified": "2023-08-30T15:34:17.000",
    "request_status": "Pending",
    "responsible_agency": "Department of Sanitation",
    "final_address": "239 Olivier St",
    "address_councildis": "C",
    "status": "Assigned to Contractor",
    "contractor": "Richards Disposal",
    "rowid": "1030815",
    "final_x": "3687176.55087",
    "final_y": "530881.546114",
    "longitude": "-90.05016843772565",
    "latitude": "29.953566579444555",
    "geocoded_column": {
      "latitude": "29.953566579444555",
      "longitude": "-90.05016843772565"
    }
  },
  {
    "service_request": "2023-1030814",
    "request_type": "Trash/Recycling",
    "request_reason": "MIssed Recycling Pick-Up",
    "date_created": "2023-08-30T15:30:47.000",
    "date_modified": "2023-08-30T15:30:48.000",
    "request_status": "Pending",
    "responsible_agency": "Department of Sanitation",
    "final_address": "11251 N Idlewood Ct",
    "address_councildis": "E",
    "status": "Assigned to Contractor",
    "contractor": "Waste Pro",
    "rowid": "1030814",
    "final_x": "3716228.04671",
    "final_y": "560430.345694",
    "longitude": "-89.95731667589614",
    "latitude": "30.03388788334282",
    "geocoded_column": {
      "latitude": "30.03388788334282",
      "longitude": "-89.95731667589614"
    }
  },
  {
    "service_request": "2023-1030813",
    "request_type": "Property Maintenance",
    "request_reason": "Property Maintenance",
    "date_created": "2023-08-30T15:29:52.000",
    "date_modified": "2023-08-30T15:29:52.000",
    "request_status": "Pending",
    "responsible_agency": "Department of Code Enforcement",
    "final_address": "2717 Burdette St",
    "address_councildis": "A",
    "status": "Pending",
    "rowid": "1030813",
    "final_x": "3666609.13345",
    "final_y": "531653.995779",
    "longitude": "-90.11508599509848",
    "latitude": "29.956307849063165",
    "geocoded_column": {
      "latitude": "29.956307849063165",
      "longitude": "-90.11508599509848"
    }
  },
  {
    "service_request": "2023-1030812",
    "request_type": "Roads/Drainage",
    "request_reason": "Pothole",
    "date_created": "2023-08-30T15:29:44.000",
    "date_modified": "2023-08-30T15:29:44.000",
    "request_status": "Pending",
    "responsible_agency": "Department of Public Works",
    "final_address": "1423 General Pershing St",
    "address_councildis": "B",
    "status": "Pending",
    "rowid": "1030812",
    "final_x": "3671330.69185",
    "final_y": "520571.244024",
    "longitude": "-90.1005533659415",
    "latitude": "29.925695010510914",
    "geocoded_column": {
      "latitude": "29.925695010510914",
      "longitude": "-90.1005533659415"
    }
  },
  {
    "service_request": "2023-1030810",
    "request_type": "Graffiti Removal",
    "request_reason": "Graffiti Removal",
    "date_created": "2023-08-30T15:28:32.000",
    "date_modified": "2023-08-30T15:28:32.000",
    "request_status": "Pending",
    "responsible_agency": "Department of Code Enforcement",
    "final_address": "8400 Chef Menteur Hwy",
    "address_councildis": "E",
    "status": "Pending",
    "rowid": "1030810",
    "final_x": "3706436.34385",
    "final_y": "552867.237911",
    "longitude": "-89.98853989245151",
    "latitude": "30.01341196064843",
    "geocoded_column": {
      "latitude": "30.01341196064843",
      "longitude": "-89.98853989245151"
    }
  },
  {
    "service_request": "2023-1030811",
    "request_type": "Safety & Permits",
    "request_reason": "Licenses & Permits",
    "date_created": "2023-08-30T15:28:32.000",
    "date_modified": "2023-08-30T15:28:32.000",
    "request_status": "Pending",
    "responsible_agency": "Safety and Permits",
    "status": "Pending",
    "rowid": "1030811",
    "longitude": "0.0",
    "latitude": "0.0",
    "geocoded_column": {
      "latitude": "0.0",
      "longitude": "0.0"
    }
  },
  {
    "service_request": "2023-1030809",
    "request_type": "Graffiti Removal",
    "request_reason": "Graffiti Removal",
    "date_created": "2023-08-30T15:26:15.000",
    "date_modified": "2023-08-30T15:26:15.000",
    "request_status": "Pending",
    "responsible_agency": "Department of Code Enforcement",
    "final_address": "5523 St Claude Ave",
    "address_councildis": "E",
    "status": "Pending",
    "rowid": "1030809",
    "final_x": "3697891.13783",
    "final_y": "533912.815493",
    "longitude": "-90.0162264592455",
    "latitude": "29.961567225255465",
    "geocoded_column": {
      "latitude": "29.961567225255465",
      "longitude": "-90.0162264592455"
    }
  },
  {
    "service_request": "2023-1030808",
    "request_type": "Trash/Recycling",
    "request_reason": "Replace Trash Cart",
    "date_created": "2023-08-30T15:16:21.000",
    "date_modified": "2023-08-30T15:16:22.000",
    "request_status": "Pending",
    "responsible_agency": "Department of Sanitation",
    "final_address": "2400 S Claiborne Ave",
    "address_councildis": "B",
    "status": "Assigned to Contractor",
    "contractor": "Richards Disposal",
    "rowid": "1030808",
    "final_x": "3674177.03841",
    "final_y": "527191.795455",
    "longitude": "-90.09134177021839",
    "latitude": "29.9438148632189",
    "geocoded_column": {
      "latitude": "29.9438148632189",
      "longitude": "-90.09134177021839"
    }
  },
  {
    "service_request": "2023-1030807",
    "request_type": "Traffic Signals/Signs/Striping/Streetlights",
    "request_reason": "Street Light Outage/Malfunction",
    "date_created": "2023-08-30T15:11:50.000",
    "date_modified": "2023-08-30T15:11:50.000",
    "request_status": "Pending",
    "responsible_agency": "Department of Public Works",
    "final_address": "3626 Frenchmen St",
    "address_councildis": "D",
    "status": "Assigned to Contractor",
    "contractor": "Legacy Professional Services",
    "rowid": "1030807",
    "final_x": "3683766.06274",
    "final_y": "546003.517584",
    "longitude": "-90.06040686099116",
    "latitude": "29.995251306533365",
    "geocoded_column": {
      "latitude": "29.995251306533365",
      "longitude": "-90.06040686099116"
    }
  },
  {
    "service_request": "2023-1030806",
    "request_type": "Trash/Recycling",
    "request_reason": "Request a Large Item Pick Up",
    "date_created": "2023-08-30T15:11:08.000",
    "date_modified": "2023-08-30T15:11:09.000",
    "request_status": "Pending",
    "responsible_agency": "Department of Sanitation",
    "final_address": "2731 General Taylor St",
    "address_councildis": "B",
    "status": "Assigned to Contractor",
    "contractor": "Richards Disposal",
    "rowid": "1030806",
    "final_x": "3671712.09115",
    "final_y": "525127.979453",
    "longitude": "-90.09919447419718",
    "latitude": "29.938213276254167",
    "geocoded_column": {
      "latitude": "29.938213276254167",
      "longitude": "-90.09919447419718"
    }
  },
  {
    "service_request": "2023-1030805",
    "request_type": "Trash/Recycling",
    "request_reason": "Request a Large Item Pick Up",
    "date_created": "2023-08-30T15:08:26.000",
    "date_modified": "2023-08-30T15:08:27.000",
    "request_status": "Pending",
    "responsible_agency": "Department of Sanitation",
    "final_address": "1723 Clio St",
    "address_councildis": "B",
    "status": "Assigned to Contractor",
    "contractor": "Richards Disposal",
    "rowid": "1030805",
    "final_x": "3679170.11061",
    "final_y": "526746.58067",
    "longitude": "-90.0755927205323",
    "latitude": "29.94244091253882",
    "geocoded_column": {
      "latitude": "29.94244091253882",
      "longitude": "-90.0755927205323"
    }
  },
  {
    "service_request": "2023-1030804",
    "request_type": "Abandoned Vehicles",
    "request_reason": "Abandoned/Junk Vehicles",
    "date_created": "2023-08-30T15:06:44.000",
    "date_modified": "2023-08-30T15:06:45.000",
    "request_status": "Pending",
    "responsible_agency": "Department of Public Works",
    "final_address": "ANNETTE ST & N ROMAN ST",
    "address_councildis": "D",
    "status": "Pending",
    "rowid": "1030804",
    "final_x": "3682939.8",
    "final_y": "538727.28",
    "longitude": "-90.06327170497366",
    "latitude": "29.97526942829095",
    "geocoded_column": {
      "latitude": "29.97526942829095",
      "longitude": "-90.06327170497366"
    }
  },
  {
    "service_request": "2023-1030803",
    "request_type": "Trash/Recycling",
    "request_reason": "Order Recycling Cart",
    "date_created": "2023-08-30T15:03:04.000",
    "date_modified": "2023-08-30T15:03:04.000",
    "request_status": "Pending",
    "responsible_agency": "Department of Sanitation",
    "final_address": "3215 Cherry St",
    "address_councildis": "A",
    "status": "Pending",
    "rowid": "1030803",
    "final_x": "3663758.11635",
    "final_y": "536570.515207",
    "longitude": "-90.12392473466345",
    "latitude": "29.9699097064629",
    "geocoded_column": {
      "latitude": "29.9699097064629",
      "longitude": "-90.12392473466345"
    }
  },
  {
    "service_request": "2023-1030802",
    "request_type": "Utility Poles",
    "request_reason": "Utility Pole Leaning",
    "date_created": "2023-08-30T14:59:13.000",
    "date_modified": "2023-08-30T14:59:17.000",
    "request_status": "Pending",
    "responsible_agency": "Utility Company Collective",
    "final_address": "2708 S Derbigny St",
    "address_councildis": "B",
    "status": "Pending",
    "rowid": "1030802",
    "final_x": "3673144.19496",
    "final_y": "527141.466943",
    "longitude": "-90.09460445997654",
    "latitude": "29.94370721878155",
    "geocoded_column": {
      "latitude": "29.94370721878155",
      "longitude": "-90.09460445997654"
    }
  },
  {
    "service_request": "2023-1030801",
    "request_type": "Traffic Signals/Signs/Striping/Streetlights",
    "request_reason": "Request for Traffic Calming due to Speeding",
    "date_created": "2023-08-30T14:54:09.000",
    "date_modified": "2023-08-30T14:54:09.000",
    "request_status": "Pending",
    "responsible_agency": "Department of Public Works",
    "final_address": "2401 Humanity St",
    "address_councildis": "D",
    "status": "Pending",
    "rowid": "1030801",
    "final_x": "3685717.19644",
    "final_y": "544960.710031",
    "longitude": "-90.0542802111301",
    "latitude": "29.992324215168757",
    "geocoded_column": {
      "latitude": "29.992324215168757",
      "longitude": "-90.0542802111301"
    }
  },
  {
    "service_request": "2023-1030800",
    "request_type": "Parks & Parkways",
    "request_reason": "Request Tree Service (Right of Way/Public Property)",
    "date_created": "2023-08-30T14:54:01.000",
    "date_modified": "2023-08-30T14:54:01.000",
    "request_status": "Pending",
    "responsible_agency": "Department of Parks & Parkway",
    "final_address": "1700 BLK Coliseum St",
    "address_councildis": "B",
    "status": "Pending",
    "rowid": "1030800",
    "final_x": "3679647.74926",
    "final_y": "524356.193529",
    "longitude": "-90.07416764115771",
    "latitude": "29.935853715328015",
    "geocoded_column": {
      "latitude": "29.935853715328015",
      "longitude": "-90.07416764115771"
    }
  },
  {
    "service_request": "2023-1030799",
    "request_type": "Traffic Signals/Signs/Striping/Streetlights",
    "request_reason": "Street Light Outage/Malfunction",
    "date_created": "2023-08-30T14:52:13.000",
    "date_modified": "2023-08-30T14:52:14.000",
    "request_status": "Pending",
    "responsible_agency": "Department of Public Works",
    "status": "Assigned to Contractor",
    "contractor": "Legacy Professional Services",
    "rowid": "1030799",
    "longitude": "0.0",
    "latitude": "0.0",
    "geocoded_column": {
      "latitude": "0.0",
      "longitude": "0.0"
    }
  },
  {
    "service_request": "2023-1030798",
    "request_type": "Traffic Signals/Signs/Striping/Streetlights",
    "request_reason": "Street Light Outage/Malfunction",
    "date_created": "2023-08-30T14:49:25.000",
    "date_modified": "2023-08-30T14:49:26.000",
    "request_status": "Pending",
    "responsible_agency": "Department of Public Works",
    "final_address": "8741 Lomond Rd",
    "address_councildis": "E",
    "status": "Assigned to Contractor",
    "contractor": "Legacy Professional Services",
    "rowid": "1030798",
    "final_x": "3704710.01156",
    "final_y": "562657.588192",
    "longitude": "-89.9936324940602",
    "latitude": "30.04038721564253",
    "geocoded_column": {
      "latitude": "30.04038721564253",
      "longitude": "-89.9936324940602"
    }
  },
  {
    "service_request": "2023-1030797",
    "request_type": "Trash/Recycling",
    "request_reason": "Replace Trash Cart",
    "date_created": "2023-08-30T14:43:20.000",
    "date_modified": "2023-08-30T14:43:20.000",
    "request_status": "Pending",
    "responsible_agency": "Department of Sanitation",
    "final_address": "5518 Fontainebleau Dr",
    "address_councildis": "A",
    "status": "Assigned to Contractor",
    "contractor": "Richards Disposal",
    "rowid": "1030797",
    "final_x": "3668662.60212",
    "final_y": "529671.120833",
    "longitude": "-90.10866872710997",
    "latitude": "29.950795401590888",
    "geocoded_column": {
      "latitude": "29.950795401590888",
      "longitude": "-90.10866872710997"
    }
  },
  {
    "service_request": "2023-1030796",
    "request_type": "Traffic Signals/Signs/Striping/Streetlights",
    "request_reason": "Street Light Outage/Malfunction",
    "date_created": "2023-08-30T14:41:59.000",
    "date_modified": "2023-08-30T14:41:59.000",
    "request_status": "Pending",
    "responsible_agency": "Department of Public Works",
    "final_address": "Drexel Drive & South Norman C Francis Parkway",
    "address_councildis": "B",
    "status": "Assigned to Contractor",
    "contractor": "Legacy Professional Services",
    "rowid": "1030796",
    "final_x": "3670630.65019",
    "final_y": "533368.920964",
    "longitude": "-90.10232918105342",
    "latitude": "29.960905146648173",
    "geocoded_column": {
      "latitude": "29.960905146648173",
      "longitude": "-90.10232918105342"
    }
  },
  {
    "service_request": "2023-1030795",
    "request_type": "Utility Poles",
    "request_reason": "Utility Pole Leaning",
    "date_created": "2023-08-30T14:41:47.000",
    "date_modified": "2023-08-30T14:41:51.000",
    "request_status": "Pending",
    "responsible_agency": "Utility Company Collective",
    "final_address": "2054 Elizardi Blvd",
    "address_councildis": "C",
    "status": "Pending",
    "rowid": "1030795",
    "final_x": "3694707.40669",
    "final_y": "522815.113083",
    "longitude": "-90.0266797293987",
    "latitude": "29.931152635668962",
    "geocoded_column": {
      "latitude": "29.931152635668962",
      "longitude": "-90.0266797293987"
    }
  },
  {
    "service_request": "2023-1030794",
    "request_type": "Trash/Recycling",
    "request_reason": "Request a Large Item Pick Up",
    "date_created": "2023-08-30T14:38:05.000",
    "date_modified": "2023-08-30T14:38:05.000",
    "request_status": "Pending",
    "responsible_agency": "Department of Sanitation",
    "final_address": "2343 Annunciation St",
    "address_councildis": "B",
    "status": "Assigned to Contractor",
    "contractor": "Richards Disposal",
    "rowid": "1030794",
    "final_x": "3678915.48917",
    "final_y": "520777.026617",
    "longitude": "-90.07660333019439",
    "latitude": "29.92603428527334",
    "geocoded_column": {
      "latitude": "29.92603428527334",
      "longitude": "-90.07660333019439"
    }
  },
  {
    "service_request": "2023-1030793",
    "request_type": "Trash/Recycling",
    "request_reason": "Replace Trash Cart",
    "date_created": "2023-08-30T14:37:30.000",
    "date_modified": "2023-08-30T14:37:31.000",
    "request_status": "Pending",
    "responsible_agency": "Department of Sanitation",
    "final_address": "2206 Marengo St",
    "address_councildis": "B",
    "status": "Assigned to Contractor",
    "contractor": "Richards Disposal",
    "rowid": "1030793",
    "final_x": "3671691.23412",
    "final_y": "523176.064891",
    "longitude": "-90.09932668735516",
    "latitude": "29.932846760319308",
    "geocoded_column": {
      "latitude": "29.932846760319308",
      "longitude": "-90.09932668735516"
    }
  },
  {
    "service_request": "2023-1030792",
    "request_type": "Trash/Recycling",
    "request_reason": "Order Trash Cart",
    "date_created": "2023-08-30T14:35:38.000",
    "date_modified": "2023-08-30T14:35:38.000",
    "request_status": "Pending",
    "responsible_agency": "Department of Sanitation",
    "final_address": "1513 Virginia Marie St",
    "address_councildis": "D",
    "status": "Assigned to Contractor",
    "contractor": "IV Waste",
    "rowid": "1030792",
    "final_x": "3678942.38146",
    "final_y": "548857.522323",
    "longitude": "-90.07554541760943",
    "latitude": "30.003245270510984",
    "geocoded_column": {
      "latitude": "30.003245270510984",
      "longitude": "-90.07554541760943"
    }
  },
  {
    "service_request": "2023-1030791",
    "request_type": "Trash/Recycling",
    "request_reason": "Request a Large Item Pick Up",
    "date_created": "2023-08-30T14:31:47.000",
    "date_modified": "2023-08-30T14:31:49.000",
    "request_status": "Pending",
    "responsible_agency": "Department of Sanitation",
    "final_address": "2722 Frankfort St",
    "address_councildis": "D",
    "status": "Assigned to Contractor",
    "contractor": "IV Waste",
    "rowid": "1030791",
    "final_x": "3687186.74844",
    "final_y": "557138.809626",
    "longitude": "-90.04920708595829",
    "latitude": "30.025764349283",
    "geocoded_column": {
      "latitude": "30.025764349283",
      "longitude": "-90.04920708595829"
    }
  },
  {
    "service_request": "2023-1030790",
    "request_type": "Parks & Parkways",
    "request_reason": "Request Grass Cutting Service (City Owned Property)",
    "date_created": "2023-08-30T14:26:21.000",
    "date_modified": "2023-08-30T14:26:21.000",
    "request_status": "Pending",
    "responsible_agency": "Department of Parks & Parkway",
    "final_address": "3022 New Orleans St",
    "address_councildis": "D",
    "status": "Pending",
    "rowid": "1030790",
    "final_x": "3681713.68904",
    "final_y": "543738.494734",
    "longitude": "-90.06696917155095",
    "latitude": "29.989085827664002",
    "geocoded_column": {
      "latitude": "29.989085827664002",
      "longitude": "-90.06696917155095"
    }
  },
  {
    "service_request": "2023-1030789",
    "request_type": "Trash/Recycling",
    "request_reason": "Replace Trash Cart",
    "date_created": "2023-08-30T14:20:46.000",
    "date_modified": "2023-08-30T14:20:47.000",
    "request_status": "Pending",
    "responsible_agency": "Department of Sanitation",
    "final_address": "4021 State Street Dr",
    "address_councildis": "B",
    "status": "Assigned to Contractor",
    "contractor": "Richards Disposal",
    "rowid": "1030789",
    "final_x": "3668291.24295",
    "final_y": "530426.809474",
    "longitude": "-90.10981581586773",
    "latitude": "29.95288420673893",
    "geocoded_column": {
      "latitude": "29.95288420673893",
      "longitude": "-90.10981581586773"
    }
  },
  {
    "service_request": "2023-1030788",
    "request_type": "Trash/Recycling",
    "request_reason": "Missed Trash Pick-Up",
    "date_created": "2023-08-30T14:20:38.000",
    "date_modified": "2023-08-30T15:14:26.000",
    "case_close_date": "2023-08-30T10:14:26.000",
    "request_status": "Closed",
    "responsible_agency": "Department of Sanitation",
    "final_address": "6592 Catina St",
    "address_councildis": "A",
    "status": "Invalid Request",
    "contractor": "IV Waste",
    "contractor_action": "Invalid Pick-Up",
    "rowid": "1030788",
    "final_x": "3666938.89409",
    "final_y": "551625.703317",
    "longitude": "-90.11337328356603",
    "latitude": "30.01121364227816",
    "geocoded_column": {
      "latitude": "30.01121364227816",
      "longitude": "-90.11337328356603"
    }
  },
  {
    "service_request": "2023-1030787",
    "request_type": "Roads/Drainage",
    "request_reason": "Pothole",
    "date_created": "2023-08-30T14:16:59.000",
    "date_modified": "2023-08-30T14:16:59.000",
    "request_status": "Pending",
    "responsible_agency": "Department of Public Works",
    "final_address": "1011 Felicity St",
    "address_councildis": "B",
    "status": "Pending",
    "rowid": "1030787",
    "final_x": "3680241.6788",
    "final_y": "522837.984891",
    "longitude": "-90.07234534187747",
    "latitude": "29.931661182791032",
    "geocoded_column": {
      "latitude": "29.931661182791032",
      "longitude": "-90.07234534187747"
    }
  },
  {
    "service_request": "2023-1030786",
    "request_type": "Trash/Recycling",
    "request_reason": "Order Recycling Cart",
    "date_created": "2023-08-30T14:11:15.000",
    "date_modified": "2023-08-30T14:11:16.000",
    "request_status": "Pending",
    "responsible_agency": "Department of Sanitation",
    "final_address": "3437 Vespasian St",
    "address_councildis": "C",
    "status": "Pending",
    "rowid": "1030786",
    "final_x": "3695870.59645",
    "final_y": "522575.714618",
    "longitude": "-90.02301635191024",
    "latitude": "29.93045784791454",
    "geocoded_column": {
      "latitude": "29.93045784791454",
      "longitude": "-90.02301635191024"
    }
  },
  {
    "service_request": "2023-1030785",
    "request_type": "Trash/Recycling",
    "request_reason": "Request a Large Item Pick Up",
    "date_created": "2023-08-30T14:09:57.000",
    "date_modified": "2023-08-30T14:09:58.000",
    "request_status": "Pending",
    "responsible_agency": "Department of Sanitation",
    "final_address": "3518 Gibson St",
    "address_councildis": "D",
    "status": "Assigned to Contractor",
    "contractor": "IV Waste",
    "rowid": "1030785",
    "final_x": "3678886.53154",
    "final_y": "545267.698831",
    "longitude": "-90.07584631401862",
    "latitude": "29.993376212594185",
    "geocoded_column": {
      "latitude": "29.993376212594185",
      "longitude": "-90.07584631401862"
    }
  },
  {
    "service_request": "2023-1030784",
    "request_type": "Trash/Recycling",
    "request_reason": "Illegal Dumping",
    "date_created": "2023-08-30T14:08:58.000",
    "date_modified": "2023-08-30T14:08:58.000",
    "request_status": "Pending",
    "responsible_agency": "Department of Sanitation",
    "final_address": "1315 Fats Domino Ave",
    "address_councildis": "E",
    "status": "Pending",
    "rowid": "1030784",
    "final_x": "3698304.08784",
    "final_y": "534612.137158",
    "longitude": "-90.01489703046481",
    "latitude": "29.963477052444357",
    "geocoded_column": {
      "latitude": "29.963477052444357",
      "longitude": "-90.01489703046481"
    }
  },
  {
    "service_request": "2023-1030783",
    "request_type": "Trash/Recycling",
    "request_reason": "Illegal Dumping",
    "date_created": "2023-08-30T14:06:53.000",
    "date_modified": "2023-08-30T14:07:15.000",
    "request_status": "Pending",
    "responsible_agency": "Department of Sanitation",
    "final_address": "1437 Fats Domino Ave",
    "address_councildis": "E",
    "status": "Pending",
    "rowid": "1030783",
    "final_x": "3698478.6641",
    "final_y": "535166.496134",
    "longitude": "-90.01432558904762",
    "latitude": "29.964995817286805",
    "geocoded_column": {
      "latitude": "29.964995817286805",
      "longitude": "-90.01432558904762"
    }
  },
  {
    "service_request": "2023-1030782",
    "request_type": "Trash/Recycling",
    "request_reason": "Request a Large Item Pick Up",
    "date_created": "2023-08-30T14:06:48.000",
    "date_modified": "2023-08-30T14:06:50.000",
    "request_status": "Pending",
    "responsible_agency": "Department of Sanitation",
    "final_address": "2420 S Robertson St",
    "address_councildis": "B",
    "status": "Assigned to Contractor",
    "contractor": "Richards Disposal",
    "rowid": "1030782",
    "final_x": "3674806.25",
    "final_y": "526088.946238",
    "longitude": "-90.089392977503",
    "latitude": "29.94076362216719",
    "geocoded_column": {
      "latitude": "29.94076362216719",
      "longitude": "-90.089392977503"
    }
  },
  {
    "service_request": "2023-1030781",
    "request_type": "Parks & Parkways",
    "request_reason": "Request Tree Service (Right of Way/Public Property)",
    "date_created": "2023-08-30T14:03:51.000",
    "date_modified": "2023-08-30T14:43:56.000",
    "request_status": "Pending",
    "responsible_agency": "Department of Parks & Parkway",
    "final_address": "7815 Maple St",
    "address_councildis": "A",
    "status": "Pending",
    "rowid": "1030781",
    "final_x": "3661765.72986",
    "final_y": "526715.156414",
    "longitude": "-90.13054362647068",
    "latitude": "29.942868329284874",
    "geocoded_column": {
      "latitude": "29.942868329284874",
      "longitude": "-90.13054362647068"
    }
  },
  {
    "service_request": "2023-1030780",
    "request_type": "Trash/Recycling",
    "request_reason": "Missed Trash Pick-Up",
    "date_created": "2023-08-30T14:00:00.000",
    "date_modified": "2023-08-30T15:33:44.000",
    "case_close_date": "2023-08-30T10:33:44.000",
    "request_status": "Closed",
    "responsible_agency": "Department of Sanitation",
    "final_address": "4700 BLK Friar Tuck Dr",
    "address_councildis": "E",
    "status": "Invalid Request",
    "contractor": "Waste Pro",
    "contractor_action": "Invalid Pick-Up",
    "rowid": "1030780",
    "final_x": "3717740.03266",
    "final_y": "557113.386217",
    "longitude": "-89.95266497505199",
    "latitude": "30.0247175643052",
    "geocoded_column": {
      "latitude": "30.0247175643052",
      "longitude": "-89.95266497505199"
    }
  },
  {
    "service_request": "2023-1030779",
    "request_type": "Traffic Signals/Signs/Striping/Streetlights",
    "request_reason": "Street Light Outage/Malfunction",
    "date_created": "2023-08-30T13:58:52.000",
    "date_modified": "2023-08-30T13:58:53.000",
    "request_status": "Pending",
    "responsible_agency": "Department of Public Works",
    "final_address": "5829 Macarthur Blvd",
    "address_councildis": "C",
    "status": "Assigned to Contractor",
    "contractor": "Legacy Professional Services",
    "rowid": "1030779",
    "final_x": "3704823.39633",
    "final_y": "519171.324727",
    "longitude": "-89.99487948676662",
    "latitude": "29.92081241641958",
    "geocoded_column": {
      "latitude": "29.92081241641958",
      "longitude": "-89.99487948676662"
    }
  },
  {
    "service_request": "2023-1030778",
    "request_type": "Mosquito, Termite & Rodent Control",
    "request_reason": "Non-Rodent Complaint (Mice, Possums, Snakes)",
    "date_created": "2023-08-30T13:58:20.000",
    "date_modified": "2023-08-30T13:58:20.000",
    "request_status": "Pending",
    "responsible_agency": "Mosquito, Termite & Rodent Control Board",
    "final_address": "Poydras Street & South Claiborne Avenue",
    "address_councildis": "B",
    "status": "Pending",
    "rowid": "1030778",
    "final_x": "3676930.01627",
    "final_y": "530731.977858",
    "longitude": "-90.08252785680983",
    "latitude": "29.953466850246727",
    "geocoded_column": {
      "latitude": "29.953466850246727",
      "longitude": "-90.08252785680983"
    }
  },
  {
    "service_request": "2023-1030777",
    "request_type": "Trash/Recycling",
    "request_reason": "Order Recycling Cart",
    "date_created": "2023-08-30T13:54:21.000",
    "date_modified": "2023-08-30T13:54:21.000",
    "request_status": "Pending",
    "responsible_agency": "Department of Sanitation",
    "final_address": "87 Maryland Dr",
    "address_councildis": "A",
    "status": "Pending",
    "rowid": "1030777",
    "final_x": "3663751.30535",
    "final_y": "541847.352588",
    "longitude": "-90.12377032907769",
    "latitude": "29.98441944941539",
    "geocoded_column": {
      "latitude": "29.98441944941539",
      "longitude": "-90.12377032907769"
    }
  },
  {
    "service_request": "2023-1030776",
    "request_type": "Trash/Recycling",
    "request_reason": "Missed Trash Pick-Up",
    "date_created": "2023-08-30T13:54:00.000",
    "date_modified": "2023-08-30T14:09:56.000",
    "case_close_date": "2023-08-30T09:09:56.000",
    "request_status": "Closed",
    "responsible_agency": "Department of Sanitation",
    "final_address": "6013 Lafaye St",
    "address_councildis": "D",
    "status": "Invalid Request",
    "contractor": "IV Waste",
    "contractor_action": "Invalid Pick-Up",
    "rowid": "1030776",
    "final_x": "3687169.46358",
    "final_y": "555366.653017",
    "longitude": "-90.04932445370788",
    "latitude": "30.020892110111",
    "geocoded_column": {
      "latitude": "30.020892110111",
      "longitude": "-90.04932445370788"
    }
  },
  {
    "service_request": "2023-1030774",
    "request_type": "Trash/Recycling",
    "request_reason": "Missed Trash Pick-Up",
    "date_created": "2023-08-30T13:50:16.000",
    "date_modified": "2023-08-30T13:50:17.000",
    "request_status": "Pending",
    "responsible_agency": "Department of Sanitation",
    "final_address": "2715 Fern St, New Orleans, LA 70125",
    "address_councildis": "A",
    "status": "Assigned to Contractor",
    "contractor": "Richards Disposal",
    "rowid": "1030774",
    "final_x": "3666278.43053",
    "final_y": "531906.858051",
    "longitude": "-90.11612176645984",
    "latitude": "29.957012801309197",
    "geocoded_column": {
      "latitude": "29.957012801309197",
      "longitude": "-90.11612176645984"
    }
  },
  {
    "service_request": "2023-1030773",
    "request_type": "Roads/Drainage",
    "request_reason": "Pothole",
    "date_created": "2023-08-30T13:50:00.000",
    "date_modified": "2023-08-30T13:50:00.000",
    "request_status": "Pending",
    "responsible_agency": "Department of Public Works",
    "final_address": "4539 Canal St",
    "address_councildis": "A",
    "status": "Pending",
    "rowid": "1030773",
    "final_x": "3669543.1179",
    "final_y": "539712.743626",
    "longitude": "-90.1055487600797",
    "latitude": "29.97838061661738",
    "geocoded_column": {
      "latitude": "29.97838061661738",
      "longitude": "-90.1055487600797"
    }
  },
  {
    "service_request": "2023-1030772",
    "request_type": "Trash/Recycling",
    "request_reason": "Request a Large Item Pick Up",
    "date_created": "2023-08-30T13:48:26.000",
    "date_modified": "2023-08-30T13:48:27.000",
    "request_status": "Pending",
    "responsible_agency": "Department of Sanitation",
    "final_address": "4827 Arthur Dr",
    "address_councildis": "E",
    "status": "Assigned to Contractor",
    "contractor": "Waste Pro",
    "rowid": "1030772",
    "final_x": "3707688.71627",
    "final_y": "556188.93769",
    "longitude": "-89.98445954657223",
    "latitude": "30.022504874339756",
    "geocoded_column": {
      "latitude": "30.022504874339756",
      "longitude": "-89.98445954657223"
    }
  },
  {
    "service_request": "2023-1030771",
    "request_type": "Trash/Recycling",
    "request_reason": "Request a Large Item Pick Up",
    "date_created": "2023-08-30T13:47:57.000",
    "date_modified": "2023-08-30T13:47:57.000",
    "request_status": "Pending",
    "responsible_agency": "Department of Sanitation",
    "final_address": "319 S Norman C Francis Prkwy",
    "address_councildis": "B",
    "status": "Assigned to Contractor",
    "contractor": "Richards Disposal",
    "rowid": "1030771",
    "final_x": "3672503.09659",
    "final_y": "536052.697415",
    "longitude": "-90.09632484562108",
    "latitude": "29.96822918699458",
    "geocoded_column": {
      "latitude": "29.96822918699458",
      "longitude": "-90.09632484562108"
    }
  },
  {
    "service_request": "2023-1030770",
    "request_type": "Roads/Drainage",
    "request_reason": "Pothole",
    "date_created": "2023-08-30T13:45:16.000",
    "date_modified": "2023-08-30T13:45:16.000",
    "request_status": "Pending",
    "responsible_agency": "Department of Public Works",
    "final_address": "4600 Bienville Ave",
    "address_councildis": "A",
    "status": "Pending",
    "rowid": "1030770",
    "final_x": "3669828.11092",
    "final_y": "540228.950091",
    "longitude": "-90.1046311631113",
    "latitude": "29.97979160972628",
    "geocoded_column": {
      "latitude": "29.97979160972628",
      "longitude": "-90.1046311631113"
    }
  },
  {
    "service_request": "2023-1030769",
    "request_type": "Roads/Drainage",
    "request_reason": "Catch Basin - Broken/Damage",
    "date_created": "2023-08-30T13:44:00.000",
    "date_modified": "2023-08-30T13:44:00.000",
    "request_status": "Pending",
    "responsible_agency": "Department of Public Works",
    "final_address": "5929 Catina St",
    "address_councildis": "A",
    "status": "Pending",
    "rowid": "1030769",
    "final_x": "3666842.61601",
    "final_y": "547352.959633",
    "longitude": "-90.1138211388224",
    "latitude": "29.999467898764482",
    "geocoded_column": {
      "latitude": "29.999467898764482",
      "longitude": "-90.1138211388224"
    }
  },
  {
    "service_request": "2023-1030768",
    "request_type": "Trash/Recycling",
    "request_reason": "Request a Large Item Pick Up",
    "date_created": "2023-08-30T13:41:14.000",
    "date_modified": "2023-08-30T13:41:14.000",
    "request_status": "Pending",
    "responsible_agency": "Department of Sanitation",
    "final_address": "1829 Mandeville St",
    "address_councildis": "D",
    "status": "Assigned to Contractor",
    "contractor": "IV Waste",
    "rowid": "1030768",
    "final_x": "3685580.71778",
    "final_y": "539181.724938",
    "longitude": "-90.05491498797653",
    "latitude": "29.97643823986549",
    "geocoded_column": {
      "latitude": "29.97643823986549",
      "longitude": "-90.05491498797653"
    }
  },
  {
    "service_request": "2023-1030767",
    "request_type": "Roads/Drainage",
    "request_reason": "Pothole",
    "date_created": "2023-08-30T13:40:53.000",
    "date_modified": "2023-08-30T13:40:53.000",
    "request_status": "Pending",
    "responsible_agency": "Department of Public Works",
    "final_address": "231 N St Patrick St",
    "address_councildis": "A",
    "status": "Pending",
    "rowid": "1030767",
    "final_x": "3669515.22042",
    "final_y": "540438.289355",
    "longitude": "-90.10561231782718",
    "latitude": "29.980376443621708",
    "geocoded_column": {
      "latitude": "29.980376443621708",
      "longitude": "-90.10561231782718"
    }
  },
  {
    "service_request": "2023-1030766",
    "request_type": "Trash/Recycling",
    "request_reason": "Repair Trash Cart",
    "date_created": "2023-08-30T13:40:15.000",
    "date_modified": "2023-08-30T13:40:16.000",
    "request_status": "Pending",
    "responsible_agency": "Department of Sanitation",
    "final_address": "2318 Leon C Simon Dr",
    "address_councildis": "D",
    "status": "Assigned to Contractor",
    "contractor": "IV Waste",
    "rowid": "1030766",
    "final_x": "3684305.90741",
    "final_y": "556854.430938",
    "longitude": "-90.05832013913368",
    "latitude": "30.025070870847614",
    "geocoded_column": {
      "latitude": "30.025070870847614",
      "longitude": "-90.05832013913368"
    }
  },
  {
    "service_request": "2023-1030765",
    "request_type": "Abandoned Vehicles",
    "request_reason": "Abandoned/Junk Vehicles",
    "date_created": "2023-08-30T13:39:56.000",
    "date_modified": "2023-08-30T13:39:56.000",
    "request_status": "Pending",
    "responsible_agency": "Department of Public Works",
    "status": "Pending",
    "rowid": "1030765",
    "longitude": "0.0",
    "latitude": "0.0",
    "geocoded_column": {
      "latitude": "0.0",
      "longitude": "0.0"
    }
  },
  {
    "service_request": "2023-1030764",
    "request_type": "Traffic Signals/Signs/Striping/Streetlights",
    "request_reason": "Street Light Outage/Malfunction",
    "date_created": "2023-08-30T13:37:55.000",
    "date_modified": "2023-08-30T13:37:55.000",
    "request_status": "Pending",
    "responsible_agency": "Department of Public Works",
    "final_address": "4020 Delgado Dr",
    "address_councildis": "A",
    "status": "Assigned to Contractor",
    "contractor": "Legacy Professional Services",
    "rowid": "1030764",
    "final_x": "3673815.28456",
    "final_y": "540847.337803",
    "longitude": "-90.09201685958656",
    "latitude": "29.981373799935675",
    "geocoded_column": {
      "latitude": "29.981373799935675",
      "longitude": "-90.09201685958656"
    }
  },
  {
    "service_request": "2023-1030763",
    "request_type": "Tax and Revenue",
    "request_reason": "Sales Tax Question",
    "date_created": "2023-08-30T13:34:13.000",
    "date_modified": "2023-08-30T13:34:13.000",
    "request_status": "Pending",
    "responsible_agency": "Bureau of Revenue",
    "status": "Pending",
    "rowid": "1030763",
    "longitude": "0.0",
    "latitude": "0.0",
    "geocoded_column": {
      "latitude": "0.0",
      "longitude": "0.0"
    }
  },
  {
    "service_request": "2023-1030762",
    "request_type": "Roads/Drainage",
    "request_reason": "Pothole",
    "date_created": "2023-08-30T13:33:41.000",
    "date_modified": "2023-08-30T13:33:41.000",
    "request_status": "Pending",
    "responsible_agency": "Department of Public Works",
    "final_address": "1500 Esplanade Ave",
    "address_councildis": "D",
    "status": "Pending",
    "rowid": "1030762",
    "final_x": "3681501.83669",
    "final_y": "536307.698567",
    "longitude": "-90.0678975647068",
    "latitude": "29.96866016247136",
    "geocoded_column": {
      "latitude": "29.96866016247136",
      "longitude": "-90.0678975647068"
    }
  },
  {
    "service_request": "2023-1030761",
    "request_type": "Trash/Recycling",
    "request_reason": "Replace Trash Cart",
    "date_created": "2023-08-30T13:32:52.000",
    "date_modified": "2023-08-30T13:32:53.000",
    "request_status": "Pending",
    "responsible_agency": "Department of Sanitation",
    "final_address": "1426 Carondelet St",
    "address_councildis": "B",
    "status": "Assigned to Contractor",
    "contractor": "Richards Disposal",
    "rowid": "1030761",
    "final_x": "3678889.8811",
    "final_y": "525828.596093",
    "longitude": "-90.07650925883587",
    "latitude": "29.93992521416656",
    "geocoded_column": {
      "latitude": "29.93992521416656",
      "longitude": "-90.07650925883587"
    }
  },
  {
    "service_request": "2023-1030759",
    "request_type": "Traffic Signals/Signs/Striping/Streetlights",
    "request_reason": "Street Light Outage/Malfunction",
    "date_created": "2023-08-30T13:22:27.000",
    "date_modified": "2023-08-30T13:22:28.000",
    "request_status": "Pending",
    "responsible_agency": "Department of Public Works",
    "final_address": "8900 BLK Palmetto St",
    "address_councildis": "A",
    "status": "Assigned to Contractor",
    "contractor": "Legacy Professional Services",
    "rowid": "1030759",
    "final_x": "3665960.00761",
    "final_y": "537292.54725",
    "longitude": "-90.11694671680422",
    "latitude": "29.97183096753466",
    "geocoded_column": {
      "latitude": "29.97183096753466",
      "longitude": "-90.11694671680422"
    }
  },
  {
    "service_request": "2023-1030758",
    "request_type": "Trash/Recycling",
    "request_reason": "Illegal Dumping",
    "date_created": "2023-08-30T13:21:25.000",
    "date_modified": "2023-08-30T13:21:26.000",
    "request_status": "Pending",
    "responsible_agency": "Department of Sanitation",
    "final_address": "9405 Fig St",
    "address_councildis": "A",
    "status": "Pending",
    "rowid": "1030758",
    "final_x": "3662880.60743",
    "final_y": "536305.459591",
    "longitude": "-90.12670482032635",
    "latitude": "29.969206328744164",
    "geocoded_column": {
      "latitude": "29.969206328744164",
      "longitude": "-90.12670482032635"
    }
  },
  {
    "service_request": "2023-1030757",
    "request_type": "Roads/Drainage",
    "request_reason": "Pothole",
    "date_created": "2023-08-30T13:20:04.000",
    "date_modified": "2023-08-30T13:20:04.000",
    "request_status": "Pending",
    "responsible_agency": "Department of Public Works",
    "final_address": "1234 Henry Clay Ave",
    "address_councildis": "A",
    "status": "Pending",
    "rowid": "1030757",
    "final_x": "3664327.06445",
    "final_y": "521120.367609",
    "longitude": "-90.12264347982506",
    "latitude": "29.92741025864685",
    "geocoded_column": {
      "latitude": "29.92741025864685",
      "longitude": "-90.12264347982506"
    }
  },
  {
    "service_request": "2023-1030756",
    "request_type": "Trash/Recycling",
    "request_reason": "Repair Recycling Cart",
    "date_created": "2023-08-30T13:19:24.000",
    "date_modified": "2023-08-30T13:19:24.000",
    "request_status": "Pending",
    "responsible_agency": "Department of Sanitation",
    "final_address": "2617 Calhoun St",
    "address_councildis": "A",
    "status": "Pending",
    "rowid": "1030756",
    "final_x": "3666420.25581",
    "final_y": "526468.518334",
    "longitude": "-90.11585638688084",
    "latitude": "29.942054988111842",
    "geocoded_column": {
      "latitude": "29.942054988111842",
      "longitude": "-90.11585638688084"
    }
  },
  {
    "service_request": "2023-1030755",
    "request_type": "Traffic Signals/Signs/Striping/Streetlights",
    "request_reason": "Street Light Outage/Malfunction",
    "date_created": "2023-08-30T13:18:45.000",
    "date_modified": "2023-08-30T13:18:46.000",
    "request_status": "Pending",
    "responsible_agency": "Department of Public Works",
    "final_address": "9000 BLK Airline Hwy",
    "address_councildis": "A",
    "status": "Assigned to Contractor",
    "contractor": "Legacy Professional Services",
    "rowid": "1030755",
    "final_x": "3665513.0272",
    "final_y": "537238.570324",
    "longitude": "-90.11836016432694",
    "latitude": "29.971695588484717",
    "geocoded_column": {
      "latitude": "29.971695588484717",
      "longitude": "-90.11836016432694"
    }
  },
  {
    "service_request": "2023-1030754",
    "request_type": "Parks & Parkways",
    "request_reason": "Request Tree Service (Right of Way/Public Property)",
    "date_created": "2023-08-30T13:18:26.000",
    "date_modified": "2023-08-30T15:22:26.000",
    "case_close_date": "2023-08-29T19:00:00.000",
    "request_status": "Closed",
    "responsible_agency": "Department of Parks & Parkway",
    "final_address": "6200 BLK Pontchartrain Blvd",
    "address_councildis": "A",
    "status": "Referred to External Agency",
    "rowid": "1030754",
    "final_x": "3666186.57737",
    "final_y": "549423.047595",
    "longitude": "-90.11582410873693",
    "latitude": "30.00517910794907",
    "geocoded_column": {
      "latitude": "30.00517910794907",
      "longitude": "-90.11582410873693"
    }
  },
  {
    "service_request": "2023-1030753",
    "request_type": "Roads/Drainage",
    "request_reason": "Pothole",
    "date_created": "2023-08-30T13:15:05.000",
    "date_modified": "2023-08-30T13:15:05.000",
    "request_status": "Pending",
    "responsible_agency": "Department of Public Works",
    "final_address": "6006 Magazine St",
    "address_councildis": "A",
    "status": "Pending",
    "rowid": "1030753",
    "final_x": "3664592.48282",
    "final_y": "519214.603063",
    "longitude": "-90.12186922213856",
    "latitude": "29.922162290444522",
    "geocoded_column": {
      "latitude": "29.922162290444522",
      "longitude": "-90.12186922213856"
    }
  },
  {
    "service_request": "2023-1030752",
    "request_type": "Trash/Recycling",
    "request_reason": "Order Recycling Cart",
    "date_created": "2023-08-30T13:14:50.000",
    "date_modified": "2023-08-30T13:14:50.000",
    "request_status": "Pending",
    "responsible_agency": "Department of Sanitation",
    "final_address": " & FOREST ISLE DR",
    "address_councildis": "C",
    "status": "Pending",
    "rowid": "1030752",
    "final_x": "3705876.93",
    "final_y": "512778.89",
    "longitude": "-89.99179023228741",
    "latitude": "29.903201541007117",
    "geocoded_column": {
      "latitude": "29.903201541007117",
      "longitude": "-89.99179023228741"
    }
  },
  {
    "service_request": "2023-1030751",
    "request_type": "Trash/Recycling",
    "request_reason": "Missed Trash Pick-Up",
    "date_created": "2023-08-30T13:07:39.000",
    "date_modified": "2023-08-30T13:59:38.000",
    "case_close_date": "2023-08-30T08:59:38.000",
    "request_status": "Closed",
    "responsible_agency": "Department of Sanitation",
    "final_address": "7062 Yorktown Dr",
    "address_councildis": "E",
    "status": "Invalid Request",
    "contractor": "Waste Pro",
    "contractor_action": "Invalid Pick-Up",
    "rowid": "1030751",
    "final_x": "3706030.82667",
    "final_y": "560738.921246",
    "longitude": "-89.98952943169205",
    "latitude": "30.035069110744555",
    "geocoded_column": {
      "latitude": "30.035069110744555",
      "longitude": "-89.98952943169205"
    }
  },
  {
    "service_request": "2023-1030750",
    "request_type": "Roads/Drainage",
    "request_reason": "Pothole",
    "date_created": "2023-08-30T13:04:59.000",
    "date_modified": "2023-08-30T13:04:59.000",
    "request_status": "Pending",
    "responsible_agency": "Department of Public Works",
    "final_address": "1576 Henry Clay Ave",
    "address_councildis": "A",
    "status": "Pending",
    "rowid": "1030750",
    "final_x": "3664947.16416",
    "final_y": "522750.836474",
    "longitude": "-90.12063149759432",
    "latitude": "29.931875502670692",
    "geocoded_column": {
      "latitude": "29.931875502670692",
      "longitude": "-90.12063149759432"
    }
  },
  {
    "service_request": "2023-1030749",
    "request_type": "Trash/Recycling",
    "request_reason": "Repair Trash Cart",
    "date_created": "2023-08-30T12:51:06.000",
    "date_modified": "2023-08-30T12:51:07.000",
    "request_status": "Pending",
    "responsible_agency": "Department of Sanitation",
    "final_address": "516 Jena St",
    "address_councildis": "B",
    "status": "Assigned to Contractor",
    "contractor": "Richards Disposal",
    "rowid": "1030749",
    "final_x": "3670742.88916",
    "final_y": "517576.822518",
    "longitude": "-90.10251042123294",
    "latitude": "29.91747867860915",
    "geocoded_column": {
      "latitude": "29.91747867860915",
      "longitude": "-90.10251042123294"
    }
  },