[
  {
    "service_request": "2023-965832",
    "request_type": "Trash/Recycling",
    "request_reason": "Request a Large Item Pick Up",
    "date_created": "2023-01-12T01:58:01.000",
    "date_modified": "2023-01-12T01:58:02.000",
    "request_status": "Pending",
    "responsible_agency": "Department of Sanitation",
    "final_address": "7811 Dorsett Dr",
    "address_councildis": "E",
    "status": "Assigned to Contractor",
    "contractor": "Waste Pro",
    "rowid": "965832",
    "final_x": "3712481.22418",
    "final_y": "567963.786149",
    "longitude": "-89.96887348205645",
    "latitude": "30.05472499161164",
    "geocoded_column": {
      "latitude": "30.05472499161164",
      "longitude": "-89.96887348205645"
    }
  },
  {
    "service_request": "2023-965831",
    "request_type": "Trash/Recycling",
    "request_reason": "Request a Large Item Pick Up",
    "date_created": "2023-01-12T00:28:51.000",
    "date_modified": "2023-01-12T00:28:52.000",
    "request_status": "Pending",
    "responsible_agency": "Department of Sanitation",
    "final_address": "2242 Dante St",
    "address_councildis": "A",
    "status": "Assigned to Contractor",
    "contractor": "Richards Disposal",
    "rowid": "965831",
    "final_x": "3664011.71616",
    "final_y": "531762.832899",
    "longitude": "-90.12328417801407",
    "latitude": "29.956682793575826",
    "geocoded_column": {
      "latitude": "29.956682793575826",
      "longitude": "-90.12328417801407"
    }
  },
  {
    "service_request": "2023-965830",
    "request_type": "Trash/Recycling",
    "request_reason": "Missed Trash Pick-Up",
    "date_created": "2023-01-11T23:50:51.000",
    "date_modified": "2023-01-11T23:50:52.000",
    "request_status": "Pending",
    "responsible_agency": "Department of Sanitation",
    "final_address": "916 Elmira Ave, New Orleans, Louisiana, 70114",
    "address_councildis": "C",
    "status": "Assigned to Contractor",
    "contractor": "Richards Disposal",
    "rowid": "965830",
    "final_x": "3688173.6271",
    "final_y": "528186.250816",
    "longitude": "-90.04711563186181",
    "latitude": "29.946124701056235",
    "geocoded_column": {
      "latitude": "29.946124701056235",
      "longitude": "-90.04711563186181"
    }
  },
  {
    "service_request": "2023-965829",
    "request_type": "Abandoned Vehicles",
    "request_reason": "Abandoned/Junk Vehicles",
    "date_created": "2023-01-11T23:10:01.000",
    "date_modified": "2023-01-11T23:10:01.000",
    "request_status": "Pending",
    "responsible_agency": "Department of Public Works",
    "final_address": "2237 St Ann St",
    "address_councildis": "D",
    "status": "Pending",
    "rowid": "965829",
    "final_x": "3678340.52731",
    "final_y": "536188.399879",
    "longitude": "-90.07788528886358",
    "latitude": "29.96842775099973",
    "geocoded_column": {
      "latitude": "29.96842775099973",
      "longitude": "-90.07788528886358"
    }
  },
  {
    "service_request": "2023-965828",
    "request_type": "Trash/Recycling",
    "request_reason": "Missed Trash Pick-Up",
    "date_created": "2023-01-11T22:57:16.000",
    "date_modified": "2023-01-11T22:57:17.000",
    "request_status": "Pending",
    "responsible_agency": "Department of Sanitation",
    "final_address": "84 Audubon blvd",
    "address_councildis": "A",
    "status": "Assigned to Contractor",
    "contractor": "Richards Disposal",
    "rowid": "965828",
    "final_x": "3665766.62816",
    "final_y": "527803.745087",
    "longitude": "-90.11787532063776",
    "latitude": "29.94574551206759",
    "geocoded_column": {
      "latitude": "29.94574551206759",
      "longitude": "-90.11787532063776"
    }
  },
  {
    "service_request": "2023-965827",
    "request_type": "Trash/Recycling",
    "request_reason": "Replace Trash Cart",
    "date_created": "2023-01-11T22:56:55.000",
    "date_modified": "2023-01-11T22:56:56.000",
    "request_status": "Pending",
    "responsible_agency": "Department of Sanitation",
    "final_address": "345 Broadway St",
    "address_councildis": "A",
    "status": "Assigned to Contractor",
    "contractor": "Richards Disposal",
    "rowid": "965827",
    "final_x": "3661802.82451",
    "final_y": "522852.871675",
    "longitude": "-90.13055451041429",
    "latitude": "29.932247197068136",
    "geocoded_column": {
      "latitude": "29.932247197068136",
      "longitude": "-90.13055451041429"
    }
  },
  {
    "service_request": "2023-965826",
    "request_type": "Roads/Drainage",
    "request_reason": "Pothole",
    "date_created": "2023-01-11T22:49:32.000",
    "date_modified": "2023-01-11T22:49:32.000",
    "request_status": "Pending",
    "responsible_agency": "Department of Public Works",
    "final_address": "23 Christopher Ct",
    "address_councildis": "E",
    "status": "Pending",
    "rowid": "965826",
    "final_x": "3716606.24517",
    "final_y": "570267.632039",
    "longitude": "-89.95574779472973",
    "latitude": "30.060923907855518",
    "geocoded_column": {
      "latitude": "30.060923907855518",
      "longitude": "-89.95574779472973"
    }
  },
  {
    "service_request": "2023-965825",
    "request_type": "Trash/Recycling",
    "request_reason": "Replace Trash Cart",
    "date_created": "2023-01-11T22:48:46.000",
    "date_modified": "2023-01-11T22:48:47.000",
    "request_status": "Pending",
    "responsible_agency": "Department of Sanitation",
    "final_address": "2923 Grand Route St John St",
    "address_councildis": "A",
    "status": "Assigned to Contractor",
    "contractor": "IV Waste",
    "rowid": "965825",
    "final_x": "3677515.6564",
    "final_y": "540331.406667",
    "longitude": "-90.08034720034524",
    "latitude": "29.97984442331366",
    "geocoded_column": {
      "latitude": "29.97984442331366",
      "longitude": "-90.08034720034524"
    }
  },
  {
    "service_request": "2023-965824",
    "request_type": "Trash/Recycling",
    "request_reason": "Missed Trash Pick-Up",
    "date_created": "2023-01-11T22:44:33.000",
    "date_modified": "2023-01-11T22:44:33.000",
    "request_status": "Pending",
    "responsible_agency": "Department of Sanitation",
    "final_address": "218 Abalon Ct",
    "address_councildis": "C",
    "status": "Assigned to Contractor",
    "contractor": "Richards Disposal",
    "rowid": "965824",
    "final_x": "3689008.89635",
    "final_y": "530925.367298",
    "longitude": "-90.04438112323358",
    "latitude": "29.953630523866664",
    "geocoded_column": {
      "latitude": "29.953630523866664",
      "longitude": "-90.04438112323358"
    }
  },
  {
    "service_request": "2023-965823",
    "request_type": "Traffic Signals/Signs/Striping/Streetlights",
    "request_reason": "Street Light Outage/Malfunction",
    "date_created": "2023-01-11T22:30:02.000",
    "date_modified": "2023-01-11T22:30:03.000",
    "request_status": "Pending",
    "responsible_agency": "Department of Public Works",
    "final_address": "400 Poydras St",
    "address_councildis": "B",
    "status": "Assigned to Contractor",
    "contractor": "Legacy Professional Services",
    "rowid": "965823",
    "final_x": "3681589.68706",
    "final_y": "529065.294848",
    "longitude": "-90.06787272477939",
    "latitude": "29.948743349579406",
    "geocoded_column": {
      "latitude": "29.948743349579406",
      "longitude": "-90.06787272477939"
    }
  },
  {
    "service_request": "2023-965822",
    "request_type": "Trash/Recycling",
    "request_reason": "Missed Trash Pick-Up",
    "date_created": "2023-01-11T22:28:44.000",
    "date_modified": "2023-01-11T22:28:44.000",
    "request_status": "Pending",
    "responsible_agency": "Department of Sanitation",
    "final_address": "3601 Constance St",
    "address_councildis": "B",
    "status": "Assigned to Contractor",
    "contractor": "Richards Disposal",
    "rowid": "965822",
    "final_x": "3674234.04411",
    "final_y": "518968.284279",
    "longitude": "-90.09144319026214",
    "latitude": "29.921201176804605",
    "geocoded_column": {
      "latitude": "29.921201176804605",
      "longitude": "-90.09144319026214"
    }
  },
  {
    "service_request": "2023-965821",
    "request_type": "Traffic Signals/Signs/Striping/Streetlights",
    "request_reason": "Street Light Outage/Malfunction",
    "date_created": "2023-01-11T22:28:04.000",
    "date_modified": "2023-01-11T22:28:05.000",
    "request_status": "Pending",
    "responsible_agency": "Department of Public Works",
    "final_address": "4507 Bienville Ave",
    "address_councildis": "A",
    "status": "Assigned to Contractor",
    "contractor": "Legacy Professional Services",
    "rowid": "965821",
    "final_x": "3670161.34753",
    "final_y": "540119.012299",
    "longitude": "-90.1035823893728",
    "latitude": "29.979479488408757",
    "geocoded_column": {
      "latitude": "29.979479488408757",
      "longitude": "-90.1035823893728"
    }
  },
  {
    "service_request": "2023-965820",
    "request_type": "Traffic Signals/Signs/Striping/Streetlights",
    "request_reason": "Street Light Outage/Malfunction",
    "date_created": "2023-01-11T22:26:48.000",
    "date_modified": "2023-01-11T22:26:49.000",
    "request_status": "Pending",
    "responsible_agency": "Department of Public Works",
    "final_address": "400 Poydras St",
    "address_councildis": "B",
    "status": "Assigned to Contractor",
    "contractor": "Legacy Professional Services",
    "rowid": "965820",
    "final_x": "3681589.68706",
    "final_y": "529065.294848",
    "longitude": "-90.06787272477939",
    "latitude": "29.948743349579406",
    "geocoded_column": {
      "latitude": "29.948743349579406",
      "longitude": "-90.06787272477939"
    }
  },
  {
    "service_request": "2023-965819",
    "request_type": "Trash/Recycling",
    "request_reason": "Missed Trash Pick-Up",
    "date_created": "2023-01-11T22:20:23.000",
    "date_modified": "2023-01-11T22:20:24.000",
    "request_status": "Pending",
    "responsible_agency": "Department of Sanitation",
    "final_address": "3211 Dumaine St",
    "address_councildis": "A",
    "status": "Assigned to Contractor",
    "contractor": "Richards Disposal",
    "rowid": "965819",
    "final_x": "3675348.64552",
    "final_y": "538943.480266",
    "longitude": "-90.08723919011175",
    "latitude": "29.976093080575385",
    "geocoded_column": {
      "latitude": "29.976093080575385",
      "longitude": "-90.08723919011175"
    }
  },
  {
    "service_request": "2023-965818",
    "request_type": "Traffic Signals/Signs/Striping/Streetlights",
    "request_reason": "Street Light Outage/Malfunction",
    "date_created": "2023-01-11T22:20:13.000",
    "date_modified": "2023-01-11T22:20:14.000",
    "request_status": "Pending",
    "responsible_agency": "Department of Public Works",
    "final_address": "54 Park Timbers Dr",
    "address_councildis": "C",
    "status": "Assigned to Contractor",
    "contractor": "Legacy Professional Services",
    "rowid": "965818",
    "final_x": "3699450.66884",
    "final_y": "517068.063669",
    "longitude": "-90.01191518833774",
    "latitude": "29.91520063748767",
    "geocoded_column": {
      "latitude": "29.91520063748767",
      "longitude": "-90.01191518833774"
    }
  },
  {
    "service_request": "2023-965817",
    "request_type": "Trash/Recycling",
    "request_reason": "Missed Trash Pick-Up",
    "date_created": "2023-01-11T22:12:00.000",
    "date_modified": "2023-01-11T22:12:01.000",
    "request_status": "Pending",
    "responsible_agency": "Department of Sanitation",
    "final_address": "4921 S Claiborne Ave",
    "address_councildis": "B",
    "status": "Assigned to Contractor",
    "contractor": "Richards Disposal",
    "rowid": "965817",
    "final_x": "3669066.68327",
    "final_y": "526013.638269",
    "longitude": "-90.10751638588606",
    "latitude": "29.940726632366168",
    "geocoded_column": {
      "latitude": "29.940726632366168",
      "longitude": "-90.10751638588606"
    }
  },
  {
    "service_request": "2023-965816",
    "request_type": "Trash/Recycling",
    "request_reason": "Missed Trash Pick-Up",
    "date_created": "2023-01-11T22:04:52.000",
    "date_modified": "2023-01-11T22:04:52.000",
    "request_status": "Pending",
    "responsible_agency": "Department of Sanitation",
    "final_address": "2023 Adams St",
    "address_councildis": "A",
    "status": "Assigned to Contractor",
    "contractor": "Richards Disposal",
    "rowid": "965816",
    "final_x": "3665101.56877",
    "final_y": "529568.618561",
    "longitude": "-90.11991613305531",
    "latitude": "29.950617725542386",
    "geocoded_column": {
      "latitude": "29.950617725542386",
      "longitude": "-90.11991613305531"
    }
  },
  {
    "service_request": "2023-965815",
    "request_type": "Trash/Recycling",
    "request_reason": "Missed Trash Pick-Up",
    "date_created": "2023-01-11T22:01:22.000",
    "date_modified": "2023-01-11T22:01:22.000",
    "request_status": "Pending",
    "responsible_agency": "Department of Sanitation",
    "final_address": "4311 Annunciation St",
    "address_councildis": "B",
    "status": "Assigned to Contractor",
    "contractor": "Richards Disposal",
    "rowid": "965815",
    "final_x": "3671448.01652",
    "final_y": "517814.620278",
    "longitude": "-90.10027664838894",
    "latitude": "29.918111701529675",
    "geocoded_column": {
      "latitude": "29.918111701529675",
      "longitude": "-90.10027664838894"
    }
  },
  {
    "service_request": "2023-965814",
    "request_type": "Trash/Recycling",
    "request_reason": "MIssed Recycling Pick-Up",
    "date_created": "2023-01-11T22:00:49.000",
    "date_modified": "2023-01-11T22:00:50.000",
    "request_status": "Pending",
    "responsible_agency": "Department of Sanitation",
    "final_address": "1221 Delachaise St, New Orleans, Louisiana, 70115",
    "address_councildis": "B",
    "status": "Assigned to Contractor",
    "contractor": "Richards Disposal",
    "rowid": "965814",
    "final_x": "3674488.01614",
    "final_y": "519984.44684",
    "longitude": "-90.09060672450686",
    "latitude": "29.923987726308425",
    "geocoded_column": {
      "latitude": "29.923987726308425",
      "longitude": "-90.09060672450686"
    }
  },
  {
    "service_request": "2023-965812",
    "request_type": "Trash/Recycling",
    "request_reason": "Missed Trash Pick-Up",
    "date_created": "2023-01-11T21:54:40.000",
    "date_modified": "2023-01-11T21:54:40.000",
    "request_status": "Pending",
    "responsible_agency": "Department of Sanitation",
    "final_address": "4916 Baronne St",
    "address_councildis": "B",
    "status": "Assigned to Contractor",
    "contractor": "Richards Disposal",
    "rowid": "965812",
    "final_x": "3668936.39834",
    "final_y": "521391.117817",
    "longitude": "-90.10808377428931",
    "latitude": "29.92802001600356",
    "geocoded_column": {
      "latitude": "29.92802001600356",
      "longitude": "-90.10808377428931"
    }
  },
  {
    "service_request": "2023-965811",
    "request_type": "Trash/Recycling",
    "request_reason": "Missed Trash Pick-Up",
    "date_created": "2023-01-11T21:54:09.000",
    "date_modified": "2023-01-11T21:54:10.000",
    "request_status": "Pending",
    "responsible_agency": "Department of Sanitation",
    "final_address": "311 Eliza St",
    "address_councildis": "C",
    "status": "Assigned to Contractor",
    "contractor": "Richards Disposal",
    "rowid": "965811",
    "final_x": "3686447.65129",
    "final_y": "529467.897729",
    "longitude": "-90.05251988555302",
    "latitude": "29.94970195366802",
    "geocoded_column": {
      "latitude": "29.94970195366802",
      "longitude": "-90.05251988555302"
    }
  },
  {
    "service_request": "2023-965810",
    "request_type": "Trash/Recycling",
    "request_reason": "MIssed Recycling Pick-Up",
    "date_created": "2023-01-11T21:51:30.000",
    "date_modified": "2023-01-11T21:51:31.000",
    "request_status": "Pending",
    "responsible_agency": "Department of Sanitation",
    "final_address": "4916 Baronne St",
    "address_councildis": "B",
    "status": "Assigned to Contractor",
    "contractor": "Richards Disposal",
    "rowid": "965810",
    "final_x": "3668936.39834",
    "final_y": "521391.117817",
    "longitude": "-90.10808377428931",
    "latitude": "29.92802001600356",
    "geocoded_column": {
      "latitude": "29.92802001600356",
      "longitude": "-90.10808377428931"
    }
  },
  {
    "service_request": "2023-965809",
    "request_type": "Trash/Recycling",
    "request_reason": "MIssed Recycling Pick-Up",
    "date_created": "2023-01-11T21:45:18.000",
    "date_modified": "2023-01-11T21:45:19.000",
    "request_status": "Pending",
    "responsible_agency": "Department of Sanitation",
    "final_address": "7102 Birch St",
    "address_councildis": "A",
    "status": "Assigned to Contractor",
    "contractor": "Richards Disposal",
    "rowid": "965809",
    "final_x": "3665117.95546",
    "final_y": "527519.063167",
    "longitude": "-90.11993292224139",
    "latitude": "29.944981632503026",
    "geocoded_column": {
      "latitude": "29.944981632503026",
      "longitude": "-90.11993292224139"
    }
  },
  {
    "service_request": "2023-965808",
    "request_type": "Trash/Recycling",
    "request_reason": "Missed Trash Pick-Up",
    "date_created": "2023-01-11T21:44:10.000",
    "date_modified": "2023-01-11T21:44:11.000",
    "request_status": "Pending",
    "responsible_agency": "Department of Sanitation",
    "final_address": "7102 Birch St",
    "address_councildis": "A",
    "status": "Assigned to Contractor",
    "contractor": "Richards Disposal",
    "rowid": "965808",
    "final_x": "3665117.95546",
    "final_y": "527519.063167",
    "longitude": "-90.11993292224139",
    "latitude": "29.944981632503026",
    "geocoded_column": {
      "latitude": "29.944981632503026",
      "longitude": "-90.11993292224139"
    }
  },
  {
    "service_request": "2023-965807",
    "request_type": "Trash/Recycling",
    "request_reason": "Repair Trash Cart",
    "date_created": "2023-01-11T21:41:03.000",
    "date_modified": "2023-01-11T21:41:03.000",
    "request_status": "Pending",
    "responsible_agency": "Department of Sanitation",
    "final_address": "6124 Laurel St",
    "address_councildis": "A",
    "status": "Assigned to Contractor",
    "contractor": "Richards Disposal",
    "rowid": "965807",
    "final_x": "3663528.09869",
    "final_y": "518465.933174",
    "longitude": "-90.12525397341491",
    "latitude": "29.92013458203626",
    "geocoded_column": {
      "latitude": "29.92013458203626",
      "longitude": "-90.12525397341491"
    }
  },
  {
    "service_request": "2023-965806",
    "request_type": "Trash/Recycling",
    "request_reason": "MIssed Recycling Pick-Up",
    "date_created": "2023-01-11T21:40:26.000",
    "date_modified": "2023-01-11T21:40:26.000",
    "request_status": "Pending",
    "responsible_agency": "Department of Sanitation",
    "final_address": "1620 Fourth St",
    "address_councildis": "B",
    "status": "Assigned to Contractor",
    "contractor": "Richards Disposal",
    "rowid": "965806",
    "final_x": "3676043.77665",
    "final_y": "522866.967739",
    "longitude": "-90.08559665644712",
    "latitude": "29.931867236838222",
    "geocoded_column": {
      "latitude": "29.931867236838222",
      "longitude": "-90.08559665644712"
    }
  },
  {
    "service_request": "2023-965805",
    "request_type": "Trash/Recycling",
    "request_reason": "Missed Trash Pick-Up",
    "date_created": "2023-01-11T21:35:50.000",
    "date_modified": "2023-01-11T21:35:51.000",
    "request_status": "Pending",
    "responsible_agency": "Department of Sanitation",
    "final_address": "3516 Napoleon Ave",
    "address_councildis": "B",
    "status": "Assigned to Contractor",
    "contractor": "Richards Disposal",
    "rowid": "965805",
    "final_x": "3670017.62484",
    "final_y": "527699.786175",
    "longitude": "-90.10445699851118",
    "latitude": "29.945334984221443",
    "geocoded_column": {
      "latitude": "29.945334984221443",
      "longitude": "-90.10445699851118"
    }
  },
  {
    "service_request": "2023-965804",
    "request_type": "Trash/Recycling",
    "request_reason": "Missed Trash Pick-Up",
    "date_created": "2023-01-11T21:32:15.000",
    "date_modified": "2023-01-11T21:32:15.000",
    "request_status": "Pending",
    "responsible_agency": "Department of Sanitation",
    "final_address": "3725 Tall Pines Dr",
    "address_councildis": "C",
    "status": "Assigned to Contractor",
    "contractor": "Richards Disposal",
    "rowid": "965804",
    "final_x": "3703801.53732",
    "final_y": "513461.49157",
    "longitude": "-89.99831499312803",
    "latitude": "29.905145113505853",
    "geocoded_column": {
      "latitude": "29.905145113505853",
      "longitude": "-89.99831499312803"
    }
  },
  {
    "service_request": "2023-965803",
    "request_type": "Trash/Recycling",
    "request_reason": "MIssed Recycling Pick-Up",
    "date_created": "2023-01-11T21:27:08.000",
    "date_modified": "2023-01-11T21:27:09.000",
    "request_status": "Pending",
    "responsible_agency": "Department of Sanitation",
    "final_address": "745 S Genois St",
    "address_councildis": "B",
    "status": "Assigned to Contractor",
    "contractor": "Richards Disposal",
    "rowid": "965803",
    "final_x": "3670907.48359",
    "final_y": "535033.38247",
    "longitude": "-90.1013984815006",
    "latitude": "29.965473680370117",
    "geocoded_column": {
      "latitude": "29.965473680370117",
      "longitude": "-90.1013984815006"
    }
  },
  {
    "service_request": "2023-965802",
    "request_type": "Trash/Recycling",
    "request_reason": "Missed Trash Pick-Up",
    "date_created": "2023-01-11T21:26:09.000",
    "date_modified": "2023-01-11T21:26:09.000",
    "request_status": "Pending",
    "responsible_agency": "Department of Sanitation",
    "final_address": "745 S Genois St",
    "address_councildis": "B",
    "status": "Assigned to Contractor",
    "contractor": "Richards Disposal",
    "rowid": "965802",
    "final_x": "3670907.48359",
    "final_y": "535033.38247",
    "longitude": "-90.1013984815006",
    "latitude": "29.965473680370117",
    "geocoded_column": {
      "latitude": "29.965473680370117",
      "longitude": "-90.1013984815006"
    }
  },
  {
    "service_request": "2023-965801",
    "request_type": "Trash/Recycling",
    "request_reason": "Missed Trash Pick-Up",
    "date_created": "2023-01-11T21:21:52.000",
    "date_modified": "2023-01-11T21:21:53.000",
    "request_status": "Pending",
    "responsible_agency": "Department of Sanitation",
    "final_address": "1607 Pine St",
    "address_councildis": "A",
    "status": "Assigned to Contractor",
    "contractor": "Richards Disposal",
    "rowid": "965801",
    "final_x": "3664824.95968",
    "final_y": "527862.477375",
    "longitude": "-90.12084653058926",
    "latitude": "29.945934439308413",
    "geocoded_column": {
      "latitude": "29.945934439308413",
      "longitude": "-90.12084653058926"
    }
  },
  {
    "service_request": "2023-965800",
    "request_type": "Trash/Recycling",
    "request_reason": "Missed Trash Pick-Up",
    "date_created": "2023-01-11T21:18:10.000",
    "date_modified": "2023-01-11T21:18:11.000",
    "request_status": "Pending",
    "responsible_agency": "Department of Sanitation",
    "final_address": "7543 Plum St",
    "address_councildis": "A",
    "status": "Assigned to Contractor",
    "contractor": "Richards Disposal",
    "rowid": "965800",
    "final_x": "3663674.71591",
    "final_y": "527389.747007",
    "longitude": "-90.12449400134017",
    "latitude": "29.944667999762608",
    "geocoded_column": {
      "latitude": "29.944667999762608",
      "longitude": "-90.12449400134017"
    }
  },
  {
    "service_request": "2023-965799",
    "request_type": "Roads/Drainage",
    "request_reason": "Pothole",
    "date_created": "2023-01-11T21:12:42.000",
    "date_modified": "2023-01-11T21:12:42.000",
    "request_status": "Pending",
    "responsible_agency": "Department of Public Works",
    "final_address": "7559 Lehigh St",
    "address_councildis": "E",
    "status": "Pending",
    "rowid": "965799",
    "final_x": "3710782.98014",
    "final_y": "565390.743522",
    "longitude": "-89.97433766628187",
    "latitude": "30.047705661567864",
    "geocoded_column": {
      "latitude": "30.047705661567864",
      "longitude": "-89.97433766628187"
    }
  },
  {
    "service_request": "2023-965798",
    "request_type": "Trash/Recycling",
    "request_reason": "Missed Trash Pick-Up",
    "date_created": "2023-01-11T21:06:03.000",
    "date_modified": "2023-01-11T21:06:04.000",
    "request_status": "Pending",
    "responsible_agency": "Department of Sanitation",
    "final_address": "7615 Zimple St",
    "address_councildis": "A",
    "status": "Assigned to Contractor",
    "contractor": "Richards Disposal",
    "rowid": "965798",
    "final_x": "3662991.19571",
    "final_y": "527024.114942",
    "longitude": "-90.12666424516665",
    "latitude": "29.943682438660026",
    "geocoded_column": {
      "latitude": "29.943682438660026",
      "longitude": "-90.12666424516665"
    }
  },
  {
    "service_request": "2023-965797",
    "request_type": "Abandoned Vehicles",
    "request_reason": "Abandoned/Junk Vehicles",
    "date_created": "2023-01-11T21:03:57.000",
    "date_modified": "2023-01-11T21:03:57.000",
    "request_status": "Pending",
    "responsible_agency": "Department of Public Works",
    "final_address": "1314 Napoleon Ave Unit 27",
    "address_councildis": "B",
    "status": "Pending",
    "rowid": "965797",
    "final_x": "3670599.42766",
    "final_y": "520159.49996",
    "longitude": "-90.10287570890618",
    "latitude": "29.924584458389486",
    "geocoded_column": {
      "latitude": "29.924584458389486",
      "longitude": "-90.10287570890618"
    }
  },
  {
    "service_request": "2023-965796",
    "request_type": "Trash/Recycling",
    "request_reason": "Missed Trash Pick-Up",
    "date_created": "2023-01-11T21:03:08.000",
    "date_modified": "2023-01-11T21:03:09.000",
    "request_status": "Pending",
    "responsible_agency": "Department of Sanitation",
    "final_address": "1214 N Tonti St",
    "address_councildis": "D",
    "status": "Assigned to Contractor",
    "contractor": "Richards Disposal",
    "rowid": "965796",
    "final_x": "3679025.3037",
    "final_y": "537662.883848",
    "longitude": "-90.07567162211993",
    "latitude": "29.97246142850661",
    "geocoded_column": {
      "latitude": "29.97246142850661",
      "longitude": "-90.07567162211993"
    }
  },
  {
    "service_request": "2023-965795",
    "request_type": "Trash/Recycling",
    "request_reason": "MIssed Recycling Pick-Up",
    "date_created": "2023-01-11T21:01:12.000",
    "date_modified": "2023-01-11T21:01:13.000",
    "request_status": "Pending",
    "responsible_agency": "Department of Sanitation",
    "final_address": "1214 N Tonti St",
    "address_councildis": "D",
    "status": "Assigned to Contractor",
    "contractor": "Richards Disposal",
    "rowid": "965795",
    "final_x": "3679025.3037",
    "final_y": "537662.883848",
    "longitude": "-90.07567162211993",
    "latitude": "29.97246142850661",
    "geocoded_column": {
      "latitude": "29.97246142850661",
      "longitude": "-90.07567162211993"
    }
  },
  {
    "service_request": "2023-965794",
    "request_type": "Trash/Recycling",
    "request_reason": "Missed Trash Pick-Up",
    "date_created": "2023-01-11T21:00:18.000",
    "date_modified": "2023-01-11T21:00:19.000",
    "request_status": "Pending",
    "responsible_agency": "Department of Sanitation",
    "final_address": "1214 N Tonti St",
    "address_councildis": "D",
    "status": "Assigned to Contractor",
    "contractor": "Richards Disposal",
    "rowid": "965794",
    "final_x": "3679025.3037",
    "final_y": "537662.883848",
    "longitude": "-90.07567162211993",
    "latitude": "29.97246142850661",
    "geocoded_column": {
      "latitude": "29.97246142850661",
      "longitude": "-90.07567162211993"
    }
  },
  {
    "service_request": "2023-965792",
    "request_type": "Traffic Signals/Signs/Striping/Streetlights",
    "request_reason": "Street Light Outage/Malfunction",
    "date_created": "2023-01-11T20:43:09.000",
    "date_modified": "2023-01-11T20:43:09.000",
    "request_status": "Pending",
    "responsible_agency": "Department of Public Works",
    "final_address": "415 S Solomon St",
    "address_councildis": "A",
    "status": "Assigned to Contractor",
    "contractor": "Legacy Professional Services",
    "rowid": "965792",
    "final_x": "3669731.9483",
    "final_y": "537656.597768",
    "longitude": "-90.10502197789907",
    "latitude": "29.97272134404732",
    "geocoded_column": {
      "latitude": "29.97272134404732",
      "longitude": "-90.10502197789907"
    }
  },
  {
    "service_request": "2023-965791",
    "request_type": "Roads/Drainage",
    "request_reason": "Debris in Roadway",
    "date_created": "2023-01-11T20:41:48.000",
    "date_modified": "2023-01-11T20:41:48.000",
    "request_status": "Pending",
    "responsible_agency": "Department of Public Works",
    "final_address": "1800 Lapeyrouse St",
    "address_councildis": "D",
    "status": "Pending",
    "rowid": "965791",
    "final_x": "3681552.44584",
    "final_y": "538213.605961",
    "longitude": "-90.06767125456373",
    "latitude": "29.973899212814658",
    "geocoded_column": {
      "latitude": "29.973899212814658",
      "longitude": "-90.06767125456373"
    }
  },
  {
    "service_request": "2023-965790",
    "request_type": "Roads/Drainage",
    "request_reason": "Street Flooding / Drainage",
    "date_created": "2023-01-11T20:39:21.000",
    "date_modified": "2023-01-11T20:39:21.000",
    "request_status": "Pending",
    "responsible_agency": "Department of Public Works",
    "final_address": "1800 Lapeyrouse St",
    "address_councildis": "D",
    "status": "Pending",
    "rowid": "965790",
    "final_x": "3681552.44584",
    "final_y": "538213.605961",
    "longitude": "-90.06767125456373",
    "latitude": "29.973899212814658",
    "geocoded_column": {
      "latitude": "29.973899212814658",
      "longitude": "-90.06767125456373"
    }
  },
  {
    "service_request": "2023-965789",
    "request_type": "Trash/Recycling",
    "request_reason": "Missed Trash Pick-Up",
    "date_created": "2023-01-11T20:35:12.000",
    "date_modified": "2023-01-11T20:35:13.000",
    "request_status": "Pending",
    "responsible_agency": "Department of Sanitation",
    "final_address": "3729 Baudin St",
    "address_councildis": "B",
    "status": "Assigned to Contractor",
    "contractor": "Richards Disposal",
    "rowid": "965789",
    "final_x": "3671180.62183",
    "final_y": "536310.323783",
    "longitude": "-90.10049253392934",
    "latitude": "29.96897676356218",
    "geocoded_column": {
      "latitude": "29.96897676356218",
      "longitude": "-90.10049253392934"
    }
  },
  {
    "service_request": "2023-965788",
    "request_type": "Property Maintenance",
    "request_reason": "Property Maintenance",
    "date_created": "2023-01-11T20:29:44.000",
    "date_modified": "2023-01-11T20:29:44.000",
    "request_status": "Pending",
    "responsible_agency": "Department of Code Enforcement",
    "final_address": "5904 Annunciation St",
    "address_councildis": "A",
    "status": "Pending",
    "rowid": "965788",
    "final_x": "3664847.81332",
    "final_y": "517637.226678",
    "longitude": "-90.12111592177729",
    "latitude": "29.91781757278294",
    "geocoded_column": {
      "latitude": "29.91781757278294",
      "longitude": "-90.12111592177729"
    }
  },
  {
    "service_request": "2023-965787",
    "request_type": "Trash/Recycling",
    "request_reason": "Order Recycling Cart",
    "date_created": "2023-01-11T20:27:53.000",
    "date_modified": "2023-01-11T20:27:53.000",
    "request_status": "Pending",
    "responsible_agency": "Department of Sanitation",
    "final_address": "4833 Laurel St",
    "address_councildis": "B",
    "status": "Pending",
    "rowid": "965787",
    "final_x": "3669375.0978",
    "final_y": "517950.39455",
    "longitude": "-90.10681515997646",
    "latitude": "29.918546212294377",
    "geocoded_column": {
      "latitude": "29.918546212294377",
      "longitude": "-90.10681515997646"
    }
  },
  {
    "service_request": "2023-965786",
    "request_type": "Abandoned Vehicles",
    "request_reason": "Abandoned/Junk Vehicles",
    "date_created": "2023-01-11T20:22:51.000",
    "date_modified": "2023-01-11T20:22:51.000",
    "request_status": "Pending",
    "responsible_agency": "Department of Public Works",
    "final_address": "4352 Duplessis St",
    "address_councildis": "D",
    "status": "Pending",
    "rowid": "965786",
    "final_x": "3678192.78606",
    "final_y": "548437.31317",
    "longitude": "-90.07792804815547",
    "latitude": "30.00211244825932",
    "geocoded_column": {
      "latitude": "30.00211244825932",
      "longitude": "-90.07792804815547"
    }
  },
  {
    "service_request": "2023-965785",
    "request_type": "Trash/Recycling",
    "request_reason": "MIssed Recycling Pick-Up",
    "date_created": "2023-01-11T20:21:55.000",
    "date_modified": "2023-01-11T20:21:55.000",
    "request_status": "Pending",
    "responsible_agency": "Department of Sanitation",
    "final_address": "1716 Peniston St",
    "address_councildis": "B",
    "status": "Assigned to Contractor",
    "contractor": "Richards Disposal",
    "rowid": "965785",
    "final_x": "3672703.25512",
    "final_y": "521676.042169",
    "longitude": "-90.09618293650352",
    "latitude": "29.928692174491566",
    "geocoded_column": {
      "latitude": "29.928692174491566",
      "longitude": "-90.09618293650352"
    }
  },
  {
    "service_request": "2023-965784",
    "request_type": "Trash/Recycling",
    "request_reason": "Missed Trash Pick-Up",
    "date_created": "2023-01-11T20:21:24.000",
    "date_modified": "2023-01-11T20:21:24.000",
    "request_status": "Pending",
    "responsible_agency": "Department of Sanitation",
    "final_address": "338 Bermuda St",
    "address_councildis": "C",
    "status": "Assigned to Contractor",
    "contractor": "Richards Disposal",
    "rowid": "965784",
    "final_x": "3686497.07266",
    "final_y": "530538.740034",
    "longitude": "-90.05232604022464",
    "latitude": "29.952644885078094",
    "geocoded_column": {
      "latitude": "29.952644885078094",
      "longitude": "-90.05232604022464"
    }
  },
  {
    "service_request": "2023-965783",
    "request_type": "Trash/Recycling",
    "request_reason": "MIssed Recycling Pick-Up",
    "date_created": "2023-01-11T20:11:36.000",
    "date_modified": "2023-01-11T20:11:39.000",
    "request_status": "Pending",
    "responsible_agency": "Department of Sanitation",
    "final_address": "1821 Delachaise St",
    "address_councildis": "B",
    "status": "Assigned to Contractor",
    "contractor": "Richards Disposal",
    "rowid": "965783",
    "final_x": "3673543.1595",
    "final_y": "522281.719546",
    "longitude": "-90.09351084033159",
    "latitude": "29.930332630031966",
    "geocoded_column": {
      "latitude": "29.930332630031966",
      "longitude": "-90.09351084033159"
    }
  },
  {
    "service_request": "2023-965782",
    "request_type": "Trash/Recycling",
    "request_reason": "Missed Trash Pick-Up",
    "date_created": "2023-01-11T20:10:02.000",
    "date_modified": "2023-01-11T20:10:03.000",
    "request_status": "Pending",
    "responsible_agency": "Department of Sanitation",
    "final_address": "2234 Upperline St",
    "address_councildis": "B",
    "status": "Assigned to Contractor",
    "contractor": "Richards Disposal",
    "rowid": "965782",
    "final_x": "3669058.16033",
    "final_y": "523103.464955",
    "longitude": "-90.10764157652953",
    "latitude": "29.93272484293292",
    "geocoded_column": {
      "latitude": "29.93272484293292",
      "longitude": "-90.10764157652953"
    }
  },
  {
    "service_request": "2023-965781",
    "request_type": "Trash/Recycling",
    "request_reason": "MIssed Recycling Pick-Up",
    "date_created": "2023-01-11T20:08:26.000",
    "date_modified": "2023-01-11T20:08:26.000",
    "request_status": "Pending",
    "responsible_agency": "Department of Sanitation",
    "final_address": "520 N Salcedo St",
    "address_councildis": "A",
    "status": "Assigned to Contractor",
    "contractor": "Richards Disposal",
    "rowid": "965781",
    "final_x": "3675129.11259",
    "final_y": "537389.872264",
    "longitude": "-90.08798586862079",
    "latitude": "29.971827751089823",
    "geocoded_column": {
      "latitude": "29.971827751089823",
      "longitude": "-90.08798586862079"
    }
  },
  {
    "service_request": "2023-965780",
    "request_type": "Trash/Recycling",
    "request_reason": "Missed Trash Pick-Up",
    "date_created": "2023-01-11T20:08:18.000",
    "date_modified": "2023-01-11T20:08:18.000",
    "request_status": "Pending",
    "responsible_agency": "Department of Sanitation",
    "final_address": "3 Everglades Dr",
    "address_councildis": "C",
    "status": "Assigned to Contractor",
    "contractor": "Richards Disposal",
    "rowid": "965780",
    "final_x": "3700030.07671",
    "final_y": "516769.898229",
    "longitude": "-90.0100972453547",
    "latitude": "29.91436239814357",
    "geocoded_column": {
      "latitude": "29.91436239814357",
      "longitude": "-90.0100972453547"
    }
  },
  {
    "service_request": "2023-965779",
    "request_type": "Trash/Recycling",
    "request_reason": "Missed Trash Pick-Up",
    "date_created": "2023-01-11T20:07:41.000",
    "date_modified": "2023-01-11T20:07:42.000",
    "request_status": "Pending",
    "responsible_agency": "Department of Sanitation",
    "final_address": "520 N Salcedo St",
    "address_councildis": "A",
    "status": "Assigned to Contractor",
    "contractor": "Richards Disposal",
    "rowid": "965779",
    "final_x": "3675129.11259",
    "final_y": "537389.872264",
    "longitude": "-90.08798586862079",
    "latitude": "29.971827751089823",
    "geocoded_column": {
      "latitude": "29.971827751089823",
      "longitude": "-90.08798586862079"
    }
  },
  {
    "service_request": "2023-965778",
    "request_type": "Trash/Recycling",
    "request_reason": "MIssed Recycling Pick-Up",
    "date_created": "2023-01-11T20:03:22.000",
    "date_modified": "2023-01-11T20:03:23.000",
    "request_status": "Pending",
    "responsible_agency": "Department of Sanitation",
    "final_address": "3540 White Oak Ave",
    "address_councildis": "C",
    "status": "Assigned to Contractor",
    "contractor": "Richards Disposal",
    "rowid": "965778",
    "final_x": "3703364.59556",
    "final_y": "514519.337203",
    "longitude": "-89.99965513272258",
    "latitude": "29.908067820021447",
    "geocoded_column": {
      "latitude": "29.908067820021447",
      "longitude": "-89.99965513272258"
    }
  },
  {
    "service_request": "2023-965777",
    "request_type": "Abandoned Vehicles",
    "request_reason": "Abandoned/Junk Vehicles",
    "date_created": "2023-01-11T20:02:14.000",
    "date_modified": "2023-01-11T20:02:14.000",
    "request_status": "Pending",
    "responsible_agency": "Department of Public Works",
    "final_address": "3430 Bienville Ave",
    "address_councildis": "B",
    "status": "Pending",
    "rowid": "965777",
    "final_x": "3673371.61659",
    "final_y": "537511.879368",
    "longitude": "-90.09353215706241",
    "latitude": "29.97221563401953",
    "geocoded_column": {
      "latitude": "29.97221563401953",
      "longitude": "-90.09353215706241"
    }
  },
  {
    "service_request": "2023-965776",
    "request_type": "Trash/Recycling",
    "request_reason": "Missed Trash Pick-Up",
    "date_created": "2023-01-11T20:01:27.000",
    "date_modified": "2023-01-11T20:01:28.000",
    "request_status": "Pending",
    "responsible_agency": "Department of Sanitation",
    "final_address": "3540 White Oak Ave",
    "address_councildis": "C",
    "status": "Assigned to Contractor",
    "contractor": "Richards Disposal",
    "rowid": "965776",
    "final_x": "3703364.59556",
    "final_y": "514519.337203",
    "longitude": "-89.99965513272258",
    "latitude": "29.908067820021447",
    "geocoded_column": {
      "latitude": "29.908067820021447",
      "longitude": "-89.99965513272258"
    }
  },
  {
    "service_request": "2023-965775",
    "request_type": "Trash/Recycling",
    "request_reason": "Request a Large Item Pick Up",
    "date_created": "2023-01-11T20:01:03.000",
    "date_modified": "2023-01-11T20:01:03.000",
    "request_status": "Pending",
    "responsible_agency": "Department of Sanitation",
    "final_address": "1850 Murl St",
    "address_councildis": "C",
    "status": "Assigned to Contractor",
    "contractor": "Richards Disposal",
    "rowid": "965775",
    "final_x": "3695425.66128",
    "final_y": "524239.652028",
    "longitude": "-90.02436093130216",
    "latitude": "29.9350470888691",
    "geocoded_column": {
      "latitude": "29.9350470888691",
      "longitude": "-90.02436093130216"
    }
  },
  {
    "service_request": "2023-965774",
    "request_type": "Trash/Recycling",
    "request_reason": "Missed Trash Pick-Up",
    "date_created": "2023-01-11T19:57:50.000",
    "date_modified": "2023-01-11T19:57:51.000",
    "request_status": "Pending",
    "responsible_agency": "Department of Sanitation",
    "final_address": "3430 Bienville Ave",
    "address_councildis": "B",
    "status": "Assigned to Contractor",
    "contractor": "Richards Disposal",
    "rowid": "965774",
    "final_x": "3673371.61659",
    "final_y": "537511.879368",
    "longitude": "-90.09353215706241",
    "latitude": "29.97221563401953",
    "geocoded_column": {
      "latitude": "29.97221563401953",
      "longitude": "-90.09353215706241"
    }
  },
  {
    "service_request": "2023-965773",
    "request_type": "Trash/Recycling",
    "request_reason": "Missed Trash Pick-Up",
    "date_created": "2023-01-11T19:54:53.000",
    "date_modified": "2023-01-11T19:54:54.000",
    "request_status": "Pending",
    "responsible_agency": "Department of Sanitation",
    "final_address": "141 Lavergne St",
    "address_councildis": "C",
    "status": "Assigned to Contractor",
    "contractor": "Richards Disposal",
    "rowid": "965773",
    "final_x": "3686521.05679",
    "final_y": "531027.056386",
    "longitude": "-90.05223307038956",
    "latitude": "29.953986850510887",
    "geocoded_column": {
      "latitude": "29.953986850510887",
      "longitude": "-90.05223307038956"
    }
  },
  {
    "service_request": "2023-965772",
    "request_type": "Trash/Recycling",
    "request_reason": "MIssed Recycling Pick-Up",
    "date_created": "2023-01-11T19:51:40.000",
    "date_modified": "2023-01-11T19:51:40.000",
    "request_status": "Pending",
    "responsible_agency": "Department of Sanitation",
    "final_address": "329 Lowerline St",
    "address_councildis": "A",
    "status": "Assigned to Contractor",
    "contractor": "Richards Disposal",
    "rowid": "965772",
    "final_x": "3661536.41658",
    "final_y": "523552.803195",
    "longitude": "-90.13137236076453",
    "latitude": "29.93417947531416",
    "geocoded_column": {
      "latitude": "29.93417947531416",
      "longitude": "-90.13137236076453"
    }
  },
  {
    "service_request": "2023-965771",
    "request_type": "Trash/Recycling",
    "request_reason": "Missed Trash Pick-Up",
    "date_created": "2023-01-11T19:47:47.000",
    "date_modified": "2023-01-11T19:47:47.000",
    "request_status": "Pending",
    "responsible_agency": "Department of Sanitation",
    "final_address": "80 Yosemite Dr",
    "address_councildis": "C",
    "status": "Assigned to Contractor",
    "contractor": "Richards Disposal",
    "rowid": "965771",
    "final_x": "3699493.14826",
    "final_y": "516061.934196",
    "longitude": "-90.01181773451229",
    "latitude": "29.912432775643875",
    "geocoded_column": {
      "latitude": "29.912432775643875",
      "longitude": "-90.01181773451229"
    }
  },
  {
    "service_request": "2023-965770",
    "request_type": "Trash/Recycling",
    "request_reason": "Missed Trash Pick-Up",
    "date_created": "2023-01-11T19:47:40.000",
    "date_modified": "2023-01-11T19:47:41.000",
    "request_status": "Pending",
    "responsible_agency": "Department of Sanitation",
    "final_address": "4000 S Post Oak Ave",
    "address_councildis": "C",
    "status": "Assigned to Contractor",
    "contractor": "Richards Disposal",
    "rowid": "965770",
    "final_x": "3704722.0227",
    "final_y": "513421.93253",
    "longitude": "-89.99541137840194",
    "latitude": "29.905006818467946",
    "geocoded_column": {
      "latitude": "29.905006818467946",
      "longitude": "-89.99541137840194"
    }
  },
  {
    "service_request": "2023-965769",
    "request_type": "Trash/Recycling",
    "request_reason": "Replace Trash Cart",
    "date_created": "2023-01-11T19:46:31.000",
    "date_modified": "2023-01-11T19:46:32.000",
    "request_status": "Pending",
    "responsible_agency": "Department of Sanitation",
    "final_address": "4000 S Post Oak Ave",
    "address_councildis": "C",
    "status": "Assigned to Contractor",
    "contractor": "Richards Disposal",
    "rowid": "965769",
    "final_x": "3704722.0227",
    "final_y": "513421.93253",
    "longitude": "-89.99541137840194",
    "latitude": "29.905006818467946",
    "geocoded_column": {
      "latitude": "29.905006818467946",
      "longitude": "-89.99541137840194"
    }
  },
  {
    "service_request": "2023-965768",
    "request_type": "Trash/Recycling",
    "request_reason": "MIssed Recycling Pick-Up",
    "date_created": "2023-01-11T19:45:02.000",
    "date_modified": "2023-01-11T19:45:03.000",
    "request_status": "Pending",
    "responsible_agency": "Department of Sanitation",
    "final_address": "1301 General Taylor St",
    "address_councildis": "B",
    "status": "Assigned to Contractor",
    "contractor": "Richards Disposal",
    "rowid": "965768",
    "final_x": "3672844.37032",
    "final_y": "520291.135864",
    "longitude": "-90.09578468200387",
    "latitude": "29.924879936904606",
    "geocoded_column": {
      "latitude": "29.924879936904606",
      "longitude": "-90.09578468200387"
    }
  },
  {
    "service_request": "2023-965767",
    "request_type": "Trash/Recycling",
    "request_reason": "Missed Trash Pick-Up",
    "date_created": "2023-01-11T19:42:08.000",
    "date_modified": "2023-01-11T19:42:08.000",
    "request_status": "Pending",
    "responsible_agency": "Department of Sanitation",
    "final_address": "1301 General Taylor St",
    "address_councildis": "B",
    "status": "Assigned to Contractor",
    "contractor": "Richards Disposal",
    "rowid": "965767",
    "final_x": "3672844.37032",
    "final_y": "520291.135864",
    "longitude": "-90.09578468200387",
    "latitude": "29.924879936904606",
    "geocoded_column": {
      "latitude": "29.924879936904606",
      "longitude": "-90.09578468200387"
    }
  },
  {
    "service_request": "2023-965766",
    "request_type": "Trash/Recycling",
    "request_reason": "MIssed Recycling Pick-Up",
    "date_created": "2023-01-11T19:41:37.000",
    "date_modified": "2023-01-11T19:41:38.000",
    "request_status": "Pending",
    "responsible_agency": "Department of Sanitation",
    "final_address": "435 Fairway Dr",
    "address_councildis": "A",
    "status": "Assigned to Contractor",
    "contractor": "IV Waste",
    "rowid": "965766",
    "final_x": "3664355.15258",
    "final_y": "542571.825805",
    "longitude": "-90.12183884170813",
    "latitude": "29.98639396580439",
    "geocoded_column": {
      "latitude": "29.98639396580439",
      "longitude": "-90.12183884170813"
    }
  },
  {
    "service_request": "2023-965765",
    "request_type": "Trash/Recycling",
    "request_reason": "Missed Trash Pick-Up",
    "date_created": "2023-01-11T19:38:13.000",
    "date_modified": "2023-01-11T19:38:13.000",
    "request_status": "Pending",
    "responsible_agency": "Department of Sanitation",
    "final_address": "7819 Willow St",
    "address_councildis": "A",
    "status": "Assigned to Contractor",
    "contractor": "Richards Disposal",
    "rowid": "965765",
    "final_x": "3663160.19021",
    "final_y": "528286.958976",
    "longitude": "-90.12608867394457",
    "latitude": "29.947149960746582",
    "geocoded_column": {
      "latitude": "29.947149960746582",
      "longitude": "-90.12608867394457"
    }
  },
  {
    "service_request": "2023-965764",
    "request_type": "Trash/Recycling",
    "request_reason": "Missed Trash Pick-Up",
    "date_created": "2023-01-11T19:34:56.000",
    "date_modified": "2023-01-11T19:34:56.000",
    "request_status": "Pending",
    "responsible_agency": "Department of Sanitation",
    "final_address": "1727 Napoleon Ave",
    "address_councildis": "B",
    "status": "Assigned to Contractor",
    "contractor": "Richards Disposal",
    "rowid": "965764",
    "final_x": "3670923.02407",
    "final_y": "521490.554425",
    "longitude": "-90.10180906296975",
    "latitude": "29.92823487391336",
    "geocoded_column": {
      "latitude": "29.92823487391336",
      "longitude": "-90.10180906296975"
    }
  },
  {
    "service_request": "2023-965762",
    "request_type": "Roads/Drainage",
    "request_reason": "Street Subsidence (Sinking)",
    "date_created": "2023-01-11T19:26:02.000",
    "date_modified": "2023-01-11T19:26:02.000",
    "request_status": "Pending",
    "responsible_agency": "Department of Public Works",
    "final_address": "341 Alix St",
    "address_councildis": "C",
    "status": "Pending",
    "rowid": "965762",
    "final_x": "3686703.39977",
    "final_y": "530124.113281",
    "longitude": "-90.05168919729951",
    "latitude": "29.951498459223856",
    "geocoded_column": {
      "latitude": "29.951498459223856",
      "longitude": "-90.05168919729951"
    }
  },
  {
    "service_request": "2023-965761",
    "request_type": "Trash/Recycling",
    "request_reason": "MIssed Recycling Pick-Up",
    "date_created": "2023-01-11T19:26:01.000",
    "date_modified": "2023-01-11T19:26:01.000",
    "request_status": "Pending",
    "responsible_agency": "Department of Sanitation",
    "final_address": "3122 De Soto St",
    "address_councildis": "A",
    "status": "Assigned to Contractor",
    "contractor": "Richards Disposal",
    "rowid": "965761",
    "final_x": "3676217.18677",
    "final_y": "539849.446858",
    "longitude": "-90.08446489515823",
    "latitude": "29.978558177737682",
    "geocoded_column": {
      "latitude": "29.978558177737682",
      "longitude": "-90.08446489515823"
    }
  },
  {
    "service_request": "2023-965760",
    "request_type": "Trash/Recycling",
    "request_reason": "Missed Trash Pick-Up",
    "date_created": "2023-01-11T19:25:14.000",
    "date_modified": "2023-01-11T19:25:15.000",
    "request_status": "Pending",
    "responsible_agency": "Department of Sanitation",
    "final_address": "1126 Adams St",
    "address_councildis": "A",
    "status": "Assigned to Contractor",
    "contractor": "Richards Disposal",
    "rowid": "965760",
    "final_x": "3662941.20608",
    "final_y": "527321.918271",
    "longitude": "-90.12681217610627",
    "latitude": "29.944502750062995",
    "geocoded_column": {
      "latitude": "29.944502750062995",
      "longitude": "-90.12681217610627"
    }
  },
  {
    "service_request": "2023-965759",
    "request_type": "Trash/Recycling",
    "request_reason": "Missed Trash Pick-Up",
    "date_created": "2023-01-11T19:24:38.000",
    "date_modified": "2023-01-11T19:24:39.000",
    "request_status": "Pending",
    "responsible_agency": "Department of Sanitation",
    "final_address": "3122 De Soto St",
    "address_councildis": "A",
    "status": "Assigned to Contractor",
    "contractor": "Richards Disposal",
    "rowid": "965759",
    "final_x": "3676217.18677",
    "final_y": "539849.446858",
    "longitude": "-90.08446489515823",
    "latitude": "29.978558177737682",
    "geocoded_column": {
      "latitude": "29.978558177737682",
      "longitude": "-90.08446489515823"
    }
  },
  {
    "service_request": "2023-965758",
    "request_type": "Trash/Recycling",
    "request_reason": "MIssed Recycling Pick-Up",
    "date_created": "2023-01-11T19:23:10.000",
    "date_modified": "2023-01-11T19:23:11.000",
    "request_status": "Pending",
    "responsible_agency": "Department of Sanitation",
    "final_address": "324 N Lopez St",
    "address_councildis": "B",
    "status": "Assigned to Contractor",
    "contractor": "Richards Disposal",
    "rowid": "965758",
    "final_x": "3674516.97198",
    "final_y": "537005.445064",
    "longitude": "-90.08993228187892",
    "latitude": "29.970788986061788",
    "geocoded_column": {
      "latitude": "29.970788986061788",
      "longitude": "-90.08993228187892"
    }
  },
  {
    "service_request": "2023-965757",
    "request_type": "Trash/Recycling",
    "request_reason": "Missed Trash Pick-Up",
    "date_created": "2023-01-11T19:22:24.000",
    "date_modified": "2023-01-11T19:22:25.000",
    "request_status": "Pending",
    "responsible_agency": "Department of Sanitation",
    "final_address": "245 Belleville St",
    "address_councildis": "C",
    "status": "Assigned to Contractor",
    "contractor": "Richards Disposal",
    "rowid": "965757",
    "final_x": "3687865.86998",
    "final_y": "531091.340674",
    "longitude": "-90.04798443308074",
    "latitude": "29.954122198857434",
    "geocoded_column": {
      "latitude": "29.954122198857434",
      "longitude": "-90.04798443308074"
    }
  },
  {
    "service_request": "2023-965756",
    "request_type": "Trash/Recycling",
    "request_reason": "Missed Trash Pick-Up",
    "date_created": "2023-01-11T19:21:17.000",
    "date_modified": "2023-01-11T19:21:17.000",
    "request_status": "Pending",
    "responsible_agency": "Department of Sanitation",
    "final_address": "324 N Lopez St",
    "address_councildis": "B",
    "status": "Assigned to Contractor",
    "contractor": "Richards Disposal",
    "rowid": "965756",
    "final_x": "3674516.97198",
    "final_y": "537005.445064",
    "longitude": "-90.08993228187892",
    "latitude": "29.970788986061788",
    "geocoded_column": {
      "latitude": "29.970788986061788",
      "longitude": "-90.08993228187892"
    }
  },
  {
    "service_request": "2023-965755",
    "request_type": "Trash/Recycling",
    "request_reason": "Missed Trash Pick-Up",
    "date_created": "2023-01-11T19:20:47.000",
    "date_modified": "2023-01-11T19:20:48.000",
    "request_status": "Pending",
    "responsible_agency": "Department of Sanitation",
    "final_address": "326 Pelican Ave",
    "address_councildis": "C",
    "status": "Assigned to Contractor",
    "contractor": "Richards Disposal",
    "rowid": "965755",
    "final_x": "3686340.87714",
    "final_y": "530404.326786",
    "longitude": "-90.05282397724002",
    "latitude": "29.952280095173037",
    "geocoded_column": {
      "latitude": "29.952280095173037",
      "longitude": "-90.05282397724002"
    }
  },
  {
    "service_request": "2023-965754",
    "request_type": "Trash/Recycling",
    "request_reason": "Missed Trash Pick-Up",
    "date_created": "2023-01-11T19:19:19.000",
    "date_modified": "2023-01-11T19:19:20.000",
    "request_status": "Pending",
    "responsible_agency": "Department of Sanitation",
    "final_address": "328 Alix St",
    "address_councildis": "C",
    "status": "Assigned to Contractor",
    "contractor": "Richards Disposal",
    "rowid": "965754",
    "final_x": "3686605.29628",
    "final_y": "530141.505345",
    "longitude": "-90.05199834559315",
    "latitude": "29.951549298310393",
    "geocoded_column": {
      "latitude": "29.951549298310393",
      "longitude": "-90.05199834559315"
    }
  },
  {
    "service_request": "2023-965753",
    "request_type": "Trash/Recycling",
    "request_reason": "Missed Trash Pick-Up",
    "date_created": "2023-01-11T19:19:09.000",
    "date_modified": "2023-01-11T19:19:10.000",
    "request_status": "Pending",
    "responsible_agency": "Department of Sanitation",
    "final_address": "5501 Sutton Pl",
    "address_councildis": "C",
    "status": "Assigned to Contractor",
    "contractor": "Richards Disposal",
    "rowid": "965753",
    "final_x": "3704316.31076",
    "final_y": "518412.749686",
    "longitude": "-89.99650804727625",
    "latitude": "29.91874287443599",
    "geocoded_column": {
      "latitude": "29.91874287443599",
      "longitude": "-89.99650804727625"
    }
  },
  {
    "service_request": "2023-965752",
    "request_type": "Trash/Recycling",
    "request_reason": "Missed Trash Pick-Up",
    "date_created": "2023-01-11T19:04:36.000",
    "date_modified": "2023-01-11T19:04:37.000",
    "request_status": "Pending",
    "responsible_agency": "Department of Sanitation",
    "final_address": "1205 Conery St",
    "address_councildis": "B",
    "status": "Assigned to Contractor",
    "contractor": "Richards Disposal",
    "rowid": "965752",
    "final_x": "3676617.85646",
    "final_y": "521139.839481",
    "longitude": "-90.0838438024305",
    "latitude": "29.927100994488157",
    "geocoded_column": {
      "latitude": "29.927100994488157",
      "longitude": "-90.0838438024305"
    }
  },
  {
    "service_request": "2023-965751",
    "request_type": "Trash/Recycling",
    "request_reason": "Missed Trash Pick-Up",
    "date_created": "2023-01-11T19:02:29.000",
    "date_modified": "2023-01-11T19:02:29.000",
    "request_status": "Pending",
    "responsible_agency": "Department of Sanitation",
    "final_address": "2124 S Gayoso St",
    "address_councildis": "B",
    "status": "Assigned to Contractor",
    "contractor": "Richards Disposal",
    "rowid": "965751",
    "final_x": "3669691.5625",
    "final_y": "528928.721152",
    "longitude": "-90.10544490426787",
    "latitude": "29.948723765931963",
    "geocoded_column": {
      "latitude": "29.948723765931963",
      "longitude": "-90.10544490426787"
    }
  },
  {
    "service_request": "2023-965750",
    "request_type": "Trash/Recycling",
    "request_reason": "Missed Trash Pick-Up",
    "date_created": "2023-01-11T19:01:03.000",
    "date_modified": "2023-01-11T19:01:03.000",
    "request_status": "Pending",
    "responsible_agency": "Department of Sanitation",
    "final_address": "2035 Adams St",
    "address_councildis": "A",
    "status": "Assigned to Contractor",
    "contractor": "Richards Disposal",
    "rowid": "965750",
    "final_x": "3665158.45076",
    "final_y": "529635.989697",
    "longitude": "-90.11973427521349",
    "latitude": "29.950801317916802",
    "geocoded_column": {
      "latitude": "29.950801317916802",
      "longitude": "-90.11973427521349"
    }
  },
  {
    "service_request": "2023-965749",
    "request_type": "Trash/Recycling",
    "request_reason": "MIssed Recycling Pick-Up",
    "date_created": "2023-01-11T19:00:32.000",
    "date_modified": "2023-01-11T19:00:33.000",
    "request_status": "Pending",
    "responsible_agency": "Department of Sanitation",
    "final_address": "2124 S Gayoso St",
    "address_councildis": "B",
    "status": "Assigned to Contractor",
    "contractor": "Richards Disposal",
    "rowid": "965749",
    "final_x": "3669691.5625",
    "final_y": "528928.721152",
    "longitude": "-90.10544490426787",
    "latitude": "29.948723765931963",
    "geocoded_column": {
      "latitude": "29.948723765931963",
      "longitude": "-90.10544490426787"
    }
  },
  {
    "service_request": "2023-965748",
    "request_type": "Roads/Drainage",
    "request_reason": "Pothole",
    "date_created": "2023-01-11T18:54:13.000",
    "date_modified": "2023-01-11T18:54:13.000",
    "request_status": "Pending",
    "responsible_agency": "Department of Public Works",
    "final_address": "1442 Louisa St",
    "address_councildis": "C",
    "status": "Pending",
    "rowid": "965748",
    "final_x": "3689890.12803",
    "final_y": "537323.821896",
    "longitude": "-90.04137077149866",
    "latitude": "29.97119675522851",
    "geocoded_column": {
      "latitude": "29.97119675522851",
      "longitude": "-90.04137077149866"
    }
  },
  {
    "service_request": "2023-965747",
    "request_type": "Trash/Recycling",
    "request_reason": "MIssed Recycling Pick-Up",
    "date_created": "2023-01-11T18:53:17.000",
    "date_modified": "2023-01-11T18:53:18.000",
    "request_status": "Pending",
    "responsible_agency": "Department of Sanitation",
    "final_address": "1421 General Pershing St",
    "address_councildis": "B",
    "status": "Assigned to Contractor",
    "contractor": "Richards Disposal",
    "rowid": "965747",
    "final_x": "3671361.78433",
    "final_y": "520550.771576",
    "longitude": "-90.10045591150714",
    "latitude": "29.925637797976027",
    "geocoded_column": {
      "latitude": "29.925637797976027",
      "longitude": "-90.10045591150714"
    }
  },
  {
    "service_request": "2023-965746",
    "request_type": "Trash/Recycling",
    "request_reason": "Missed Trash Pick-Up",
    "date_created": "2023-01-11T18:53:14.000",
    "date_modified": "2023-01-11T18:53:15.000",
    "request_status": "Pending",
    "responsible_agency": "Department of Sanitation",
    "final_address": "217 Delaronde St",
    "address_councildis": "C",
    "status": "Assigned to Contractor",
    "contractor": "Richards Disposal",
    "rowid": "965746",
    "final_x": "3686130.42722",
    "final_y": "530633.89325",
    "longitude": "-90.05348038307504",
    "latitude": "29.952917789547804",
    "geocoded_column": {
      "latitude": "29.952917789547804",
      "longitude": "-90.05348038307504"
    }
  },
  {
    "service_request": "2023-965745",
    "request_type": "Trash/Recycling",
    "request_reason": "Missed Trash Pick-Up",
    "date_created": "2023-01-11T18:52:36.000",
    "date_modified": "2023-01-11T18:52:37.000",
    "request_status": "Pending",
    "responsible_agency": "Department of Sanitation",
    "final_address": "1421 General Pershing St",
    "address_councildis": "B",
    "status": "Assigned to Contractor",
    "contractor": "Richards Disposal",
    "rowid": "965745",
    "final_x": "3671361.78433",
    "final_y": "520550.771576",
    "longitude": "-90.10045591150714",
    "latitude": "29.925637797976027",
    "geocoded_column": {
      "latitude": "29.925637797976027",
      "longitude": "-90.10045591150714"
    }
  },
  {
    "service_request": "2023-965744",
    "request_type": "Trash/Recycling",
    "request_reason": "Illegal Dumping",
    "date_created": "2023-01-11T18:52:10.000",
    "date_modified": "2023-01-11T18:52:10.000",
    "request_status": "Pending",
    "responsible_agency": "Department of Sanitation",
    "final_address": "3114 Urquhart St",
    "address_councildis": "C",
    "status": "Pending",
    "rowid": "965744",
    "final_x": "3689302.7382",
    "final_y": "536662.775111",
    "longitude": "-90.04324932798569",
    "latitude": "29.969397306666934",
    "geocoded_column": {
      "latitude": "29.969397306666934",
      "longitude": "-90.04324932798569"
    }
  },
  {
    "service_request": "2023-965743",
    "request_type": "Trash/Recycling",
    "request_reason": "Illegal Dumping",
    "date_created": "2023-01-11T18:50:35.000",
    "date_modified": "2023-01-11T18:50:35.000",
    "request_status": "Pending",
    "responsible_agency": "Department of Sanitation",
    "final_address": "1338 Clouet St",
    "address_councildis": "C",
    "status": "Pending",
    "rowid": "965743",
    "final_x": "3689233.23203",
    "final_y": "537060.216072",
    "longitude": "-90.0434547040658",
    "latitude": "29.97049228129597",
    "geocoded_column": {
      "latitude": "29.97049228129597",
      "longitude": "-90.0434547040658"
    }
  },
  {
    "service_request": "2023-965742",
    "request_type": "Roads/Drainage",
    "request_reason": "Pothole",
    "date_created": "2023-01-11T18:47:37.000",
    "date_modified": "2023-01-11T18:47:37.000",
    "request_status": "Pending",
    "responsible_agency": "Department of Public Works",
    "final_address": "629 Alix St",
    "address_councildis": "C",
    "status": "Pending",
    "rowid": "965742",
    "final_x": "3687475.50249",
    "final_y": "530312.081666",
    "longitude": "-90.04924462754893",
    "latitude": "29.95199153888767",
    "geocoded_column": {
      "latitude": "29.95199153888767",
      "longitude": "-90.04924462754893"
    }
  },
  {
    "service_request": "2023-965740",
    "request_type": "Trash/Recycling",
    "request_reason": "Missed Trash Pick-Up",
    "date_created": "2023-01-11T18:43:37.000",
    "date_modified": "2023-01-11T18:43:38.000",
    "request_status": "Pending",
    "responsible_agency": "Department of Sanitation",
    "final_address": "803 Napoleon Ave",
    "address_councildis": "B",
    "status": "Assigned to Contractor",
    "contractor": "Richards Disposal",
    "rowid": "965740",
    "final_x": "3671181.73371",
    "final_y": "518507.966263",
    "longitude": "-90.10109362538603",
    "latitude": "29.920026059631773",
    "geocoded_column": {
      "latitude": "29.920026059631773",
      "longitude": "-90.10109362538603"
    }
  },
  {
    "service_request": "2023-965739",
    "request_type": "Trash/Recycling",
    "request_reason": "Start Trash Service",
    "date_created": "2023-01-11T18:42:53.000",
    "date_modified": "2023-01-11T18:42:54.000",
    "request_status": "Pending",
    "responsible_agency": "Department of Sanitation",
    "final_address": "5922 Marshal Foch St",
    "address_councildis": "A",
    "status": "Assigned to Contractor",
    "contractor": "IV Waste",
    "rowid": "965739",
    "final_x": "3669687.36385",
    "final_y": "546714.013649",
    "longitude": "-90.10485610438451",
    "latitude": "29.997627462283",
    "geocoded_column": {
      "latitude": "29.997627462283",
      "longitude": "-90.10485610438451"
    }
  },
  {
    "service_request": "2023-965738",
    "request_type": "Trash/Recycling",
    "request_reason": "Missed Trash Pick-Up",
    "date_created": "2023-01-11T18:42:08.000",
    "date_modified": "2023-01-11T18:42:09.000",
    "request_status": "Pending",
    "responsible_agency": "Department of Sanitation",
    "final_address": "805 Napoleon Ave",
    "address_councildis": "B",
    "status": "Assigned to Contractor",
    "contractor": "Richards Disposal",
    "rowid": "965738",
    "final_x": "3671180.6226",
    "final_y": "518525.744055",
    "longitude": "-90.10109652916212",
    "latitude": "29.920074975770763",
    "geocoded_column": {
      "latitude": "29.920074975770763",
      "longitude": "-90.10109652916212"
    }
  },
  {
    "service_request": "2023-965737",
    "request_type": "Trash/Recycling",
    "request_reason": "Request a Large Item Pick Up",
    "date_created": "2023-01-11T18:41:40.000",
    "date_modified": "2023-01-11T18:41:41.000",
    "request_status": "Pending",
    "responsible_agency": "Department of Sanitation",
    "final_address": "629 Alix St",
    "address_councildis": "C",
    "status": "Assigned to Contractor",
    "contractor": "Richards Disposal",
    "rowid": "965737",
    "final_x": "3687475.50249",
    "final_y": "530312.081666",
    "longitude": "-90.04924462754893",
    "latitude": "29.95199153888767",
    "geocoded_column": {
      "latitude": "29.95199153888767",
      "longitude": "-90.04924462754893"
    }
  },
  {
    "service_request": "2023-965736",
    "request_type": "Trash/Recycling",
    "request_reason": "Order Trash Cart",
    "date_created": "2023-01-11T18:41:01.000",
    "date_modified": "2023-01-11T18:41:02.000",
    "request_status": "Pending",
    "responsible_agency": "Department of Sanitation",
    "final_address": "5922 Marshal Foch St",
    "address_councildis": "A",
    "status": "Assigned to Contractor",
    "contractor": "IV Waste",
    "rowid": "965736",
    "final_x": "3669687.36385",
    "final_y": "546714.013649",
    "longitude": "-90.10485610438451",
    "latitude": "29.997627462283",
    "geocoded_column": {
      "latitude": "29.997627462283",
      "longitude": "-90.10485610438451"
    }
  },
  {
    "service_request": "2023-965735",
    "request_type": "Trash/Recycling",
    "request_reason": "MIssed Recycling Pick-Up",
    "date_created": "2023-01-11T18:40:18.000",
    "date_modified": "2023-01-11T18:40:19.000",
    "request_status": "Pending",
    "responsible_agency": "Department of Sanitation",
    "final_address": "1123 Louisiana Ave",
    "address_councildis": "B",
    "status": "Assigned to Contractor",
    "contractor": "Richards Disposal",
    "rowid": "965735",
    "final_x": "3675017.26952",
    "final_y": "519856.663736",
    "longitude": "-90.08894043886947",
    "latitude": "29.92362057005257",
    "geocoded_column": {
      "latitude": "29.92362057005257",
      "longitude": "-90.08894043886947"
    }
  },
  {
    "service_request": "2023-965734",
    "request_type": "Trash/Recycling",
    "request_reason": "Missed Trash Pick-Up",
    "date_created": "2023-01-11T18:39:28.000",
    "date_modified": "2023-01-11T18:39:29.000",
    "request_status": "Pending",
    "responsible_agency": "Department of Sanitation",
    "final_address": "1923 Bodenger Blvd",
    "address_councildis": "C",
    "status": "Assigned to Contractor",
    "contractor": "Richards Disposal",
    "rowid": "965734",
    "final_x": "3688371.29052",
    "final_y": "524611.351164",
    "longitude": "-90.0466182909992",
    "latitude": "29.93628883824591",
    "geocoded_column": {
      "latitude": "29.93628883824591",
      "longitude": "-90.0466182909992"
    }
  },
  {
    "service_request": "2023-965733",
    "request_type": "Trash/Recycling",
    "request_reason": "Missed Trash Pick-Up",
    "date_created": "2023-01-11T18:38:12.000",
    "date_modified": "2023-01-11T18:38:13.000",
    "request_status": "Pending",
    "responsible_agency": "Department of Sanitation",
    "final_address": "629 Alix St",
    "address_councildis": "C",
    "status": "Assigned to Contractor",
    "contractor": "Richards Disposal",
    "rowid": "965733",
    "final_x": "3687475.50249",
    "final_y": "530312.081666",
    "longitude": "-90.04924462754893",
    "latitude": "29.95199153888767",
    "geocoded_column": {
      "latitude": "29.95199153888767",
      "longitude": "-90.04924462754893"
    }
  },
  {
    "service_request": "2023-965732",
    "request_type": "Trash/Recycling",
    "request_reason": "Missed Trash Pick-Up",
    "date_created": "2023-01-11T18:37:13.000",
    "date_modified": "2023-01-11T18:37:14.000",
    "request_status": "Pending",
    "responsible_agency": "Department of Sanitation",
    "final_address": "811 Opelousas Ave",
    "address_councildis": "C",
    "status": "Assigned to Contractor",
    "contractor": "Richards Disposal",
    "rowid": "965732",
    "final_x": "3687924.93564",
    "final_y": "529038.100032",
    "longitude": "-90.04787066104254",
    "latitude": "29.948474669172093",
    "geocoded_column": {
      "latitude": "29.948474669172093",
      "longitude": "-90.04787066104254"
    }
  },
  {
    "service_request": "2023-965731",
    "request_type": "Trash/Recycling",
    "request_reason": "Request a Large Item Pick Up",
    "date_created": "2023-01-11T18:37:02.000",
    "date_modified": "2023-01-11T18:37:03.000",
    "request_status": "Pending",
    "responsible_agency": "Department of Sanitation",
    "final_address": "7301 Chatelain Dr",
    "address_councildis": "E",
    "status": "Assigned to Contractor",
    "contractor": "Waste Pro",
    "rowid": "965731",
    "final_x": "3715272.30098",
    "final_y": "567227.589732",
    "longitude": "-89.96007948312568",
    "latitude": "30.052609072070528",
    "geocoded_column": {
      "latitude": "30.052609072070528",
      "longitude": "-89.96007948312568"
    }
  },
  {
    "service_request": "2023-965730",
    "request_type": "Trash/Recycling",
    "request_reason": "Missed Trash Pick-Up",
    "date_created": "2023-01-11T18:35:17.000",
    "date_modified": "2023-01-11T18:35:18.000",
    "request_status": "Pending",
    "responsible_agency": "Department of Sanitation",
    "final_address": "195 Audubon Blvd",
    "address_councildis": "A",
    "status": "Assigned to Contractor",
    "contractor": "Richards Disposal",
    "rowid": "965730",
    "final_x": "3666285.34804",
    "final_y": "528266.370112",
    "longitude": "-90.1162220286143",
    "latitude": "29.94700244154064",
    "geocoded_column": {
      "latitude": "29.94700244154064",
      "longitude": "-90.1162220286143"
    }
  },
  {
    "service_request": "2023-965729",
    "request_type": "Trash/Recycling",
    "request_reason": "Missed Trash Pick-Up",
    "date_created": "2023-01-11T18:35:14.000",
    "date_modified": "2023-01-11T18:35:14.000",
    "request_status": "Pending",
    "responsible_agency": "Department of Sanitation",
    "final_address": "3001 Jefferson Ave",
    "address_councildis": "B",
    "status": "Assigned to Contractor",
    "contractor": "Richards Disposal",
    "rowid": "965729",
    "final_x": "3668490.04423",
    "final_y": "526363.864446",
    "longitude": "-90.10932512914992",
    "latitude": "29.941706590996738",
    "geocoded_column": {
      "latitude": "29.941706590996738",
      "longitude": "-90.10932512914992"
    }
  },
  {
    "service_request": "2023-965728",
    "request_type": "Trash/Recycling",
    "request_reason": "Missed Trash Pick-Up",
    "date_created": "2023-01-11T18:34:53.000",
    "date_modified": "2023-01-11T18:34:54.000",
    "request_status": "Pending",
    "responsible_agency": "Department of Sanitation",
    "final_address": "7911 Jeannette St",
    "address_councildis": "A",
    "status": "Assigned to Contractor",
    "contractor": "Richards Disposal",
    "rowid": "965728",
    "final_x": "3663202.66061",
    "final_y": "528727.407936",
    "longitude": "-90.12593992459634",
    "latitude": "29.9483598234777",
    "geocoded_column": {
      "latitude": "29.9483598234777",
      "longitude": "-90.12593992459634"
    }
  },
  {
    "service_request": "2023-965727",
    "request_type": "Trash/Recycling",
    "request_reason": "Missed Trash Pick-Up",
    "date_created": "2023-01-11T18:34:28.000",
    "date_modified": "2023-01-11T18:34:29.000",
    "request_status": "Pending",
    "responsible_agency": "Department of Sanitation",
    "final_address": "7911 Jeannette St",
    "address_councildis": "A",
    "status": "Assigned to Contractor",
    "contractor": "Richards Disposal",
    "rowid": "965727",
    "final_x": "3663202.66061",
    "final_y": "528727.407936",
    "longitude": "-90.12593992459634",
    "latitude": "29.9483598234777",
    "geocoded_column": {
      "latitude": "29.9483598234777",
      "longitude": "-90.12593992459634"
    }
  },
  {
    "service_request": "2023-965726",
    "request_type": "Trash/Recycling",
    "request_reason": "Missed Trash Pick-Up",
    "date_created": "2023-01-11T18:34:14.000",
    "date_modified": "2023-01-11T18:34:15.000",
    "request_status": "Pending",
    "responsible_agency": "Department of Sanitation",
    "final_address": "17 Audubon Blvd",
    "address_councildis": "A",
    "status": "Assigned to Contractor",
    "contractor": "Richards Disposal",
    "rowid": "965726",
    "final_x": "3665415.33357",
    "final_y": "526835.943422",
    "longitude": "-90.1190168614708",
    "latitude": "29.94309461047872",
    "geocoded_column": {
      "latitude": "29.94309461047872",
      "longitude": "-90.1190168614708"
    }
  },
  {
    "service_request": "2023-965725",
    "request_type": "Trash/Recycling",
    "request_reason": "MIssed Recycling Pick-Up",
    "date_created": "2023-01-11T18:33:26.000",
    "date_modified": "2023-01-11T18:33:26.000",
    "request_status": "Pending",
    "responsible_agency": "Department of Sanitation",
    "final_address": "623 9th St, New Orleans, Louisiana, 70115",
    "status": "Assigned to Contractor",
    "rowid": "965725",
    "longitude": "0.0",
    "latitude": "0.0",
    "geocoded_column": {
      "latitude": "0.0",
      "longitude": "0.0"
    }
  },
  {
    "service_request": "2023-965724",
    "request_type": "Trash/Recycling",
    "request_reason": "Missed Trash Pick-Up",
    "date_created": "2023-01-11T18:30:38.000",
    "date_modified": "2023-01-11T18:30:39.000",
    "request_status": "Pending",
    "responsible_agency": "Department of Sanitation",
    "final_address": "115 Vallette St",
    "address_councildis": "C",
    "status": "Assigned to Contractor",
    "contractor": "Richards Disposal",
    "rowid": "965724",
    "final_x": "3687559.76905",
    "final_y": "531309.957762",
    "longitude": "-90.0489432360965",
    "latitude": "29.954732758635625",
    "geocoded_column": {
      "latitude": "29.954732758635625",
      "longitude": "-90.0489432360965"
    }
  },
  {
    "service_request": "2023-965723",
    "request_type": "Trash/Recycling",
    "request_reason": "Missed Trash Pick-Up",
    "date_created": "2023-01-11T18:19:45.000",
    "date_modified": "2023-01-11T18:19:46.000",
    "request_status": "Pending",
    "responsible_agency": "Department of Sanitation",
    "final_address": "917 Foucher St",
    "address_councildis": "B",
    "status": "Assigned to Contractor",
    "contractor": "Richards Disposal",
    "rowid": "965723",
    "final_x": "3674398.24865",
    "final_y": "518765.508151",
    "longitude": "-90.09093180896483",
    "latitude": "29.920638712840137",
    "geocoded_column": {
      "latitude": "29.920638712840137",
      "longitude": "-90.09093180896483"
    }
  },
  {
    "service_request": "2023-965722",
    "request_type": "Trash/Recycling",
    "request_reason": "Missed Trash Pick-Up",
    "date_created": "2023-01-11T18:18:20.000",
    "date_modified": "2023-01-11T18:18:20.000",
    "request_status": "Pending",
    "responsible_agency": "Department of Sanitation",
    "final_address": "1817 Short St",
    "address_councildis": "A",
    "status": "Assigned to Contractor",
    "contractor": "Richards Disposal",
    "rowid": "965722",
    "final_x": "3663843.43117",
    "final_y": "529707.157505",
    "longitude": "-90.12388408528567",
    "latitude": "29.951035237797623",
    "geocoded_column": {
      "latitude": "29.951035237797623",
      "longitude": "-90.12388408528567"
    }
  },
  {
    "service_request": "2023-965721",
    "request_type": "Trash/Recycling",
    "request_reason": "Missed Trash Pick-Up",
    "date_created": "2023-01-11T18:11:32.000",
    "date_modified": "2023-01-11T18:11:33.000",
    "request_status": "Pending",
    "responsible_agency": "Department of Sanitation",
    "final_address": "1688 Robert St",
    "address_councildis": "B",
    "status": "Assigned to Contractor",
    "contractor": "Richards Disposal",
    "rowid": "965721",
    "final_x": "3668652.20513",
    "final_y": "521641.366137",
    "longitude": "-90.10897246881781",
    "latitude": "29.92871647208483",
    "geocoded_column": {
      "latitude": "29.92871647208483",
      "longitude": "-90.10897246881781"
    }
  },
  {
    "service_request": "2023-965720",
    "request_type": "Trash/Recycling",
    "request_reason": "Missed Trash Pick-Up",
    "date_created": "2023-01-11T18:11:04.000",
    "date_modified": "2023-01-11T18:11:05.000",
    "request_status": "Pending",
    "responsible_agency": "Department of Sanitation",
    "final_address": "76 Audubon Blvd",
    "address_councildis": "A",
    "status": "Assigned to Contractor",
    "contractor": "Richards Disposal",
    "rowid": "965720",
    "final_x": "3665685.25613",
    "final_y": "527653.766335",
    "longitude": "-90.11813726209179",
    "latitude": "29.94533549199607",
    "geocoded_column": {
      "latitude": "29.94533549199607",
      "longitude": "-90.11813726209179"
    }
  },
  {
    "service_request": "2023-965719",
    "request_type": "Trash/Recycling",
    "request_reason": "Missed Trash Pick-Up",
    "date_created": "2023-01-11T18:10:14.000",
    "date_modified": "2023-01-11T18:10:15.000",
    "request_status": "Pending",
    "responsible_agency": "Department of Sanitation",
    "final_address": "3726 Red Oak Ct",
    "address_councildis": "C",
    "status": "Assigned to Contractor",
    "contractor": "Richards Disposal",
    "rowid": "965719",
    "final_x": "3703348.70974",
    "final_y": "514081.19589",
    "longitude": "-89.99972136461265",
    "latitude": "29.906863588962047",
    "geocoded_column": {
      "latitude": "29.906863588962047",
      "longitude": "-89.99972136461265"
    }
  },
  {
    "service_request": "2023-965718",
    "request_type": "Trash/Recycling",
    "request_reason": "MIssed Recycling Pick-Up",
    "date_created": "2023-01-11T18:09:17.000",
    "date_modified": "2023-01-11T18:09:17.000",
    "request_status": "Pending",
    "responsible_agency": "Department of Sanitation",
    "final_address": "2221 Jena St",
    "address_councildis": "B",
    "status": "Assigned to Contractor",
    "contractor": "Richards Disposal",
    "rowid": "965718",
    "final_x": "3670309.13428",
    "final_y": "523161.635003",
    "longitude": "-90.10369037118629",
    "latitude": "29.93284793778402",
    "geocoded_column": {
      "latitude": "29.93284793778402",
      "longitude": "-90.10369037118629"
    }
  },
  {
    "service_request": "2023-965717",
    "request_type": "Trash/Recycling",
    "request_reason": "Missed Trash Pick-Up",
    "date_created": "2023-01-11T18:08:05.000",
    "date_modified": "2023-01-11T18:08:05.000",
    "request_status": "Pending",
    "responsible_agency": "Department of Sanitation",
    "final_address": "416 Eliza St",
    "address_councildis": "C",
    "status": "Assigned to Contractor",
    "contractor": "Richards Disposal",
    "rowid": "965717",
    "final_x": "3686740.0598",
    "final_y": "529779.944833",
    "longitude": "-90.05158559913043",
    "latitude": "29.950550986076788",
    "geocoded_column": {
      "latitude": "29.950550986076788",
      "longitude": "-90.05158559913043"
    }
  },
  {
    "service_request": "2023-965716",
    "request_type": "Trash/Recycling",
    "request_reason": "Missed Trash Pick-Up",
    "date_created": "2023-01-11T18:06:40.000",
    "date_modified": "2023-01-11T18:06:41.000",
    "request_status": "Pending",
    "responsible_agency": "Department of Sanitation",
    "final_address": "1671 Soniat St, New Orleans, Louisiana, 70115",
    "address_councildis": "B",
    "status": "Assigned to Contractor",
    "contractor": "Richards Disposal",
    "rowid": "965716",
    "final_x": "3668523.89422",
    "final_y": "521562.408377",
    "longitude": "-90.1093801835196",
    "latitude": "29.928503132666222",
    "geocoded_column": {
      "latitude": "29.928503132666222",
      "longitude": "-90.1093801835196"
    }
  },
  {
    "service_request": "2023-965715",
    "request_type": "Trash/Recycling",
    "request_reason": "Missed Trash Pick-Up",
    "date_created": "2023-01-11T18:06:00.000",
    "date_modified": "2023-01-11T18:06:01.000",
    "request_status": "Pending",
    "responsible_agency": "Department of Sanitation",
    "final_address": "1820 Hillary St",
    "address_councildis": "A",
    "status": "Assigned to Contractor",
    "contractor": "Richards Disposal",
    "rowid": "965715",
    "final_x": "3664752.85479",
    "final_y": "528920.621952",
    "longitude": "-90.12103884419172",
    "latitude": "29.948846093639155",
    "geocoded_column": {
      "latitude": "29.948846093639155",
      "longitude": "-90.12103884419172"
    }
  },
  {
    "service_request": "2023-965714",
    "request_type": "Trash/Recycling",
    "request_reason": "MIssed Recycling Pick-Up",
    "date_created": "2023-01-11T18:00:07.000",
    "date_modified": "2023-01-11T18:00:08.000",
    "request_status": "Pending",
    "responsible_agency": "Department of Sanitation",
    "final_address": "3920 Annunciation St",
    "address_councildis": "B",
    "status": "Assigned to Contractor",
    "contractor": "Richards Disposal",
    "rowid": "965714",
    "final_x": "3673171.54939",
    "final_y": "517908.574326",
    "longitude": "-90.0948331748861",
    "latitude": "29.91831893388864",
    "geocoded_column": {
      "latitude": "29.91831893388864",
      "longitude": "-90.0948331748861"
    }
  },
  {
    "service_request": "2023-965713",
    "request_type": "Trash/Recycling",
    "request_reason": "MIssed Recycling Pick-Up",
    "date_created": "2023-01-11T17:56:22.000",
    "date_modified": "2023-01-11T17:56:22.000",
    "request_status": "Pending",
    "responsible_agency": "Department of Sanitation",
    "final_address": "1148 Moss St",
    "address_councildis": "A",
    "status": "Assigned to Contractor",
    "contractor": "Richards Disposal",
    "rowid": "965713",
    "final_x": "3675121.18254",
    "final_y": "539731.998794",
    "longitude": "-90.08793051783236",
    "latitude": "29.978268036335066",
    "geocoded_column": {
      "latitude": "29.978268036335066",
      "longitude": "-90.08793051783236"
    }
  },
  {
    "service_request": "2023-965712",
    "request_type": "Traffic Signals/Signs/Striping/Streetlights",
    "request_reason": "Traffic Signal Malfunctioning/Damaged",
    "date_created": "2023-01-11T17:54:47.000",
    "date_modified": "2023-01-11T17:54:47.000",
    "request_status": "Pending",
    "responsible_agency": "Department of Public Works",
    "final_address": "2431 Napoleon Ave",
    "address_councildis": "B",
    "status": "Pending",
    "rowid": "965712",
    "final_x": "3670641.46753",
    "final_y": "523965.61222",
    "longitude": "-90.10261395678687",
    "latitude": "29.935048805615182",
    "geocoded_column": {
      "latitude": "29.935048805615182",
      "longitude": "-90.10261395678687"
    }
  },
  {
    "service_request": "2023-965711",
    "request_type": "Abandoned Vehicles",
    "request_reason": "Abandoned/Junk Vehicles",
    "date_created": "2023-01-11T17:54:46.000",
    "date_modified": "2023-01-11T17:54:46.000",
    "request_status": "Pending",
    "responsible_agency": "Department of Public Works",
    "final_address": "4834 St Charles Ave",
    "address_councildis": "B",
    "status": "Pending",
    "rowid": "965711",
    "final_x": "3669105.06145",
    "final_y": "520638.678904",
    "longitude": "-90.10757675132766",
    "latitude": "29.925946088319",
    "geocoded_column": {
      "latitude": "29.925946088319",
      "longitude": "-90.10757675132766"
    }
  },
  {
    "service_request": "2023-965710",
    "request_type": "Trash/Recycling",
    "request_reason": "Missed Trash Pick-Up",
    "date_created": "2023-01-11T17:50:56.000",
    "date_modified": "2023-01-11T17:50:57.000",
    "request_status": "Pending",
    "responsible_agency": "Department of Sanitation",
    "final_address": "3830 Annunciation St",
    "address_councildis": "B",
    "status": "Assigned to Contractor",
    "contractor": "Richards Disposal",
    "rowid": "965710",
    "final_x": "3673435.50638",
    "final_y": "517951.87999",
    "longitude": "-90.09399852423694",
    "latitude": "29.918430163130722",
    "geocoded_column": {
      "latitude": "29.918430163130722",
      "longitude": "-90.09399852423694"
    }
  },
  {
    "service_request": "2023-965709",
    "request_type": "Abandoned Vehicles",
    "request_reason": "Abandoned/Junk Vehicles",
    "date_created": "2023-01-11T17:46:40.000",
    "date_modified": "2023-01-11T17:46:41.000",
    "request_status": "Pending",
    "responsible_agency": "Department of Public Works",
    "final_address": "2701 Frankfort St",
    "address_councildis": "D",
    "status": "Pending",
    "rowid": "965709",
    "final_x": "3687013.14466",
    "final_y": "557222.458075",
    "longitude": "-90.04975268822211",
    "latitude": "30.025999699741835",
    "geocoded_column": {
      "latitude": "30.025999699741835",
      "longitude": "-90.04975268822211"
    }
  },
  {
    "service_request": "2023-965708",
    "request_type": "Trash/Recycling",
    "request_reason": "MIssed Recycling Pick-Up",
    "date_created": "2023-01-11T17:45:57.000",
    "date_modified": "2023-01-11T17:45:57.000",
    "request_status": "Pending",
    "responsible_agency": "Department of Sanitation",
    "final_address": "60 Yellowstone Dr",
    "address_councildis": "C",
    "status": "Assigned to Contractor",
    "contractor": "Richards Disposal",
    "rowid": "965708",
    "final_x": "3700299.833",
    "final_y": "516690.947893",
    "longitude": "-90.00924868822038",
    "latitude": "29.91413674305831",
    "geocoded_column": {
      "latitude": "29.91413674305831",
      "longitude": "-90.00924868822038"
    }
  },
  {
    "service_request": "2023-965707",
    "request_type": "Trash/Recycling",
    "request_reason": "Missed Trash Pick-Up",
    "date_created": "2023-01-11T17:45:19.000",
    "date_modified": "2023-01-11T17:45:20.000",
    "request_status": "Pending",
    "responsible_agency": "Department of Sanitation",
    "final_address": "60 Yellowstone Dr",
    "address_councildis": "C",
    "status": "Assigned to Contractor",
    "contractor": "Richards Disposal",
    "rowid": "965707",
    "final_x": "3700299.833",
    "final_y": "516690.947893",
    "longitude": "-90.00924868822038",
    "latitude": "29.91413674305831",
    "geocoded_column": {
      "latitude": "29.91413674305831",
      "longitude": "-90.00924868822038"
    }
  },
  {
    "service_request": "2023-965706",
    "request_type": "Taxi Issues",
    "request_reason": "Taxi Complaint",
    "date_created": "2023-01-11T17:44:06.000",
    "date_modified": "2023-01-11T17:44:06.000",
    "request_status": "Pending",
    "responsible_agency": "Ground Transportation Bureau",
    "final_address": "1380 Port Of New Orleans Pl",
    "address_councildis": "B",
    "status": "Pending",
    "rowid": "965706",
    "final_x": "3683662.30761",
    "final_y": "524074.277756",
    "longitude": "-90.06150350192668",
    "latitude": "29.934956625913696",
    "geocoded_column": {
      "latitude": "29.934956625913696",
      "longitude": "-90.06150350192668"
    }
  },
  {
    "service_request": "2023-965705",
    "request_type": "Trash/Recycling",
    "request_reason": "Missed Trash Pick-Up",
    "date_created": "2023-01-11T17:43:54.000",
    "date_modified": "2023-01-11T17:43:55.000",
    "request_status": "Pending",
    "responsible_agency": "Department of Sanitation",
    "final_address": "3965 Constance St",
    "address_councildis": "B",
    "status": "Assigned to Contractor",
    "contractor": "Richards Disposal",
    "rowid": "965705",
    "final_x": "3672630.12603",
    "final_y": "518611.610039",
    "longitude": "-90.09651820865471",
    "latitude": "29.920268138418123",
    "geocoded_column": {
      "latitude": "29.920268138418123",
      "longitude": "-90.09651820865471"
    }
  },
  {
    "service_request": "2023-965704",
    "request_type": "Trash/Recycling",
    "request_reason": "Missed Trash Pick-Up",
    "date_created": "2023-01-11T17:39:29.000",
    "date_modified": "2023-01-11T17:39:29.000",
    "request_status": "Pending",
    "responsible_agency": "Department of Sanitation",
    "final_address": "11 Grand Canyon Dr",
    "address_councildis": "C",
    "status": "Assigned to Contractor",
    "contractor": "Richards Disposal",
    "rowid": "965704",
    "final_x": "3699463.06628",
    "final_y": "517427.78367",
    "longitude": "-90.01186296337428",
    "latitude": "29.916189352110166",
    "geocoded_column": {
      "latitude": "29.916189352110166",
      "longitude": "-90.01186296337428"
    }
  },
  {
    "service_request": "2023-965703",
    "request_type": "Trash/Recycling",
    "request_reason": "Missed Trash Pick-Up",
    "date_created": "2023-01-11T17:29:45.000",
    "date_modified": "2023-01-11T17:29:45.000",
    "request_status": "Pending",
    "responsible_agency": "Department of Sanitation",
    "final_address": "831 Pacific Ave",
    "address_councildis": "C",
    "status": "Assigned to Contractor",
    "contractor": "Richards Disposal",
    "rowid": "965703",
    "final_x": "3688403.64739",
    "final_y": "528426.378816",
    "longitude": "-90.04638086550617",
    "latitude": "29.94677786941864",
    "geocoded_column": {
      "latitude": "29.94677786941864",
      "longitude": "-90.04638086550617"
    }
  },
  {
    "service_request": "2023-965701",
    "request_type": "Trash/Recycling",
    "request_reason": "Replace Recycling Cart",
    "date_created": "2023-01-11T17:25:17.000",
    "date_modified": "2023-01-11T17:25:17.000",
    "request_status": "Pending",
    "responsible_agency": "Department of Sanitation",
    "final_address": "11340 Prentiss Ave",
    "address_councildis": "E",
    "status": "Pending",
    "rowid": "965701",
    "final_x": "3717340.5301",
    "final_y": "556702.824026",
    "longitude": "-89.95394293785624",
    "latitude": "30.023601911981327",
    "geocoded_column": {
      "latitude": "30.023601911981327",
      "longitude": "-89.95394293785624"
    }
  },
  {
    "service_request": "2023-965700",
    "request_type": "Trash/Recycling",
    "request_reason": "Missed Trash Pick-Up",
    "date_created": "2023-01-11T17:25:04.000",
    "date_modified": "2023-01-11T17:25:05.000",
    "request_status": "Pending",
    "responsible_agency": "Department of Sanitation",
    "final_address": "42 Yellowstone Dr",
    "address_councildis": "C",
    "status": "Assigned to Contractor",
    "contractor": "Richards Disposal",
    "rowid": "965700",
    "final_x": "3700290.84349",
    "final_y": "517330.686581",
    "longitude": "-90.00925372871421",
    "latitude": "29.915896092353528",
    "geocoded_column": {
      "latitude": "29.915896092353528",
      "longitude": "-90.00925372871421"
    }
  },
  {
    "service_request": "2023-965699",
    "request_type": "Trash/Recycling",
    "request_reason": "Missed Trash Pick-Up",
    "date_created": "2023-01-11T17:23:54.000",
    "date_modified": "2023-01-11T17:23:55.000",
    "request_status": "Pending",
    "responsible_agency": "Department of Sanitation",
    "final_address": "1512 General Pershing St",
    "address_councildis": "B",
    "status": "Assigned to Contractor",
    "contractor": "Richards Disposal",
    "rowid": "965699",
    "final_x": "3671215.61991",
    "final_y": "520705.571577",
    "longitude": "-90.10091205336771",
    "latitude": "29.92606777202637",
    "geocoded_column": {
      "latitude": "29.92606777202637",
      "longitude": "-90.10091205336771"
    }
  },
  {
    "service_request": "2023-965698",
    "request_type": "Trash/Recycling",
    "request_reason": "Missed Trash Pick-Up",
    "date_created": "2023-01-11T17:23:35.000",
    "date_modified": "2023-01-11T17:23:35.000",
    "request_status": "Pending",
    "responsible_agency": "Department of Sanitation",
    "final_address": "4230 Laurel St",
    "address_councildis": "B",
    "status": "Assigned to Contractor",
    "contractor": "Richards Disposal",
    "rowid": "965698",
    "final_x": "3671625.13089",
    "final_y": "518067.604726",
    "longitude": "-90.09970899602563",
    "latitude": "29.918802086535557",
    "geocoded_column": {
      "latitude": "29.918802086535557",
      "longitude": "-90.09970899602563"
    }
  },
  {
    "service_request": "2023-965697",
    "request_type": "Trash/Recycling",
    "request_reason": "Missed Trash Pick-Up",
    "date_created": "2023-01-11T17:22:11.000",
    "date_modified": "2023-01-11T17:22:14.000",
    "request_status": "Pending",
    "responsible_agency": "Department of Sanitation",
    "final_address": "424 Abalon Ct",
    "address_councildis": "C",
    "status": "Assigned to Contractor",
    "contractor": "Richards Disposal",
    "rowid": "965697",
    "final_x": "3689401.11407",
    "final_y": "529995.963585",
    "longitude": "-90.04317571073875",
    "latitude": "29.95106284643129",
    "geocoded_column": {
      "latitude": "29.95106284643129",
      "longitude": "-90.04317571073875"
    }
  },
  {
    "service_request": "2023-965696",
    "request_type": "Trash/Recycling",
    "request_reason": "Missed Trash Pick-Up",
    "date_created": "2023-01-11T17:21:52.000",
    "date_modified": "2023-01-11T17:21:53.000",
    "request_status": "Pending",
    "responsible_agency": "Department of Sanitation",
    "final_address": "3660 Laurel St",
    "address_councildis": "B",
    "status": "Assigned to Contractor",
    "contractor": "Richards Disposal",
    "rowid": "965696",
    "final_x": "3673914.16091",
    "final_y": "518399.04415",
    "longitude": "-90.09247237927659",
    "latitude": "29.91964547771596",
    "geocoded_column": {
      "latitude": "29.91964547771596",
      "longitude": "-90.09247237927659"
    }
  },
  {
    "service_request": "2023-965695",
    "request_type": "Trash/Recycling",
    "request_reason": "MIssed Recycling Pick-Up",
    "date_created": "2023-01-11T17:21:46.000",
    "date_modified": "2023-01-11T17:21:47.000",
    "request_status": "Pending",
    "responsible_agency": "Department of Sanitation",
    "final_address": "900 BLK Hagan St",
    "address_councildis": "A",
    "status": "Assigned to Contractor",
    "contractor": "Richards Disposal",
    "rowid": "965695",
    "final_x": "3675254.87255",
    "final_y": "539242.287445",
    "longitude": "-90.08752509231586",
    "latitude": "29.97691750178324",
    "geocoded_column": {
      "latitude": "29.97691750178324",
      "longitude": "-90.08752509231586"
    }
  },
  {
    "service_request": "2023-965694",
    "request_type": "Trash/Recycling",
    "request_reason": "Missed Trash Pick-Up",
    "date_created": "2023-01-11T17:21:28.000",
    "date_modified": "2023-01-11T17:21:28.000",
    "request_status": "Pending",
    "responsible_agency": "Department of Sanitation",
    "final_address": "900 BLK Hagan St",
    "address_councildis": "A",
    "status": "Assigned to Contractor",
    "contractor": "Richards Disposal",
    "rowid": "965694",
    "final_x": "3675254.87255",
    "final_y": "539242.287445",
    "longitude": "-90.08752509231586",
    "latitude": "29.97691750178324",
    "geocoded_column": {
      "latitude": "29.97691750178324",
      "longitude": "-90.08752509231586"
    }
  },
  {
    "service_request": "2023-965693",
    "request_type": "Trash/Recycling",
    "request_reason": "Missed Trash Pick-Up",
    "date_created": "2023-01-11T17:20:36.000",
    "date_modified": "2023-01-11T17:20:40.000",
    "request_status": "Pending",
    "responsible_agency": "Department of Sanitation",
    "final_address": "416 Lowerline St",
    "address_councildis": "A",
    "status": "Assigned to Contractor",
    "contractor": "Richards Disposal",
    "rowid": "965693",
    "final_x": "3661712.00333",
    "final_y": "524057.031804",
    "longitude": "-90.13080133064518",
    "latitude": "29.93556087934907",
    "geocoded_column": {
      "latitude": "29.93556087934907",
      "longitude": "-90.13080133064518"
    }
  },
  {
    "service_request": "2023-965692",
    "request_type": "Roads/Drainage",
    "request_reason": "Catch Basin - Clogged",
    "date_created": "2023-01-11T17:20:21.000",
    "date_modified": "2023-01-11T17:20:22.000",
    "request_status": "Pending",
    "responsible_agency": "Department of Public Works",
    "final_address": "2500 BLK Burdette St",
    "address_councildis": "A",
    "status": "Pending",
    "rowid": "965692",
    "final_x": "3666063.7095",
    "final_y": "531204.043351",
    "longitude": "-90.11682335256852",
    "latitude": "29.955086560556456",
    "geocoded_column": {
      "latitude": "29.955086560556456",
      "longitude": "-90.11682335256852"
    }
  },