[
  {
    "service_request": "2025-1212857",
    "request_type": "Streetlights",
    "request_reason": "Streetlight Outage/Malfunction",
    "date_created": "2025-07-26T22:01:55.000",
    "date_modified": "2025-07-26T22:01:56.000",
    "request_status": "Pending",
    "responsible_agency": "Department of Public Works",
    "final_address": "831 N Roman St",
    "address_councildis": "D",
    "status": "Pending",
    "contractor": "Legacy Professional Services",
    "rowid": "1212857",
    "final_x": "3679537.41979",
    "final_y": "535542.724806",
    "longitude": "-90.07412785208385",
    "latitude": "29.96661625259516",
    "geocoded_column": {
      "latitude": "29.96661625259516",
      "longitude": "-90.07412785208385"
    }
  },
  {
    "service_request": "2025-1212856",
    "request_type": "Trash/Recycling",
    "request_reason": "Request a Large Item Pick Up",
    "date_created": "2025-07-26T22:01:48.000",
    "date_modified": "2025-07-26T22:01:50.000",
    "request_status": "Pending",
    "responsible_agency": "Department of Sanitation",
    "final_address": "8 Grand Canyon Dr",
    "address_councildis": "C",
    "status": "Assigned to Contractor",
    "contractor": "Richards Disposal",
    "rowid": "1212856",
    "final_x": "3699469.12106",
    "final_y": "517562.31999",
    "longitude": "-90.0118389547415",
    "latitude": "29.916559089228862",
    "geocoded_column": {
      "latitude": "29.916559089228862",
      "longitude": "-90.0118389547415"
    }
  },
  {
    "service_request": "2025-1212855",
    "request_type": "Streetlights",
    "request_reason": "Streetlight Outage/Malfunction",
    "date_created": "2025-07-26T21:55:48.000",
    "date_modified": "2025-07-26T21:55:49.000",
    "request_status": "Pending",
    "responsible_agency": "Department of Public Works",
    "final_address": "5535 West End Blvd",
    "address_councildis": "A",
    "status": "Pending",
    "contractor": "Legacy Professional Services",
    "rowid": "1212855",
    "final_x": "3666353.20602",
    "final_y": "544582.194959",
    "longitude": "-90.11546023844582",
    "latitude": "29.991863558691673",
    "geocoded_column": {
      "latitude": "29.991863558691673",
      "longitude": "-90.11546023844582"
    }
  },
  {
    "service_request": "2025-1212854",
    "request_type": "Abandoned Vehicles",
    "request_reason": "Abandoned/Junk Vehicles",
    "date_created": "2025-07-26T21:45:35.000",
    "date_modified": "2025-07-26T21:45:38.000",
    "request_status": "Pending",
    "responsible_agency": "Department of Public Works",
    "final_address": "2717 S Prieur St",
    "address_councildis": "B",
    "status": "Pending",
    "rowid": "1212854",
    "final_x": "3672695.90113",
    "final_y": "527708.915519",
    "longitude": "-90.09600049961581",
    "latitude": "29.945280834698035",
    "geocoded_column": {
      "latitude": "29.945280834698035",
      "longitude": "-90.09600049961581"
    }
  },
  {
    "service_request": "2025-1212853",
    "request_type": "Streetlights",
    "request_reason": "Streetlight Outage/Malfunction",
    "date_created": "2025-07-26T21:24:29.000",
    "date_modified": "2025-07-26T21:33:20.000",
    "request_status": "Pending",
    "responsible_agency": "Department of Public Works",
    "final_address": "3500 Baudin St",
    "address_councildis": "B",
    "status": "Pending",
    "contractor": "Legacy Professional Services",
    "rowid": "1212853",
    "final_x": "3671843.10139",
    "final_y": "535710.454599",
    "longitude": "-90.0984207917091",
    "latitude": "29.967307709219465",
    "geocoded_column": {
      "latitude": "29.967307709219465",
      "longitude": "-90.0984207917091"
    }
  },
  {
    "service_request": "2025-1212852",
    "request_type": "Streetlights",
    "request_reason": "Streetlight Outage/Malfunction",
    "date_created": "2025-07-26T20:46:45.000",
    "date_modified": "2025-07-26T20:46:48.000",
    "request_status": "Pending",
    "responsible_agency": "Department of Public Works",
    "final_address": "13175 Willowbrook Dr",
    "address_councildis": "E",
    "status": "Pending",
    "contractor": "Legacy Professional Services",
    "rowid": "1212852",
    "final_x": "3726298.11046",
    "final_y": "564092.088993",
    "longitude": "-89.92535233634544",
    "latitude": "30.043619808929797",
    "geocoded_column": {
      "latitude": "30.043619808929797",
      "longitude": "-89.92535233634544"
    }
  },
  {
    "service_request": "2025-1212851",
    "request_type": "Property Maintenance",
    "request_reason": "Property Maintenance",
    "date_created": "2025-07-26T20:34:37.000",
    "date_modified": "2025-07-26T20:34:39.000",
    "request_status": "Pending",
    "responsible_agency": "Department of Code Enforcement",
    "final_address": "1731 Louisa St",
    "address_councildis": "D",
    "status": "Pending",
    "rowid": "1212851",
    "final_x": "3690307.7551",
    "final_y": "538363.728265",
    "longitude": "-90.04001478400023",
    "latitude": "29.974043176126308",
    "geocoded_column": {
      "latitude": "29.974043176126308",
      "longitude": "-90.04001478400023"
    }
  },
  {
    "service_request": "2025-1212850",
    "request_type": "Property Maintenance",
    "request_reason": "Property Maintenance",
    "date_created": "2025-07-26T20:28:36.000",
    "date_modified": "2025-07-26T20:28:38.000",
    "request_status": "Pending",
    "responsible_agency": "Department of Code Enforcement",
    "final_address": "1727 Louisa St",
    "address_councildis": "D",
    "status": "Pending",
    "rowid": "1212850",
    "final_x": "3690205.48924",
    "final_y": "538310.802121",
    "longitude": "-90.04033964788702",
    "latitude": "29.973900821427666",
    "geocoded_column": {
      "latitude": "29.973900821427666",
      "longitude": "-90.04033964788702"
    }
  },
  {
    "service_request": "2025-1212849",
    "request_type": "Healthy Homes",
    "request_reason": "Healthy Homes",
    "date_created": "2025-07-26T20:25:28.000",
    "date_modified": "2025-07-26T20:25:30.000",
    "request_status": "Pending",
    "responsible_agency": "Department of Code Enforcement",
    "final_address": "13707 Chef Menteur Hwy",
    "address_councildis": "E",
    "status": "Pending",
    "rowid": "1212849",
    "final_x": "3727076.07494",
    "final_y": "560358.459357",
    "longitude": "-89.92303890282076",
    "latitude": "30.033327566017253",
    "geocoded_column": {
      "latitude": "30.033327566017253",
      "longitude": "-89.92303890282076"
    }
  },
  {
    "service_request": "2025-1212848",
    "request_type": "Trash/Recycling",
    "request_reason": "Request a Large Item Pick Up",
    "date_created": "2025-07-26T20:10:03.000",
    "date_modified": "2025-07-26T20:10:05.000",
    "request_status": "Pending",
    "responsible_agency": "Department of Sanitation",
    "final_address": "2238 Fats Domino Ave",
    "address_councildis": "E",
    "status": "Assigned to Contractor",
    "contractor": "Waste Pro",
    "rowid": "1212848",
    "final_x": "3699171.07658",
    "final_y": "538213.598665",
    "longitude": "-90.01202804449794",
    "latitude": "29.9733523193546",
    "geocoded_column": {
      "latitude": "29.9733523193546",
      "longitude": "-90.01202804449794"
    }
  },
  {
    "service_request": "2025-1212847",
    "request_type": "Property Maintenance",
    "request_reason": "Property Maintenance",
    "date_created": "2025-07-26T19:56:11.000",
    "date_modified": "2025-07-26T19:56:13.000",
    "request_status": "Pending",
    "responsible_agency": "Department of Code Enforcement",
    "final_address": "6072 Wickfield Dr",
    "address_councildis": "D",
    "status": "Pending",
    "rowid": "1212847",
    "final_x": "3680888.76443",
    "final_y": "555446.271833",
    "longitude": "-90.06916685909178",
    "latitude": "30.021303057708522",
    "geocoded_column": {
      "latitude": "30.021303057708522",
      "longitude": "-90.06916685909178"
    }
  },
  {
    "service_request": "2025-1212846",
    "request_type": "Trash/Recycling",
    "request_reason": "Order Recycling Cart",
    "date_created": "2025-07-26T19:46:13.000",
    "date_modified": "2025-07-26T19:46:18.000",
    "request_status": "Pending",
    "responsible_agency": "Department of Sanitation",
    "final_address": "1326 Elmira Ave",
    "address_councildis": "C",
    "status": "Pending",
    "rowid": "1212846",
    "final_x": "3688107.14166",
    "final_y": "526577.611582",
    "longitude": "-90.04738254936889",
    "latitude": "29.94170354246262",
    "geocoded_column": {
      "latitude": "29.94170354246262",
      "longitude": "-90.04738254936889"
    }
  },
  {
    "service_request": "2025-1212845",
    "request_type": "Trash/Recycling",
    "request_reason": "Request a Large Item Pick Up",
    "date_created": "2025-07-26T19:37:54.000",
    "date_modified": "2025-07-26T19:37:56.000",
    "request_status": "Pending",
    "responsible_agency": "Department of Sanitation",
    "final_address": "1636 Peniston St",
    "address_councildis": "B",
    "status": "Assigned to Contractor",
    "contractor": "IV Waste",
    "rowid": "1212845",
    "final_x": "3672742.35732",
    "final_y": "521393.286713",
    "longitude": "-90.09606913694144",
    "latitude": "29.927913527036996",
    "geocoded_column": {
      "latitude": "29.927913527036996",
      "longitude": "-90.09606913694144"
    }
  },
  {
    "service_request": "2025-1212844",
    "request_type": "Trash/Recycling",
    "request_reason": "Request a Large Item Pick Up",
    "date_created": "2025-07-26T19:28:58.000",
    "date_modified": "2025-07-26T19:29:00.000",
    "request_status": "Pending",
    "responsible_agency": "Department of Sanitation",
    "final_address": "1305 Pine St",
    "address_councildis": "A",
    "status": "Assigned to Contractor",
    "contractor": "IV Waste",
    "rowid": "1212844",
    "final_x": "3664194.0089",
    "final_y": "526991.741886",
    "longitude": "-90.12286770661363",
    "latitude": "29.943558539159696",
    "geocoded_column": {
      "latitude": "29.943558539159696",
      "longitude": "-90.12286770661363"
    }
  },
  {
    "service_request": "2025-1212843",
    "request_type": "Safety & Permits",
    "request_reason": "Construction permit",
    "date_created": "2025-07-26T19:28:28.000",
    "date_modified": "2025-07-26T19:28:30.000",
    "request_status": "Pending",
    "responsible_agency": "Safety and Permits",
    "final_address": "3910 Bienville Ave",
    "address_councildis": "A",
    "status": "Pending",
    "rowid": "1212843",
    "final_x": "3672068.32283",
    "final_y": "538388.010761",
    "longitude": "-90.09761834783289",
    "latitude": "29.97466340933185",
    "geocoded_column": {
      "latitude": "29.97466340933185",
      "longitude": "-90.09761834783289"
    }
  },
  {
    "service_request": "2025-1212842",
    "request_type": "Street and Traffic Signs",
    "request_reason": "Additional Signage Request",
    "date_created": "2025-07-26T19:05:53.000",
    "date_modified": "2025-07-26T19:05:55.000",
    "request_status": "Pending",
    "responsible_agency": "Department of Public Works",
    "final_address": "863 Olga St",
    "address_councildis": "A",
    "status": "Pending",
    "rowid": "1212842",
    "final_x": "3673314.09627",
    "final_y": "540278.726731",
    "longitude": "-90.09361927570885",
    "latitude": "29.979825233768352",
    "geocoded_column": {
      "latitude": "29.979825233768352",
      "longitude": "-90.09361927570885"
    }
  },
  {
    "service_request": "2025-1212841",
    "request_type": "General Services",
    "request_reason": "General Service Request",
    "date_created": "2025-07-26T18:52:04.000",
    "date_modified": "2025-07-26T18:52:06.000",
    "request_status": "Pending",
    "responsible_agency": "Orleans Parish Communication District",
    "final_address": "600 BLK Wagner St",
    "address_councildis": "C",
    "status": "Pending",
    "rowid": "1212841",
    "final_x": "3690566.18478",
    "final_y": "529193.936807",
    "longitude": "-90.03952560735055",
    "latitude": "29.94882142743888",
    "geocoded_column": {
      "latitude": "29.94882142743888",
      "longitude": "-90.03952560735055"
    }
  },
  {
    "service_request": "2025-1212840",
    "request_type": "Trash/Recycling",
    "request_reason": "Request a Large Item Pick Up",
    "date_created": "2025-07-26T18:50:03.000",
    "date_modified": "2025-07-26T18:50:06.000",
    "request_status": "Pending",
    "responsible_agency": "Department of Sanitation",
    "final_address": "4603 Arts St",
    "address_councildis": "D",
    "status": "Assigned to Contractor",
    "contractor": "IV Waste",
    "rowid": "1212840",
    "final_x": "3686075.61398",
    "final_y": "549639.599188",
    "longitude": "-90.05298289541811",
    "latitude": "30.00517846870325",
    "geocoded_column": {
      "latitude": "30.00517846870325",
      "longitude": "-90.05298289541811"
    }
  },
  {
    "service_request": "2025-1212839",
    "request_type": "Health Related Request",
    "request_reason": "Noise Ordinance Complaint",
    "date_created": "2025-07-26T18:39:07.000",
    "date_modified": "2025-07-26T18:39:09.000",
    "request_status": "Pending",
    "responsible_agency": "Health Department",
    "final_address": "4700 Music St",
    "address_councildis": "D",
    "status": "Pending",
    "rowid": "1212839",
    "final_x": "3685568.96022",
    "final_y": "550244.547924",
    "longitude": "-90.05456219053077",
    "latitude": "30.006857414968323",
    "geocoded_column": {
      "latitude": "30.006857414968323",
      "longitude": "-90.05456219053077"
    }
  },
  {
    "service_request": "2025-1212838",
    "request_type": "Streetlights",
    "request_reason": "Streetlight Outage/Malfunction",
    "date_created": "2025-07-26T18:38:08.000",
    "date_modified": "2025-07-26T18:38:10.000",
    "request_status": "Pending",
    "responsible_agency": "Department of Public Works",
    "final_address": "7008 Catina St",
    "address_councildis": "A",
    "status": "Pending",
    "contractor": "Legacy Professional Services",
    "rowid": "1212838",
    "final_x": "3667089.74906",
    "final_y": "554198.89404",
    "longitude": "-90.11281007372499",
    "latitude": "30.018284595362697",
    "geocoded_column": {
      "latitude": "30.018284595362697",
      "longitude": "-90.11281007372499"
    }
  },
  {
    "service_request": "2025-1212837",
    "request_type": "Trash/Recycling",
    "request_reason": "Request a Large Item Pick Up",
    "date_created": "2025-07-26T18:33:56.000",
    "date_modified": "2025-07-26T18:33:58.000",
    "request_status": "Pending",
    "responsible_agency": "Department of Sanitation",
    "final_address": "2019 Pauline St",
    "address_councildis": "D",
    "status": "Assigned to Contractor",
    "contractor": "IV Waste",
    "rowid": "1212837",
    "final_x": "3692144.49225",
    "final_y": "538952.161162",
    "longitude": "-90.03419290412454",
    "latitude": "29.975604025366327",
    "geocoded_column": {
      "latitude": "29.975604025366327",
      "longitude": "-90.03419290412454"
    }
  },
  {
    "service_request": "2025-1212836",
    "request_type": "Property Maintenance",
    "request_reason": "Property Maintenance",
    "date_created": "2025-07-26T18:30:00.000",
    "date_modified": "2025-07-26T18:30:02.000",
    "request_status": "Pending",
    "responsible_agency": "Department of Code Enforcement",
    "final_address": "218 Nashville Ave",
    "address_councildis": "A",
    "status": "Pending",
    "rowid": "1212836",
    "final_x": "3665048.5945",
    "final_y": "517109.358517",
    "longitude": "-90.12049979979034",
    "latitude": "29.916360257593396",
    "geocoded_column": {
      "latitude": "29.916360257593396",
      "longitude": "-90.12049979979034"
    }
  },
  {
    "service_request": "2025-1212835",
    "request_type": "Abandoned Vehicles",
    "request_reason": "Abandoned/Junk Vehicles",
    "date_created": "2025-07-26T18:29:03.000",
    "date_modified": "2025-07-26T18:29:04.000",
    "request_status": "Pending",
    "responsible_agency": "Department of Public Works",
    "final_address": "4408 Jeanne Marie Pl",
    "address_councildis": "D",
    "status": "Pending",
    "rowid": "1212835",
    "final_x": "3678456.01717",
    "final_y": "548627.581395",
    "longitude": "-90.07708988052052",
    "latitude": "30.00262768561838",
    "geocoded_column": {
      "latitude": "30.00262768561838",
      "longitude": "-90.07708988052052"
    }
  },
  {
    "service_request": "2025-1212834",
    "request_type": "Trash/Recycling",
    "request_reason": "Request a Large Item Pick Up",
    "date_created": "2025-07-26T17:26:17.000",
    "date_modified": "2025-07-26T17:26:19.000",
    "request_status": "Pending",
    "responsible_agency": "Department of Sanitation",
    "final_address": "5539 Bellaire Dr",
    "address_councildis": "A",
    "status": "Assigned to Contractor",
    "contractor": "IV Waste",
    "rowid": "1212834",
    "final_x": "3664128.65383",
    "final_y": "544654.504847",
    "longitude": "-90.1224847517453",
    "latitude": "29.992127211490747",
    "geocoded_column": {
      "latitude": "29.992127211490747",
      "longitude": "-90.1224847517453"
    }
  },
  {
    "service_request": "2025-1212833",
    "request_type": "Trash/Recycling",
    "request_reason": "Request a Large Item Pick Up",
    "date_created": "2025-07-26T17:09:49.000",
    "date_modified": "2025-07-26T17:09:51.000",
    "request_status": "Pending",
    "responsible_agency": "Department of Sanitation",
    "final_address": "6141 Vicksburg St",
    "address_councildis": "A",
    "status": "Assigned to Contractor",
    "contractor": "IV Waste",
    "rowid": "1212833",
    "final_x": "3669014.9209",
    "final_y": "548243.470226",
    "longitude": "-90.10692862812076",
    "latitude": "30.00185274394759",
    "geocoded_column": {
      "latitude": "30.00185274394759",
      "longitude": "-90.10692862812076"
    }
  },
  {
    "service_request": "2025-1212832",
    "request_type": "Trash/Recycling",
    "request_reason": "Request a Large Item Pick Up",
    "date_created": "2025-07-26T17:04:55.000",
    "date_modified": "2025-07-26T17:04:57.000",
    "request_status": "Pending",
    "responsible_agency": "Department of Sanitation",
    "final_address": "8735 Colapissa St",
    "address_councildis": "A",
    "status": "Assigned to Contractor",
    "contractor": "IV Waste",
    "rowid": "1212832",
    "final_x": "3664786.76506",
    "final_y": "535044.223558",
    "longitude": "-90.12072715975064",
    "latitude": "29.96568301475408",
    "geocoded_column": {
      "latitude": "29.96568301475408",
      "longitude": "-90.12072715975064"
    }
  },
  {
    "service_request": "2025-1212831",
    "request_type": "Trash/Recycling",
    "request_reason": "Request a Large Item Pick Up",
    "date_created": "2025-07-26T16:59:02.000",
    "date_modified": "2025-07-26T16:59:05.000",
    "request_status": "Pending",
    "responsible_agency": "Department of Sanitation",
    "final_address": "1731 Third St",
    "address_councildis": "B",
    "status": "Assigned to Contractor",
    "contractor": "IV Waste",
    "rowid": "1212831",
    "final_x": "3676101.88718",
    "final_y": "523449.053627",
    "longitude": "-90.08539319438054",
    "latitude": "29.933466043162188",
    "geocoded_column": {
      "latitude": "29.933466043162188",
      "longitude": "-90.08539319438054"
    }
  },
  {
    "service_request": "2025-1212830",
    "request_type": "General Services",
    "request_reason": "General Service Request",
    "date_created": "2025-07-26T16:43:53.000",
    "date_modified": "2025-07-26T16:43:55.000",
    "request_status": "Pending",
    "responsible_agency": "Orleans Parish Communication District",
    "final_address": "It's next to the house at 1300 Chartres but on Barracks street.",
    "status": "Pending",
    "rowid": "1212830",
    "longitude": "0.0",
    "latitude": "0.0",
    "geocoded_column": {
      "latitude": "0.0",
      "longitude": "0.0"
    }
  },
  {
    "service_request": "2025-1212829",
    "request_type": "Trash/Recycling",
    "request_reason": "Request a Large Item Pick Up",
    "date_created": "2025-07-26T16:18:45.000",
    "date_modified": "2025-07-26T16:18:47.000",
    "request_status": "Pending",
    "responsible_agency": "Department of Sanitation",
    "final_address": "513 S Murat St",
    "address_councildis": "A",
    "status": "Assigned to Contractor",
    "contractor": "IV Waste",
    "rowid": "1212829",
    "final_x": "3668628.30471",
    "final_y": "538046.049033",
    "longitude": "-90.10849435199056",
    "latitude": "29.97382468882882",
    "geocoded_column": {
      "latitude": "29.97382468882882",
      "longitude": "-90.10849435199056"
    }
  },
  {
    "service_request": "2025-1212828",
    "request_type": "Trash/Recycling",
    "request_reason": "Repair Trash Cart",
    "date_created": "2025-07-26T16:14:20.000",
    "date_modified": "2025-07-26T16:14:28.000",
    "request_status": "Pending",
    "responsible_agency": "Department of Sanitation",
    "final_address": "535 S Murat St",
    "address_councildis": "A",
    "status": "Assigned to Contractor",
    "contractor": "IV Waste",
    "rowid": "1212828",
    "final_x": "3668497.57786",
    "final_y": "537919.131273",
    "longitude": "-90.1089115006951",
    "latitude": "29.97347954928179",
    "geocoded_column": {
      "latitude": "29.97347954928179",
      "longitude": "-90.1089115006951"
    }
  },
  {
    "service_request": "2025-1212827",
    "request_type": "Trash/Recycling",
    "request_reason": "Request a Large Item Pick Up",
    "date_created": "2025-07-26T15:54:00.000",
    "date_modified": "2025-07-26T15:54:03.000",
    "request_status": "Pending",
    "responsible_agency": "Department of Sanitation",
    "final_address": "13020 Ashland Dr",
    "address_councildis": "E",
    "status": "Assigned to Contractor",
    "contractor": "Waste Pro",
    "rowid": "1212827",
    "final_x": "3717576.75954",
    "final_y": "567553.200996",
    "longitude": "-89.95278343391202",
    "latitude": "30.053428228146448",
    "geocoded_column": {
      "latitude": "30.053428228146448",
      "longitude": "-89.95278343391202"
    }
  },
  {
    "service_request": "2025-1212826",
    "request_type": "Trash/Recycling",
    "request_reason": "Request a Large Item Pick Up",
    "date_created": "2025-07-26T15:36:50.000",
    "date_modified": "2025-07-26T15:36:52.000",
    "request_status": "Pending",
    "responsible_agency": "Department of Sanitation",
    "final_address": "930 Aline St",
    "address_councildis": "B",
    "status": "Assigned to Contractor",
    "contractor": "IV Waste",
    "rowid": "1212826",
    "final_x": "3674581.16033",
    "final_y": "518920.554231",
    "longitude": "-90.09034913160036",
    "latitude": "29.92105958527034",
    "geocoded_column": {
      "latitude": "29.92105958527034",
      "longitude": "-90.09034913160036"
    }
  },
  {
    "service_request": "2025-1212825",
    "request_type": "Trash/Recycling",
    "request_reason": "Illegal Dumping",
    "date_created": "2025-07-26T15:16:07.000",
    "date_modified": "2025-07-26T15:16:11.000",
    "request_status": "Pending",
    "responsible_agency": "Department of Sanitation",
    "final_address": "4319 Orleans Ave",
    "address_councildis": "A",
    "status": "Pending",
    "rowid": "1212825",
    "final_x": "3671633.16327",
    "final_y": "541040.684172",
    "longitude": "-90.09890243679028",
    "latitude": "29.981970256320707",
    "geocoded_column": {
      "latitude": "29.981970256320707",
      "longitude": "-90.09890243679028"
    }
  },
  {
    "service_request": "2025-1212824",
    "request_type": "Roads and Streets",
    "request_reason": "Debris in Driving Lanes",
    "date_created": "2025-07-26T15:11:44.000",
    "date_modified": "2025-07-26T15:11:48.000",
    "request_status": "Pending",
    "responsible_agency": "Department of Public Works",
    "final_address": "1 Westbank Expressway",
    "address_councildis": "C",
    "status": "Pending",
    "rowid": "1212824",
    "final_x": "3691031.72937",
    "final_y": "521468.144121",
    "longitude": "-90.03833137963025",
    "latitude": "29.92756366725035",
    "geocoded_column": {
      "latitude": "29.92756366725035",
      "longitude": "-90.03833137963025"
    }
  },
  {
    "service_request": "2025-1212823",
    "request_type": "Trash/Recycling",
    "request_reason": "Request a Large Item Pick Up",
    "date_created": "2025-07-26T14:59:09.000",
    "date_modified": "2025-07-26T14:59:10.000",
    "request_status": "Pending",
    "responsible_agency": "Department of Sanitation",
    "final_address": "7801 Sail St",
    "address_councildis": "E",
    "status": "Assigned to Contractor",
    "contractor": "Waste Pro",
    "rowid": "1212823",
    "final_x": "3720264.38988",
    "final_y": "573906.715114",
    "longitude": "-89.94404515674853",
    "latitude": "30.070808420608856",
    "geocoded_column": {
      "latitude": "30.070808420608856",
      "longitude": "-89.94404515674853"
    }
  },
  {
    "service_request": "2025-1212822",
    "request_type": "Safety & Permits",
    "request_reason": "Zoning Enforcement",
    "date_created": "2025-07-26T14:55:16.000",
    "date_modified": "2025-07-26T14:55:18.000",
    "request_status": "Pending",
    "responsible_agency": "Safety and Permits",
    "final_address": "6600 Morrison Rd",
    "address_councildis": "E",
    "status": "Pending",
    "rowid": "1212822",
    "final_x": "3698428.45098",
    "final_y": "558152.841243",
    "longitude": "-90.0136481332858",
    "latitude": "30.02820134692633",
    "geocoded_column": {
      "latitude": "30.02820134692633",
      "longitude": "-90.0136481332858"
    }
  },
  {
    "service_request": "2025-1212821",
    "request_type": "Healthy Homes",
    "request_reason": "Healthy Homes",
    "date_created": "2025-07-26T14:38:56.000",
    "date_modified": "2025-07-26T14:38:58.000",
    "request_status": "Pending",
    "responsible_agency": "Department of Code Enforcement",
    "final_address": "9025 Chef Menteur Hwy",
    "address_councildis": "E",
    "status": "Pending",
    "rowid": "1212821",
    "final_x": "3709057.09028",
    "final_y": "553977.663384",
    "longitude": "-89.98021836139539",
    "latitude": "30.01638036755462",
    "geocoded_column": {
      "latitude": "30.01638036755462",
      "longitude": "-89.98021836139539"
    }
  },
  {
    "service_request": "2025-1212820",
    "request_type": "Roads and Streets",
    "request_reason": "Pothole",
    "date_created": "2025-07-26T14:20:07.000",
    "date_modified": "2025-07-26T14:20:09.000",
    "request_status": "Pending",
    "responsible_agency": "Department of Public Works",
    "final_address": "627 N Murat St",
    "address_councildis": "A",
    "status": "Pending",
    "rowid": "1212820",
    "final_x": "3670908.44532",
    "final_y": "541038.762956",
    "longitude": "-90.1011915132952",
    "latitude": "29.981986421638663",
    "geocoded_column": {
      "latitude": "29.981986421638663",
      "longitude": "-90.1011915132952"
    }
  },
  {
    "service_request": "2025-1212819",
    "request_type": "Property Maintenance",
    "request_reason": "Property Maintenance",
    "date_created": "2025-07-26T14:15:30.000",
    "date_modified": "2025-07-26T14:15:32.000",
    "request_status": "Pending",
    "responsible_agency": "Department of Code Enforcement",
    "final_address": "420 Huntlee Dr",
    "address_councildis": "C",
    "status": "Pending",
    "rowid": "1212819",
    "final_x": "3701907.04842",
    "final_y": "522084.86137",
    "longitude": "-90.00397830292292",
    "latitude": "29.928916983811778",
    "geocoded_column": {
      "latitude": "29.928916983811778",
      "longitude": "-90.00397830292292"
    }
  },
  {
    "service_request": "2025-1212818",
    "request_type": "General Services",
    "request_reason": "General Service Request",
    "date_created": "2025-07-26T14:13:38.000",
    "date_modified": "2025-07-26T14:13:40.000",
    "request_status": "Pending",
    "responsible_agency": "Orleans Parish Communication District",
    "final_address": "2018 Florida Ave",
    "address_councildis": "D",
    "status": "Pending",
    "rowid": "1212818",
    "final_x": "3683129.60578",
    "final_y": "542844.478221",
    "longitude": "-90.0625280353763",
    "latitude": "29.986584494281207",
    "geocoded_column": {
      "latitude": "29.986584494281207",
      "longitude": "-90.0625280353763"
    }
  },
  {
    "service_request": "2025-1212817",
    "request_type": "Property Maintenance",
    "request_reason": "Property Maintenance",
    "date_created": "2025-07-26T14:07:32.000",
    "date_modified": "2025-07-26T14:07:34.000",
    "request_status": "Pending",
    "responsible_agency": "Department of Code Enforcement",
    "final_address": "39 Sullivan Pl",
    "address_councildis": "C",
    "status": "Pending",
    "rowid": "1212817",
    "final_x": "3702148.38122",
    "final_y": "521893.387834",
    "longitude": "-90.00322348564274",
    "latitude": "29.928382797161845",
    "geocoded_column": {
      "latitude": "29.928382797161845",
      "longitude": "-90.00322348564274"
    }
  },
  {
    "service_request": "2025-1212816",
    "request_type": "Trash/Recycling",
    "request_reason": "Request a Large Item Pick Up",
    "date_created": "2025-07-26T14:00:07.000",
    "date_modified": "2025-07-26T14:00:10.000",
    "request_status": "Pending",
    "responsible_agency": "Department of Sanitation",
    "final_address": "424 Huntlee Dr",
    "address_councildis": "C",
    "status": "Assigned to Contractor",
    "contractor": "Richards Disposal",
    "rowid": "1212816",
    "final_x": "3701903.42845",
    "final_y": "522012.305722",
    "longitude": "-90.00399238759181",
    "latitude": "29.92871759640975",
    "geocoded_column": {
      "latitude": "29.92871759640975",
      "longitude": "-90.00399238759181"
    }
  },
  {
    "service_request": "2025-1212815",
    "request_type": "Trash/Recycling",
    "request_reason": "Request a Large Item Pick Up",
    "date_created": "2025-07-26T13:56:32.000",
    "date_modified": "2025-07-26T13:56:33.000",
    "request_status": "Pending",
    "responsible_agency": "Department of Sanitation",
    "final_address": "4718 Iberville St",
    "address_councildis": "A",
    "status": "Assigned to Contractor",
    "contractor": "IV Waste",
    "rowid": "1212815",
    "final_x": "3669202.4329",
    "final_y": "540216.899403",
    "longitude": "-90.1066077234874",
    "latitude": "29.979776907681767",
    "geocoded_column": {
      "latitude": "29.979776907681767",
      "longitude": "-90.1066077234874"
    }
  },
  {
    "service_request": "2025-1212814",
    "request_type": "Trash/Recycling",
    "request_reason": "Return Trash Cart",
    "date_created": "2025-07-26T13:44:21.000",
    "date_modified": "2025-07-26T13:44:24.000",
    "request_status": "Pending",
    "responsible_agency": "Department of Sanitation",
    "final_address": "1535 Steeple Chase Ln",
    "address_councildis": "C",
    "status": "Assigned to Contractor",
    "contractor": "Richards Disposal",
    "rowid": "1212814",
    "final_x": "3699940.01456",
    "final_y": "525511.224253",
    "longitude": "-90.01006288180571",
    "latitude": "29.938400896516413",
    "geocoded_column": {
      "latitude": "29.938400896516413",
      "longitude": "-90.01006288180571"
    }
  },
  {
    "service_request": "2025-1212813",
    "request_type": "Property Maintenance",
    "request_reason": "Property Maintenance",
    "date_created": "2025-07-26T13:23:50.000",
    "date_modified": "2025-07-26T13:23:52.000",
    "request_status": "Pending",
    "responsible_agency": "Department of Code Enforcement",
    "final_address": "3311 Octavia St",
    "address_councildis": "A",
    "status": "Pending",
    "rowid": "1212813",
    "final_x": "3668470.02906",
    "final_y": "527769.967295",
    "longitude": "-90.10934089988201",
    "latitude": "29.945573506311465",
    "geocoded_column": {
      "latitude": "29.945573506311465",
      "longitude": "-90.10934089988201"
    }
  },
  {
    "service_request": "2025-1212812",
    "request_type": "Trash/Recycling",
    "request_reason": "Return Trash Cart",
    "date_created": "2025-07-26T13:14:48.000",
    "date_modified": "2025-07-26T13:14:50.000",
    "request_status": "Pending",
    "responsible_agency": "Department of Sanitation",
    "final_address": "2039 Fern St",
    "address_councildis": "A",
    "status": "Assigned to Contractor",
    "contractor": "IV Waste",
    "rowid": "1212812",
    "final_x": "3664672.86516",
    "final_y": "530136.953217",
    "longitude": "-90.12125078182245",
    "latitude": "29.952192938020865",
    "geocoded_column": {
      "latitude": "29.952192938020865",
      "longitude": "-90.12125078182245"
    }
  },
  {
    "service_request": "2025-1212811",
    "request_type": "Trash/Recycling",
    "request_reason": "Request a Large Item Pick Up",
    "date_created": "2025-07-26T12:50:38.000",
    "date_modified": "2025-07-26T12:50:40.000",
    "request_status": "Pending",
    "responsible_agency": "Department of Sanitation",
    "final_address": "4436 Elba St",
    "address_councildis": "B",
    "status": "Assigned to Contractor",
    "contractor": "IV Waste",
    "rowid": "1212811",
    "final_x": "3669561.71028",
    "final_y": "530481.566146",
    "longitude": "-90.10580237870697",
    "latitude": "29.952997406679206",
    "geocoded_column": {
      "latitude": "29.952997406679206",
      "longitude": "-90.10580237870697"
    }
  },
  {
    "service_request": "2025-1212810",
    "request_type": "Trash/Recycling",
    "request_reason": "Replace Trash Cart",
    "date_created": "2025-07-26T12:34:24.000",
    "date_modified": "2025-07-26T12:34:27.000",
    "request_status": "Pending",
    "responsible_agency": "Department of Sanitation",
    "final_address": "4747 Mandeville St",
    "address_councildis": "D",
    "status": "Assigned to Contractor",
    "contractor": "IV Waste",
    "rowid": "1212810",
    "final_x": "3684778.80962",
    "final_y": "550479.408852",
    "longitude": "-90.05705021756393",
    "latitude": "30.007527420452583",
    "geocoded_column": {
      "latitude": "30.007527420452583",
      "longitude": "-90.05705021756393"
    }
  },
  {
    "service_request": "2025-1212809",
    "request_type": "Trash/Recycling",
    "request_reason": "Replace Recycling Cart",
    "date_created": "2025-07-26T12:08:18.000",
    "date_modified": "2025-07-26T12:08:21.000",
    "request_status": "Pending",
    "responsible_agency": "Department of Sanitation",
    "final_address": "882 Homedale St",
    "address_councildis": "A",
    "status": "Pending",
    "rowid": "1212809",
    "final_x": "3669445.17345",
    "final_y": "544580.454543",
    "longitude": "-90.10569338979708",
    "latitude": "29.991768047846392",
    "geocoded_column": {
      "latitude": "29.991768047846392",
      "longitude": "-90.10569338979708"
    }
  },
  {
    "service_request": "2025-1212808",
    "request_type": "General Services",
    "request_reason": "General Service Request",
    "date_created": "2025-07-26T12:04:07.000",
    "date_modified": "2025-07-26T12:04:10.000",
    "request_status": "Pending",
    "responsible_agency": "Orleans Parish Communication District",
    "final_address": "27100 Chef Menteur Hwy",
    "address_councildis": "E",
    "status": "Pending",
    "rowid": "1212808",
    "final_x": "3785092.82124",
    "final_y": "609482.206091",
    "longitude": "-89.73754463553338",
    "latitude": "30.166302214645142",
    "geocoded_column": {
      "latitude": "30.166302214645142",
      "longitude": "-89.73754463553338"
    }
  },
  {
    "service_request": "2025-1212807",
    "request_type": "Trash/Recycling",
    "request_reason": "Damaged Caused By Contractor",
    "date_created": "2025-07-26T11:55:24.000",
    "date_modified": "2025-07-26T11:55:26.000",
    "request_status": "Pending",
    "responsible_agency": "Department of Sanitation",
    "final_address": "0 BLK Cypress Grove Ct",
    "address_councildis": "C",
    "status": "Assigned to Contractor",
    "contractor": "Richards Disposal",
    "rowid": "1212807",
    "final_x": "3705067.07146",
    "final_y": "512009.546635",
    "longitude": "-89.99437448645769",
    "latitude": "29.901112155377316",
    "geocoded_column": {
      "latitude": "29.901112155377316",
      "longitude": "-89.99437448645769"
    }
  },
  {
    "service_request": "2025-1212806",
    "request_type": "Trash/Recycling",
    "request_reason": "Request a Large Item Pick Up",
    "date_created": "2025-07-26T11:35:46.000",
    "date_modified": "2025-07-26T11:35:49.000",
    "request_status": "Pending",
    "responsible_agency": "Department of Sanitation",
    "final_address": "230 28th Street",
    "address_councildis": "A",
    "status": "Assigned to Contractor",
    "contractor": "IV Waste",
    "rowid": "1212806",
    "final_x": "3665571.68903",
    "final_y": "550166.90306",
    "longitude": "-90.11774174915442",
    "latitude": "30.007242403132036",
    "geocoded_column": {
      "latitude": "30.007242403132036",
      "longitude": "-90.11774174915442"
    }
  },
  {
    "service_request": "2025-1212805",
    "request_type": "Trash/Recycling",
    "request_reason": "Replace Recycling Cart",
    "date_created": "2025-07-26T11:32:58.000",
    "date_modified": "2025-07-26T11:33:00.000",
    "request_status": "Pending",
    "responsible_agency": "Department of Sanitation",
    "final_address": "230 28Th St",
    "address_councildis": "A",
    "status": "Pending",
    "rowid": "1212805",
    "final_x": "3665571.68903",
    "final_y": "550166.90306",
    "longitude": "-90.11774174915442",
    "latitude": "30.007242403132036",
    "geocoded_column": {
      "latitude": "30.007242403132036",
      "longitude": "-90.11774174915442"
    }
  },
  {
    "service_request": "2025-1212804",
    "request_type": "Traffic Signals",
    "request_reason": "Traffic Signal Malfunctioning or Damaged",
    "date_created": "2025-07-26T11:15:34.000",
    "date_modified": "2025-07-26T11:15:37.000",
    "request_status": "Pending",
    "responsible_agency": "Department of Public Works",
    "final_address": "500 Canal St",
    "address_councildis": "B",
    "status": "Pending",
    "rowid": "1212804",
    "final_x": "3681620.18831",
    "final_y": "530215.835265",
    "longitude": "-90.06773629521233",
    "latitude": "29.95190602147896",
    "geocoded_column": {
      "latitude": "29.95190602147896",
      "longitude": "-90.06773629521233"
    }
  },
  {
    "service_request": "2025-1212803",
    "request_type": "Trash/Recycling",
    "request_reason": "Request a Large Item Pick Up",
    "date_created": "2025-07-26T11:08:18.000",
    "date_modified": "2025-07-26T11:08:21.000",
    "request_status": "Pending",
    "responsible_agency": "Department of Sanitation",
    "final_address": "2435 Governor Nicholls St",
    "address_councildis": "D",
    "status": "Assigned to Contractor",
    "contractor": "IV Waste",
    "rowid": "1212803",
    "final_x": "3678720.42453",
    "final_y": "537783.581832",
    "longitude": "-90.07663030392345",
    "latitude": "29.97280250421531",
    "geocoded_column": {
      "latitude": "29.97280250421531",
      "longitude": "-90.07663030392345"
    }
  },
  {
    "service_request": "2025-1212802",
    "request_type": "Trash/Recycling",
    "request_reason": "Request a Large Item Pick Up",
    "date_created": "2025-07-26T10:55:43.000",
    "date_modified": "2025-07-26T10:55:45.000",
    "request_status": "Pending",
    "responsible_agency": "Department of Sanitation",
    "final_address": "51 Winners Cir",
    "address_councildis": "E",
    "status": "Assigned to Contractor",
    "contractor": "Waste Pro",
    "rowid": "1212802",
    "final_x": "3715901.58744",
    "final_y": "570263.229991",
    "longitude": "-89.95797534433666",
    "latitude": "30.0609350791738",
    "geocoded_column": {
      "latitude": "30.0609350791738",
      "longitude": "-89.95797534433666"
    }
  },
  {
    "service_request": "2025-1212801",
    "request_type": "Trash/Recycling",
    "request_reason": "Replace Trash Cart",
    "date_created": "2025-07-26T10:45:56.000",
    "date_modified": "2025-07-26T10:45:58.000",
    "request_status": "Pending",
    "responsible_agency": "Department of Sanitation",
    "final_address": "1232 Harmony St",
    "address_councildis": "B",
    "status": "Assigned to Contractor",
    "contractor": "IV Waste",
    "rowid": "1212801",
    "final_x": "3675472.26043",
    "final_y": "520550.641208",
    "longitude": "-90.08748038017566",
    "latitude": "29.92551518955323",
    "geocoded_column": {
      "latitude": "29.92551518955323",
      "longitude": "-90.08748038017566"
    }
  },
  {
    "service_request": "2025-1212800",
    "request_type": "Property Maintenance",
    "request_reason": "Property Maintenance",
    "date_created": "2025-07-26T10:37:16.000",
    "date_modified": "2025-07-26T10:37:18.000",
    "request_status": "Pending",
    "responsible_agency": "Department of Code Enforcement",
    "final_address": "CURRAN BLVD & GANNON RD",
    "address_councildis": "E",
    "status": "Pending",
    "rowid": "1212800",
    "final_x": "3716158.0",
    "final_y": "570188.98",
    "longitude": "-89.95716765774026",
    "latitude": "30.060722457420827",
    "geocoded_column": {
      "latitude": "30.060722457420827",
      "longitude": "-89.95716765774026"
    }
  },
  {
    "service_request": "2025-1212799",
    "request_type": "Trash/Recycling",
    "request_reason": "Request a Large Item Pick Up",
    "date_created": "2025-07-26T10:30:48.000",
    "date_modified": "2025-07-26T10:30:50.000",
    "request_status": "Pending",
    "responsible_agency": "Department of Sanitation",
    "final_address": "6067 General Diaz St",
    "address_councildis": "A",
    "status": "Assigned to Contractor",
    "contractor": "IV Waste",
    "rowid": "1212799",
    "final_x": "3669644.36238",
    "final_y": "547698.405138",
    "longitude": "-90.10495860870418",
    "latitude": "30.00033546512108",
    "geocoded_column": {
      "latitude": "30.00033546512108",
      "longitude": "-90.10495860870418"
    }
  },
  {
    "service_request": "2025-1212798",
    "request_type": "Abandoned Vehicles",
    "request_reason": "Abandoned/Junk Vehicles",
    "date_created": "2025-07-26T10:29:04.000",
    "date_modified": "2025-07-26T10:29:05.000",
    "request_status": "Pending",
    "responsible_agency": "Department of Public Works",
    "final_address": "217 Millaudon St",
    "address_councildis": "A",
    "status": "Pending",
    "rowid": "1212798",
    "final_x": "3661140.02298",
    "final_y": "523743.481595",
    "longitude": "-90.13261746044708",
    "latitude": "29.93471520834487",
    "geocoded_column": {
      "latitude": "29.93471520834487",
      "longitude": "-90.13261746044708"
    }
  },
  {
    "service_request": "2025-1212797",
    "request_type": "Trash/Recycling",
    "request_reason": "Request a Large Item Pick Up",
    "date_created": "2025-07-26T10:28:42.000",
    "date_modified": "2025-07-26T10:28:45.000",
    "request_status": "Pending",
    "responsible_agency": "Department of Sanitation",
    "final_address": "1026 Cadiz St",
    "address_councildis": "B",
    "status": "Assigned to Contractor",
    "contractor": "IV Waste",
    "rowid": "1212797",
    "final_x": "3670211.66036",
    "final_y": "519290.557623",
    "longitude": "-90.10412918774753",
    "latitude": "29.92220658724318",
    "geocoded_column": {
      "latitude": "29.92220658724318",
      "longitude": "-90.10412918774753"
    }
  },
  {
    "service_request": "2025-1212796",
    "request_type": "Drainage",
    "request_reason": "Catch Basin Clogged",
    "date_created": "2025-07-26T10:23:15.000",
    "date_modified": "2025-07-26T10:23:18.000",
    "request_status": "Pending",
    "responsible_agency": "Sewerage & Water Board",
    "final_address": "2536 Nashville Ave",
    "address_councildis": "A",
    "status": "Pending",
    "rowid": "1212796",
    "final_x": "3667196.83073",
    "final_y": "525510.113533",
    "longitude": "-90.11343677894213",
    "latitude": "29.939396972201763",
    "geocoded_column": {
      "latitude": "29.939396972201763",
      "longitude": "-90.11343677894213"
    }
  },
  {
    "service_request": "2025-1212795",
    "request_type": "Trash/Recycling",
    "request_reason": "Missed Trash Pick-Up",
    "date_created": "2025-07-26T10:17:01.000",
    "date_modified": "2025-07-26T10:43:41.000",
    "case_close_date": "2025-07-26T05:43:38.000",
    "request_status": "Closed",
    "responsible_agency": "Department of Sanitation",
    "final_address": "2501 Amelia St",
    "address_councildis": "B",
    "status": "Invalid Request",
    "contractor": "IV Waste",
    "contractor_action": "Invalid",
    "rowid": "1212795",
    "final_x": "3672390.71553",
    "final_y": "524322.746748",
    "longitude": "-90.09707941732725",
    "latitude": "29.93597903240438",
    "geocoded_column": {
      "latitude": "29.93597903240438",
      "longitude": "-90.09707941732725"
    }
  },
  {
    "service_request": "2025-1212794",
    "request_type": "Abandoned Vehicles",
    "request_reason": "Abandoned/Junk Vehicles",
    "date_created": "2025-07-26T10:04:32.000",
    "date_modified": "2025-07-26T10:04:34.000",
    "request_status": "Pending",
    "responsible_agency": "Department of Public Works",
    "final_address": "826 N Carrollton Ave",
    "address_councildis": "A",
    "status": "Pending",
    "rowid": "1212794",
    "final_x": "3673024.91419",
    "final_y": "540287.529611",
    "longitude": "-90.09453233236253",
    "latitude": "29.97985803845287",
    "geocoded_column": {
      "latitude": "29.97985803845287",
      "longitude": "-90.09453233236253"
    }
  },
  {
    "service_request": "2025-1212793",
    "request_type": "Trash/Recycling",
    "request_reason": "Replace Trash Cart",
    "date_created": "2025-07-26T09:55:11.000",
    "date_modified": "2025-07-26T09:55:13.000",
    "request_status": "Pending",
    "responsible_agency": "Department of Sanitation",
    "final_address": "1910 France St",
    "address_councildis": "D",
    "status": "Assigned to Contractor",
    "contractor": "IV Waste",
    "rowid": "1212793",
    "final_x": "3693121.58269",
    "final_y": "538280.737481",
    "longitude": "-90.03113109486094",
    "latitude": "29.973727352381232",
    "geocoded_column": {
      "latitude": "29.973727352381232",
      "longitude": "-90.03113109486094"
    }
  },
  {
    "service_request": "2025-1212792",
    "request_type": "Trash/Recycling",
    "request_reason": "Replace Trash Cart",
    "date_created": "2025-07-26T09:22:59.000",
    "date_modified": "2025-07-26T09:23:01.000",
    "request_status": "Pending",
    "responsible_agency": "Department of Sanitation",
    "final_address": "511 S Solomon St",
    "address_councildis": "A",
    "status": "Assigned to Contractor",
    "contractor": "IV Waste",
    "rowid": "1212792",
    "final_x": "3669525.82471",
    "final_y": "537394.441544",
    "longitude": "-90.10568182674169",
    "latitude": "29.972006576474605",
    "geocoded_column": {
      "latitude": "29.972006576474605",
      "longitude": "-90.10568182674169"
    }
  },
  {
    "service_request": "2025-1212791",
    "request_type": "Trash/Recycling",
    "request_reason": "Request a Large Item Pick Up",
    "date_created": "2025-07-26T09:19:53.000",
    "date_modified": "2025-07-26T09:19:55.000",
    "request_status": "Pending",
    "responsible_agency": "Department of Sanitation",
    "final_address": "2209 State St",
    "address_councildis": "A",
    "status": "Assigned to Contractor",
    "contractor": "IV Waste",
    "rowid": "1212791",
    "final_x": "3666597.9298",
    "final_y": "524757.595516",
    "longitude": "-90.11535284826368",
    "latitude": "29.937345307316434",
    "geocoded_column": {
      "latitude": "29.937345307316434",
      "longitude": "-90.11535284826368"
    }
  },
  {
    "service_request": "2025-1212790",
    "request_type": "Abandoned Vehicles",
    "request_reason": "Abandoned/Junk Vehicles",
    "date_created": "2025-07-26T09:01:09.000",
    "date_modified": "2025-07-26T09:01:11.000",
    "request_status": "Pending",
    "responsible_agency": "Department of Public Works",
    "final_address": "7601 Jonlee Dr",
    "address_councildis": "E",
    "status": "Pending",
    "rowid": "1212790",
    "final_x": "3717297.03487",
    "final_y": "570384.349351",
    "longitude": "-89.95355980658248",
    "latitude": "30.061221978339976",
    "geocoded_column": {
      "latitude": "30.061221978339976",
      "longitude": "-89.95355980658248"
    }
  },
  {
    "service_request": "2025-1212789",
    "request_type": "Trash/Recycling",
    "request_reason": "Replace Recycling Cart",
    "date_created": "2025-07-26T08:46:30.000",
    "date_modified": "2025-07-26T08:46:32.000",
    "request_status": "Pending",
    "responsible_agency": "Department of Sanitation",
    "final_address": "6124 Constance St",
    "address_councildis": "A",
    "status": "Pending",
    "rowid": "1212789",
    "final_x": "3663860.94887",
    "final_y": "519125.441399",
    "longitude": "-90.12418135211985",
    "latitude": "29.92193837028346",
    "geocoded_column": {
      "latitude": "29.92193837028346",
      "longitude": "-90.12418135211985"
    }
  },
  {
    "service_request": "2025-1212788",
    "request_type": "Trash/Recycling",
    "request_reason": "Missed Trash Pick-Up",
    "date_created": "2025-07-26T08:38:21.000",
    "date_modified": "2025-07-26T08:38:23.000",
    "request_status": "Pending",
    "responsible_agency": "Department of Sanitation",
    "final_address": "3531 Adrian St",
    "address_councildis": "C",
    "status": "Assigned to Contractor",
    "contractor": "Richards Disposal",
    "rowid": "1212788",
    "final_x": "3710565.01009",
    "final_y": "517733.754614",
    "longitude": "-89.9768097360401",
    "latitude": "29.916673940467028",
    "geocoded_column": {
      "latitude": "29.916673940467028",
      "longitude": "-89.9768097360401"
    }
  },
  {
    "service_request": "2025-1212787",
    "request_type": "Trash/Recycling",
    "request_reason": "Order Trash Cart",
    "date_created": "2025-07-26T08:36:44.000",
    "date_modified": "2025-07-26T08:36:47.000",
    "request_status": "Pending",
    "responsible_agency": "Department of Sanitation",
    "final_address": "3531 Adrian St",
    "address_councildis": "C",
    "status": "Assigned to Contractor",
    "contractor": "Richards Disposal",
    "rowid": "1212787",
    "final_x": "3710565.01009",
    "final_y": "517733.754614",
    "longitude": "-89.9768097360401",
    "latitude": "29.916673940467028",
    "geocoded_column": {
      "latitude": "29.916673940467028",
      "longitude": "-89.9768097360401"
    }
  },
  {
    "service_request": "2025-1212786",
    "request_type": "Parks & Parkways",
    "request_reason": "Request Tree Service (Right of Way/Public Property)",
    "date_created": "2025-07-26T08:16:16.000",
    "date_modified": "2025-07-26T08:29:32.000",
    "request_status": "Pending",
    "responsible_agency": "Department of Parks & Parkway",
    "final_address": "2200 BLK Fats Domino Ave",
    "address_councildis": "E",
    "status": "Pending",
    "rowid": "1212786",
    "final_x": "3699182.41",
    "final_y": "538118.660427",
    "longitude": "-90.01199570902007",
    "latitude": "29.973090914130903",
    "geocoded_column": {
      "latitude": "29.973090914130903",
      "longitude": "-90.01199570902007"
    }
  },
  {
    "service_request": "2025-1212785",
    "request_type": "Roads and Streets",
    "request_reason": "Pothole",
    "date_created": "2025-07-26T08:01:47.000",
    "date_modified": "2025-07-26T08:01:49.000",
    "request_status": "Pending",
    "responsible_agency": "Department of Public Works",
    "final_address": "2000 BLK Saint Claude Ave",
    "address_councildis": "C",
    "status": "Pending",
    "rowid": "1212785",
    "final_x": "3684409.74171",
    "final_y": "536278.733333",
    "longitude": "-90.058715268461",
    "latitude": "29.968491894874255",
    "geocoded_column": {
      "latitude": "29.968491894874255",
      "longitude": "-90.058715268461"
    }
  },
  {
    "service_request": "2025-1212784",
    "request_type": "Property Maintenance",
    "request_reason": "Property Maintenance",
    "date_created": "2025-07-26T04:50:37.000",
    "date_modified": "2025-07-26T04:50:39.000",
    "request_status": "Pending",
    "responsible_agency": "Department of Code Enforcement",
    "final_address": "6638 Dorian St",
    "address_councildis": "D",
    "status": "Pending",
    "rowid": "1212784",
    "final_x": "3696461.4856",
    "final_y": "555630.208473",
    "longitude": "-90.01995496565269",
    "latitude": "30.021327209596844",
    "geocoded_column": {
      "latitude": "30.021327209596844",
      "longitude": "-90.01995496565269"
    }
  },
  {
    "service_request": "2025-1212783",
    "request_type": "Streetlights",
    "request_reason": "Streetlight Outage/Malfunction",
    "date_created": "2025-07-25T23:26:34.000",
    "date_modified": "2025-07-25T23:26:36.000",
    "request_status": "Pending",
    "responsible_agency": "Department of Public Works",
    "final_address": "1609 Marais St",
    "address_councildis": "C",
    "status": "Pending",
    "contractor": "Legacy Professional Services",
    "rowid": "1212783",
    "final_x": "3682981.3645",
    "final_y": "536540.248327",
    "longitude": "-90.06321699709066",
    "latitude": "29.9692545829568",
    "geocoded_column": {
      "latitude": "29.9692545829568",
      "longitude": "-90.06321699709066"
    }
  },
  {
    "service_request": "2025-1212782",
    "request_type": "Streetlights",
    "request_reason": "Streetlight Outage/Malfunction",
    "date_created": "2025-07-25T23:13:32.000",
    "date_modified": "2025-07-25T23:13:34.000",
    "request_status": "Pending",
    "responsible_agency": "Department of Public Works",
    "final_address": "2230 France St",
    "address_councildis": "D",
    "status": "Pending",
    "contractor": "Legacy Professional Services",
    "rowid": "1212782",
    "final_x": "3693427.96067",
    "final_y": "539483.633674",
    "longitude": "-90.0301202833388",
    "latitude": "29.977025310008408",
    "geocoded_column": {
      "latitude": "29.977025310008408",
      "longitude": "-90.0301202833388"
    }
  },
  {
    "service_request": "2025-1212781",
    "request_type": "Streetlights",
    "request_reason": "Streetlight Outage/Malfunction",
    "date_created": "2025-07-25T21:48:20.000",
    "date_modified": "2025-07-25T21:48:22.000",
    "request_status": "Pending",
    "responsible_agency": "Department of Public Works",
    "final_address": "5563 Rosemary Pl",
    "address_councildis": "A",
    "status": "Pending",
    "contractor": "Legacy Professional Services",
    "rowid": "1212781",
    "final_x": "3667186.42394",
    "final_y": "544460.624399",
    "longitude": "-90.11283235808882",
    "latitude": "29.991504904029423",
    "geocoded_column": {
      "latitude": "29.991504904029423",
      "longitude": "-90.11283235808882"
    }
  },
  {
    "service_request": "2025-1212780",
    "request_type": "Streetlights",
    "request_reason": "Streetlight Outage/Malfunction",
    "date_created": "2025-07-25T21:25:52.000",
    "date_modified": "2025-07-25T21:25:55.000",
    "request_status": "Pending",
    "responsible_agency": "Department of Public Works",
    "final_address": "5772 St Anthony St",
    "address_councildis": "D",
    "status": "Pending",
    "contractor": "Legacy Professional Services",
    "rowid": "1212780",
    "final_x": "3681960.04584",
    "final_y": "554596.728344",
    "longitude": "-90.06581160267115",
    "latitude": "30.018934582363684",
    "geocoded_column": {
      "latitude": "30.018934582363684",
      "longitude": "-90.06581160267115"
    }
  },
  {
    "service_request": "2025-1212779",
    "request_type": "Trash/Recycling",
    "request_reason": "Request a Large Item Pick Up",
    "date_created": "2025-07-25T21:13:01.000",
    "date_modified": "2025-07-25T21:13:04.000",
    "request_status": "Pending",
    "responsible_agency": "Department of Sanitation",
    "final_address": "4705 Raymond Joseph Dr",
    "address_councildis": "E",
    "status": "Assigned to Contractor",
    "contractor": "Waste Pro",
    "rowid": "1212779",
    "final_x": "3703797.06846",
    "final_y": "554987.491608",
    "longitude": "-89.99680041199031",
    "latitude": "30.01932675258959",
    "geocoded_column": {
      "latitude": "30.01932675258959",
      "longitude": "-89.99680041199031"
    }
  },
  {
    "service_request": "2025-1212778",
    "request_type": "Trash/Recycling",
    "request_reason": "Request a Large Item Pick Up",
    "date_created": "2025-07-25T20:39:48.000",
    "date_modified": "2025-07-25T20:39:50.000",
    "request_status": "Pending",
    "responsible_agency": "Department of Sanitation",
    "final_address": "2424 Leonidas St",
    "address_councildis": "A",
    "status": "Assigned to Contractor",
    "contractor": "IV Waste",
    "rowid": "1212778",
    "final_x": "3663656.88954",
    "final_y": "532947.119812",
    "longitude": "-90.12436515492509",
    "latitude": "29.959949495519474",
    "geocoded_column": {
      "latitude": "29.959949495519474",
      "longitude": "-90.12436515492509"
    }
  },
  {
    "service_request": "2025-1212777",
    "request_type": "Trash/Recycling",
    "request_reason": "Request a Large Item Pick Up",
    "date_created": "2025-07-25T20:33:31.000",
    "date_modified": "2025-07-25T20:33:33.000",
    "request_status": "Pending",
    "responsible_agency": "Department of Sanitation",
    "final_address": "3317 Baudin St",
    "address_councildis": "B",
    "status": "Assigned to Contractor",
    "contractor": "IV Waste",
    "rowid": "1212777",
    "final_x": "3672512.07278",
    "final_y": "535287.609734",
    "longitude": "-90.09632258265061",
    "latitude": "29.966125186621657",
    "geocoded_column": {
      "latitude": "29.966125186621657",
      "longitude": "-90.09632258265061"
    }
  },
  {
    "service_request": "2025-1212776",
    "request_type": "Roads and Streets",
    "request_reason": "Pothole",
    "date_created": "2025-07-25T20:30:09.000",
    "date_modified": "2025-07-25T20:30:11.000",
    "request_status": "Pending",
    "responsible_agency": "Department of Public Works",
    "final_address": "635 N Murat St",
    "address_councildis": "A",
    "status": "Pending",
    "rowid": "1212776",
    "final_x": "3670938.88487",
    "final_y": "541078.784588",
    "longitude": "-90.10109401100861",
    "latitude": "29.982095567429536",
    "geocoded_column": {
      "latitude": "29.982095567429536",
      "longitude": "-90.10109401100861"
    }
  },
  {
    "service_request": "2025-1212775",
    "request_type": "Trash/Recycling",
    "request_reason": "Return Trash Cart",
    "date_created": "2025-07-25T20:29:56.000",
    "date_modified": "2025-07-25T20:29:59.000",
    "request_status": "Pending",
    "responsible_agency": "Department of Sanitation",
    "final_address": "7500 BLK Zimpel St",
    "address_councildis": "A",
    "status": "Assigned to Contractor",
    "contractor": "IV Waste",
    "rowid": "1212775",
    "final_x": "3663178.94592",
    "final_y": "526789.568912",
    "longitude": "-90.12607926711877",
    "latitude": "29.94303207410896",
    "geocoded_column": {
      "latitude": "29.94303207410896",
      "longitude": "-90.12607926711877"
    }
  },
  {
    "service_request": "2025-1212774",
    "request_type": "Drainage",
    "request_reason": "Catch Basin Clogged",
    "date_created": "2025-07-25T19:34:44.000",
    "date_modified": "2025-07-25T19:34:46.000",
    "request_status": "Pending",
    "responsible_agency": "Sewerage & Water Board",
    "final_address": "1817 Robert St",
    "address_councildis": "B",
    "status": "Pending",
    "rowid": "1212774",
    "final_x": "3668803.08084",
    "final_y": "522327.217914",
    "longitude": "-90.10847303994348",
    "latitude": "29.93059791193593",
    "geocoded_column": {
      "latitude": "29.93059791193593",
      "longitude": "-90.10847303994348"
    }
  },
  {
    "service_request": "2025-1212773",
    "request_type": "General Services",
    "request_reason": "General Service Request",
    "date_created": "2025-07-25T19:31:58.000",
    "date_modified": "2025-07-25T19:32:01.000",
    "request_status": "Pending",
    "responsible_agency": "Orleans Parish Communication District",
    "final_address": "5852 Oxford Pl",
    "address_councildis": "C",
    "status": "Pending",
    "rowid": "1212773",
    "final_x": "3705244.73899",
    "final_y": "519824.396728",
    "longitude": "-89.99352540736913",
    "latitude": "29.922594598020726",
    "geocoded_column": {
      "latitude": "29.922594598020726",
      "longitude": "-89.99352540736913"
    }
  },
  {
    "service_request": "2025-1212772",
    "request_type": "Trash/Recycling",
    "request_reason": "Request a Large Item Pick Up",
    "date_created": "2025-07-25T19:25:36.000",
    "date_modified": "2025-07-25T19:25:48.000",
    "request_status": "Pending",
    "responsible_agency": "Department of Sanitation",
    "final_address": "6479 Louisville St",
    "address_councildis": "A",
    "status": "Assigned to Contractor",
    "contractor": "IV Waste",
    "rowid": "1212772",
    "final_x": "3668141.58772",
    "final_y": "550659.093524",
    "longitude": "-90.10960609107934",
    "latitude": "30.00852054004306",
    "geocoded_column": {
      "latitude": "30.00852054004306",
      "longitude": "-90.10960609107934"
    }
  },
  {
    "service_request": "2025-1212771",
    "request_type": "Drainage",
    "request_reason": "Catch Basin Damaged",
    "date_created": "2025-07-25T18:46:49.000",
    "date_modified": "2025-07-25T18:46:51.000",
    "request_status": "Pending",
    "responsible_agency": "Sewerage & Water Board",
    "final_address": "4711 Gawain Dr",
    "address_councildis": "E",
    "status": "Pending",
    "rowid": "1212771",
    "final_x": "3707067.90385",
    "final_y": "555214.793881",
    "longitude": "-89.98645732959478",
    "latitude": "30.01984643708927",
    "geocoded_column": {
      "latitude": "30.01984643708927",
      "longitude": "-89.98645732959478"
    }
  },
  {
    "service_request": "2025-1212770",
    "request_type": "Abandoned Vehicles",
    "request_reason": "Abandoned/Junk Vehicles",
    "date_created": "2025-07-25T18:25:54.000",
    "date_modified": "2025-07-25T18:26:00.000",
    "request_status": "Pending",
    "responsible_agency": "Department of Public Works",
    "final_address": "3324 Loyola Ave",
    "address_councildis": "B",
    "status": "Pending",
    "rowid": "1212770",
    "final_x": "3673541.38094",
    "final_y": "523564.926907",
    "longitude": "-90.09347262220614",
    "latitude": "29.933861087746386",
    "geocoded_column": {
      "latitude": "29.933861087746386",
      "longitude": "-90.09347262220614"
    }
  },
  {
    "service_request": "2025-1212769",
    "request_type": "Trash/Recycling",
    "request_reason": "Missed Trash Pick-Up",
    "date_created": "2025-07-25T18:21:09.000",
    "date_modified": "2025-07-26T06:42:14.000",
    "case_close_date": "2025-07-26T01:42:12.000",
    "request_status": "Closed",
    "responsible_agency": "Department of Sanitation",
    "final_address": "1530 Bordeaux St",
    "address_councildis": "B",
    "status": "Invalid Request",
    "contractor": "IV Waste",
    "contractor_action": "Invalid",
    "rowid": "1212769",
    "final_x": "3669367.14548",
    "final_y": "520550.454904",
    "longitude": "-90.10675240809132",
    "latitude": "29.92569578870584",
    "geocoded_column": {
      "latitude": "29.92569578870584",
      "longitude": "-90.10675240809132"
    }
  },
  {
    "service_request": "2025-1212768",
    "request_type": "Trash/Recycling",
    "request_reason": "Request a Large Item Pick Up",
    "date_created": "2025-07-25T18:20:13.000",
    "date_modified": "2025-07-25T18:20:15.000",
    "request_status": "Pending",
    "responsible_agency": "Department of Sanitation",
    "final_address": "4115 Toulouse St",
    "address_councildis": "A",
    "status": "Assigned to Contractor",
    "contractor": "IV Waste",
    "rowid": "1212768",
    "final_x": "3672184.89371",
    "final_y": "539811.721866",
    "longitude": "-90.09720167999733",
    "latitude": "29.978574674073393",
    "geocoded_column": {
      "latitude": "29.978574674073393",
      "longitude": "-90.09720167999733"
    }
  },
  {
    "service_request": "2025-1212767",
    "request_type": "Abandoned Vehicles",
    "request_reason": "Abandoned/Junk Vehicles",
    "date_created": "2025-07-25T18:08:09.000",
    "date_modified": "2025-07-25T18:08:11.000",
    "request_status": "Pending",
    "responsible_agency": "Department of Public Works",
    "final_address": "3324 Loyola Ave",
    "address_councildis": "B",
    "status": "Pending",
    "rowid": "1212767",
    "final_x": "3673541.38094",
    "final_y": "523564.926907",
    "longitude": "-90.09347262220614",
    "latitude": "29.933861087746386",
    "geocoded_column": {
      "latitude": "29.933861087746386",
      "longitude": "-90.09347262220614"
    }
  },
  {
    "service_request": "2025-1212766",
    "request_type": "Trash/Recycling",
    "request_reason": "Request a Large Item Pick Up",
    "date_created": "2025-07-25T18:05:58.000",
    "date_modified": "2025-07-25T18:06:00.000",
    "request_status": "Pending",
    "responsible_agency": "Department of Sanitation",
    "final_address": "2000 E Homestead Dr",
    "address_councildis": "C",
    "status": "Assigned to Contractor",
    "contractor": "Richards Disposal",
    "rowid": "1212766",
    "final_x": "3697169.20765",
    "final_y": "524559.762492",
    "longitude": "-90.01884500491818",
    "latitude": "29.935872399984607",
    "geocoded_column": {
      "latitude": "29.935872399984607",
      "longitude": "-90.01884500491818"
    }
  },
  {
    "service_request": "2025-1212765",
    "request_type": "Trash/Recycling",
    "request_reason": "Request a Large Item Pick Up",
    "date_created": "2025-07-25T18:05:14.000",
    "date_modified": "2025-07-25T18:05:15.000",
    "request_status": "Pending",
    "responsible_agency": "Department of Sanitation",
    "final_address": "332 22Nd St",
    "address_councildis": "A",
    "status": "Assigned to Contractor",
    "contractor": "IV Waste",
    "rowid": "1212765",
    "final_x": "3664941.97223",
    "final_y": "549281.653523",
    "longitude": "-90.11976082881482",
    "latitude": "30.00482662712432",
    "geocoded_column": {
      "latitude": "30.00482662712432",
      "longitude": "-90.11976082881482"
    }
  },
  {
    "service_request": "2025-1212764",
    "request_type": "Abandoned Vehicles",
    "request_reason": "Abandoned/Junk Vehicles",
    "date_created": "2025-07-25T18:04:19.000",
    "date_modified": "2025-07-25T18:04:21.000",
    "request_status": "Pending",
    "responsible_agency": "Department of Public Works",
    "final_address": "3323 Loyola Ave",
    "address_councildis": "B",
    "status": "Pending",
    "rowid": "1212764",
    "final_x": "3673520.32001",
    "final_y": "523617.278203",
    "longitude": "-90.09353732251337",
    "latitude": "29.934005663434846",
    "geocoded_column": {
      "latitude": "29.934005663434846",
      "longitude": "-90.09353732251337"
    }
  },
  {
    "service_request": "2025-1212763",
    "request_type": "Property Maintenance",
    "request_reason": "Property Maintenance",
    "date_created": "2025-07-25T17:34:52.000",
    "date_modified": "2025-07-25T17:34:54.000",
    "request_status": "Pending",
    "responsible_agency": "Department of Code Enforcement",
    "final_address": "900 Third St",
    "address_councildis": "B",
    "status": "Pending",
    "rowid": "1212763",
    "final_x": "3677920.26446",
    "final_y": "520578.465528",
    "longitude": "-90.07975182256729",
    "latitude": "29.92551828305721",
    "geocoded_column": {
      "latitude": "29.92551828305721",
      "longitude": "-90.07975182256729"
    }
  },
  {
    "service_request": "2025-1212762",
    "request_type": "Trash/Recycling",
    "request_reason": "Request a Large Item Pick Up",
    "date_created": "2025-07-25T17:30:31.000",
    "date_modified": "2025-07-25T17:30:34.000",
    "request_status": "Pending",
    "responsible_agency": "Department of Sanitation",
    "final_address": "6321 Delord St",
    "address_councildis": "A",
    "status": "Assigned to Contractor",
    "contractor": "IV Waste",
    "rowid": "1212762",
    "final_x": "3666150.5209",
    "final_y": "526474.500094",
    "longitude": "-90.11670780068233",
    "latitude": "29.94207931378701",
    "geocoded_column": {
      "latitude": "29.94207931378701",
      "longitude": "-90.11670780068233"
    }
  },
  {
    "service_request": "2025-1212761",
    "request_type": "Street and Traffic Signs",
    "request_reason": "Stop Sign Missing or Damaged",
    "date_created": "2025-07-25T17:22:26.000",
    "date_modified": "2025-07-25T17:22:28.000",
    "request_status": "Pending",
    "responsible_agency": "Department of Public Works",
    "final_address": "2239 Eads St",
    "address_councildis": "D",
    "status": "Pending",
    "rowid": "1212761",
    "final_x": "3687964.31535",
    "final_y": "540944.296267",
    "longitude": "-90.04732440862456",
    "latitude": "29.98121134837156",
    "geocoded_column": {
      "latitude": "29.98121134837156",
      "longitude": "-90.04732440862456"
    }
  },
  {
    "service_request": "2025-1212760",
    "request_type": "Trash/Recycling",
    "request_reason": "Request a Large Item Pick Up",
    "date_created": "2025-07-25T17:19:00.000",
    "date_modified": "2025-07-25T17:19:02.000",
    "request_status": "Pending",
    "responsible_agency": "Department of Sanitation",
    "final_address": "6201 Wadsworth Dr",
    "address_councildis": "D",
    "status": "Assigned to Contractor",
    "contractor": "IV Waste",
    "rowid": "1212760",
    "final_x": "3681675.46824",
    "final_y": "555682.103833",
    "longitude": "-90.06667285708541",
    "latitude": "30.021927620559083",
    "geocoded_column": {
      "latitude": "30.021927620559083",
      "longitude": "-90.06667285708541"
    }
  },
  {
    "service_request": "2025-1212759",
    "request_type": "Property Maintenance",
    "request_reason": "Property Maintenance",
    "date_created": "2025-07-25T17:18:38.000",
    "date_modified": "2025-07-25T17:18:40.000",
    "request_status": "Pending",
    "responsible_agency": "Department of Code Enforcement",
    "final_address": "2930 Danbury Dr",
    "address_councildis": "C",
    "status": "Pending",
    "rowid": "1212759",
    "final_x": "3703831.59262",
    "final_y": "520042.10956",
    "longitude": "-89.99797810091228",
    "latitude": "29.923238591791282",
    "geocoded_column": {
      "latitude": "29.923238591791282",
      "longitude": "-89.99797810091228"
    }
  },
  {
    "service_request": "2025-1212758",
    "request_type": "Drainage",
    "request_reason": "Catch Basin Clogged",
    "date_created": "2025-07-25T17:14:55.000",
    "date_modified": "2025-07-25T17:14:57.000",
    "request_status": "Pending",
    "responsible_agency": "Sewerage & Water Board",
    "final_address": "121 N Lopez St",
    "address_councildis": "B",
    "status": "Pending",
    "rowid": "1212758",
    "final_x": "3674002.41057",
    "final_y": "536460.035655",
    "longitude": "-90.09157599967031",
    "latitude": "29.969304638138276",
    "geocoded_column": {
      "latitude": "29.969304638138276",
      "longitude": "-90.09157599967031"
    }
  },
  {
    "service_request": "2025-1212757",
    "request_type": "Trash/Recycling",
    "request_reason": "Request a Large Item Pick Up",
    "date_created": "2025-07-25T17:12:10.000",
    "date_modified": "2025-07-25T17:12:12.000",
    "request_status": "Pending",
    "responsible_agency": "Department of Sanitation",
    "final_address": "2603 Valence St",
    "address_councildis": "B",
    "status": "Assigned to Contractor",
    "contractor": "IV Waste",
    "rowid": "1212757",
    "final_x": "3669430.5771",
    "final_y": "524348.907836",
    "longitude": "-90.10642378388877",
    "latitude": "29.936138451633667",
    "geocoded_column": {
      "latitude": "29.936138451633667",
      "longitude": "-90.10642378388877"
    }
  },
  {
    "service_request": "2025-1212756",
    "request_type": "Trash/Recycling",
    "request_reason": "Repair Trash Cart",
    "date_created": "2025-07-25T16:52:48.000",
    "date_modified": "2025-07-25T16:52:49.000",
    "request_status": "Pending",
    "responsible_agency": "Department of Sanitation",
    "final_address": "2443 Halsey Ave",
    "address_councildis": "C",
    "status": "Assigned to Contractor",
    "contractor": "Richards Disposal",
    "rowid": "1212756",
    "final_x": "3697622.50685",
    "final_y": "522034.913978",
    "longitude": "-90.01750547370126",
    "latitude": "29.92891562913451",
    "geocoded_column": {
      "latitude": "29.92891562913451",
      "longitude": "-90.01750547370126"
    }
  },
  {
    "service_request": "2025-1212755",
    "request_type": "Trash/Recycling",
    "request_reason": "Request a Large Item Pick Up",
    "date_created": "2025-07-25T16:47:59.000",
    "date_modified": "2025-07-25T16:48:02.000",
    "request_status": "Pending",
    "responsible_agency": "Department of Sanitation",
    "final_address": "7051 Salem Dr",
    "address_councildis": "E",
    "status": "Assigned to Contractor",
    "contractor": "Waste Pro",
    "rowid": "1212755",
    "final_x": "3706649.11595",
    "final_y": "560964.965534",
    "longitude": "-89.98756716592088",
    "latitude": "30.035670691190628",
    "geocoded_column": {
      "latitude": "30.035670691190628",
      "longitude": "-89.98756716592088"
    }
  },
  {
    "service_request": "2025-1212754",
    "request_type": "Trash/Recycling",
    "request_reason": "Repair Trash Cart",
    "date_created": "2025-07-25T16:43:57.000",
    "date_modified": "2025-07-25T16:43:59.000",
    "request_status": "Pending",
    "responsible_agency": "Department of Sanitation",
    "final_address": "1414 Eleonore St",
    "address_councildis": "A",
    "status": "Assigned to Contractor",
    "contractor": "IV Waste",
    "rowid": "1212754",
    "final_x": "3665610.43341",
    "final_y": "521236.343545",
    "longitude": "-90.11858830533228",
    "latitude": "29.92769180780533",
    "geocoded_column": {
      "latitude": "29.92769180780533",
      "longitude": "-90.11858830533228"
    }
  },
  {
    "service_request": "2025-1212753",
    "request_type": "Trash/Recycling",
    "request_reason": "Request a Large Item Pick Up",
    "date_created": "2025-07-25T16:26:25.000",
    "date_modified": "2025-07-25T16:26:27.000",
    "request_status": "Pending",
    "responsible_agency": "Department of Sanitation",
    "final_address": "1855 Law St",
    "address_councildis": "D",
    "status": "Assigned to Contractor",
    "contractor": "IV Waste",
    "rowid": "1212753",
    "final_x": "3680899.40507",
    "final_y": "541563.252108",
    "longitude": "-90.06961702932134",
    "latitude": "29.983129393202713",
    "geocoded_column": {
      "latitude": "29.983129393202713",
      "longitude": "-90.06961702932134"
    }
  },
  {
    "service_request": "2025-1212752",
    "request_type": "General Services",
    "request_reason": "General Service Request",
    "date_created": "2025-07-25T16:14:31.000",
    "date_modified": "2025-07-25T16:14:33.000",
    "request_status": "Pending",
    "responsible_agency": "Orleans Parish Communication District",
    "final_address": "857 Wilson Dr, New Orleans, Louisiana, 70119",
    "address_councildis": "A",
    "status": "Pending",
    "rowid": "1212752",
    "final_x": "3674033.71771",
    "final_y": "539692.351626",
    "longitude": "-90.09136648650885",
    "latitude": "29.97819147504569",
    "geocoded_column": {
      "latitude": "29.97819147504569",
      "longitude": "-90.09136648650885"
    }
  },
  {
    "service_request": "2025-1212751",
    "request_type": "Property Maintenance",
    "request_reason": "Property Maintenance",
    "date_created": "2025-07-25T16:11:41.000",
    "date_modified": "2025-07-25T16:12:05.000",
    "request_status": "Pending",
    "responsible_agency": "Department of Code Enforcement",
    "final_address": "3630 N Homestead Dr",
    "address_councildis": "C",
    "status": "Pending",
    "rowid": "1212751",
    "final_x": "3697189.04151",
    "final_y": "525351.169213",
    "longitude": "-90.01875372525456",
    "latitude": "29.93804786938636",
    "geocoded_column": {
      "latitude": "29.93804786938636",
      "longitude": "-90.01875372525456"
    }
  },
  {
    "service_request": "2025-1212750",
    "request_type": "Trash/Recycling",
    "request_reason": "Request a Large Item Pick Up",
    "date_created": "2025-07-25T16:06:28.000",
    "date_modified": "2025-07-25T16:06:30.000",
    "request_status": "Pending",
    "responsible_agency": "Department of Sanitation",
    "final_address": "8000 Dorsett Dr",
    "address_councildis": "E",
    "status": "Assigned to Contractor",
    "contractor": "Waste Pro",
    "rowid": "1212750",
    "final_x": "3712119.05848",
    "final_y": "568347.088421",
    "longitude": "-89.97000378237844",
    "latitude": "30.055790769540238",
    "geocoded_column": {
      "latitude": "30.055790769540238",
      "longitude": "-89.97000378237844"
    }
  },
  {
    "service_request": "2025-1212749",
    "request_type": "Trash/Recycling",
    "request_reason": "Request a Large Item Pick Up",
    "date_created": "2025-07-25T16:06:01.000",
    "date_modified": "2025-07-25T16:06:03.000",
    "request_status": "Pending",
    "responsible_agency": "Department of Sanitation",
    "final_address": "7930 Dorsett Dr",
    "address_councildis": "E",
    "status": "Assigned to Contractor",
    "contractor": "Waste Pro",
    "rowid": "1212749",
    "final_x": "3712183.1541",
    "final_y": "568257.143973",
    "longitude": "-89.96980457307082",
    "latitude": "30.055541361993154",
    "geocoded_column": {
      "latitude": "30.055541361993154",
      "longitude": "-89.96980457307082"
    }
  },
  {
    "service_request": "2025-1212748",
    "request_type": "Trash/Recycling",
    "request_reason": "Request a Large Item Pick Up",
    "date_created": "2025-07-25T16:05:31.000",
    "date_modified": "2025-07-25T16:05:33.000",
    "request_status": "Pending",
    "responsible_agency": "Department of Sanitation",
    "final_address": "7800 Dorsett Dr",
    "address_councildis": "E",
    "status": "Assigned to Contractor",
    "contractor": "Waste Pro",
    "rowid": "1212748",
    "final_x": "3712460.14002",
    "final_y": "567868.128996",
    "longitude": "-89.96894372399166",
    "latitude": "30.054462663808756",
    "geocoded_column": {
      "latitude": "30.054462663808756",
      "longitude": "-89.96894372399166"
    }
  },
  {
    "service_request": "2025-1212747",
    "request_type": "Trash/Recycling",
    "request_reason": "Missed Trash Pick-Up",
    "date_created": "2025-07-25T15:59:55.000",
    "date_modified": "2025-07-25T15:59:57.000",
    "request_status": "Pending",
    "responsible_agency": "Department of Sanitation",
    "final_address": "104 Brunswick Ct",
    "address_councildis": "C",
    "status": "Assigned to Contractor",
    "contractor": "Richards Disposal",
    "rowid": "1212747",
    "final_x": "3705729.46455",
    "final_y": "517245.753525",
    "longitude": "-89.99209061372714",
    "latitude": "29.915488629362798",
    "geocoded_column": {
      "latitude": "29.915488629362798",
      "longitude": "-89.99209061372714"
    }
  },
  {
    "service_request": "2025-1212746",
    "request_type": "Trash/Recycling",
    "request_reason": "Illegal Dumping",
    "date_created": "2025-07-25T15:59:27.000",
    "date_modified": "2025-07-25T15:59:29.000",
    "request_status": "Pending",
    "responsible_agency": "Department of Sanitation",
    "final_address": "3400 BLK Eagle St",
    "address_councildis": "A",
    "status": "Pending",
    "rowid": "1212746",
    "final_x": "3665531.18695",
    "final_y": "535970.834342",
    "longitude": "-90.1183452660267",
    "latitude": "29.968209205457978",
    "geocoded_column": {
      "latitude": "29.968209205457978",
      "longitude": "-90.1183452660267"
    }
  },
  {
    "service_request": "2025-1212745",
    "request_type": "Trash/Recycling",
    "request_reason": "Request a Large Item Pick Up",
    "date_created": "2025-07-25T15:55:46.000",
    "date_modified": "2025-07-25T15:55:49.000",
    "request_status": "Pending",
    "responsible_agency": "Department of Sanitation",
    "final_address": "5200 Warrington Dr",
    "address_councildis": "D",
    "status": "Assigned to Contractor",
    "contractor": "IV Waste",
    "rowid": "1212745",
    "final_x": "3680921.1197",
    "final_y": "551521.166485",
    "longitude": "-90.06920145141896",
    "latitude": "30.01050946238387",
    "geocoded_column": {
      "latitude": "30.01050946238387",
      "longitude": "-90.06920145141896"
    }
  },
  {
    "service_request": "2025-1212744",
    "request_type": "Trash/Recycling",
    "request_reason": "Illegal Dumping",
    "date_created": "2025-07-25T15:51:16.000",
    "date_modified": "2025-07-25T15:51:19.000",
    "request_status": "Pending",
    "responsible_agency": "Department of Sanitation",
    "final_address": "3500 BLK Dante St",
    "address_councildis": "A",
    "status": "Pending",
    "rowid": "1212744",
    "final_x": "3667062.45029",
    "final_y": "535050.855867",
    "longitude": "-90.11354038267328",
    "latitude": "29.96563483548128",
    "geocoded_column": {
      "latitude": "29.96563483548128",
      "longitude": "-90.11354038267328"
    }
  },
  {
    "service_request": "2025-1212743",
    "request_type": "Streetlights",
    "request_reason": "Streetlight Outage/Malfunction",
    "date_created": "2025-07-25T15:48:49.000",
    "date_modified": "2025-07-25T15:48:50.000",
    "request_status": "Pending",
    "responsible_agency": "Department of Public Works",
    "final_address": "2832 Baronne St",
    "address_councildis": "B",
    "status": "Pending",
    "contractor": "Legacy Professional Services",
    "rowid": "1212743",
    "final_x": "3675284.89941",
    "final_y": "522957.255867",
    "longitude": "-90.08798925528438",
    "latitude": "29.93213820026663",
    "geocoded_column": {
      "latitude": "29.93213820026663",
      "longitude": "-90.08798925528438"
    }
  },
  {
    "service_request": "2025-1212742",
    "request_type": "Trash/Recycling",
    "request_reason": "Illegal Dumping",
    "date_created": "2025-07-25T15:48:42.000",
    "date_modified": "2025-07-25T15:48:44.000",
    "request_status": "Pending",
    "responsible_agency": "Department of Sanitation",
    "final_address": "9100 BLK Pritchard Pl",
    "address_councildis": "A",
    "status": "Pending",
    "rowid": "1212742",
    "final_x": "3663325.86032",
    "final_y": "535374.634091",
    "longitude": "-90.12532966320227",
    "latitude": "29.966633964934566",
    "geocoded_column": {
      "latitude": "29.966633964934566",
      "longitude": "-90.12532966320227"
    }
  },
  {
    "service_request": "2025-1212741",
    "request_type": "Trash/Recycling",
    "request_reason": "Repair Trash Cart",
    "date_created": "2025-07-25T15:47:06.000",
    "date_modified": "2025-07-25T15:47:43.000",
    "request_status": "Pending",
    "responsible_agency": "Department of Sanitation",
    "final_address": "2331 Second St",
    "address_councildis": "B",
    "status": "Assigned to Contractor",
    "contractor": "IV Waste",
    "rowid": "1212741",
    "final_x": "3675214.26881",
    "final_y": "525348.159485",
    "longitude": "-90.08813020568456",
    "latitude": "29.93871451552911",
    "geocoded_column": {
      "latitude": "29.93871451552911",
      "longitude": "-90.08813020568456"
    }
  },
  {
    "service_request": "2025-1212740",
    "request_type": "Trash/Recycling",
    "request_reason": "Request a Large Item Pick Up",
    "date_created": "2025-07-25T15:46:05.000",
    "date_modified": "2025-07-25T15:46:07.000",
    "request_status": "Pending",
    "responsible_agency": "Department of Sanitation",
    "final_address": "7620 Eastmore Rd",
    "address_councildis": "E",
    "status": "Assigned to Contractor",
    "contractor": "Waste Pro",
    "rowid": "1212740",
    "final_x": "3700129.3002",
    "final_y": "560523.52259",
    "longitude": "-90.00818694873954",
    "latitude": "30.034665832088802",
    "geocoded_column": {
      "latitude": "30.034665832088802",
      "longitude": "-90.00818694873954"
    }
  },
  {
    "service_request": "2025-1212739",
    "request_type": "Trash/Recycling",
    "request_reason": "Request a Large Item Pick Up",
    "date_created": "2025-07-25T15:45:52.000",
    "date_modified": "2025-07-25T16:16:44.000",
    "request_status": "Pending",
    "responsible_agency": "Department of Sanitation",
    "final_address": "2505 Palmyra St",
    "address_councildis": "B",
    "status": "Assigned to Contractor",
    "contractor": "IV Waste",
    "rowid": "1212739",
    "final_x": "3675647.24737",
    "final_y": "533975.781637",
    "longitude": "-90.08646684480976",
    "latitude": "29.962424663993918",
    "geocoded_column": {
      "latitude": "29.962424663993918",
      "longitude": "-90.08646684480976"
    }
  },
  {
    "service_request": "2025-1212738",
    "request_type": "Trash/Recycling",
    "request_reason": "Missed Trash Pick-Up",
    "date_created": "2025-07-25T15:44:45.000",
    "date_modified": "2025-07-25T16:23:48.000",
    "case_close_date": "2025-07-25T11:23:47.000",
    "request_status": "Closed",
    "responsible_agency": "Department of Sanitation",
    "final_address": "1623 Oretha Castle Haley Blvd",
    "address_councildis": "B",
    "status": "Invalid Request",
    "contractor": "IV Waste",
    "contractor_action": "Invalid",
    "rowid": "1212738",
    "final_x": "3677715.20693",
    "final_y": "525869.186813",
    "longitude": "-90.0802164784151",
    "latitude": "29.940072201101117",
    "geocoded_column": {
      "latitude": "29.940072201101117",
      "longitude": "-90.0802164784151"
    }
  },
  {
    "service_request": "2025-1212737",
    "request_type": "Trash/Recycling",
    "request_reason": "Missed Trash Pick-Up",
    "date_created": "2025-07-25T15:41:25.000",
    "date_modified": "2025-07-25T15:41:26.000",
    "request_status": "Pending",
    "responsible_agency": "Department of Sanitation",
    "final_address": "808 Whitney Ave",
    "address_councildis": "C",
    "status": "Assigned to Contractor",
    "contractor": "Richards Disposal",
    "rowid": "1212737",
    "final_x": "3690272.22467",
    "final_y": "528522.810688",
    "longitude": "-90.04047767139241",
    "latitude": "29.946985184639118",
    "geocoded_column": {
      "latitude": "29.946985184639118",
      "longitude": "-90.04047767139241"
    }
  },
  {
    "service_request": "2025-1212736",
    "request_type": "Trash/Recycling",
    "request_reason": "Replace Trash Cart",
    "date_created": "2025-07-25T15:35:33.000",
    "date_modified": "2025-07-25T15:35:35.000",
    "request_status": "Pending",
    "responsible_agency": "Department of Sanitation",
    "final_address": "2602 Banks St",
    "address_councildis": "B",
    "status": "Assigned to Contractor",
    "contractor": "IV Waste",
    "rowid": "1212736",
    "final_x": "3675005.88091",
    "final_y": "533780.427269",
    "longitude": "-90.0884988943061",
    "latitude": "29.961906679864224",
    "geocoded_column": {
      "latitude": "29.961906679864224",
      "longitude": "-90.0884988943061"
    }
  },
  {
    "service_request": "2025-1212735",
    "request_type": "Trash/Recycling",
    "request_reason": "Replace Trash Cart",
    "date_created": "2025-07-25T15:35:11.000",
    "date_modified": "2025-07-25T17:28:13.000",
    "case_close_date": "2025-07-25T12:28:11.000",
    "request_status": "Closed",
    "responsible_agency": "Department of Sanitation",
    "final_address": "7901 Haney Dr",
    "address_councildis": "E",
    "status": "Assigned to Contractor",
    "contractor": "Waste Pro",
    "contractor_action": "Completed",
    "rowid": "1212735",
    "final_x": "3712126.80958",
    "final_y": "568037.545189",
    "longitude": "-89.96999092408602",
    "latitude": "30.0549393984319",
    "geocoded_column": {
      "latitude": "30.0549393984319",
      "longitude": "-89.96999092408602"
    }
  },
  {
    "service_request": "2025-1212734",
    "request_type": "Trash/Recycling",
    "request_reason": "Order Trash Cart",
    "date_created": "2025-07-25T15:34:29.000",
    "date_modified": "2025-07-25T15:34:30.000",
    "request_status": "Pending",
    "responsible_agency": "Department of Sanitation",
    "final_address": "900 Euterpe St",
    "address_councildis": "B",
    "status": "Assigned to Contractor",
    "contractor": "IV Waste",
    "rowid": "1212734",
    "final_x": "3681008.93608",
    "final_y": "523999.914172",
    "longitude": "-90.0698827537745",
    "latitude": "29.934832865040946",
    "geocoded_column": {
      "latitude": "29.934832865040946",
      "longitude": "-90.0698827537745"
    }
  },
  {
    "service_request": "2025-1212733",
    "request_type": "Streetlights",
    "request_reason": "Streetlight Outage/Malfunction",
    "date_created": "2025-07-25T15:33:16.000",
    "date_modified": "2025-07-25T15:33:18.000",
    "request_status": "Pending",
    "responsible_agency": "Department of Public Works",
    "final_address": "LAKESHORE DR & PARIS AVE",
    "address_councildis": "D",
    "status": "Pending",
    "contractor": "Legacy Professional Services",
    "rowid": "1212733",
    "final_x": "3677905.8",
    "final_y": "557334.88",
    "longitude": "-90.07852685586491",
    "latitude": "30.026586195373028",
    "geocoded_column": {
      "latitude": "30.026586195373028",
      "longitude": "-90.07852685586491"
    }
  },
  {
    "service_request": "2025-1212732",
    "request_type": "Trash/Recycling",
    "request_reason": "Missed Trash Pick-Up",
    "date_created": "2025-07-25T15:32:46.000",
    "date_modified": "2025-07-25T15:32:48.000",
    "request_status": "Pending",
    "responsible_agency": "Department of Sanitation",
    "final_address": "7051 Manchester St",
    "address_councildis": "E",
    "status": "Assigned to Contractor",
    "contractor": "Waste Pro",
    "rowid": "1212732",
    "final_x": "3699295.41898",
    "final_y": "560112.046237",
    "longitude": "-90.01083712743397",
    "latitude": "30.033560921583206",
    "geocoded_column": {
      "latitude": "30.033560921583206",
      "longitude": "-90.01083712743397"
    }
  },
  {
    "service_request": "2025-1212731",
    "request_type": "Trash/Recycling",
    "request_reason": "Request a Large Item Pick Up",
    "date_created": "2025-07-25T15:32:25.000",
    "date_modified": "2025-07-25T15:32:27.000",
    "request_status": "Pending",
    "responsible_agency": "Department of Sanitation",
    "final_address": "14575 Beekman Rd",
    "address_councildis": "E",
    "status": "Assigned to Contractor",
    "contractor": "Waste Pro",
    "rowid": "1212731",
    "final_x": "3721127.23679",
    "final_y": "573100.187113",
    "longitude": "-89.94134845520738",
    "latitude": "30.068562016212294",
    "geocoded_column": {
      "latitude": "30.068562016212294",
      "longitude": "-89.94134845520738"
    }
  },
  {
    "service_request": "2025-1212730",
    "request_type": "Trash/Recycling",
    "request_reason": "Request a Large Item Pick Up",
    "date_created": "2025-07-25T15:31:13.000",
    "date_modified": "2025-07-25T15:31:16.000",
    "request_status": "Pending",
    "responsible_agency": "Department of Sanitation",
    "final_address": "7518 Malvern Dr",
    "address_councildis": "E",
    "status": "Assigned to Contractor",
    "contractor": "Waste Pro",
    "rowid": "1212730",
    "final_x": "3702439.67818",
    "final_y": "561359.51011",
    "longitude": "-90.00085514629983",
    "latitude": "30.03689080125491",
    "geocoded_column": {
      "latitude": "30.03689080125491",
      "longitude": "-90.00085514629983"
    }
  },
  {
    "service_request": "2025-1212729",
    "request_type": "Parks & Parkways",
    "request_reason": "Request Tree Service (Right of Way/Public Property)",
    "date_created": "2025-07-25T15:30:35.000",
    "date_modified": "2025-07-25T15:30:36.000",
    "request_status": "Pending",
    "responsible_agency": "Department of Parks & Parkway",
    "final_address": "4635 Camelot Dr",
    "address_councildis": "E",
    "status": "Pending",
    "rowid": "1212729",
    "final_x": "3708507.79147",
    "final_y": "554986.464728",
    "longitude": "-89.98191629995362",
    "latitude": "30.019172004253647",
    "geocoded_column": {
      "latitude": "30.019172004253647",
      "longitude": "-89.98191629995362"
    }
  },
  {
    "service_request": "2025-1212728",
    "request_type": "Trash/Recycling",
    "request_reason": "Request a Large Item Pick Up",
    "date_created": "2025-07-25T15:30:07.000",
    "date_modified": "2025-07-25T15:30:09.000",
    "request_status": "Pending",
    "responsible_agency": "Department of Sanitation",
    "final_address": "7201 Restgate Rd",
    "address_councildis": "E",
    "status": "Assigned to Contractor",
    "contractor": "Waste Pro",
    "rowid": "1212728",
    "final_x": "3710767.1939",
    "final_y": "563371.55248",
    "longitude": "-89.97446324136814",
    "latitude": "30.04215421302514",
    "geocoded_column": {
      "latitude": "30.04215421302514",
      "longitude": "-89.97446324136814"
    }
  },
  {
    "service_request": "2025-1212727",
    "request_type": "Trash/Recycling",
    "request_reason": "Request a Large Item Pick Up",
    "date_created": "2025-07-25T15:29:26.000",
    "date_modified": "2025-07-25T15:29:28.000",
    "request_status": "Pending",
    "responsible_agency": "Department of Sanitation",
    "final_address": "13070 Maple Wood Dr",
    "address_councildis": "E",
    "status": "Assigned to Contractor",
    "contractor": "Waste Pro",
    "rowid": "1212727",
    "final_x": "3723770.96755",
    "final_y": "563639.791777",
    "longitude": "-89.93335654739978",
    "latitude": "30.04246131979368",
    "geocoded_column": {
      "latitude": "30.04246131979368",
      "longitude": "-89.93335654739978"
    }
  },
  {
    "service_request": "2025-1212726",
    "request_type": "Drainage",
    "request_reason": "Drainage Manhole Cover Missing or Damaged",
    "date_created": "2025-07-25T15:29:08.000",
    "date_modified": "2025-07-25T15:29:10.000",
    "request_status": "Pending",
    "responsible_agency": "Sewerage & Water Board",
    "final_address": "1219 Murl St",
    "address_councildis": "C",
    "status": "Pending",
    "rowid": "1212726",
    "final_x": "3695379.3183",
    "final_y": "526869.432254",
    "longitude": "-90.02441239720605",
    "latitude": "29.942279533978997",
    "geocoded_column": {
      "latitude": "29.942279533978997",
      "longitude": "-90.02441239720605"
    }
  },
  {
    "service_request": "2025-1212725",
    "request_type": "Trash/Recycling",
    "request_reason": "Request a Large Item Pick Up",
    "date_created": "2025-07-25T15:28:55.000",
    "date_modified": "2025-07-25T15:28:57.000",
    "request_status": "Pending",
    "responsible_agency": "Department of Sanitation",
    "final_address": "5631 New England Dr",
    "address_councildis": "E",
    "status": "Assigned to Contractor",
    "contractor": "Waste Pro",
    "rowid": "1212725",
    "final_x": "3723726.60409",
    "final_y": "564274.245921",
    "longitude": "-89.93347225513037",
    "latitude": "30.044207296793076",
    "geocoded_column": {
      "latitude": "30.044207296793076",
      "longitude": "-89.93347225513037"
    }
  },
  {
    "service_request": "2025-1212724",
    "request_type": "Trash/Recycling",
    "request_reason": "Request a Large Item Pick Up",
    "date_created": "2025-07-25T15:26:31.000",
    "date_modified": "2025-07-25T15:26:33.000",
    "request_status": "Pending",
    "responsible_agency": "Department of Sanitation",
    "final_address": "6115 Urquhart St",
    "address_councildis": "E",
    "status": "Assigned to Contractor",
    "contractor": "Waste Pro",
    "rowid": "1212724",
    "final_x": "3699963.74109",
    "final_y": "534039.931397",
    "longitude": "-90.00967693146212",
    "latitude": "29.961851078287545",
    "geocoded_column": {
      "latitude": "29.961851078287545",
      "longitude": "-90.00967693146212"
    }
  },
  {
    "service_request": "2025-1212723",
    "request_type": "Parks & Parkways",
    "request_reason": "Request Tree Service (Right of Way/Public Property)",
    "date_created": "2025-07-25T15:24:54.000",
    "date_modified": "2025-07-25T15:24:56.000",
    "request_status": "Pending",
    "responsible_agency": "Department of Parks & Parkway",
    "final_address": "3807 Chestnut St",
    "address_councildis": "B",
    "status": "Pending",
    "rowid": "1212723",
    "final_x": "3673085.53083",
    "final_y": "519822.191224",
    "longitude": "-90.09503941355128",
    "latitude": "29.923583325400834",
    "geocoded_column": {
      "latitude": "29.923583325400834",
      "longitude": "-90.09503941355128"
    }
  },
  {
    "service_request": "2025-1212722",
    "request_type": "Trash/Recycling",
    "request_reason": "Request a Large Item Pick Up",
    "date_created": "2025-07-25T15:24:15.000",
    "date_modified": "2025-07-25T15:24:16.000",
    "request_status": "Pending",
    "responsible_agency": "Department of Sanitation",
    "final_address": "4911 Friar Tuck Dr",
    "address_councildis": "E",
    "status": "Assigned to Contractor",
    "contractor": "Waste Pro",
    "rowid": "1212722",
    "final_x": "3717715.79801",
    "final_y": "557760.492955",
    "longitude": "-89.95271691457673",
    "latitude": "30.02649765206411",
    "geocoded_column": {
      "latitude": "30.02649765206411",
      "longitude": "-89.95271691457673"
    }
  },
  {
    "service_request": "2025-1212721",
    "request_type": "Streetlights",
    "request_reason": "Streetlight Outage/Malfunction",
    "date_created": "2025-07-25T15:21:49.000",
    "date_modified": "2025-07-25T15:22:10.000",
    "request_status": "Pending",
    "responsible_agency": "Department of Public Works",
    "final_address": "2221 Oriole St",
    "address_councildis": "D",
    "status": "Pending",
    "contractor": "Legacy Professional Services",
    "rowid": "1212721",
    "final_x": "3683815.70953",
    "final_y": "558136.752475",
    "longitude": "-90.05982405126709",
    "latitude": "30.028611768958207",
    "geocoded_column": {
      "latitude": "30.028611768958207",
      "longitude": "-90.05982405126709"
    }
  },
  {
    "service_request": "2025-1212720",
    "request_type": "Trash/Recycling",
    "request_reason": "Return Recycling Cart",
    "date_created": "2025-07-25T15:21:26.000",
    "date_modified": "2025-07-25T15:21:29.000",
    "request_status": "Pending",
    "responsible_agency": "Department of Sanitation",
    "final_address": "1228 St Andrew St",
    "address_councildis": "B",
    "status": "Pending",
    "rowid": "1212720",
    "final_x": "3679099.75727",
    "final_y": "523030.380731",
    "longitude": "-90.075943593002",
    "latitude": "29.93222471323776",
    "geocoded_column": {
      "latitude": "29.93222471323776",
      "longitude": "-90.075943593002"
    }
  },