[
  {
    "service_request": "2021-841632",
    "request_type": "Property Maintenance",
    "request_reason": "Property Maintenance",
    "date_created": "2021-11-12T00:14:18.000",
    "date_modified": "2021-11-12T00:14:18.000",
    "request_status": "Pending",
    "responsible_agency": "Department of Code Enforcement",
    "final_address": "8926 Forshey St",
    "address_councildis": "A",
    "status": "Pending",
    "rowid": "841632",
    "final_x": "3664710.99872",
    "final_y": "535961.134471",
    "longitude": "-90.12093579036345",
    "latitude": "29.968206421889406",
    "geocoded_column": {
      "latitude": "29.968206421889406",
      "longitude": "-90.12093579036345"
    }
  },
  {
    "service_request": "2021-841631",
    "request_type": "Abandoned Vehicles",
    "request_reason": "Vehicle Blocking Your Driveway",
    "date_created": "2021-11-11T22:45:45.000",
    "date_modified": "2021-11-11T22:45:45.000",
    "request_status": "Pending",
    "responsible_agency": "Department of Public Works",
    "final_address": "723 Canal St",
    "address_councildis": "C",
    "status": "Pending",
    "rowid": "841631",
    "final_x": "3681094.31387",
    "final_y": "530863.949378",
    "longitude": "-90.06937418271092",
    "latitude": "29.953704076963263",
    "geocoded_column": {
      "latitude": "29.953704076963263",
      "longitude": "-90.06937418271092"
    }
  },
  {
    "service_request": "2021-841630",
    "request_type": "Trash/Recycling",
    "request_reason": "Order Recycling Cart",
    "date_created": "2021-11-11T22:02:48.000",
    "date_modified": "2021-11-11T23:01:57.000",
    "request_status": "Pending",
    "responsible_agency": "Department of Sanitation",
    "final_address": "5175 St Anthony Ave",
    "address_councildis": "D",
    "status": "Pending",
    "rowid": "841630",
    "final_x": "3682322.40776",
    "final_y": "551952.146454",
    "longitude": "-90.06475917718387",
    "latitude": "30.0116519186129",
    "geocoded_column": {
      "latitude": "30.0116519186129",
      "longitude": "-90.06475917718387"
    }
  },
  {
    "service_request": "2021-841628",
    "request_type": "Roads/Drainage",
    "request_reason": "Pothole",
    "date_created": "2021-11-11T21:22:51.000",
    "date_modified": "2021-11-11T21:22:51.000",
    "request_status": "Pending",
    "responsible_agency": "Department of Public Works",
    "final_address": "1028 Horace St",
    "address_councildis": "C",
    "status": "Pending",
    "rowid": "841628",
    "final_x": "3696442.62199",
    "final_y": "527431.515711",
    "longitude": "-90.02103500531975",
    "latitude": "29.94379162712715",
    "geocoded_column": {
      "latitude": "29.94379162712715",
      "longitude": "-90.02103500531975"
    }
  },
  {
    "service_request": "2021-841627",
    "request_type": "Roads/Drainage",
    "request_reason": "Street Subsidence (Sinking)",
    "date_created": "2021-11-11T21:19:00.000",
    "date_modified": "2021-11-11T21:19:00.000",
    "request_status": "Pending",
    "responsible_agency": "Department of Public Works",
    "final_address": "3337 Dearmas St",
    "address_councildis": "C",
    "status": "Pending",
    "rowid": "841627",
    "final_x": "3696677.8344",
    "final_y": "526952.17651",
    "longitude": "-90.02030972245538",
    "latitude": "29.942466201626925",
    "geocoded_column": {
      "latitude": "29.942466201626925",
      "longitude": "-90.02030972245538"
    }
  },
  {
    "service_request": "2021-841626",
    "request_type": "Traffic Signals/Signs/Striping/Streetlights",
    "request_reason": "Street Light Outage/Malfunction",
    "date_created": "2021-11-11T21:14:38.000",
    "date_modified": "2021-11-11T21:14:39.000",
    "request_status": "Pending",
    "responsible_agency": "Department of Public Works",
    "final_address": "3825 Virgil Blvd",
    "address_councildis": "D",
    "status": "Pending",
    "contractor": "Royal Engineering",
    "rowid": "841626",
    "final_x": "3680591.56034",
    "final_y": "546601.942801",
    "longitude": "-90.07041395189323",
    "latitude": "29.9969933504357",
    "geocoded_column": {
      "latitude": "29.9969933504357",
      "longitude": "-90.07041395189323"
    }
  },
  {
    "service_request": "2021-841625",
    "request_type": "Traffic Signals/Signs/Striping/Streetlights",
    "request_reason": "Street Light Outage/Malfunction",
    "date_created": "2021-11-11T21:12:19.000",
    "date_modified": "2021-11-11T21:12:20.000",
    "request_status": "Pending",
    "responsible_agency": "Department of Public Works",
    "final_address": "3825 Virgil Blvd",
    "address_councildis": "D",
    "status": "Pending",
    "contractor": "Royal Engineering",
    "rowid": "841625",
    "final_x": "3680591.56034",
    "final_y": "546601.942801",
    "longitude": "-90.07041395189323",
    "latitude": "29.9969933504357",
    "geocoded_column": {
      "latitude": "29.9969933504357",
      "longitude": "-90.07041395189323"
    }
  },
  {
    "service_request": "2021-841624",
    "request_type": "Abandoned Vehicles",
    "request_reason": "Abandoned/Junk Vehicles",
    "date_created": "2021-11-11T21:07:25.000",
    "date_modified": "2021-11-11T21:07:25.000",
    "request_status": "Pending",
    "responsible_agency": "Department of Public Works",
    "final_address": "4127 Gibson St",
    "address_councildis": "D",
    "status": "Pending",
    "rowid": "841624",
    "final_x": "3678780.11221",
    "final_y": "547525.891474",
    "longitude": "-90.07610420856678",
    "latitude": "29.999588655547296",
    "geocoded_column": {
      "latitude": "29.999588655547296",
      "longitude": "-90.07610420856678"
    }
  },
  {
    "service_request": "2021-841623",
    "request_type": "Abandoned Vehicles",
    "request_reason": "Vehicle Blocking Your Driveway",
    "date_created": "2021-11-11T20:48:23.000",
    "date_modified": "2021-11-11T20:48:23.000",
    "request_status": "Pending",
    "responsible_agency": "Department of Public Works",
    "final_address": "918 Toulouse St",
    "address_councildis": "C",
    "status": "Pending",
    "rowid": "841623",
    "final_x": "3681582.51151",
    "final_y": "532676.792708",
    "longitude": "-90.06776943618952",
    "latitude": "29.95867396420865",
    "geocoded_column": {
      "latitude": "29.95867396420865",
      "longitude": "-90.06776943618952"
    }
  },
  {
    "service_request": "2021-841622",
    "request_type": "Trash/Recycling",
    "request_reason": "Request a Large Item Pick Up",
    "date_created": "2021-11-11T20:15:33.000",
    "date_modified": "2021-11-11T20:15:33.000",
    "request_status": "Pending",
    "responsible_agency": "Department of Sanitation",
    "final_address": "4624 Orleans Ave",
    "address_councildis": "A",
    "status": "Assigned to Contractor",
    "contractor": "Richards Disposal",
    "rowid": "841622",
    "final_x": "3670614.66977",
    "final_y": "541567.741452",
    "longitude": "-90.10210144659506",
    "latitude": "29.983449615146696",
    "geocoded_column": {
      "latitude": "29.983449615146696",
      "longitude": "-90.10210144659506"
    }
  },
  {
    "service_request": "2021-841621",
    "request_type": "Traffic Signals/Signs/Striping/Streetlights",
    "request_reason": "Street Light Outage/Malfunction",
    "date_created": "2021-11-11T20:11:55.000",
    "date_modified": "2021-11-11T20:11:56.000",
    "request_status": "Pending",
    "responsible_agency": "Department of Public Works",
    "final_address": "4125 Danneel St",
    "address_councildis": "B",
    "status": "Pending",
    "contractor": "Royal Engineering",
    "rowid": "841621",
    "final_x": "3671512.15553",
    "final_y": "522413.595514",
    "longitude": "-90.09991793632832",
    "latitude": "29.930755516781158",
    "geocoded_column": {
      "latitude": "29.930755516781158",
      "longitude": "-90.09991793632832"
    }
  },
  {
    "service_request": "2021-841620",
    "request_type": "Roads/Drainage",
    "request_reason": "Accessibility Ramps, Curbs and Sidewalk Repair",
    "date_created": "2021-11-11T19:59:32.000",
    "date_modified": "2021-11-11T20:01:29.000",
    "request_status": "Pending",
    "responsible_agency": "Department of Public Works",
    "final_address": "6978 Martin Dr",
    "address_councildis": "E",
    "status": "Pending",
    "rowid": "841620",
    "final_x": "3698798.2776",
    "final_y": "558270.90902",
    "longitude": "-90.0124752089717",
    "latitude": "30.028514271131005",
    "geocoded_column": {
      "latitude": "30.028514271131005",
      "longitude": "-90.0124752089717"
    }
  },
  {
    "service_request": "2021-841619",
    "request_type": "Traffic Signals/Signs/Striping/Streetlights",
    "request_reason": "Street Light Outage/Malfunction",
    "date_created": "2021-11-11T19:52:35.000",
    "date_modified": "2021-11-11T20:01:30.000",
    "request_status": "Pending",
    "responsible_agency": "Department of Public Works",
    "final_address": "5000 Charmes Ct",
    "address_councildis": "E",
    "status": "Pending",
    "contractor": "Royal Engineering",
    "rowid": "841619",
    "final_x": "3726573.25645",
    "final_y": "561953.245407",
    "longitude": "-89.92456587685345",
    "latitude": "30.03772957690288",
    "geocoded_column": {
      "latitude": "30.03772957690288",
      "longitude": "-89.92456587685345"
    }
  },
  {
    "service_request": "2021-841618",
    "request_type": "Abandoned Vehicles",
    "request_reason": "Abandoned/Junk Vehicles",
    "date_created": "2021-11-11T19:42:33.000",
    "date_modified": "2021-11-11T20:01:32.000",
    "request_status": "Pending",
    "responsible_agency": "Department of Public Works",
    "final_address": "3001 Desoto St, New Orleans, Louisiana, 70119",
    "status": "Pending",
    "rowid": "841618",
    "longitude": "0.0",
    "latitude": "0.0",
    "geocoded_column": {
      "latitude": "0.0",
      "longitude": "0.0"
    }
  },
  {
    "service_request": "2021-841615",
    "request_type": "Property Maintenance",
    "request_reason": "Property Maintenance",
    "date_created": "2021-11-11T19:24:05.000",
    "date_modified": "2021-11-11T19:24:05.000",
    "request_status": "Pending",
    "responsible_agency": "Department of Code Enforcement",
    "final_address": "3113 N Prieur St",
    "address_councildis": "D",
    "status": "Pending",
    "rowid": "841615",
    "final_x": "3689912.38377",
    "final_y": "539006.64737",
    "longitude": "-90.0412405557756",
    "latitude": "29.975823240830458",
    "geocoded_column": {
      "latitude": "29.975823240830458",
      "longitude": "-90.0412405557756"
    }
  },
  {
    "service_request": "2021-841616",
    "request_type": "Traffic Signals/Signs/Striping/Streetlights",
    "request_reason": "Traffic Signal Malfunctioning/Damaged",
    "date_created": "2021-11-11T19:24:05.000",
    "date_modified": "2021-11-11T19:24:05.000",
    "request_status": "Pending",
    "responsible_agency": "Department of Public Works",
    "final_address": "6000 St Charles Ave",
    "address_councildis": "A",
    "status": "Pending",
    "rowid": "841616",
    "final_x": "3665637.85568",
    "final_y": "522382.40153",
    "longitude": "-90.1184633815831",
    "latitude": "29.930842305352986",
    "geocoded_column": {
      "latitude": "29.930842305352986",
      "longitude": "-90.1184633815831"
    }
  },
  {
    "service_request": "2021-841614",
    "request_type": "Trash/Recycling",
    "request_reason": "Request a Large Item Pick Up",
    "date_created": "2021-11-11T19:19:30.000",
    "date_modified": "2021-11-11T20:01:34.000",
    "request_status": "Pending",
    "responsible_agency": "Department of Sanitation",
    "final_address": "1109 Leontine St",
    "address_councildis": "B",
    "status": "Assigned to Contractor",
    "contractor": "Richards Disposal",
    "rowid": "841614",
    "final_x": "3667322.77658",
    "final_y": "519527.668471",
    "longitude": "-90.1132402632311",
    "latitude": "29.922943465385956",
    "geocoded_column": {
      "latitude": "29.922943465385956",
      "longitude": "-90.1132402632311"
    }
  },
  {
    "service_request": "2021-841613",
    "request_type": "Trash/Recycling",
    "request_reason": "Order Recycling Cart",
    "date_created": "2021-11-11T19:12:48.000",
    "date_modified": "2021-11-11T20:01:36.000",
    "request_status": "Pending",
    "responsible_agency": "Department of Sanitation",
    "final_address": "2010 Foucher St",
    "address_councildis": "B",
    "status": "Pending",
    "rowid": "841613",
    "final_x": "3672942.59886",
    "final_y": "522728.30905",
    "longitude": "-90.09539148875913",
    "latitude": "29.931578461219132",
    "geocoded_column": {
      "latitude": "29.931578461219132",
      "longitude": "-90.09539148875913"
    }
  },
  {
    "service_request": "2021-841612",
    "request_type": "Trash/Recycling",
    "request_reason": "Replace Trash Cart",
    "date_created": "2021-11-11T19:10:54.000",
    "date_modified": "2021-11-11T20:01:37.000",
    "request_status": "Pending",
    "responsible_agency": "Department of Sanitation",
    "final_address": "2010 Foucher St",
    "address_councildis": "B",
    "status": "Assigned to Contractor",
    "contractor": "Richards Disposal",
    "rowid": "841612",
    "final_x": "3672942.59886",
    "final_y": "522728.30905",
    "longitude": "-90.09539148875913",
    "latitude": "29.931578461219132",
    "geocoded_column": {
      "latitude": "29.931578461219132",
      "longitude": "-90.09539148875913"
    }
  },
  {
    "service_request": "2021-841611",
    "request_type": "Traffic Signals/Signs/Striping/Streetlights",
    "request_reason": "Street Light Outage/Malfunction",
    "date_created": "2021-11-11T18:52:08.000",
    "date_modified": "2021-11-11T18:52:09.000",
    "request_status": "Pending",
    "responsible_agency": "Department of Public Works",
    "final_address": "917 S Carrollton Ave",
    "address_councildis": "A",
    "status": "Pending",
    "contractor": "Royal Engineering",
    "rowid": "841611",
    "final_x": "3661480.68326",
    "final_y": "527593.346111",
    "longitude": "-90.13141450825945",
    "latitude": "29.945291295623804",
    "geocoded_column": {
      "latitude": "29.945291295623804",
      "longitude": "-90.13141450825945"
    }
  },
  {
    "service_request": "2021-841610",
    "request_type": "Safety & Permits",
    "request_reason": "Short term Rental (Enforcement)",
    "date_created": "2021-11-11T18:42:09.000",
    "date_modified": "2021-11-11T18:42:09.000",
    "request_status": "Pending",
    "responsible_agency": "Safety and Permits",
    "final_address": "5611 Debore Dr",
    "address_councildis": "D",
    "status": "Pending",
    "rowid": "841610",
    "final_x": "3691787.47139",
    "final_y": "554624.730648",
    "longitude": "-90.03475950975623",
    "latitude": "30.018709003057314",
    "geocoded_column": {
      "latitude": "30.018709003057314",
      "longitude": "-90.03475950975623"
    }
  },
  {
    "service_request": "2021-841608",
    "request_type": "Roads/Drainage",
    "request_reason": "Catch Basin - Clogged",
    "date_created": "2021-11-11T18:32:36.000",
    "date_modified": "2021-11-11T19:01:54.000",
    "request_status": "Pending",
    "responsible_agency": "Department of Public Works",
    "final_address": "ULLOA ST & S PIERCE ST",
    "address_councildis": "B",
    "status": "Pending",
    "rowid": "841608",
    "final_x": "3670060.1",
    "final_y": "536180.28",
    "longitude": "-90.10403563208168",
    "latitude": "29.968652289020024",
    "geocoded_column": {
      "latitude": "29.968652289020024",
      "longitude": "-90.10403563208168"
    }
  },
  {
    "service_request": "2021-841607",
    "request_type": "Traffic Signals/Signs/Striping/Streetlights",
    "request_reason": "Street Light Outage/Malfunction",
    "date_created": "2021-11-11T18:30:49.000",
    "date_modified": "2021-11-11T19:01:55.000",
    "request_status": "Pending",
    "responsible_agency": "Department of Public Works",
    "final_address": "ULLOA ST & S PIERCE ST",
    "address_councildis": "B",
    "status": "Pending",
    "contractor": "Royal Engineering",
    "rowid": "841607",
    "final_x": "3670060.1",
    "final_y": "536180.28",
    "longitude": "-90.10403563208168",
    "latitude": "29.968652289020024",
    "geocoded_column": {
      "latitude": "29.968652289020024",
      "longitude": "-90.10403563208168"
    }
  },
  {
    "service_request": "2021-841606",
    "request_type": "Traffic Signals/Signs/Striping/Streetlights",
    "request_reason": "Street Light Outage/Malfunction",
    "date_created": "2021-11-11T18:29:59.000",
    "date_modified": "2021-11-11T19:01:56.000",
    "request_status": "Pending",
    "responsible_agency": "Department of Public Works",
    "final_address": "TULANE AVE & S PIERCE ST",
    "address_councildis": "B",
    "status": "Pending",
    "contractor": "Royal Engineering",
    "rowid": "841606",
    "final_x": "3669899.1",
    "final_y": "535968.88",
    "longitude": "-90.10455123994214",
    "latitude": "29.968075758144103",
    "geocoded_column": {
      "latitude": "29.968075758144103",
      "longitude": "-90.10455123994214"
    }
  },
  {
    "service_request": "2021-841605",
    "request_type": "Traffic Signals/Signs/Striping/Streetlights",
    "request_reason": "Street Light Outage/Malfunction",
    "date_created": "2021-11-11T18:16:27.000",
    "date_modified": "2021-11-11T19:01:58.000",
    "request_status": "Pending",
    "responsible_agency": "Department of Public Works",
    "final_address": "5628 Rosemary Pl",
    "address_councildis": "A",
    "status": "Pending",
    "contractor": "Royal Engineering",
    "rowid": "841605",
    "final_x": "3667094.5737",
    "final_y": "545014.583119",
    "longitude": "-90.11310385944218",
    "latitude": "29.993030790914602",
    "geocoded_column": {
      "latitude": "29.993030790914602",
      "longitude": "-90.11310385944218"
    }
  },
  {
    "service_request": "2021-841604",
    "request_type": "Traffic Signals/Signs/Striping/Streetlights",
    "request_reason": "Street Light Outage/Malfunction",
    "date_created": "2021-11-11T18:15:14.000",
    "date_modified": "2021-11-11T19:01:59.000",
    "request_status": "Pending",
    "responsible_agency": "Department of Public Works",
    "final_address": "5631 Rosemary Pl",
    "address_councildis": "A",
    "status": "Pending",
    "contractor": "Royal Engineering",
    "rowid": "841604",
    "final_x": "3667236.54029",
    "final_y": "544991.366991",
    "longitude": "-90.11265619105643",
    "latitude": "29.992962796735462",
    "geocoded_column": {
      "latitude": "29.992962796735462",
      "longitude": "-90.11265619105643"
    }
  },
  {
    "service_request": "2021-841603",
    "request_type": "Traffic Signals/Signs/Striping/Streetlights",
    "request_reason": "Street Light Outage/Malfunction",
    "date_created": "2021-11-11T18:14:19.000",
    "date_modified": "2021-11-11T19:02:01.000",
    "request_status": "Pending",
    "responsible_agency": "Department of Public Works",
    "final_address": "5622 Rosemary Pl",
    "address_councildis": "A",
    "status": "Pending",
    "contractor": "Royal Engineering",
    "rowid": "841603",
    "final_x": "3667090.43578",
    "final_y": "544972.915151",
    "longitude": "-90.11311833212169",
    "latitude": "29.99291633942509",
    "geocoded_column": {
      "latitude": "29.99291633942509",
      "longitude": "-90.11311833212169"
    }
  },
  {
    "service_request": "2021-841602",
    "request_type": "Traffic Signals/Signs/Striping/Streetlights",
    "request_reason": "Street Light Outage/Malfunction",
    "date_created": "2021-11-11T18:12:48.000",
    "date_modified": "2021-11-11T19:02:02.000",
    "request_status": "Pending",
    "responsible_agency": "Department of Public Works",
    "final_address": "5659 Rosemary Pl",
    "address_councildis": "A",
    "status": "Pending",
    "contractor": "Royal Engineering",
    "rowid": "841602",
    "final_x": "3667250.63732",
    "final_y": "545151.722063",
    "longitude": "-90.11260626444486",
    "latitude": "29.99340330533484",
    "geocoded_column": {
      "latitude": "29.99340330533484",
      "longitude": "-90.11260626444486"
    }
  },
  {
    "service_request": "2021-841601",
    "request_type": "Property Maintenance",
    "request_reason": "Property Maintenance",
    "date_created": "2021-11-11T18:04:42.000",
    "date_modified": "2021-11-11T19:02:06.000",
    "request_status": "Pending",
    "responsible_agency": "Department of Code Enforcement",
    "final_address": "75 Westpark Ct",
    "address_councildis": "C",
    "status": "Pending",
    "rowid": "841601",
    "final_x": "3695760.68195",
    "final_y": "521750.02201",
    "longitude": "-90.02339313228288",
    "latitude": "29.928190930850473",
    "geocoded_column": {
      "latitude": "29.928190930850473",
      "longitude": "-90.02339313228288"
    }
  },
  {
    "service_request": "2021-841600",
    "request_type": "Traffic Signals/Signs/Striping/Streetlights",
    "request_reason": "Street Light Outage/Malfunction",
    "date_created": "2021-11-11T17:42:30.000",
    "date_modified": "2021-11-11T17:42:31.000",
    "request_status": "Pending",
    "responsible_agency": "Department of Public Works",
    "final_address": "4714 St Peter St",
    "address_councildis": "A",
    "status": "Pending",
    "contractor": "Royal Engineering",
    "rowid": "841600",
    "final_x": "3670278.33953",
    "final_y": "541598.37998",
    "longitude": "-90.10316271783762",
    "latitude": "29.98354379346871",
    "geocoded_column": {
      "latitude": "29.98354379346871",
      "longitude": "-90.10316271783762"
    }
  },
  {
    "service_request": "2021-841599",
    "request_type": "Trash/Recycling",
    "request_reason": "Replace Trash Cart",
    "date_created": "2021-11-11T17:39:52.000",
    "date_modified": "2021-11-11T18:01:24.000",
    "request_status": "Pending",
    "responsible_agency": "Department of Sanitation",
    "final_address": "144 Middle Park Pl",
    "address_councildis": "A",
    "status": "Assigned to Contractor",
    "contractor": "Metro Disposal",
    "rowid": "841599",
    "final_x": "3670092.88346",
    "final_y": "544317.389071",
    "longitude": "-90.10365632326965",
    "latitude": "29.99102561121078",
    "geocoded_column": {
      "latitude": "29.99102561121078",
      "longitude": "-90.10365632326965"
    }
  },
  {
    "service_request": "2021-841598",
    "request_type": "Property Maintenance",
    "request_reason": "Property Maintenance",
    "date_created": "2021-11-11T17:34:52.000",
    "date_modified": "2021-11-11T18:01:27.000",
    "request_status": "Pending",
    "responsible_agency": "Department of Code Enforcement",
    "final_address": "1306 Music St",
    "address_councildis": "C",
    "status": "Pending",
    "rowid": "841598",
    "final_x": "3686751.76854",
    "final_y": "537273.063816",
    "longitude": "-90.05128391075289",
    "latitude": "29.971154113628053",
    "geocoded_column": {
      "latitude": "29.971154113628053",
      "longitude": "-90.05128391075289"
    }
  },
  {
    "service_request": "2021-841597",
    "request_type": "Trash/Recycling",
    "request_reason": "Missed Trash Pick-Up",
    "date_created": "2021-11-11T17:19:24.000",
    "date_modified": "2021-11-11T17:19:24.000",
    "request_status": "Pending",
    "responsible_agency": "Department of Sanitation",
    "final_address": "2305 Carondelet St",
    "address_councildis": "B",
    "status": "Assigned to Contractor",
    "contractor": "Richards Disposal",
    "rowid": "841597",
    "final_x": "3676862.84078",
    "final_y": "523657.371771",
    "longitude": "-90.08298372922299",
    "latitude": "29.934016039860413",
    "geocoded_column": {
      "latitude": "29.934016039860413",
      "longitude": "-90.08298372922299"
    }
  },
  {
    "service_request": "2021-841596",
    "request_type": "Abandoned Vehicles",
    "request_reason": "Vehicle Blocking Your Driveway",
    "date_created": "2021-11-11T17:13:39.000",
    "date_modified": "2021-11-11T17:13:39.000",
    "request_status": "Pending",
    "responsible_agency": "Department of Public Works",
    "final_address": "2415 Lavender St",
    "address_councildis": "D",
    "status": "Pending",
    "rowid": "841596",
    "final_x": "3686088.8399",
    "final_y": "546886.236305",
    "longitude": "-90.0530383034334",
    "latitude": "29.99760730954603",
    "geocoded_column": {
      "latitude": "29.99760730954603",
      "longitude": "-90.0530383034334"
    }
  },
  {
    "service_request": "2021-841595",
    "request_type": "Trash/Recycling",
    "request_reason": "Request a Large Item Pick Up",
    "date_created": "2021-11-11T17:03:32.000",
    "date_modified": "2021-11-11T18:01:29.000",
    "request_status": "Pending",
    "responsible_agency": "Department of Sanitation",
    "final_address": "6035 Camp St",
    "address_councildis": "A",
    "status": "Assigned to Contractor",
    "contractor": "Richards Disposal",
    "rowid": "841595",
    "final_x": "3664522.59975",
    "final_y": "519749.266488",
    "longitude": "-90.12207197426896",
    "latitude": "29.92363447886401",
    "geocoded_column": {
      "latitude": "29.92363447886401",
      "longitude": "-90.12207197426896"
    }
  },
  {
    "service_request": "2021-841594",
    "request_type": "Trash/Recycling",
    "request_reason": "Illegal Dumping",
    "date_created": "2021-11-11T17:03:01.000",
    "date_modified": "2021-11-11T17:03:01.000",
    "request_status": "Pending",
    "responsible_agency": "Department of Sanitation",
    "final_address": "332 Dearmas St",
    "address_councildis": "C",
    "status": "Pending",
    "rowid": "841594",
    "final_x": "3686498.50684",
    "final_y": "527193.682751",
    "longitude": "-90.0524395825065",
    "latitude": "29.943447072323305",
    "geocoded_column": {
      "latitude": "29.943447072323305",
      "longitude": "-90.0524395825065"
    }
  },
  {
    "service_request": "2021-841593",
    "request_type": "Abandoned Vehicles",
    "request_reason": "Abandoned/Junk Vehicles",
    "date_created": "2021-11-11T16:59:20.000",
    "date_modified": "2021-11-11T17:01:16.000",
    "request_status": "Pending",
    "responsible_agency": "Department of Public Works",
    "final_address": "332 Dearmas St",
    "address_councildis": "C",
    "status": "Pending",
    "rowid": "841593",
    "final_x": "3686498.50684",
    "final_y": "527193.682751",
    "longitude": "-90.0524395825065",
    "latitude": "29.943447072323305",
    "geocoded_column": {
      "latitude": "29.943447072323305",
      "longitude": "-90.0524395825065"
    }
  },
  {
    "service_request": "2021-841592",
    "request_type": "Roads/Drainage",
    "request_reason": "Street Subsidence (Sinking)",
    "date_created": "2021-11-11T16:43:14.000",
    "date_modified": "2021-11-11T17:01:18.000",
    "request_status": "Pending",
    "responsible_agency": "Department of Public Works",
    "final_address": "PACE BLVD & WALL BLVD",
    "address_councildis": "C",
    "status": "Pending",
    "rowid": "841592",
    "final_x": "3694344.5",
    "final_y": "523730.88",
    "longitude": "-90.02779243447597",
    "latitude": "29.933682056272396",
    "geocoded_column": {
      "latitude": "29.933682056272396",
      "longitude": "-90.02779243447597"
    }
  },
  {
    "service_request": "2021-841591",
    "request_type": "Roads/Drainage",
    "request_reason": "Street Subsidence (Sinking)",
    "date_created": "2021-11-11T16:40:15.000",
    "date_modified": "2021-11-11T17:01:19.000",
    "request_status": "Pending",
    "responsible_agency": "Department of Public Works",
    "final_address": "GENERAL DE GAULLE DR & HOLIDAY DR",
    "address_councildis": "C",
    "status": "Pending",
    "rowid": "841591",
    "final_x": "3698595.0",
    "final_y": "519112.58",
    "longitude": "-90.01454170298932",
    "latitude": "29.920849468009546",
    "geocoded_column": {
      "latitude": "29.920849468009546",
      "longitude": "-90.01454170298932"
    }
  },
  {
    "service_request": "2021-841590",
    "request_type": "Trash/Recycling",
    "request_reason": "Return Recycling Cart",
    "date_created": "2021-11-11T16:37:20.000",
    "date_modified": "2021-11-11T16:37:20.000",
    "request_status": "Pending",
    "responsible_agency": "Department of Sanitation",
    "final_address": "412 Millaudon St",
    "address_councildis": "A",
    "status": "Pending",
    "rowid": "841590",
    "final_x": "3661958.40915",
    "final_y": "524746.121212",
    "longitude": "-90.13000057503126",
    "latitude": "29.937448544587937",
    "geocoded_column": {
      "latitude": "29.937448544587937",
      "longitude": "-90.13000057503126"
    }
  },
  {
    "service_request": "2021-841589",
    "request_type": "Mosquito, Termite & Rodent Control",
    "request_reason": "Mosquito Complaint",
    "date_created": "2021-11-11T16:35:25.000",
    "date_modified": "2021-11-11T16:35:25.000",
    "request_status": "Pending",
    "responsible_agency": "Mosquito, Termite & Rodent Control Board",
    "final_address": "1581 Steeple Chase Ln",
    "address_councildis": "C",
    "status": "Pending",
    "rowid": "841589",
    "final_x": "3699928.17815",
    "final_y": "525085.859709",
    "longitude": "-90.01011575828029",
    "latitude": "29.937231667988097",
    "geocoded_column": {
      "latitude": "29.937231667988097",
      "longitude": "-90.01011575828029"
    }
  },
  {
    "service_request": "2021-841588",
    "request_type": "Parks & Parkways",
    "request_reason": "Request Grass Cutting Service (City Owned Property)",
    "date_created": "2021-11-11T16:32:53.000",
    "date_modified": "2021-11-11T16:32:53.000",
    "request_status": "Pending",
    "responsible_agency": "Department of Parks & Parkway",
    "final_address": "4230 General De Gaulle Dr",
    "address_councildis": "C",
    "status": "Pending",
    "rowid": "841588",
    "final_x": "3699505.56413",
    "final_y": "518825.013495",
    "longitude": "-90.01167795521937",
    "latitude": "29.92002991031252",
    "geocoded_column": {
      "latitude": "29.92002991031252",
      "longitude": "-90.01167795521937"
    }
  },
  {
    "service_request": "2021-841587",
    "request_type": "Traffic Signals/Signs/Striping/Streetlights",
    "request_reason": "Additional signage",
    "date_created": "2021-11-11T16:25:26.000",
    "date_modified": "2021-11-11T17:01:21.000",
    "request_status": "Pending",
    "responsible_agency": "Department of Public Works",
    "final_address": "2401 Joseph St",
    "address_councildis": "A",
    "status": "Pending",
    "rowid": "841587",
    "final_x": "3667516.85389",
    "final_y": "524849.595836",
    "longitude": "-90.1124486396867",
    "latitude": "29.93757138849858",
    "geocoded_column": {
      "latitude": "29.93757138849858",
      "longitude": "-90.1124486396867"
    }
  },
  {
    "service_request": "2021-841586",
    "request_type": "Trash/Recycling",
    "request_reason": "Request a Large Item Pick Up",
    "date_created": "2021-11-11T16:23:44.000",
    "date_modified": "2021-11-11T16:23:45.000",
    "request_status": "Pending",
    "responsible_agency": "Department of Sanitation",
    "final_address": "179 Pinewood Ct",
    "address_councildis": "C",
    "status": "Assigned to Contractor",
    "contractor": "Richards Disposal",
    "rowid": "841586",
    "final_x": "3695919.01494",
    "final_y": "523655.278587",
    "longitude": "-90.02282452511535",
    "latitude": "29.933424756468035",
    "geocoded_column": {
      "latitude": "29.933424756468035",
      "longitude": "-90.02282452511535"
    }
  },
  {
    "service_request": "2021-841584",
    "request_type": "Trash/Recycling",
    "request_reason": "Repair Recycling Cart",
    "date_created": "2021-11-11T16:18:55.000",
    "date_modified": "2021-11-11T16:18:55.000",
    "request_status": "Pending",
    "responsible_agency": "Department of Sanitation",
    "final_address": "811 N Johnson St",
    "address_councildis": "D",
    "status": "Pending",
    "rowid": "841584",
    "final_x": "3678903.11477",
    "final_y": "535888.890119",
    "longitude": "-90.0761189878883",
    "latitude": "29.967587240560828",
    "geocoded_column": {
      "latitude": "29.967587240560828",
      "longitude": "-90.0761189878883"
    }
  },
  {
    "service_request": "2021-841583",
    "request_type": "Abandoned Vehicles",
    "request_reason": "Abandoned/Junk Vehicles",
    "date_created": "2021-11-11T16:18:45.000",
    "date_modified": "2021-11-11T17:01:25.000",
    "request_status": "Pending",
    "responsible_agency": "Department of Public Works",
    "final_address": "3003 Desoto St, New Orleans, Louisiana, 70119",
    "address_councildis": "A",
    "status": "Pending",
    "rowid": "841583",
    "final_x": "3676737.83483",
    "final_y": "539759.428938",
    "longitude": "-90.0828235976357",
    "latitude": "29.978295045917573",
    "geocoded_column": {
      "latitude": "29.978295045917573",
      "longitude": "-90.0828235976357"
    }
  },
  {
    "service_request": "2021-841582",
    "request_type": "Trash/Recycling",
    "request_reason": "Order Trash Cart",
    "date_created": "2021-11-11T16:18:10.000",
    "date_modified": "2021-11-11T17:01:27.000",
    "request_status": "Pending",
    "responsible_agency": "Department of Sanitation",
    "final_address": "1715 Annette St",
    "address_councildis": "D",
    "status": "Assigned to Contractor",
    "contractor": "Metro Disposal",
    "rowid": "841582",
    "final_x": "3682991.60642",
    "final_y": "538512.856713",
    "longitude": "-90.06311559386236",
    "latitude": "29.9746782598321",
    "geocoded_column": {
      "latitude": "29.9746782598321",
      "longitude": "-90.06311559386236"
    }
  },
  {
    "service_request": "2021-841580",
    "request_type": "Trash/Recycling",
    "request_reason": "Request a Large Item Pick Up",
    "date_created": "2021-11-11T15:59:25.000",
    "date_modified": "2021-11-11T15:59:25.000",
    "request_status": "Pending",
    "responsible_agency": "Department of Sanitation",
    "final_address": "6336 Pratt Dr",
    "address_councildis": "D",
    "status": "Assigned to Contractor",
    "contractor": "Metro Disposal",
    "rowid": "841580",
    "final_x": "3679476.74799",
    "final_y": "557181.657563",
    "longitude": "-90.07356815505402",
    "latitude": "30.026117493222156",
    "geocoded_column": {
      "latitude": "30.026117493222156",
      "longitude": "-90.07356815505402"
    }
  },
  {
    "service_request": "2021-841579",
    "request_type": "Trash/Recycling",
    "request_reason": "Missed Trash Pick-Up",
    "date_created": "2021-11-11T15:56:56.000",
    "date_modified": "2021-11-11T15:56:57.000",
    "request_status": "Pending",
    "responsible_agency": "Department of Sanitation",
    "final_address": "6336 Pratt Dr",
    "address_councildis": "D",
    "status": "Assigned to Contractor",
    "contractor": "Metro Disposal",
    "rowid": "841579",
    "final_x": "3679476.74799",
    "final_y": "557181.657563",
    "longitude": "-90.07356815505402",
    "latitude": "30.026117493222156",
    "geocoded_column": {
      "latitude": "30.026117493222156",
      "longitude": "-90.07356815505402"
    }
  },
  {
    "service_request": "2021-841578",
    "request_type": "Abandoned Vehicles",
    "request_reason": "Abandoned/Junk Vehicles",
    "date_created": "2021-11-11T15:49:04.000",
    "date_modified": "2021-11-11T15:49:04.000",
    "request_status": "Pending",
    "responsible_agency": "Department of Public Works",
    "final_address": "2800 BLK General Pershing St",
    "address_councildis": "B",
    "status": "Pending",
    "rowid": "841578",
    "final_x": "3670809.82042",
    "final_y": "525300.708701",
    "longitude": "-90.10203717418077",
    "latitude": "29.9387149162059",
    "geocoded_column": {
      "latitude": "29.9387149162059",
      "longitude": "-90.10203717418077"
    }
  },
  {
    "service_request": "2021-841577",
    "request_type": "Trash/Recycling",
    "request_reason": "Repair Trash Cart",
    "date_created": "2021-11-11T15:48:48.000",
    "date_modified": "2021-11-11T16:01:21.000",
    "request_status": "Pending",
    "responsible_agency": "Department of Sanitation",
    "final_address": "1933 Jo Ann Pl",
    "address_councildis": "C",
    "status": "Assigned to Contractor",
    "contractor": "Richards Disposal",
    "rowid": "841577",
    "final_x": "3694918.75568",
    "final_y": "523465.697147",
    "longitude": "-90.02598909852529",
    "latitude": "29.932934890830307",
    "geocoded_column": {
      "latitude": "29.932934890830307",
      "longitude": "-90.02598909852529"
    }
  },
  {
    "service_request": "2021-841576",
    "request_type": "Traffic Signals/Signs/Striping/Streetlights",
    "request_reason": "Street Light Outage/Malfunction",
    "date_created": "2021-11-11T15:47:48.000",
    "date_modified": "2021-11-11T15:47:49.000",
    "request_status": "Pending",
    "responsible_agency": "Department of Public Works",
    "final_address": "ELDER ST & PIEDMONT DR",
    "address_councildis": "D",
    "status": "Pending",
    "contractor": "Royal Engineering",
    "rowid": "841576",
    "final_x": "3686323.6",
    "final_y": "545532.78",
    "longitude": "-90.0523445023863",
    "latitude": "29.993878576333806",
    "geocoded_column": {
      "latitude": "29.993878576333806",
      "longitude": "-90.0523445023863"
    }
  },
  {
    "service_request": "2021-841575",
    "request_type": "Trash/Recycling",
    "request_reason": "Missed Trash Pick-Up",
    "date_created": "2021-11-11T15:42:47.000",
    "date_modified": "2021-11-11T16:01:23.000",
    "request_status": "Pending",
    "responsible_agency": "Department of Sanitation",
    "final_address": "1128 City Park Ave",
    "address_councildis": "A",
    "status": "Assigned to Contractor",
    "contractor": "Richards Disposal",
    "rowid": "841575",
    "final_x": "3673266.73947",
    "final_y": "541458.925324",
    "longitude": "-90.09372852236545",
    "latitude": "29.983071784436344",
    "geocoded_column": {
      "latitude": "29.983071784436344",
      "longitude": "-90.09372852236545"
    }
  },
  {
    "service_request": "2021-841574",
    "request_type": "Trash/Recycling",
    "request_reason": "Order Trash Cart",
    "date_created": "2021-11-11T15:42:22.000",
    "date_modified": "2021-11-11T16:01:24.000",
    "request_status": "Pending",
    "responsible_agency": "Department of Sanitation",
    "final_address": "3331 Marigny St",
    "address_councildis": "D",
    "status": "Assigned to Contractor",
    "contractor": "Metro Disposal",
    "rowid": "841574",
    "final_x": "3684751.94786",
    "final_y": "545079.907407",
    "longitude": "-90.05732504568115",
    "latitude": "29.992681556645255",
    "geocoded_column": {
      "latitude": "29.992681556645255",
      "longitude": "-90.05732504568115"
    }
  },
  {
    "service_request": "2021-841573",
    "request_type": "Roads/Drainage",
    "request_reason": "Pothole",
    "date_created": "2021-11-11T15:38:40.000",
    "date_modified": "2021-11-11T16:01:27.000",
    "request_status": "Pending",
    "responsible_agency": "Department of Public Works",
    "final_address": "2275 Bayou Rd",
    "address_councildis": "D",
    "status": "Pending",
    "rowid": "841573",
    "final_x": "3679329.63419",
    "final_y": "538447.386057",
    "longitude": "-90.07468327746787",
    "latitude": "29.974609351283448",
    "geocoded_column": {
      "latitude": "29.974609351283448",
      "longitude": "-90.07468327746787"
    }
  },
  {
    "service_request": "2021-841572",
    "request_type": "Trash/Recycling",
    "request_reason": "Missed Trash Pick-Up",
    "date_created": "2021-11-11T15:32:25.000",
    "date_modified": "2021-11-11T15:32:25.000",
    "request_status": "Pending",
    "responsible_agency": "Department of Sanitation",
    "final_address": "5415 Urquhart St",
    "address_councildis": "E",
    "status": "Assigned to Contractor",
    "contractor": "Metro Disposal",
    "rowid": "841572",
    "final_x": "3697506.87267",
    "final_y": "534704.836614",
    "longitude": "-90.01741117411463",
    "latitude": "29.963757141408035",
    "geocoded_column": {
      "latitude": "29.963757141408035",
      "longitude": "-90.01741117411463"
    }
  },
  {
    "service_request": "2021-841571",
    "request_type": "Traffic Signals/Signs/Striping/Streetlights",
    "request_reason": "Traffic Signal Malfunctioning/Damaged",
    "date_created": "2021-11-11T15:30:54.000",
    "date_modified": "2021-11-11T15:30:54.000",
    "request_status": "Pending",
    "responsible_agency": "Department of Public Works",
    "final_address": "POYDRAS ST & TCHOUPITOULAS ST",
    "address_councildis": "B",
    "status": "Pending",
    "rowid": "841571",
    "final_x": "3681871.8",
    "final_y": "529047.58",
    "longitude": "-90.0669825928533",
    "latitude": "29.94868606972945",
    "geocoded_column": {
      "latitude": "29.94868606972945",
      "longitude": "-90.0669825928533"
    }
  },
  {
    "service_request": "2021-841570",
    "request_type": "Abandoned Vehicles",
    "request_reason": "Abandoned/Junk Vehicles",
    "date_created": "2021-11-11T15:29:06.000",
    "date_modified": "2021-11-11T16:01:29.000",
    "request_status": "Pending",
    "responsible_agency": "Department of Public Works",
    "final_address": "2563 N Prieur St",
    "address_councildis": "D",
    "status": "Pending",
    "rowid": "841570",
    "final_x": "3687517.1254",
    "final_y": "539506.902218",
    "longitude": "-90.04878772886129",
    "latitude": "29.977272815599477",
    "geocoded_column": {
      "latitude": "29.977272815599477",
      "longitude": "-90.04878772886129"
    }
  },
  {
    "service_request": "2021-841569",
    "request_type": "Abandoned Vehicles",
    "request_reason": "Abandoned/Junk Vehicles",
    "date_created": "2021-11-11T15:20:12.000",
    "date_modified": "2021-11-11T16:01:30.000",
    "request_status": "Pending",
    "responsible_agency": "Department of Public Works",
    "final_address": "1565 Murl St",
    "address_councildis": "C",
    "status": "Pending",
    "rowid": "841569",
    "final_x": "3695324.86013",
    "final_y": "525559.535805",
    "longitude": "-90.02463156721332",
    "latitude": "29.93867948132493",
    "geocoded_column": {
      "latitude": "29.93867948132493",
      "longitude": "-90.02463156721332"
    }
  },
  {
    "service_request": "2021-841568",
    "request_type": "Mosquito, Termite & Rodent Control",
    "request_reason": "Mosquito Complaint",
    "date_created": "2021-11-11T15:18:11.000",
    "date_modified": "2021-11-11T16:01:32.000",
    "request_status": "Pending",
    "responsible_agency": "Mosquito, Termite & Rodent Control Board",
    "final_address": "7090 Queensway Dr",
    "address_councildis": "E",
    "status": "Pending",
    "rowid": "841568",
    "final_x": "3718967.22469",
    "final_y": "569619.208998",
    "longitude": "-89.94830965659814",
    "latitude": "30.05906275603362",
    "geocoded_column": {
      "latitude": "30.05906275603362",
      "longitude": "-89.94830965659814"
    }
  },
  {
    "service_request": "2021-841567",
    "request_type": "Safety & Permits",
    "request_reason": "Licenses & Permits",
    "date_created": "2021-11-11T15:17:55.000",
    "date_modified": "2021-11-11T16:01:33.000",
    "request_status": "Pending",
    "responsible_agency": "Safety and Permits",
    "status": "Pending",
    "rowid": "841567",
    "longitude": "0.0",
    "latitude": "0.0",
    "geocoded_column": {
      "latitude": "0.0",
      "longitude": "0.0"
    }
  },
  {
    "service_request": "2021-841566",
    "request_type": "Trash/Recycling",
    "request_reason": "Replace Trash Cart",
    "date_created": "2021-11-11T15:14:49.000",
    "date_modified": "2021-11-11T15:14:50.000",
    "request_status": "Pending",
    "responsible_agency": "Department of Sanitation",
    "final_address": "1416 Carondelet St Unit B",
    "address_councildis": "B",
    "status": "Assigned to Contractor",
    "contractor": "Richards Disposal",
    "rowid": "841566",
    "final_x": "3678947.48994",
    "final_y": "525872.331325",
    "longitude": "-90.07632586448078",
    "latitude": "29.940043733967585",
    "geocoded_column": {
      "latitude": "29.940043733967585",
      "longitude": "-90.07632586448078"
    }
  },
  {
    "service_request": "2021-841565",
    "request_type": "Traffic Signals/Signs/Striping/Streetlights",
    "request_reason": "Traffic Sign Missing/Damaged",
    "date_created": "2021-11-11T15:13:57.000",
    "date_modified": "2021-11-11T15:13:57.000",
    "request_status": "Pending",
    "responsible_agency": "Department of Public Works",
    "final_address": "MONROE ST & PALMETTO ST",
    "address_councildis": "A",
    "status": "Pending",
    "rowid": "841565",
    "final_x": "3666646.28",
    "final_y": "536672.16",
    "longitude": "-90.11480018864499",
    "latitude": "29.9701050593412",
    "geocoded_column": {
      "latitude": "29.9701050593412",
      "longitude": "-90.11480018864499"
    }
  },
  {
    "service_request": "2021-841563",
    "request_type": "Traffic Signals/Signs/Striping/Streetlights",
    "request_reason": "Traffic Sign Missing/Damaged",
    "date_created": "2021-11-11T15:12:59.000",
    "date_modified": "2021-11-11T15:12:59.000",
    "request_status": "Pending",
    "responsible_agency": "Department of Public Works",
    "final_address": "MONROE ST & STROELITZ ST",
    "address_councildis": "A",
    "status": "Pending",
    "rowid": "841563",
    "final_x": "3666381.1",
    "final_y": "536385.48",
    "longitude": "-90.11564727872684",
    "latitude": "29.96932453604162",
    "geocoded_column": {
      "latitude": "29.96932453604162",
      "longitude": "-90.11564727872684"
    }
  },
  {
    "service_request": "2021-841561",
    "request_type": "Property Maintenance",
    "request_reason": "Property Maintenance",
    "date_created": "2021-11-11T15:08:02.000",
    "date_modified": "2021-11-11T16:01:35.000",
    "request_status": "Pending",
    "responsible_agency": "Department of Code Enforcement",
    "final_address": "7080 Queensway Dr",
    "address_councildis": "E",
    "status": "Pending",
    "rowid": "841561",
    "final_x": "3718997.49695",
    "final_y": "569578.569318",
    "longitude": "-89.94821552244127",
    "latitude": "30.058950007674902",
    "geocoded_column": {
      "latitude": "30.058950007674902",
      "longitude": "-89.94821552244127"
    }
  },
  {
    "service_request": "2021-841560",
    "request_type": "Abandoned Vehicles",
    "request_reason": "Abandoned/Junk Vehicles",
    "date_created": "2021-11-11T15:07:16.000",
    "date_modified": "2021-11-11T15:07:16.000",
    "request_status": "Pending",
    "responsible_agency": "Department of Public Works",
    "status": "Inspected",
    "rowid": "841560",
    "longitude": "0.0",
    "latitude": "0.0",
    "geocoded_column": {
      "latitude": "0.0",
      "longitude": "0.0"
    }
  },
  {
    "service_request": "2021-841559",
    "request_type": "Trash/Recycling",
    "request_reason": "Repair Trash Cart",
    "date_created": "2021-11-11T15:06:44.000",
    "date_modified": "2021-11-11T15:06:44.000",
    "request_status": "Pending",
    "responsible_agency": "Department of Sanitation",
    "final_address": "2822 Constance St",
    "address_councildis": "B",
    "status": "Assigned to Contractor",
    "contractor": "Richards Disposal",
    "rowid": "841559",
    "final_x": "3677112.4171",
    "final_y": "520359.569144",
    "longitude": "-90.08230949339432",
    "latitude": "29.92494066608484",
    "geocoded_column": {
      "latitude": "29.92494066608484",
      "longitude": "-90.08230949339432"
    }
  },
  {
    "service_request": "2021-841558",
    "request_type": "Trash/Recycling",
    "request_reason": "Request a Large Item Pick Up",
    "date_created": "2021-11-11T15:04:56.000",
    "date_modified": "2021-11-11T16:01:37.000",
    "request_status": "Pending",
    "responsible_agency": "Department of Sanitation",
    "final_address": "2220 Alabo St",
    "address_councildis": "E",
    "status": "Assigned to Contractor",
    "contractor": "Metro Disposal",
    "rowid": "841558",
    "final_x": "3700037.96394",
    "final_y": "537889.533449",
    "longitude": "-90.00930208042696",
    "latitude": "29.9724337422843",
    "geocoded_column": {
      "latitude": "29.9724337422843",
      "longitude": "-90.00930208042696"
    }
  },
  {
    "service_request": "2021-841557",
    "request_type": "Trash/Recycling",
    "request_reason": "Request a Large Item Pick Up",
    "date_created": "2021-11-11T15:03:06.000",
    "date_modified": "2021-11-11T15:03:07.000",
    "request_status": "Pending",
    "responsible_agency": "Department of Sanitation",
    "final_address": "14545 Beekman Rd",
    "address_councildis": "E",
    "status": "Assigned to Contractor",
    "contractor": "Metro Disposal",
    "rowid": "841557",
    "final_x": "3720954.60876",
    "final_y": "573044.596265",
    "longitude": "-89.94189629738845",
    "latitude": "30.06841492996021",
    "geocoded_column": {
      "latitude": "30.06841492996021",
      "longitude": "-89.94189629738845"
    }
  },
  {
    "service_request": "2021-841555",
    "request_type": "Traffic Signals/Signs/Striping/Streetlights",
    "request_reason": "Street Light Outage/Malfunction",
    "date_created": "2021-11-11T14:55:46.000",
    "date_modified": "2021-11-11T15:01:18.000",
    "request_status": "Pending",
    "responsible_agency": "Department of Public Works",
    "final_address": "ULLOA ST & S PIERCE ST",
    "address_councildis": "B",
    "status": "Pending",
    "contractor": "Royal Engineering",
    "rowid": "841555",
    "final_x": "3670060.1",
    "final_y": "536180.28",
    "longitude": "-90.10403563208168",
    "latitude": "29.968652289020024",
    "geocoded_column": {
      "latitude": "29.968652289020024",
      "longitude": "-90.10403563208168"
    }
  },
  {
    "service_request": "2021-841552",
    "request_type": "Roads/Drainage",
    "request_reason": "Pothole",
    "date_created": "2021-11-11T14:54:49.000",
    "date_modified": "2021-11-11T15:01:23.000",
    "request_status": "Pending",
    "responsible_agency": "Department of Public Works",
    "final_address": "S CLAIBORNE AVE & STATE STREET DR",
    "address_councildis": "A",
    "status": "Pending",
    "rowid": "841552",
    "final_x": "3667195.3",
    "final_y": "527333.58",
    "longitude": "-90.11338031882786",
    "latitude": "29.944410962278894",
    "geocoded_column": {
      "latitude": "29.944410962278894",
      "longitude": "-90.11338031882786"
    }
  },
  {
    "service_request": "2021-841551",
    "request_type": "Safety & Permits",
    "request_reason": "Licenses & Permits",
    "date_created": "2021-11-11T14:50:42.000",
    "date_modified": "2021-11-11T14:50:42.000",
    "request_status": "Pending",
    "responsible_agency": "Safety and Permits",
    "final_address": "1443 N Robertson St",
    "address_councildis": "C",
    "status": "Pending",
    "rowid": "841551",
    "final_x": "3681799.6477",
    "final_y": "536706.416775",
    "longitude": "-90.0669431449797",
    "latitude": "29.969747453286583",
    "geocoded_column": {
      "latitude": "29.969747453286583",
      "longitude": "-90.0669431449797"
    }
  },
  {
    "service_request": "2021-841550",
    "request_type": "COVID-19",
    "request_reason": "COVID-19 Business Non-Compliance",
    "date_created": "2021-11-11T14:46:08.000",
    "date_modified": "2021-11-11T14:46:09.000",
    "request_status": "Pending",
    "responsible_agency": "Safety and Permits",
    "final_address": "135 Decatur St",
    "address_councildis": "C",
    "status": "Pending",
    "rowid": "841550",
    "final_x": "3681982.18421",
    "final_y": "530506.07277",
    "longitude": "-90.06658315324611",
    "latitude": "29.952693077508215",
    "geocoded_column": {
      "latitude": "29.952693077508215",
      "longitude": "-90.06658315324611"
    }
  },
  {
    "service_request": "2021-841549",
    "request_type": "Parks & Parkways",
    "request_reason": "Request Tree Service (Right of Way/Public Property)",
    "date_created": "2021-11-11T14:46:06.000",
    "date_modified": "2021-11-11T15:01:24.000",
    "request_status": "Pending",
    "responsible_agency": "Department of Parks & Parkway",
    "final_address": "2617 Palmer Ave",
    "address_councildis": "A",
    "status": "Pending",
    "rowid": "841549",
    "final_x": "3666690.10778",
    "final_y": "526324.190398",
    "longitude": "-90.11500924810383",
    "latitude": "29.941650246035806",
    "geocoded_column": {
      "latitude": "29.941650246035806",
      "longitude": "-90.11500924810383"
    }
  },
  {
    "service_request": "2021-841548",
    "request_type": "Parks & Parkways",
    "request_reason": "Request Tree Service (Right of Way/Public Property)",
    "date_created": "2021-11-11T14:45:43.000",
    "date_modified": "2021-11-11T15:01:32.000",
    "request_status": "Pending",
    "responsible_agency": "Department of Parks & Parkway",
    "final_address": "1115 Henry Clay Ave",
    "address_councildis": "A",
    "status": "Pending",
    "rowid": "841548",
    "final_x": "3664273.784",
    "final_y": "520622.110584",
    "longitude": "-90.1228282901096",
    "latitude": "29.926041756281645",
    "geocoded_column": {
      "latitude": "29.926041756281645",
      "longitude": "-90.1228282901096"
    }
  },
  {
    "service_request": "2021-841547",
    "request_type": "Parks & Parkways",
    "request_reason": "Request Tree Service (Right of Way/Public Property)",
    "date_created": "2021-11-11T14:43:04.000",
    "date_modified": "2021-11-11T15:01:34.000",
    "request_status": "Pending",
    "responsible_agency": "Department of Parks & Parkway",
    "final_address": "1522 S Carrollton Ave",
    "address_councildis": "A",
    "status": "Pending",
    "rowid": "841547",
    "final_x": "3662781.59392",
    "final_y": "529299.285953",
    "longitude": "-90.12725040707089",
    "latitude": "29.949944497415828",
    "geocoded_column": {
      "latitude": "29.949944497415828",
      "longitude": "-90.12725040707089"
    }
  },
  {
    "service_request": "2021-841546",
    "request_type": "Trash/Recycling",
    "request_reason": "Missed Trash Pick-Up",
    "date_created": "2021-11-11T14:42:03.000",
    "date_modified": "2021-11-11T15:01:37.000",
    "request_status": "Pending",
    "responsible_agency": "Department of Sanitation",
    "final_address": "624 Saint James St, New Orleans, Louisiana, 70130",
    "status": "Assigned to Contractor",
    "rowid": "841546",
    "longitude": "0.0",
    "latitude": "0.0",
    "geocoded_column": {
      "latitude": "0.0",
      "longitude": "0.0"
    }
  },
  {
    "service_request": "2021-841545",
    "request_type": "Safety & Permits",
    "request_reason": "Licenses & Permits",
    "date_created": "2021-11-11T14:41:42.000",
    "date_modified": "2021-11-11T14:41:42.000",
    "request_status": "Pending",
    "responsible_agency": "Safety and Permits",
    "final_address": "1561 N Prieur St",
    "address_councildis": "D",
    "status": "Pending",
    "rowid": "841545",
    "final_x": "3681127.32085",
    "final_y": "538280.073481",
    "longitude": "-90.06901157676101",
    "latitude": "29.97409488049767",
    "geocoded_column": {
      "latitude": "29.97409488049767",
      "longitude": "-90.06901157676101"
    }
  },
  {
    "service_request": "2021-841544",
    "request_type": "Trash/Recycling",
    "request_reason": "Dead Animal Pick Up",
    "date_created": "2021-11-11T14:40:59.000",
    "date_modified": "2021-11-11T14:40:59.000",
    "request_status": "Pending",
    "responsible_agency": "Department of Sanitation",
    "final_address": "7702 Dorsett Dr",
    "address_councildis": "E",
    "status": "Assigned to Contractor",
    "contractor": "Metro Disposal",
    "rowid": "841544",
    "final_x": "3712632.20146",
    "final_y": "567613.909412",
    "longitude": "-89.9684094539456",
    "latitude": "30.05375802919173",
    "geocoded_column": {
      "latitude": "30.05375802919173",
      "longitude": "-89.9684094539456"
    }
  },
  {
    "service_request": "2021-841543",
    "request_type": "Tax and Revenue",
    "request_reason": "Hotel/Motel",
    "date_created": "2021-11-11T14:40:53.000",
    "date_modified": "2021-11-11T15:30:58.000",
    "request_status": "Pending",
    "responsible_agency": "Bureau of Revenue",
    "final_address": "New Orleans,LA",
    "rowid": "841543",
    "longitude": "0.0",
    "latitude": "0.0",
    "geocoded_column": {
      "latitude": "0.0",
      "longitude": "0.0"
    }
  },
  {
    "service_request": "2021-841541",
    "request_type": "Trash/Recycling",
    "request_reason": "Replace Trash Cart",
    "date_created": "2021-11-11T14:38:16.000",
    "date_modified": "2021-11-11T14:38:46.000",
    "request_status": "Pending",
    "responsible_agency": "Department of Sanitation",
    "final_address": "321 Seattle St",
    "address_councildis": "A",
    "status": "Assigned to Contractor",
    "contractor": "Metro Disposal",
    "rowid": "841541",
    "final_x": "3665174.5282",
    "final_y": "552203.605142",
    "longitude": "-90.11892830044211",
    "latitude": "30.012854204701316",
    "geocoded_column": {
      "latitude": "30.012854204701316",
      "longitude": "-90.11892830044211"
    }
  },
  {
    "service_request": "2021-841539",
    "request_type": "Mosquito, Termite & Rodent Control",
    "request_reason": "Rodent Complaint (Rats)",
    "date_created": "2021-11-11T14:34:44.000",
    "date_modified": "2021-11-11T15:01:43.000",
    "request_status": "Pending",
    "responsible_agency": "Mosquito, Termite & Rodent Control Board",
    "final_address": "1022 Harmony St",
    "address_councildis": "B",
    "status": "Pending",
    "rowid": "841539",
    "final_x": "3675834.44718",
    "final_y": "519803.696312",
    "longitude": "-90.08636272693018",
    "latitude": "29.923450499098557",
    "geocoded_column": {
      "latitude": "29.923450499098557",
      "longitude": "-90.08636272693018"
    }
  },
  {
    "service_request": "2021-841538",
    "request_type": "Trash/Recycling",
    "request_reason": "Replace Trash Cart",
    "date_created": "2021-11-11T14:32:14.000",
    "date_modified": "2021-11-11T15:01:47.000",
    "request_status": "Pending",
    "responsible_agency": "Department of Sanitation",
    "final_address": "1022 Harmony St",
    "address_councildis": "B",
    "status": "Assigned to Contractor",
    "contractor": "Richards Disposal",
    "rowid": "841538",
    "final_x": "3675834.44718",
    "final_y": "519803.696312",
    "longitude": "-90.08636272693018",
    "latitude": "29.923450499098557",
    "geocoded_column": {
      "latitude": "29.923450499098557",
      "longitude": "-90.08636272693018"
    }
  },
  {
    "service_request": "2021-841537",
    "request_type": "Trash/Recycling",
    "request_reason": "Missed Trash Pick-Up",
    "date_created": "2021-11-11T14:28:49.000",
    "date_modified": "2021-11-11T15:01:49.000",
    "request_status": "Pending",
    "responsible_agency": "Department of Sanitation",
    "final_address": "622 Saint James St, New Orleans, Louisiana, 70130",
    "address_councildis": "B",
    "status": "Assigned to Contractor",
    "rowid": "841537",
    "final_x": "3681517.14869",
    "final_y": "521958.707578",
    "longitude": "-90.06834947573664",
    "latitude": "29.929204802901964",
    "geocoded_column": {
      "latitude": "29.929204802901964",
      "longitude": "-90.06834947573664"
    }
  },
  {
    "service_request": "2021-841536",
    "request_type": "Traffic Signals/Signs/Striping/Streetlights",
    "request_reason": "Traffic Signal Malfunctioning/Damaged",
    "date_created": "2021-11-11T14:27:13.000",
    "date_modified": "2021-11-11T14:27:13.000",
    "request_status": "Pending",
    "responsible_agency": "Department of Public Works",
    "final_address": "ST CHARLES AVE & STATE ST",
    "address_councildis": "A",
    "status": "Pending",
    "rowid": "841536",
    "final_x": "3665749.4",
    "final_y": "522436.58",
    "longitude": "-90.11810943646248",
    "latitude": "29.930988026619243",
    "geocoded_column": {
      "latitude": "29.930988026619243",
      "longitude": "-90.11810943646248"
    }
  },
  {
    "service_request": "2021-841535",
    "request_type": "Abandoned Vehicles",
    "request_reason": "Abandoned/Junk Vehicles",
    "date_created": "2021-11-11T14:26:19.000",
    "date_modified": "2021-11-11T14:26:19.000",
    "request_status": "Pending",
    "responsible_agency": "Department of Public Works",
    "final_address": "CHIPPEWA ST & 8TH ST",
    "address_councildis": "B",
    "status": "Pending",
    "rowid": "841535",
    "final_x": "3676949.3",
    "final_y": "518956.78",
    "longitude": "-90.0828727257278",
    "latitude": "29.921088345356534",
    "geocoded_column": {
      "latitude": "29.921088345356534",
      "longitude": "-90.0828727257278"
    }
  },
  {
    "service_request": "2021-841533",
    "request_type": "Abandoned Vehicles",
    "request_reason": "Abandoned/Junk Vehicles",
    "date_created": "2021-11-11T14:24:44.000",
    "date_modified": "2021-11-11T14:24:44.000",
    "request_status": "Pending",
    "responsible_agency": "Department of Public Works",
    "final_address": "1810 Third St",
    "address_councildis": "B",
    "status": "Pending",
    "rowid": "841533",
    "final_x": "3675949.94075",
    "final_y": "523562.478587",
    "longitude": "-90.08586898273332",
    "latitude": "29.933782474227943",
    "geocoded_column": {
      "latitude": "29.933782474227943",
      "longitude": "-90.08586898273332"
    }
  },
  {
    "service_request": "2021-841531",
    "request_type": "Traffic Signals/Signs/Striping/Streetlights",
    "request_reason": "Street Light Outage/Malfunction",
    "date_created": "2021-11-11T14:19:35.000",
    "date_modified": "2021-11-11T14:19:35.000",
    "request_status": "Pending",
    "responsible_agency": "Department of Public Works",
    "final_address": "6023 Congress Dr",
    "address_councildis": "D",
    "status": "Pending",
    "contractor": "Royal Engineering",
    "rowid": "841531",
    "final_x": "3690867.32355",
    "final_y": "556059.259033",
    "longitude": "-90.03761558187274",
    "latitude": "30.022682060903612",
    "geocoded_column": {
      "latitude": "30.022682060903612",
      "longitude": "-90.03761558187274"
    }
  },
  {
    "service_request": "2021-841528",
    "request_type": "Roads/Drainage",
    "request_reason": "Pothole",
    "date_created": "2021-11-11T14:15:50.000",
    "date_modified": "2021-11-11T14:15:50.000",
    "request_status": "Pending",
    "responsible_agency": "Department of Public Works",
    "final_address": "95 French Market Pl",
    "address_councildis": "C",
    "status": "Pending",
    "rowid": "841528",
    "final_x": "3684576.1485",
    "final_y": "533598.870021",
    "longitude": "-90.05828392289887",
    "latitude": "29.961118105141022",
    "geocoded_column": {
      "latitude": "29.961118105141022",
      "longitude": "-90.05828392289887"
    }
  },
  {
    "service_request": "2021-841527",
    "request_type": "Trash/Recycling",
    "request_reason": "Order Trash Cart",
    "date_created": "2021-11-11T14:14:54.000",
    "date_modified": "2021-11-11T15:01:59.000",
    "request_status": "Pending",
    "responsible_agency": "Department of Sanitation",
    "final_address": "6400 Wales St",
    "address_councildis": "E",
    "status": "Assigned to Contractor",
    "contractor": "Metro Disposal",
    "rowid": "841527",
    "final_x": "3696407.84189",
    "final_y": "559848.214301",
    "longitude": "-90.01997170192413",
    "latitude": "30.03292680734196",
    "geocoded_column": {
      "latitude": "30.03292680734196",
      "longitude": "-90.01997170192413"
    }
  },
  {
    "service_request": "2021-841526",
    "request_type": "Abandoned Vehicles",
    "request_reason": "Abandoned/Junk Vehicles",
    "date_created": "2021-11-11T14:13:02.000",
    "date_modified": "2021-11-11T14:13:02.000",
    "request_status": "Pending",
    "responsible_agency": "Department of Public Works",
    "final_address": "2300 BLK S Robertson St",
    "address_councildis": "B",
    "status": "Pending",
    "rowid": "841526",
    "final_x": "3675051.04127",
    "final_y": "526296.174229",
    "longitude": "-90.08861302080822",
    "latitude": "29.941326121630016",
    "geocoded_column": {
      "latitude": "29.941326121630016",
      "longitude": "-90.08861302080822"
    }
  },
  {
    "service_request": "2021-841523",
    "request_type": "Trash/Recycling",
    "request_reason": "Repair Trash Cart",
    "date_created": "2021-11-11T14:06:58.000",
    "date_modified": "2021-11-11T14:06:59.000",
    "request_status": "Pending",
    "responsible_agency": "Department of Sanitation",
    "final_address": "7437 Garfield St",
    "address_councildis": "A",
    "status": "Assigned to Contractor",
    "contractor": "Richards Disposal",
    "rowid": "841523",
    "final_x": "3661382.12128",
    "final_y": "523911.462844",
    "longitude": "-90.13184759563414",
    "latitude": "29.935170125925683",
    "geocoded_column": {
      "latitude": "29.935170125925683",
      "longitude": "-90.13184759563414"
    }
  },
  {
    "service_request": "2021-841522",
    "request_type": "Trash/Recycling",
    "request_reason": "Repair Trash Cart",
    "date_created": "2021-11-11T14:05:35.000",
    "date_modified": "2021-11-11T14:06:29.000",
    "request_status": "Pending",
    "responsible_agency": "Department of Sanitation",
    "final_address": "2831 Prytania St",
    "address_councildis": "B",
    "status": "Assigned to Contractor",
    "contractor": "Richards Disposal",
    "rowid": "841522",
    "final_x": "3675822.25518",
    "final_y": "521893.302138",
    "longitude": "-90.08632942794924",
    "latitude": "29.92919660385904",
    "geocoded_column": {
      "latitude": "29.92919660385904",
      "longitude": "-90.08632942794924"
    }
  },
  {
    "service_request": "2021-841521",
    "request_type": "Mosquito, Termite & Rodent Control",
    "request_reason": "Rodent Complaint (Rats)",
    "date_created": "2021-11-11T14:02:42.000",
    "date_modified": "2021-11-11T15:02:07.000",
    "request_status": "Pending",
    "responsible_agency": "Mosquito, Termite & Rodent Control Board",
    "final_address": "611 Esplanade Ave",
    "address_councildis": "C",
    "status": "Pending",
    "rowid": "841521",
    "final_x": "3684293.73589",
    "final_y": "534298.427781",
    "longitude": "-90.05915116402679",
    "latitude": "29.96305028636645",
    "geocoded_column": {
      "latitude": "29.96305028636645",
      "longitude": "-90.05915116402679"
    }
  },
  {
    "service_request": "2021-841520",
    "request_type": "Traffic Signals/Signs/Striping/Streetlights",
    "request_reason": "Traffic Signal Malfunctioning/Damaged",
    "date_created": "2021-11-11T14:02:29.000",
    "date_modified": "2021-11-11T15:02:11.000",
    "request_status": "Pending",
    "responsible_agency": "Department of Public Works",
    "final_address": "10219 Seawood St",
    "address_councildis": "E",
    "status": "Pending",
    "rowid": "841520",
    "final_x": "3713182.46878",
    "final_y": "557509.868827",
    "longitude": "-89.96705101690144",
    "latitude": "30.02595794519987",
    "geocoded_column": {
      "latitude": "30.02595794519987",
      "longitude": "-89.96705101690144"
    }
  },
  {
    "service_request": "2021-841519",
    "request_type": "Trash/Recycling",
    "request_reason": "Order Trash Cart",
    "date_created": "2021-11-11T14:00:42.000",
    "date_modified": "2021-11-11T14:00:44.000",
    "request_status": "Pending",
    "responsible_agency": "Department of Sanitation",
    "final_address": "1478 Mirabeau Ave",
    "address_councildis": "D",
    "status": "Assigned to Contractor",
    "contractor": "Metro Disposal",
    "rowid": "841519",
    "final_x": "3678350.46453",
    "final_y": "550152.418836",
    "longitude": "-90.07737053409649",
    "latitude": "30.006823626759417",
    "geocoded_column": {
      "latitude": "30.006823626759417",
      "longitude": "-90.07737053409649"
    }
  },
  {
    "service_request": "2021-841517",
    "request_type": "Property Maintenance",
    "request_reason": "Property Maintenance",
    "date_created": "2021-11-11T13:54:49.000",
    "date_modified": "2021-11-11T13:54:50.000",
    "request_status": "Pending",
    "responsible_agency": "Department of Code Enforcement",
    "final_address": "13100 Laval St",
    "address_councildis": "E",
    "status": "Pending",
    "rowid": "841517",
    "final_x": "3724060.1287",
    "final_y": "562404.439135",
    "longitude": "-89.93249042779007",
    "latitude": "30.03905489207007",
    "geocoded_column": {
      "latitude": "30.03905489207007",
      "longitude": "-89.93249042779007"
    }
  },
  {
    "service_request": "2021-841515",
    "request_type": "Property Maintenance",
    "request_reason": "Property Maintenance",
    "date_created": "2021-11-11T13:47:12.000",
    "date_modified": "2021-11-11T13:47:12.000",
    "request_status": "Pending",
    "responsible_agency": "Department of Code Enforcement",
    "final_address": "1629 St Roch Ave",
    "address_councildis": "D",
    "status": "Pending",
    "rowid": "841515",
    "final_x": "3686401.09929",
    "final_y": "538529.258057",
    "longitude": "-90.05234701787293",
    "latitude": "29.974618991844004",
    "geocoded_column": {
      "latitude": "29.974618991844004",
      "longitude": "-90.05234701787293"
    }
  },
  {
    "service_request": "2021-841514",
    "request_type": "Trash/Recycling",
    "request_reason": "Order Recycling Cart",
    "date_created": "2021-11-11T13:46:14.000",
    "date_modified": "2021-11-11T13:46:14.000",
    "request_status": "Pending",
    "responsible_agency": "Department of Sanitation",
    "final_address": "2324 Second St",
    "address_councildis": "B",
    "status": "Pending",
    "rowid": "841514",
    "final_x": "3675183.18376",
    "final_y": "525274.784893",
    "longitude": "-90.08823086188724",
    "latitude": "29.938513688249547",
    "geocoded_column": {
      "latitude": "29.938513688249547",
      "longitude": "-90.08823086188724"
    }
  },
  {
    "service_request": "2021-841513",
    "request_type": "Trash/Recycling",
    "request_reason": "Order Trash Cart",
    "date_created": "2021-11-11T13:41:38.000",
    "date_modified": "2021-11-11T14:01:56.000",
    "request_status": "Pending",
    "responsible_agency": "Department of Sanitation",
    "final_address": "5525 Wickfield Dr",
    "address_councildis": "D",
    "status": "Assigned to Contractor",
    "contractor": "Metro Disposal",
    "rowid": "841513",
    "final_x": "3681157.84821",
    "final_y": "553533.398359",
    "longitude": "-90.06838335361276",
    "latitude": "30.01603518763719",
    "geocoded_column": {
      "latitude": "30.01603518763719",
      "longitude": "-90.06838335361276"
    }
  },
  {
    "service_request": "2021-841512",
    "request_type": "Roads/Drainage",
    "request_reason": "Catch Basin - Broken/Damage",
    "date_created": "2021-11-11T13:41:12.000",
    "date_modified": "2021-11-11T14:01:58.000",
    "request_status": "Pending",
    "responsible_agency": "Department of Public Works",
    "final_address": "1973 Murl St",
    "address_councildis": "C",
    "status": "Pending",
    "rowid": "841512",
    "final_x": "3695210.60637",
    "final_y": "523335.069243",
    "longitude": "-90.02507246034243",
    "latitude": "29.932566549557805",
    "geocoded_column": {
      "latitude": "29.932566549557805",
      "longitude": "-90.02507246034243"
    }
  },
  {
    "service_request": "2021-841511",
    "request_type": "Trash/Recycling",
    "request_reason": "Replace Trash Cart",
    "date_created": "2021-11-11T13:39:05.000",
    "date_modified": "2021-11-11T13:39:06.000",
    "request_status": "Pending",
    "responsible_agency": "Department of Sanitation",
    "final_address": "3605 S Saratoga St",
    "address_councildis": "B",
    "status": "Assigned to Contractor",
    "contractor": "Richards Disposal",
    "rowid": "841511",
    "final_x": "3672832.19022",
    "final_y": "522977.885243",
    "longitude": "-90.09573152683105",
    "latitude": "29.932267994544883",
    "geocoded_column": {
      "latitude": "29.932267994544883",
      "longitude": "-90.09573152683105"
    }
  },
  {
    "service_request": "2021-841510",
    "request_type": "Traffic Signals/Signs/Striping/Streetlights",
    "request_reason": "Street Light Outage/Malfunction",
    "date_created": "2021-11-11T13:37:53.000",
    "date_modified": "2021-11-11T13:37:53.000",
    "request_status": "Pending",
    "responsible_agency": "Department of Public Works",
    "final_address": "1619 General Pershing St",
    "address_councildis": "B",
    "status": "Pending",
    "contractor": "Royal Engineering",
    "rowid": "841510",
    "final_x": "3671329.86305",
    "final_y": "521103.217209",
    "longitude": "-90.10053791505965",
    "latitude": "29.92715779111032",
    "geocoded_column": {
      "latitude": "29.92715779111032",
      "longitude": "-90.10053791505965"
    }
  },
  {
    "service_request": "2021-841509",
    "request_type": "Traffic Signals/Signs/Striping/Streetlights",
    "request_reason": "Street Light Outage/Malfunction",
    "date_created": "2021-11-11T13:36:31.000",
    "date_modified": "2021-11-11T14:02:00.000",
    "request_status": "Pending",
    "responsible_agency": "Department of Public Works",
    "final_address": "500 Baronne St",
    "address_councildis": "B",
    "status": "Pending",
    "contractor": "Royal Engineering",
    "rowid": "841509",
    "final_x": "3679945.20379",
    "final_y": "529427.600577",
    "longitude": "-90.07305247622469",
    "latitude": "29.94978940465265",
    "geocoded_column": {
      "latitude": "29.94978940465265",
      "longitude": "-90.07305247622469"
    }
  },
  {
    "service_request": "2021-841508",
    "request_type": "Trash/Recycling",
    "request_reason": "Repair Trash Cart",
    "date_created": "2021-11-11T13:35:47.000",
    "date_modified": "2021-11-11T14:02:02.000",
    "request_status": "Pending",
    "responsible_agency": "Department of Sanitation",
    "final_address": "522 Joseph St",
    "address_councildis": "A",
    "status": "Assigned to Contractor",
    "contractor": "Richards Disposal",
    "rowid": "841508",
    "final_x": "3665876.97274",
    "final_y": "518063.89183",
    "longitude": "-90.11785313455157",
    "latitude": "29.918960790557875",
    "geocoded_column": {
      "latitude": "29.918960790557875",
      "longitude": "-90.11785313455157"
    }
  },
  {
    "service_request": "2021-841507",
    "request_type": "Mayor's Request",
    "request_reason": "Requests to the Mayor",
    "date_created": "2021-11-11T13:34:38.000",
    "date_modified": "2021-11-11T13:34:38.000",
    "request_status": "Pending",
    "responsible_agency": "Executive Office of the Mayor",
    "status": "Pending",
    "rowid": "841507",
    "longitude": "0.0",
    "latitude": "0.0",
    "geocoded_column": {
      "latitude": "0.0",
      "longitude": "0.0"
    }
  },
  {
    "service_request": "2021-841505",
    "request_type": "Trash/Recycling",
    "request_reason": "Request a Large Item Pick Up",
    "date_created": "2021-11-11T13:30:48.000",
    "date_modified": "2021-11-11T13:30:49.000",
    "request_status": "Pending",
    "responsible_agency": "Department of Sanitation",
    "final_address": "1462 Mithra St",
    "address_councildis": "D",
    "status": "Assigned to Contractor",
    "contractor": "Metro Disposal",
    "rowid": "841505",
    "final_x": "3678009.07374",
    "final_y": "552040.541718",
    "longitude": "-90.07838374751596",
    "latitude": "30.012025573374146",
    "geocoded_column": {
      "latitude": "30.012025573374146",
      "longitude": "-90.07838374751596"
    }
  },
  {
    "service_request": "2021-841504",
    "request_type": "Traffic Signals/Signs/Striping/Streetlights",
    "request_reason": "Street Light Outage/Malfunction",
    "date_created": "2021-11-11T13:28:23.000",
    "date_modified": "2021-11-11T14:02:07.000",
    "request_status": "Pending",
    "responsible_agency": "Department of Public Works",
    "final_address": "5152 Forest Park Ln",
    "address_councildis": "C",
    "status": "Pending",
    "contractor": "Royal Engineering",
    "rowid": "841504",
    "final_x": "3703397.9891",
    "final_y": "510764.691695",
    "longitude": "-89.99968766300267",
    "latitude": "29.89774274853978",
    "geocoded_column": {
      "latitude": "29.89774274853978",
      "longitude": "-89.99968766300267"
    }
  },
  {
    "service_request": "2021-841503",
    "request_type": "Trash/Recycling",
    "request_reason": "Request a Large Item Pick Up",
    "date_created": "2021-11-11T13:25:44.000",
    "date_modified": "2021-11-11T13:25:45.000",
    "request_status": "Pending",
    "responsible_agency": "Department of Sanitation",
    "final_address": "2114 Lowerline St",
    "address_councildis": "A",
    "status": "Assigned to Contractor",
    "contractor": "Richards Disposal",
    "rowid": "841503",
    "final_x": "3665477.70938",
    "final_y": "529657.266689",
    "longitude": "-90.11872550262122",
    "latitude": "29.950850521218268",
    "geocoded_column": {
      "latitude": "29.950850521218268",
      "longitude": "-90.11872550262122"
    }
  },
  {
    "service_request": "2021-841502",
    "request_type": "Trash/Recycling",
    "request_reason": "Request a Large Item Pick Up",
    "date_created": "2021-11-11T13:25:41.000",
    "date_modified": "2021-11-11T14:02:08.000",
    "request_status": "Pending",
    "responsible_agency": "Department of Sanitation",
    "final_address": "4911 Laurel St, New Orleans, Louisiana, 70115",
    "address_councildis": "B",
    "status": "Assigned to Contractor",
    "contractor": "Richards Disposal",
    "rowid": "841502",
    "final_x": "3668859.88481",
    "final_y": "517875.42303",
    "longitude": "-90.1084439496831",
    "latitude": "29.91835521835189",
    "geocoded_column": {
      "latitude": "29.91835521835189",
      "longitude": "-90.1084439496831"
    }
  },
  {
    "service_request": "2021-841500",
    "request_type": "Trash/Recycling",
    "request_reason": "Missed Trash Pick-Up",
    "date_created": "2021-11-11T13:22:56.000",
    "date_modified": "2021-11-11T14:02:12.000",
    "request_status": "Pending",
    "responsible_agency": "Department of Sanitation",
    "final_address": "8322 Hammond St",
    "address_councildis": "E",
    "status": "Assigned to Contractor",
    "contractor": "Metro Disposal",
    "rowid": "841500",
    "final_x": "3705880.02276",
    "final_y": "555681.915033",
    "longitude": "-89.9901933183389",
    "latitude": "30.02116917892739",
    "geocoded_column": {
      "latitude": "30.02116917892739",
      "longitude": "-89.9901933183389"
    }
  },
  {
    "service_request": "2021-841499",
    "request_type": "Trash/Recycling",
    "request_reason": "Dead Animal Pick Up",
    "date_created": "2021-11-11T13:21:14.000",
    "date_modified": "2021-11-11T14:02:13.000",
    "request_status": "Pending",
    "responsible_agency": "Department of Sanitation",
    "final_address": "2115 Sere St",
    "address_councildis": "D",
    "status": "Assigned to Contractor",
    "contractor": "Metro Disposal",
    "rowid": "841499",
    "final_x": "3683566.92847",
    "final_y": "545909.704656",
    "longitude": "-90.06103919556384",
    "latitude": "29.994999435715638",
    "geocoded_column": {
      "latitude": "29.994999435715638",
      "longitude": "-90.06103919556384"
    }
  },
  {
    "service_request": "2021-841497",
    "request_type": "Trash/Recycling",
    "request_reason": "Request a Large Item Pick Up",
    "date_created": "2021-11-11T13:11:47.000",
    "date_modified": "2021-11-11T13:11:47.000",
    "request_status": "Pending",
    "responsible_agency": "Department of Sanitation",
    "final_address": "2313 Montpelier St",
    "address_councildis": "D",
    "status": "Assigned to Contractor",
    "contractor": "Metro Disposal",
    "rowid": "841497",
    "final_x": "3684867.73045",
    "final_y": "546365.887312",
    "longitude": "-90.05691405936759",
    "latitude": "29.996213995893097",
    "geocoded_column": {
      "latitude": "29.996213995893097",
      "longitude": "-90.05691405936759"
    }
  },
  {
    "service_request": "2021-841496",
    "request_type": "Trash/Recycling",
    "request_reason": "Replace Trash Cart",
    "date_created": "2021-11-11T13:11:36.000",
    "date_modified": "2021-11-11T14:02:16.000",
    "request_status": "Pending",
    "responsible_agency": "Department of Sanitation",
    "final_address": "4858 Lurline St",
    "address_councildis": "E",
    "status": "Assigned to Contractor",
    "contractor": "Metro Disposal",
    "rowid": "841496",
    "final_x": "3711830.14827",
    "final_y": "556797.055706",
    "longitude": "-89.9713509039169",
    "latitude": "30.024042258033674",
    "geocoded_column": {
      "latitude": "30.024042258033674",
      "longitude": "-89.9713509039169"
    }
  },
  {
    "service_request": "2021-841495",
    "request_type": "Trash/Recycling",
    "request_reason": "Repair Recycling Cart",
    "date_created": "2021-11-11T13:09:31.000",
    "date_modified": "2021-11-11T13:09:31.000",
    "request_status": "Pending",
    "responsible_agency": "Department of Sanitation",
    "final_address": "345 Broadway St",
    "address_councildis": "A",
    "status": "Pending",
    "rowid": "841495",
    "final_x": "3661802.82451",
    "final_y": "522852.871675",
    "longitude": "-90.13055451041429",
    "latitude": "29.932247197068136",
    "geocoded_column": {
      "latitude": "29.932247197068136",
      "longitude": "-90.13055451041429"
    }
  },
  {
    "service_request": "2021-841493",
    "request_type": "Trash/Recycling",
    "request_reason": "Replace Trash Cart",
    "date_created": "2021-11-11T13:07:49.000",
    "date_modified": "2021-11-11T13:07:49.000",
    "request_status": "Pending",
    "responsible_agency": "Department of Sanitation",
    "final_address": "2414 Jasmine St",
    "address_councildis": "D",
    "status": "Assigned to Contractor",
    "contractor": "Metro Disposal",
    "rowid": "841493",
    "final_x": "3685715.10671",
    "final_y": "547947.321234",
    "longitude": "-90.0541814949788",
    "latitude": "30.00053638784849",
    "geocoded_column": {
      "latitude": "30.00053638784849",
      "longitude": "-90.0541814949788"
    }
  },
  {
    "service_request": "2021-841492",
    "request_type": "Traffic Signals/Signs/Striping/Streetlights",
    "request_reason": "Street Light Outage/Malfunction",
    "date_created": "2021-11-11T13:07:39.000",
    "date_modified": "2021-11-11T13:07:39.000",
    "request_status": "Pending",
    "responsible_agency": "Department of Public Works",
    "final_address": "6338 Catina St",
    "address_councildis": "A",
    "status": "Pending",
    "contractor": "Royal Engineering",
    "rowid": "841492",
    "final_x": "3666835.5401",
    "final_y": "549793.758164",
    "longitude": "-90.11376142470617",
    "latitude": "30.006179457020018",
    "geocoded_column": {
      "latitude": "30.006179457020018",
      "longitude": "-90.11376142470617"
    }
  },
  {
    "service_request": "2021-841491",
    "request_type": "Trash/Recycling",
    "request_reason": "Replace Trash Cart",
    "date_created": "2021-11-11T13:06:05.000",
    "date_modified": "2021-11-11T13:06:06.000",
    "request_status": "Pending",
    "responsible_agency": "Department of Sanitation",
    "final_address": "1372 Camp St",
    "address_councildis": "B",
    "status": "Assigned to Contractor",
    "contractor": "Richards Disposal",
    "rowid": "841491",
    "final_x": "3680046.62466",
    "final_y": "524742.772412",
    "longitude": "-90.072894959501",
    "latitude": "29.936904620907",
    "geocoded_column": {
      "latitude": "29.936904620907",
      "longitude": "-90.072894959501"
    }
  },
  {
    "service_request": "2021-841490",
    "request_type": "Parks & Parkways",
    "request_reason": "Request Tree Service (Right of Way/Public Property)",
    "date_created": "2021-11-11T13:05:49.000",
    "date_modified": "2021-11-11T13:05:49.000",
    "request_status": "Pending",
    "responsible_agency": "Department of Parks & Parkway",
    "final_address": "1524 Toledano St",
    "address_councildis": "B",
    "status": "Pending",
    "rowid": "841490",
    "final_x": "3674642.08776",
    "final_y": "521393.229689",
    "longitude": "-90.0900721235153",
    "latitude": "29.927856829328302",
    "geocoded_column": {
      "latitude": "29.927856829328302",
      "longitude": "-90.0900721235153"
    }
  },
  {
    "service_request": "2021-841489",
    "request_type": "Traffic Signals/Signs/Striping/Streetlights",
    "request_reason": "Street Light Outage/Malfunction",
    "date_created": "2021-11-11T13:05:09.000",
    "date_modified": "2021-11-11T13:05:09.000",
    "request_status": "Pending",
    "responsible_agency": "Department of Public Works",
    "final_address": "5648 Rosemary Pl",
    "address_councildis": "A",
    "status": "Pending",
    "contractor": "Royal Engineering",
    "rowid": "841489",
    "final_x": "3667097.57101",
    "final_y": "545062.961167",
    "longitude": "-90.1130927640143",
    "latitude": "29.993163726223155",
    "geocoded_column": {
      "latitude": "29.993163726223155",
      "longitude": "-90.1130927640143"
    }
  },
  {
    "service_request": "2021-841488",
    "request_type": "Traffic Signals/Signs/Striping/Streetlights",
    "request_reason": "Street Light Outage/Malfunction",
    "date_created": "2021-11-11T13:04:39.000",
    "date_modified": "2021-11-11T13:04:40.000",
    "request_status": "Pending",
    "responsible_agency": "Department of Public Works",
    "final_address": "5648 Rosemary Pl",
    "address_councildis": "A",
    "status": "Pending",
    "contractor": "Royal Engineering",
    "rowid": "841488",
    "final_x": "3667097.57101",
    "final_y": "545062.961167",
    "longitude": "-90.1130927640143",
    "latitude": "29.993163726223155",
    "geocoded_column": {
      "latitude": "29.993163726223155",
      "longitude": "-90.1130927640143"
    }
  },
  {
    "service_request": "2021-841485",
    "request_type": "Trash/Recycling",
    "request_reason": "Request a Large Item Pick Up",
    "date_created": "2021-11-11T12:56:30.000",
    "date_modified": "2021-11-11T12:56:31.000",
    "request_status": "Pending",
    "responsible_agency": "Department of Sanitation",
    "final_address": "110 Atlantic Ave",
    "address_councildis": "C",
    "status": "Assigned to Contractor",
    "contractor": "Richards Disposal",
    "rowid": "841485",
    "final_x": "3688909.84105",
    "final_y": "531179.014722",
    "longitude": "-90.04468489012203",
    "latitude": "29.954331030327577",
    "geocoded_column": {
      "latitude": "29.954331030327577",
      "longitude": "-90.04468489012203"
    }
  },
  {
    "service_request": "2021-841483",
    "request_type": "Trash/Recycling",
    "request_reason": "Missed Trash Pick-Up",
    "date_created": "2021-11-11T12:53:25.000",
    "date_modified": "2021-11-11T13:01:27.000",
    "request_status": "Pending",
    "responsible_agency": "Department of Sanitation",
    "final_address": "2734 Republic St",
    "address_councildis": "D",
    "status": "Assigned to Contractor",
    "contractor": "Metro Disposal",
    "rowid": "841483",
    "final_x": "3680667.33896",
    "final_y": "542587.722509",
    "longitude": "-90.07031434605567",
    "latitude": "29.985953363771635",
    "geocoded_column": {
      "latitude": "29.985953363771635",
      "longitude": "-90.07031434605567"
    }
  },
  {
    "service_request": "2021-841482",
    "request_type": "Trash/Recycling",
    "request_reason": "Missed Trash Pick-Up",
    "date_created": "2021-11-11T12:51:59.000",
    "date_modified": "2021-11-11T12:53:26.000",
    "request_status": "Pending",
    "responsible_agency": "Department of Sanitation",
    "final_address": "3566 Mimosa Ct",
    "address_councildis": "C",
    "status": "Assigned to Contractor",
    "contractor": "Richards Disposal",
    "rowid": "841482",
    "final_x": "3703274.58878",
    "final_y": "513089.290033",
    "longitude": "-89.99999172435552",
    "latitude": "29.904138556638376",
    "geocoded_column": {
      "latitude": "29.904138556638376",
      "longitude": "-89.99999172435552"
    }
  },
  {
    "service_request": "2021-841481",
    "request_type": "Traffic Signals/Signs/Striping/Streetlights",
    "request_reason": "Street Light Outage/Malfunction",
    "date_created": "2021-11-11T12:49:24.000",
    "date_modified": "2021-11-11T13:01:30.000",
    "request_status": "Pending",
    "responsible_agency": "Department of Public Works",
    "final_address": "2624 Laharpe St",
    "address_councildis": "D",
    "status": "Pending",
    "contractor": "Royal Engineering",
    "rowid": "841481",
    "final_x": "3678686.0379",
    "final_y": "539957.34913",
    "longitude": "-90.07666361151334",
    "latitude": "29.97878065196537",
    "geocoded_column": {
      "latitude": "29.97878065196537",
      "longitude": "-90.07666361151334"
    }
  },
  {
    "service_request": "2021-841480",
    "request_type": "Trash/Recycling",
    "request_reason": "Dead Animal Pick Up",
    "date_created": "2021-11-11T12:49:13.000",
    "date_modified": "2021-11-11T12:49:14.000",
    "request_status": "Pending",
    "responsible_agency": "Department of Sanitation",
    "final_address": "DORSETT DR & CURRAN BLVD",
    "address_councildis": "E",
    "status": "Assigned to Contractor",
    "contractor": "Metro Disposal",
    "rowid": "841480",
    "final_x": "3712687.7",
    "final_y": "567583.68",
    "longitude": "-89.96823517697747",
    "latitude": "30.053673092761265",
    "geocoded_column": {
      "latitude": "30.053673092761265",
      "longitude": "-89.96823517697747"
    }
  },
  {
    "service_request": "2021-841479",
    "request_type": "Traffic Signals/Signs/Striping/Streetlights",
    "request_reason": "Additional signage",
    "date_created": "2021-11-11T12:47:09.000",
    "date_modified": "2021-11-11T12:47:09.000",
    "request_status": "Pending",
    "responsible_agency": "Department of Public Works",
    "final_address": "5100 Willowbrook Dr",
    "address_councildis": "E",
    "status": "Pending",
    "rowid": "841479",
    "final_x": "3727887.78265",
    "final_y": "563487.65136",
    "longitude": "-89.9203519224991",
    "latitude": "30.041904052015234",
    "geocoded_column": {
      "latitude": "30.041904052015234",
      "longitude": "-89.9203519224991"
    }
  },
  {
    "service_request": "2021-841478",
    "request_type": "Trash/Recycling",
    "request_reason": "Dead Animal Pick Up",
    "date_created": "2021-11-11T12:44:37.000",
    "date_modified": "2021-11-11T13:01:32.000",
    "request_status": "Pending",
    "responsible_agency": "Department of Sanitation",
    "final_address": "3520 General De Gaulle Dr",
    "address_councildis": "C",
    "status": "Assigned to Contractor",
    "contractor": "Richards Disposal",
    "rowid": "841478",
    "final_x": "3696428.6488",
    "final_y": "521971.50585",
    "longitude": "-90.02127651569704",
    "latitude": "29.928778921564394",
    "geocoded_column": {
      "latitude": "29.928778921564394",
      "longitude": "-90.02127651569704"
    }
  },
  {
    "service_request": "2021-841477",
    "request_type": "Trash/Recycling",
    "request_reason": "Missed Trash Pick-Up",
    "date_created": "2021-11-11T12:41:56.000",
    "date_modified": "2021-11-11T13:01:33.000",
    "request_status": "Pending",
    "responsible_agency": "Department of Sanitation",
    "final_address": "700 Poland Ave",
    "address_councildis": "C",
    "status": "Assigned to Contractor",
    "contractor": "Metro Disposal",
    "rowid": "841477",
    "final_x": "3692619.04496",
    "final_y": "533545.813701",
    "longitude": "-90.03288792729352",
    "latitude": "29.960723677871176",
    "geocoded_column": {
      "latitude": "29.960723677871176",
      "longitude": "-90.03288792729352"
    }
  },
  {
    "service_request": "2021-841476",
    "request_type": "Trash/Recycling",
    "request_reason": "Order Trash Cart",
    "date_created": "2021-11-11T12:40:02.000",
    "date_modified": "2021-11-11T13:01:34.000",
    "request_status": "Pending",
    "responsible_agency": "Department of Sanitation",
    "final_address": "2525 St Maurice Ave",
    "address_councildis": "E",
    "status": "Assigned to Contractor",
    "contractor": "Metro Disposal",
    "rowid": "841476",
    "final_x": "3701989.95364",
    "final_y": "538371.927561",
    "longitude": "-90.00311971107529",
    "latitude": "29.97369798674025",
    "geocoded_column": {
      "latitude": "29.97369798674025",
      "longitude": "-90.00311971107529"
    }
  },
  {
    "service_request": "2021-841475",
    "request_type": "Trash/Recycling",
    "request_reason": "Order Trash Cart",
    "date_created": "2021-11-11T12:39:29.000",
    "date_modified": "2021-11-11T13:01:37.000",
    "request_status": "Pending",
    "responsible_agency": "Department of Sanitation",
    "final_address": "2525 St Maurice Ave",
    "address_councildis": "E",
    "status": "Assigned to Contractor",
    "contractor": "Metro Disposal",
    "rowid": "841475",
    "final_x": "3701989.95364",
    "final_y": "538371.927561",
    "longitude": "-90.00311971107529",
    "latitude": "29.97369798674025",
    "geocoded_column": {
      "latitude": "29.97369798674025",
      "longitude": "-90.00311971107529"
    }
  },
  {
    "service_request": "2021-841474",
    "request_type": "Trash/Recycling",
    "request_reason": "Request a Large Item Pick Up",
    "date_created": "2021-11-11T12:35:19.000",
    "date_modified": "2021-11-11T13:01:40.000",
    "request_status": "Pending",
    "responsible_agency": "Department of Sanitation",
    "final_address": "6018 Campus Blvd",
    "address_councildis": "D",
    "status": "Assigned to Contractor",
    "contractor": "Metro Disposal",
    "rowid": "841474",
    "final_x": "3688480.62147",
    "final_y": "555455.747737",
    "longitude": "-90.04517842138013",
    "latitude": "30.02109662299664",
    "geocoded_column": {
      "latitude": "30.02109662299664",
      "longitude": "-90.04517842138013"
    }
  },
  {
    "service_request": "2021-841473",
    "request_type": "Trash/Recycling",
    "request_reason": "Replace Trash Cart",
    "date_created": "2021-11-11T12:31:45.000",
    "date_modified": "2021-11-11T12:31:46.000",
    "request_status": "Pending",
    "responsible_agency": "Department of Sanitation",
    "final_address": "1312 St Ferdinand St",
    "address_councildis": "C",
    "status": "Assigned to Contractor",
    "contractor": "Metro Disposal",
    "rowid": "841473",
    "final_x": "3687900.63407",
    "final_y": "537167.960328",
    "longitude": "-90.04765937185148",
    "latitude": "29.970829720866373",
    "geocoded_column": {
      "latitude": "29.970829720866373",
      "longitude": "-90.04765937185148"
    }
  },
  {
    "service_request": "2021-841472",
    "request_type": "Trash/Recycling",
    "request_reason": "Dead Animal Pick Up",
    "date_created": "2021-11-11T12:25:05.000",
    "date_modified": "2021-11-11T12:25:06.000",
    "request_status": "Pending",
    "responsible_agency": "Department of Sanitation",
    "final_address": "4631 Baccich St",
    "address_councildis": "D",
    "status": "Assigned to Contractor",
    "contractor": "Metro Disposal",
    "rowid": "841472",
    "final_x": "3687811.85161",
    "final_y": "549973.616148",
    "longitude": "-90.0474859242368",
    "latitude": "30.006043434753995",
    "geocoded_column": {
      "latitude": "30.006043434753995",
      "longitude": "-90.0474859242368"
    }
  },
  {
    "service_request": "2021-841471",
    "request_type": "Traffic Signals/Signs/Striping/Streetlights",
    "request_reason": "Street Light Outage/Malfunction",
    "date_created": "2021-11-11T12:24:06.000",
    "date_modified": "2021-11-11T12:24:07.000",
    "request_status": "Pending",
    "responsible_agency": "Department of Public Works",
    "final_address": "2555 Elder St",
    "address_councildis": "D",
    "status": "Pending",
    "contractor": "Royal Engineering",
    "rowid": "841471",
    "final_x": "3686996.27228",
    "final_y": "545805.156944",
    "longitude": "-90.05020999852925",
    "latitude": "29.994606820282645",
    "geocoded_column": {
      "latitude": "29.994606820282645",
      "longitude": "-90.05020999852925"
    }
  },
  {
    "service_request": "2021-841470",
    "request_type": "Safety & Permits",
    "request_reason": "Construction permit",
    "date_created": "2021-11-11T12:21:38.000",
    "date_modified": "2021-11-11T12:21:38.000",
    "request_status": "Pending",
    "responsible_agency": "Department of Code Enforcement",
    "final_address": "2544 Dumaine St",
    "address_councildis": "D",
    "status": "Pending",
    "rowid": "841470",
    "final_x": "3677652.67042",
    "final_y": "537080.595336",
    "longitude": "-90.08002675719123",
    "latitude": "29.9709016889274",
    "geocoded_column": {
      "latitude": "29.9709016889274",
      "longitude": "-90.08002675719123"
    }
  },
  {
    "service_request": "2021-841468",
    "request_type": "Roads/Drainage",
    "request_reason": "Pothole",
    "date_created": "2021-11-11T12:17:14.000",
    "date_modified": "2021-11-11T12:17:14.000",
    "request_status": "Pending",
    "responsible_agency": "Department of Public Works",
    "final_address": "3813 DHemecourt St",
    "address_councildis": "B",
    "status": "Pending",
    "rowid": "841468",
    "final_x": "3670775.51796",
    "final_y": "536136.687559",
    "longitude": "-90.10177777587839",
    "latitude": "29.968511300690388",
    "geocoded_column": {
      "latitude": "29.968511300690388",
      "longitude": "-90.10177777587839"
    }
  },
  {
    "service_request": "2021-841467",
    "request_type": "Trash/Recycling",
    "request_reason": "Order Trash Cart",
    "date_created": "2021-11-11T12:15:23.000",
    "date_modified": "2021-11-11T13:01:42.000",
    "request_status": "Pending",
    "responsible_agency": "Department of Sanitation",
    "final_address": "3909 Baronne St Apt 2B",
    "address_councildis": "B",
    "status": "Assigned to Contractor",
    "contractor": "Richards Disposal",
    "rowid": "841467",
    "final_x": "3672365.49255",
    "final_y": "521808.012986",
    "longitude": "-90.09724469070986",
    "latitude": "29.929065074936783",
    "geocoded_column": {
      "latitude": "29.929065074936783",
      "longitude": "-90.09724469070986"
    }
  },
  {
    "service_request": "2021-841463",
    "request_type": "Roads/Drainage",
    "request_reason": "Catch Basin - Clogged",
    "date_created": "2021-11-11T12:04:14.000",
    "date_modified": "2021-11-11T13:01:45.000",
    "request_status": "Pending",
    "responsible_agency": "Department of Public Works",
    "final_address": "1728 Flanders St",
    "address_councildis": "C",
    "status": "Pending",
    "rowid": "841463",
    "final_x": "3696715.25354",
    "final_y": "524903.72262",
    "longitude": "-90.02026569532445",
    "latitude": "29.936832483293006",
    "geocoded_column": {
      "latitude": "29.936832483293006",
      "longitude": "-90.02026569532445"
    }
  },