[
  {
    "service_request": "2023-993946",
    "request_type": "Roads/Drainage",
    "request_reason": "Accessibility Ramps, Curbs and Sidewalk Repair",
    "date_created": "2023-04-24T23:32:26.000",
    "date_modified": "2023-04-24T23:32:26.000",
    "request_status": "Pending",
    "responsible_agency": "Department of Public Works",
    "final_address": "2200 Oretha Castle Haley Blvd",
    "address_councildis": "B",
    "status": "Pending",
    "rowid": "993946",
    "final_x": "3676778.78689",
    "final_y": "524650.348156",
    "longitude": "-90.08321488350613",
    "latitude": "29.936748921339262",
    "geocoded_column": {
      "latitude": "29.936748921339262",
      "longitude": "-90.08321488350613"
    }
  },
  {
    "service_request": "2023-993945",
    "request_type": "Abandoned Vehicles",
    "request_reason": "Abandoned/Junk Vehicles",
    "date_created": "2023-04-24T23:27:46.000",
    "date_modified": "2023-04-24T23:27:46.000",
    "request_status": "Pending",
    "responsible_agency": "Department of Public Works",
    "final_address": "3721 General Taylor St",
    "address_councildis": "B",
    "status": "Pending",
    "rowid": "993945",
    "final_x": "3670945.14798",
    "final_y": "528427.753472",
    "longitude": "-90.10150379625588",
    "latitude": "29.947309271730756",
    "geocoded_column": {
      "latitude": "29.947309271730756",
      "longitude": "-90.10150379625588"
    }
  },
  {
    "service_request": "2023-993944",
    "request_type": "Trash/Recycling",
    "request_reason": "Request a Large Item Pick Up",
    "date_created": "2023-04-24T23:08:21.000",
    "date_modified": "2023-04-24T23:08:22.000",
    "request_status": "Pending",
    "responsible_agency": "Department of Sanitation",
    "final_address": "7329 Vanderkloot Ave",
    "address_councildis": "E",
    "status": "Assigned to Contractor",
    "contractor": "Waste Pro",
    "rowid": "993944",
    "final_x": "3706351.72823",
    "final_y": "562577.974304",
    "longitude": "-89.98844712772154",
    "latitude": "30.040115428587033",
    "geocoded_column": {
      "latitude": "30.040115428587033",
      "longitude": "-89.98844712772154"
    }
  },
  {
    "service_request": "2023-993943",
    "request_type": "Trash/Recycling",
    "request_reason": "Request a Large Item Pick Up",
    "date_created": "2023-04-24T23:07:24.000",
    "date_modified": "2023-04-24T23:07:25.000",
    "request_status": "Pending",
    "responsible_agency": "Department of Sanitation",
    "final_address": "2014 Touro St",
    "address_councildis": "D",
    "status": "Assigned to Contractor",
    "contractor": "IV Waste",
    "rowid": "993943",
    "final_x": "3683925.72162",
    "final_y": "539696.002314",
    "longitude": "-90.06012391137607",
    "latitude": "29.977902990984866",
    "geocoded_column": {
      "latitude": "29.977902990984866",
      "longitude": "-90.06012391137607"
    }
  },
  {
    "service_request": "2023-993941",
    "request_type": "Traffic Signals/Signs/Striping/Streetlights",
    "request_reason": "Street Name Sign Damaged or Missing",
    "date_created": "2023-04-24T22:50:55.000",
    "date_modified": "2023-04-24T22:50:55.000",
    "request_status": "Pending",
    "responsible_agency": "Department of Public Works",
    "final_address": "2500 Palmyra St",
    "address_councildis": "B",
    "status": "Pending",
    "rowid": "993941",
    "final_x": "3675611.05224",
    "final_y": "533864.877765",
    "longitude": "-90.08658495466433",
    "latitude": "29.96212079864104",
    "geocoded_column": {
      "latitude": "29.96212079864104",
      "longitude": "-90.08658495466433"
    }
  },
  {
    "service_request": "2023-993940",
    "request_type": "Traffic Signals/Signs/Striping/Streetlights",
    "request_reason": "Street Light Outage/Malfunction",
    "date_created": "2023-04-24T22:41:26.000",
    "date_modified": "2023-04-24T22:41:27.000",
    "request_status": "Pending",
    "responsible_agency": "Department of Public Works",
    "status": "Assigned to Contractor",
    "contractor": "Legacy Professional Services",
    "rowid": "993940",
    "longitude": "0.0",
    "latitude": "0.0",
    "geocoded_column": {
      "latitude": "0.0",
      "longitude": "0.0"
    }
  },
  {
    "service_request": "2023-993939",
    "request_type": "Traffic Signals/Signs/Striping/Streetlights",
    "request_reason": "Street Light Outage/Malfunction",
    "date_created": "2023-04-24T22:40:23.000",
    "date_modified": "2023-04-24T22:40:24.000",
    "request_status": "Pending",
    "responsible_agency": "Department of Public Works",
    "final_address": "2234 Tulane Ave",
    "address_councildis": "B",
    "status": "Assigned to Contractor",
    "contractor": "Legacy Professional Services",
    "rowid": "993939",
    "final_x": "3675842.85192",
    "final_y": "532890.405764",
    "longitude": "-90.08588646649021",
    "latitude": "29.95943439142638",
    "geocoded_column": {
      "latitude": "29.95943439142638",
      "longitude": "-90.08588646649021"
    }
  },
  {
    "service_request": "2023-993938",
    "request_type": "Traffic Signals/Signs/Striping/Streetlights",
    "request_reason": "Street Light Outage/Malfunction",
    "date_created": "2023-04-24T22:38:32.000",
    "date_modified": "2023-04-24T22:38:33.000",
    "request_status": "Pending",
    "responsible_agency": "Department of Public Works",
    "final_address": "2200 Tulane Ave",
    "address_councildis": "B",
    "status": "Assigned to Contractor",
    "contractor": "Legacy Professional Services",
    "rowid": "993938",
    "final_x": "3676029.74702",
    "final_y": "532748.436228",
    "longitude": "-90.0853011780941",
    "latitude": "29.95903842689805",
    "geocoded_column": {
      "latitude": "29.95903842689805",
      "longitude": "-90.0853011780941"
    }
  },
  {
    "service_request": "2023-993937",
    "request_type": "Abandoned Vehicles",
    "request_reason": "Abandoned/Junk Vehicles",
    "date_created": "2023-04-24T22:20:21.000",
    "date_modified": "2023-04-24T22:20:21.000",
    "request_status": "Pending",
    "responsible_agency": "Department of Public Works",
    "status": "Pending",
    "rowid": "993937",
    "longitude": "0.0",
    "latitude": "0.0",
    "geocoded_column": {
      "latitude": "0.0",
      "longitude": "0.0"
    }
  },
  {
    "service_request": "2023-993936",
    "request_type": "Trash/Recycling",
    "request_reason": "Start Trash Service",
    "date_created": "2023-04-24T22:06:09.000",
    "date_modified": "2023-04-24T22:06:10.000",
    "request_status": "Pending",
    "responsible_agency": "Department of Sanitation",
    "final_address": "4312 S Tonti St",
    "address_councildis": "B",
    "status": "Assigned to Contractor",
    "contractor": "Richards Disposal",
    "rowid": "993936",
    "final_x": "3670396.21454",
    "final_y": "528134.199679",
    "longitude": "-90.10324694286024",
    "latitude": "29.946518309837824",
    "geocoded_column": {
      "latitude": "29.946518309837824",
      "longitude": "-90.10324694286024"
    }
  },
  {
    "service_request": "2023-993935",
    "request_type": "Health Related Request",
    "request_reason": "Noise Ordinance Complaint",
    "date_created": "2023-04-24T22:04:26.000",
    "date_modified": "2023-04-24T22:04:26.000",
    "request_status": "Pending",
    "responsible_agency": "Health Department",
    "final_address": "711 Bourbon St, New Orleans, Louisiana, 70116",
    "address_councildis": "C",
    "status": "Pending",
    "rowid": "993935",
    "final_x": "3682299.38447",
    "final_y": "532765.705988",
    "longitude": "-90.06550263299877",
    "latitude": "29.95889665479323",
    "geocoded_column": {
      "latitude": "29.95889665479323",
      "longitude": "-90.06550263299877"
    }
  },
  {
    "service_request": "2023-993934",
    "request_type": "Trash/Recycling",
    "request_reason": "Request a Large Item Pick Up",
    "date_created": "2023-04-24T22:03:49.000",
    "date_modified": "2023-04-24T22:03:50.000",
    "request_status": "Pending",
    "responsible_agency": "Department of Sanitation",
    "status": "Assigned to Contractor",
    "rowid": "993934",
    "longitude": "0.0",
    "latitude": "0.0",
    "geocoded_column": {
      "latitude": "0.0",
      "longitude": "0.0"
    }
  },
  {
    "service_request": "2023-993933",
    "request_type": "Trash/Recycling",
    "request_reason": "Replace Recycling Cart",
    "date_created": "2023-04-24T21:27:16.000",
    "date_modified": "2023-04-24T21:27:16.000",
    "request_status": "Pending",
    "responsible_agency": "Department of Sanitation",
    "final_address": "1011 St Philip St",
    "address_councildis": "C",
    "status": "Pending",
    "rowid": "993933",
    "final_x": "3682297.01711",
    "final_y": "534092.306181",
    "longitude": "-90.06546375659495",
    "latitude": "29.962544423965042",
    "geocoded_column": {
      "latitude": "29.962544423965042",
      "longitude": "-90.06546375659495"
    }
  },
  {
    "service_request": "2023-993932",
    "request_type": "Property Maintenance",
    "request_reason": "Property Maintenance",
    "date_created": "2023-04-24T21:16:12.000",
    "date_modified": "2023-04-24T21:16:12.000",
    "request_status": "Pending",
    "responsible_agency": "Department of Code Enforcement",
    "final_address": "1427 N Roman St",
    "address_councildis": "D",
    "status": "Pending",
    "rowid": "993932",
    "final_x": "3680812.59919",
    "final_y": "537247.130248",
    "longitude": "-90.07004150580664",
    "latitude": "29.971264188014004",
    "geocoded_column": {
      "latitude": "29.971264188014004",
      "longitude": "-90.07004150580664"
    }
  },
  {
    "service_request": "2023-993931",
    "request_type": "Roads/Drainage",
    "request_reason": "Unpermitted work in ROW",
    "date_created": "2023-04-24T21:14:29.000",
    "date_modified": "2023-04-24T21:14:29.000",
    "request_status": "Pending",
    "responsible_agency": "Department of Public Works",
    "final_address": "1427 N Roman St",
    "address_councildis": "D",
    "status": "Pending",
    "rowid": "993931",
    "final_x": "3680812.59919",
    "final_y": "537247.130248",
    "longitude": "-90.07004150580664",
    "latitude": "29.971264188014004",
    "geocoded_column": {
      "latitude": "29.971264188014004",
      "longitude": "-90.07004150580664"
    }
  },
  {
    "service_request": "2023-993930",
    "request_type": "Traffic Signals/Signs/Striping/Streetlights",
    "request_reason": "Street Light Outage/Malfunction",
    "date_created": "2023-04-24T21:03:45.000",
    "date_modified": "2023-04-24T21:03:46.000",
    "request_status": "Pending",
    "responsible_agency": "Department of Public Works",
    "final_address": "3660 White Oak Ave",
    "address_councildis": "C",
    "status": "Assigned to Contractor",
    "contractor": "Legacy Professional Services",
    "rowid": "993930",
    "final_x": "3703896.65118",
    "final_y": "514218.644723",
    "longitude": "-89.99798696345063",
    "latitude": "29.907223979450258",
    "geocoded_column": {
      "latitude": "29.907223979450258",
      "longitude": "-89.99798696345063"
    }
  },
  {
    "service_request": "2023-993929",
    "request_type": "Parks & Parkways",
    "request_reason": "Request Grass Cutting Service (City Owned Property)",
    "date_created": "2023-04-24T21:01:32.000",
    "date_modified": "2023-04-24T21:01:32.000",
    "request_status": "Pending",
    "responsible_agency": "Department of Parks & Parkway",
    "final_address": "818 N Dorgenois St",
    "address_councildis": "D",
    "status": "Pending",
    "rowid": "993929",
    "final_x": "3677494.65288",
    "final_y": "536992.737032",
    "longitude": "-90.08052883067178",
    "latitude": "29.970664860110976",
    "geocoded_column": {
      "latitude": "29.970664860110976",
      "longitude": "-90.08052883067178"
    }
  },
  {
    "service_request": "2023-993928",
    "request_type": "Property Maintenance",
    "request_reason": "Property Maintenance",
    "date_created": "2023-04-24T20:56:17.000",
    "date_modified": "2023-04-24T20:56:17.000",
    "request_status": "Pending",
    "responsible_agency": "Department of Code Enforcement",
    "final_address": "818 N Dorgenois St",
    "address_councildis": "D",
    "status": "Pending",
    "rowid": "993928",
    "final_x": "3677494.65288",
    "final_y": "536992.737032",
    "longitude": "-90.08052883067178",
    "latitude": "29.970664860110976",
    "geocoded_column": {
      "latitude": "29.970664860110976",
      "longitude": "-90.08052883067178"
    }
  },
  {
    "service_request": "2023-993927",
    "request_type": "Trash/Recycling",
    "request_reason": "Request a Large Item Pick Up",
    "date_created": "2023-04-24T20:36:10.000",
    "date_modified": "2023-04-24T20:36:10.000",
    "request_status": "Pending",
    "responsible_agency": "Department of Sanitation",
    "final_address": "1816 Sixth St",
    "address_councildis": "B",
    "status": "Assigned to Contractor",
    "contractor": "Richards Disposal",
    "rowid": "993927",
    "final_x": "3674980.72763",
    "final_y": "522970.342267",
    "longitude": "-90.08894904805263",
    "latitude": "29.932183270135248",
    "geocoded_column": {
      "latitude": "29.932183270135248",
      "longitude": "-90.08894904805263"
    }
  },
  {
    "service_request": "2023-993926",
    "request_type": "Mosquito, Termite & Rodent Control",
    "request_reason": "Mosquito Complaint",
    "date_created": "2023-04-24T20:31:50.000",
    "date_modified": "2023-04-24T20:31:50.000",
    "request_status": "Pending",
    "responsible_agency": "Mosquito, Termite & Rodent Control Board",
    "final_address": "10501 Prentiss Ave",
    "address_councildis": "E",
    "status": "Pending",
    "rowid": "993926",
    "final_x": "3714427.16242",
    "final_y": "556449.37801",
    "longitude": "-89.96315806006128",
    "latitude": "30.023001148289023",
    "geocoded_column": {
      "latitude": "30.023001148289023",
      "longitude": "-89.96315806006128"
    }
  },
  {
    "service_request": "2023-993925",
    "request_type": "Property Maintenance",
    "request_reason": "Property Maintenance",
    "date_created": "2023-04-24T20:03:51.000",
    "date_modified": "2023-04-24T20:03:51.000",
    "request_status": "Pending",
    "responsible_agency": "Department of Code Enforcement",
    "final_address": "1801 Lapeyrouse St",
    "address_councildis": "D",
    "status": "Pending",
    "rowid": "993925",
    "final_x": "3681591.16098",
    "final_y": "538266.297161",
    "longitude": "-90.06754714533103",
    "latitude": "29.974042919454615",
    "geocoded_column": {
      "latitude": "29.974042919454615",
      "longitude": "-90.06754714533103"
    }
  },
  {
    "service_request": "2023-993923",
    "request_type": "Property Maintenance",
    "request_reason": "Property Maintenance",
    "date_created": "2023-04-24T19:59:21.000",
    "date_modified": "2023-04-24T19:59:21.000",
    "request_status": "Pending",
    "responsible_agency": "Department of Code Enforcement",
    "final_address": "8926 Forshey St",
    "address_councildis": "A",
    "status": "Pending",
    "rowid": "993923",
    "final_x": "3664710.99872",
    "final_y": "535961.134471",
    "longitude": "-90.12093579036345",
    "latitude": "29.968206421889406",
    "geocoded_column": {
      "latitude": "29.968206421889406",
      "longitude": "-90.12093579036345"
    }
  },
  {
    "service_request": "2023-993922",
    "request_type": "Trash/Recycling",
    "request_reason": "MIssed Recycling Pick-Up",
    "date_created": "2023-04-24T19:57:59.000",
    "date_modified": "2023-04-24T19:58:00.000",
    "request_status": "Pending",
    "responsible_agency": "Department of Sanitation",
    "final_address": "717 Fern St",
    "address_councildis": "A",
    "status": "Assigned to Contractor",
    "contractor": "Richards Disposal",
    "rowid": "993922",
    "final_x": "3661507.27315",
    "final_y": "526659.942014",
    "longitude": "-90.1313614693624",
    "latitude": "29.942723964633444",
    "geocoded_column": {
      "latitude": "29.942723964633444",
      "longitude": "-90.1313614693624"
    }
  },
  {
    "service_request": "2023-993921",
    "request_type": "Trash/Recycling",
    "request_reason": "Request a Large Item Pick Up",
    "date_created": "2023-04-24T19:49:32.000",
    "date_modified": "2023-04-24T19:49:33.000",
    "request_status": "Pending",
    "responsible_agency": "Department of Sanitation",
    "final_address": "1913 Orleans Ave",
    "address_councildis": "D",
    "status": "Assigned to Contractor",
    "contractor": "Richards Disposal",
    "rowid": "993921",
    "final_x": "3679211.93743",
    "final_y": "535271.116998",
    "longitude": "-90.07516514090682",
    "latitude": "29.96587925491779",
    "geocoded_column": {
      "latitude": "29.96587925491779",
      "longitude": "-90.07516514090682"
    }
  },
  {
    "service_request": "2023-993920",
    "request_type": "Trash/Recycling",
    "request_reason": "Order Trash Cart",
    "date_created": "2023-04-24T19:44:37.000",
    "date_modified": "2023-04-24T19:44:38.000",
    "request_status": "Pending",
    "responsible_agency": "Department of Sanitation",
    "final_address": "127 Sherwood Forest Dr",
    "address_councildis": "A",
    "status": "Assigned to Contractor",
    "contractor": "Richards Disposal",
    "rowid": "993920",
    "final_x": "3673238.7691",
    "final_y": "541051.862156",
    "longitude": "-90.09383077539772",
    "latitude": "29.98195333229853",
    "geocoded_column": {
      "latitude": "29.98195333229853",
      "longitude": "-90.09383077539772"
    }
  },
  {
    "service_request": "2023-993919",
    "request_type": "Property Maintenance",
    "request_reason": "Property Maintenance",
    "date_created": "2023-04-24T19:33:48.000",
    "date_modified": "2023-04-24T19:33:48.000",
    "request_status": "Pending",
    "responsible_agency": "Department of Code Enforcement",
    "final_address": "4317 Magazine St",
    "address_councildis": "B",
    "status": "Pending",
    "rowid": "993919",
    "final_x": "3671305.51841",
    "final_y": "518875.527223",
    "longitude": "-90.10069041477877",
    "latitude": "29.921033074561752",
    "geocoded_column": {
      "latitude": "29.921033074561752",
      "longitude": "-90.10069041477877"
    }
  },
  {
    "service_request": "2023-993918",
    "request_type": "Trash/Recycling",
    "request_reason": "Request a Large Item Pick Up",
    "date_created": "2023-04-24T19:30:31.000",
    "date_modified": "2023-04-24T19:30:31.000",
    "request_status": "Pending",
    "responsible_agency": "Department of Sanitation",
    "final_address": "712 Diana St",
    "address_councildis": "C",
    "status": "Assigned to Contractor",
    "contractor": "Richards Disposal",
    "rowid": "993918",
    "final_x": "3687533.58569",
    "final_y": "527630.644671",
    "longitude": "-90.04915611751777",
    "latitude": "29.944616712774724",
    "geocoded_column": {
      "latitude": "29.944616712774724",
      "longitude": "-90.04915611751777"
    }
  },
  {
    "service_request": "2023-993917",
    "request_type": "Abandoned Vehicles",
    "request_reason": "Abandoned/Junk Vehicles",
    "date_created": "2023-04-24T19:28:24.000",
    "date_modified": "2023-04-24T19:28:24.000",
    "request_status": "Pending",
    "responsible_agency": "Department of Public Works",
    "final_address": "4130 General Pershing St",
    "address_councildis": "B",
    "status": "Pending",
    "rowid": "993917",
    "final_x": "3669942.42484",
    "final_y": "529351.867841",
    "longitude": "-90.10463849624922",
    "latitude": "29.949879886687896",
    "geocoded_column": {
      "latitude": "29.949879886687896",
      "longitude": "-90.10463849624922"
    }
  },
  {
    "service_request": "2023-993916",
    "request_type": "Abandoned Vehicles",
    "request_reason": "Abandoned/Junk Vehicles",
    "date_created": "2023-04-24T19:27:27.000",
    "date_modified": "2023-04-24T19:27:27.000",
    "request_status": "Pending",
    "responsible_agency": "Department of Public Works",
    "final_address": "4130 General Pershing St",
    "address_councildis": "B",
    "status": "Pending",
    "rowid": "993916",
    "final_x": "3669942.42484",
    "final_y": "529351.867841",
    "longitude": "-90.10463849624922",
    "latitude": "29.949879886687896",
    "geocoded_column": {
      "latitude": "29.949879886687896",
      "longitude": "-90.10463849624922"
    }
  },
  {
    "service_request": "2023-993915",
    "request_type": "Abandoned Vehicles",
    "request_reason": "Abandoned/Junk Vehicles",
    "date_created": "2023-04-24T19:23:55.000",
    "date_modified": "2023-04-24T19:23:55.000",
    "request_status": "Pending",
    "responsible_agency": "Department of Public Works",
    "final_address": "6100 Dreux Ave",
    "address_councildis": "D",
    "status": "Pending",
    "rowid": "993915",
    "final_x": "3697019.2785",
    "final_y": "553829.211031",
    "longitude": "-90.01825781486001",
    "latitude": "30.01635755638462",
    "geocoded_column": {
      "latitude": "30.01635755638462",
      "longitude": "-90.01825781486001"
    }
  },
  {
    "service_request": "2023-993914",
    "request_type": "Trash/Recycling",
    "request_reason": "Order Recycling Cart",
    "date_created": "2023-04-24T19:17:45.000",
    "date_modified": "2023-04-24T19:17:45.000",
    "request_status": "Pending",
    "responsible_agency": "Department of Sanitation",
    "final_address": "608 Harrison Ave Apt 2B",
    "address_councildis": "A",
    "status": "Pending",
    "rowid": "993914",
    "final_x": "3668395.34228",
    "final_y": "549201.328915",
    "longitude": "-90.10885361326973",
    "latitude": "30.00450474196256",
    "geocoded_column": {
      "latitude": "30.00450474196256",
      "longitude": "-90.10885361326973"
    }
  },
  {
    "service_request": "2023-993913",
    "request_type": "Trash/Recycling",
    "request_reason": "Order Trash Cart",
    "date_created": "2023-04-24T19:03:19.000",
    "date_modified": "2023-04-24T19:03:20.000",
    "request_status": "Pending",
    "responsible_agency": "Department of Sanitation",
    "final_address": "2605 Banks St",
    "address_councildis": "B",
    "status": "Assigned to Contractor",
    "contractor": "Richards Disposal",
    "rowid": "993913",
    "final_x": "3675060.14325",
    "final_y": "533892.223877",
    "longitude": "-90.08832370624934",
    "latitude": "29.96221246189748",
    "geocoded_column": {
      "latitude": "29.96221246189748",
      "longitude": "-90.08832370624934"
    }
  },
  {
    "service_request": "2023-993912",
    "request_type": "Trash/Recycling",
    "request_reason": "Request a Large Item Pick Up",
    "date_created": "2023-04-24T19:02:41.000",
    "date_modified": "2023-04-24T19:02:43.000",
    "request_status": "Pending",
    "responsible_agency": "Department of Sanitation",
    "final_address": "2605 Banks St",
    "address_councildis": "B",
    "status": "Assigned to Contractor",
    "contractor": "Richards Disposal",
    "rowid": "993912",
    "final_x": "3675060.14325",
    "final_y": "533892.223877",
    "longitude": "-90.08832370624934",
    "latitude": "29.96221246189748",
    "geocoded_column": {
      "latitude": "29.96221246189748",
      "longitude": "-90.08832370624934"
    }
  },
  {
    "service_request": "2023-993911",
    "request_type": "Roads/Drainage",
    "request_reason": "Accessibility Ramps, Curbs and Sidewalk Repair",
    "date_created": "2023-04-24T18:53:06.000",
    "date_modified": "2023-04-24T18:53:06.000",
    "request_status": "Pending",
    "responsible_agency": "Department of Public Works",
    "final_address": "501 Josephine St Apt A",
    "address_councildis": "B",
    "status": "Pending",
    "rowid": "993911",
    "final_x": "3680537.65736",
    "final_y": "520584.22636",
    "longitude": "-90.07148932326841",
    "latitude": "29.92545512704531",
    "geocoded_column": {
      "latitude": "29.92545512704531",
      "longitude": "-90.07148932326841"
    }
  },
  {
    "service_request": "2023-993910",
    "request_type": "Trash/Recycling",
    "request_reason": "MIssed Recycling Pick-Up",
    "date_created": "2023-04-24T18:52:06.000",
    "date_modified": "2023-04-24T18:52:07.000",
    "request_status": "Pending",
    "responsible_agency": "Department of Sanitation",
    "final_address": "2831 Audubon St",
    "address_councildis": "B",
    "status": "Assigned to Contractor",
    "contractor": "Richards Disposal",
    "rowid": "993910",
    "final_x": "3667694.17434",
    "final_y": "531295.870018",
    "longitude": "-90.11167184375363",
    "latitude": "29.955291355719048",
    "geocoded_column": {
      "latitude": "29.955291355719048",
      "longitude": "-90.11167184375363"
    }
  },
  {
    "service_request": "2023-993909",
    "request_type": "Trash/Recycling",
    "request_reason": "Request a Large Item Pick Up",
    "date_created": "2023-04-24T18:50:59.000",
    "date_modified": "2023-04-24T18:51:00.000",
    "request_status": "Pending",
    "responsible_agency": "Department of Sanitation",
    "final_address": "3801 Mistletoe St",
    "address_councildis": "A",
    "status": "Assigned to Contractor",
    "contractor": "Richards Disposal",
    "rowid": "993909",
    "final_x": "3665458.65978",
    "final_y": "537873.847561",
    "longitude": "-90.11851059474131",
    "latitude": "29.973443974601388",
    "geocoded_column": {
      "latitude": "29.973443974601388",
      "longitude": "-90.11851059474131"
    }
  },
  {
    "service_request": "2023-993908",
    "request_type": "Property Maintenance",
    "request_reason": "Property Maintenance",
    "date_created": "2023-04-24T18:49:25.000",
    "date_modified": "2023-04-24T18:49:25.000",
    "request_status": "Pending",
    "responsible_agency": "Department of Code Enforcement",
    "final_address": "609 Jackson Ave",
    "address_councildis": "B",
    "status": "Pending",
    "rowid": "993908",
    "final_x": "3679901.14056",
    "final_y": "520810.428217",
    "longitude": "-90.07349075794016",
    "latitude": "29.926096366929237",
    "geocoded_column": {
      "latitude": "29.926096366929237",
      "longitude": "-90.07349075794016"
    }
  },
  {
    "service_request": "2023-993907",
    "request_type": "Safety & Permits",
    "request_reason": "Licenses & Permits",
    "date_created": "2023-04-24T18:47:07.000",
    "date_modified": "2023-04-24T18:47:07.000",
    "request_status": "Pending",
    "responsible_agency": "Safety and Permits",
    "final_address": "2618 St Thomas St",
    "address_councildis": "B",
    "status": "Pending",
    "rowid": "993907",
    "final_x": "3678452.92456",
    "final_y": "519527.432503",
    "longitude": "-90.07810672363414",
    "latitude": "29.92261224939398",
    "geocoded_column": {
      "latitude": "29.92261224939398",
      "longitude": "-90.07810672363414"
    }
  },
  {
    "service_request": "2023-993906",
    "request_type": "Property Maintenance",
    "request_reason": "Property Maintenance",
    "date_created": "2023-04-24T18:45:09.000",
    "date_modified": "2023-04-24T18:45:09.000",
    "request_status": "Pending",
    "responsible_agency": "Department of Code Enforcement",
    "final_address": "2217 St Thomas St",
    "address_councildis": "B",
    "status": "Pending",
    "rowid": "993906",
    "final_x": "3679809.03899",
    "final_y": "520552.06956",
    "longitude": "-90.07379046075054",
    "latitude": "29.925388749147114",
    "geocoded_column": {
      "latitude": "29.925388749147114",
      "longitude": "-90.07379046075054"
    }
  },
  {
    "service_request": "2023-993905",
    "request_type": "Roads/Drainage",
    "request_reason": "Damaged Sidewalk",
    "date_created": "2023-04-24T18:43:02.000",
    "date_modified": "2023-04-24T18:43:02.000",
    "request_status": "Pending",
    "responsible_agency": "Department of Public Works",
    "final_address": "2418 St Thomas St",
    "address_councildis": "B",
    "status": "Pending",
    "rowid": "993905",
    "final_x": "3678956.45826",
    "final_y": "519847.735736",
    "longitude": "-90.07650617913296",
    "latitude": "29.923477802307797",
    "geocoded_column": {
      "latitude": "29.923477802307797",
      "longitude": "-90.07650617913296"
    }
  },
  {
    "service_request": "2023-993904",
    "request_type": "Property Maintenance",
    "request_reason": "Property Maintenance",
    "date_created": "2023-04-24T18:41:51.000",
    "date_modified": "2023-04-24T18:41:51.000",
    "request_status": "Pending",
    "responsible_agency": "Department of Code Enforcement",
    "final_address": "2422 St Thomas St",
    "address_councildis": "B",
    "status": "Pending",
    "rowid": "993904",
    "final_x": "3678930.87675",
    "final_y": "519830.825528",
    "longitude": "-90.0765875158863",
    "latitude": "29.92343207624917",
    "geocoded_column": {
      "latitude": "29.92343207624917",
      "longitude": "-90.0765875158863"
    }
  },
  {
    "service_request": "2023-993903",
    "request_type": "Property Maintenance",
    "request_reason": "Property Maintenance",
    "date_created": "2023-04-24T18:40:35.000",
    "date_modified": "2023-04-24T18:40:35.000",
    "request_status": "Pending",
    "responsible_agency": "Department of Code Enforcement",
    "final_address": "2426 St Thomas St",
    "address_councildis": "B",
    "status": "Pending",
    "rowid": "993903",
    "final_x": "3678916.55304",
    "final_y": "519823.720888",
    "longitude": "-90.07663297644605",
    "latitude": "29.923412972767423",
    "geocoded_column": {
      "latitude": "29.923412972767423",
      "longitude": "-90.07663297644605"
    }
  },
  {
    "service_request": "2023-993902",
    "request_type": "Property Maintenance",
    "request_reason": "Property Maintenance",
    "date_created": "2023-04-24T18:38:13.000",
    "date_modified": "2023-04-24T18:38:13.000",
    "request_status": "Pending",
    "responsible_agency": "Department of Code Enforcement",
    "final_address": "2510 St Thomas St",
    "address_councildis": "B",
    "status": "Pending",
    "rowid": "993902",
    "final_x": "3678743.30254",
    "final_y": "519707.874232",
    "longitude": "-90.07718387228466",
    "latitude": "29.923099655685863",
    "geocoded_column": {
      "latitude": "29.923099655685863",
      "longitude": "-90.07718387228466"
    }
  },
  {
    "service_request": "2023-993901",
    "request_type": "Safety & Permits",
    "request_reason": "Licenses & Permits",
    "date_created": "2023-04-24T18:35:36.000",
    "date_modified": "2023-04-24T18:35:36.000",
    "request_status": "Pending",
    "responsible_agency": "Safety and Permits",
    "final_address": "548 Fourth St",
    "address_councildis": "B",
    "status": "Pending",
    "rowid": "993901",
    "final_x": "3678314.45538",
    "final_y": "519435.127479",
    "longitude": "-90.07854700626801",
    "latitude": "29.92236261070652",
    "geocoded_column": {
      "latitude": "29.92236261070652",
      "longitude": "-90.07854700626801"
    }
  },
  {
    "service_request": "2023-993900",
    "request_type": "Trash/Recycling",
    "request_reason": "Request a Large Item Pick Up",
    "date_created": "2023-04-24T18:34:35.000",
    "date_modified": "2023-04-24T18:34:36.000",
    "request_status": "Pending",
    "responsible_agency": "Department of Sanitation",
    "final_address": "3801 Mistletoe St",
    "address_councildis": "A",
    "status": "Assigned to Contractor",
    "contractor": "Richards Disposal",
    "rowid": "993900",
    "final_x": "3665458.65978",
    "final_y": "537873.847561",
    "longitude": "-90.11851059474131",
    "latitude": "29.973443974601388",
    "geocoded_column": {
      "latitude": "29.973443974601388",
      "longitude": "-90.11851059474131"
    }
  },
  {
    "service_request": "2023-993899",
    "request_type": "Property Maintenance",
    "request_reason": "Property Maintenance",
    "date_created": "2023-04-24T18:33:40.000",
    "date_modified": "2023-04-24T18:33:40.000",
    "request_status": "Pending",
    "responsible_agency": "Department of Code Enforcement",
    "final_address": "1800 Pauline St",
    "address_councildis": "D",
    "status": "Pending",
    "rowid": "993899",
    "final_x": "3691846.07766",
    "final_y": "538141.706825",
    "longitude": "-90.03516437532909",
    "latitude": "29.973384863651994",
    "geocoded_column": {
      "latitude": "29.973384863651994",
      "longitude": "-90.03516437532909"
    }
  },
  {
    "service_request": "2023-993898",
    "request_type": "Trash/Recycling",
    "request_reason": "Request a Large Item Pick Up",
    "date_created": "2023-04-24T18:31:24.000",
    "date_modified": "2023-04-24T18:31:25.000",
    "request_status": "Pending",
    "responsible_agency": "Department of Sanitation",
    "final_address": "3801 Mistletoe St",
    "address_councildis": "A",
    "status": "Assigned to Contractor",
    "contractor": "Richards Disposal",
    "rowid": "993898",
    "final_x": "3665458.65978",
    "final_y": "537873.847561",
    "longitude": "-90.11851059474131",
    "latitude": "29.973443974601388",
    "geocoded_column": {
      "latitude": "29.973443974601388",
      "longitude": "-90.11851059474131"
    }
  },
  {
    "service_request": "2023-993897",
    "request_type": "Abandoned Vehicles",
    "request_reason": "Abandoned/Junk Vehicles",
    "date_created": "2023-04-24T18:29:33.000",
    "date_modified": "2023-04-24T18:29:33.000",
    "request_status": "Pending",
    "responsible_agency": "Department of Public Works",
    "final_address": "430 Eighth St",
    "address_councildis": "B",
    "status": "Pending",
    "rowid": "993897",
    "final_x": "3677146.4061",
    "final_y": "518593.796343",
    "longitude": "-90.08226305977496",
    "latitude": "29.920084341296338",
    "geocoded_column": {
      "latitude": "29.920084341296338",
      "longitude": "-90.08226305977496"
    }
  },
  {
    "service_request": "2023-993896",
    "request_type": "Trash/Recycling",
    "request_reason": "Request a Large Item Pick Up",
    "date_created": "2023-04-24T18:27:24.000",
    "date_modified": "2023-04-24T18:27:24.000",
    "request_status": "Pending",
    "responsible_agency": "Department of Sanitation",
    "final_address": "23 Honeysuckle Ln",
    "address_councildis": "E",
    "status": "Assigned to Contractor",
    "contractor": "Waste Pro",
    "rowid": "993896",
    "final_x": "3712947.10264",
    "final_y": "568449.062373",
    "longitude": "-89.96738267223158",
    "latitude": "30.056044040651045",
    "geocoded_column": {
      "latitude": "30.056044040651045",
      "longitude": "-89.96738267223158"
    }
  },
  {
    "service_request": "2023-993895",
    "request_type": "Abandoned Vehicles",
    "request_reason": "Abandoned/Junk Vehicles",
    "date_created": "2023-04-24T18:25:41.000",
    "date_modified": "2023-04-24T18:25:41.000",
    "request_status": "Pending",
    "responsible_agency": "Department of Public Works",
    "final_address": "601 Louisiana Ave",
    "address_councildis": "B",
    "status": "Pending",
    "rowid": "993895",
    "final_x": "3675896.26875",
    "final_y": "518106.522486",
    "longitude": "-90.08622588730265",
    "latitude": "29.918781967075994",
    "geocoded_column": {
      "latitude": "29.918781967075994",
      "longitude": "-90.08622588730265"
    }
  },
  {
    "service_request": "2023-993894",
    "request_type": "Roads/Drainage",
    "request_reason": "Damaged Sidewalk",
    "date_created": "2023-04-24T18:24:02.000",
    "date_modified": "2023-04-24T18:24:02.000",
    "request_status": "Pending",
    "responsible_agency": "Department of Public Works",
    "final_address": "3305 Chippewa St",
    "address_councildis": "B",
    "status": "Pending",
    "rowid": "993894",
    "final_x": "3675961.69704",
    "final_y": "518346.677622",
    "longitude": "-90.0860111122866",
    "latitude": "29.919440358360788",
    "geocoded_column": {
      "latitude": "29.919440358360788",
      "longitude": "-90.0860111122866"
    }
  },
  {
    "service_request": "2023-993893",
    "request_type": "Trash/Recycling",
    "request_reason": "Repair Recycling Cart",
    "date_created": "2023-04-24T18:21:21.000",
    "date_modified": "2023-04-24T18:21:21.000",
    "request_status": "Pending",
    "responsible_agency": "Department of Sanitation",
    "final_address": "2646 Eton St",
    "address_councildis": "C",
    "status": "Pending",
    "rowid": "993893",
    "final_x": "3704022.11063",
    "final_y": "521056.501817",
    "longitude": "-89.99733937844161",
    "latitude": "29.926021712067428",
    "geocoded_column": {
      "latitude": "29.926021712067428",
      "longitude": "-89.99733937844161"
    }
  },
  {
    "service_request": "2023-993892",
    "request_type": "Roads/Drainage",
    "request_reason": "Catch Basin - Broken/Damage",
    "date_created": "2023-04-24T18:21:16.000",
    "date_modified": "2023-04-24T18:21:16.000",
    "request_status": "Pending",
    "responsible_agency": "Department of Public Works",
    "final_address": "2931 Dryades St",
    "address_councildis": "B",
    "status": "Pending",
    "rowid": "993892",
    "final_x": "3674684.89569",
    "final_y": "523057.082171",
    "longitude": "-90.0898799903286",
    "latitude": "29.932430607365948",
    "geocoded_column": {
      "latitude": "29.932430607365948",
      "longitude": "-90.0898799903286"
    }
  },
  {
    "service_request": "2023-993891",
    "request_type": "Property Maintenance",
    "request_reason": "Property Maintenance",
    "date_created": "2023-04-24T18:19:06.000",
    "date_modified": "2023-04-24T18:19:06.000",
    "request_status": "Pending",
    "responsible_agency": "Department of Code Enforcement",
    "final_address": "2931 Dryades St",
    "address_councildis": "B",
    "status": "Pending",
    "rowid": "993891",
    "final_x": "3674684.89569",
    "final_y": "523057.082171",
    "longitude": "-90.0898799903286",
    "latitude": "29.932430607365948",
    "geocoded_column": {
      "latitude": "29.932430607365948",
      "longitude": "-90.0898799903286"
    }
  },
  {
    "service_request": "2023-993890",
    "request_type": "Property Maintenance",
    "request_reason": "Property Maintenance",
    "date_created": "2023-04-24T18:16:29.000",
    "date_modified": "2023-04-24T18:16:29.000",
    "request_status": "Pending",
    "responsible_agency": "Department of Code Enforcement",
    "final_address": "2004 Second St",
    "address_councildis": "B",
    "status": "Pending",
    "rowid": "993890",
    "final_x": "3675841.10766",
    "final_y": "524275.389692",
    "longitude": "-90.08618806795684",
    "latitude": "29.935746004428967",
    "geocoded_column": {
      "latitude": "29.935746004428967",
      "longitude": "-90.08618806795684"
    }
  },
  {
    "service_request": "2023-993889",
    "request_type": "Property Maintenance",
    "request_reason": "Property Maintenance",
    "date_created": "2023-04-24T18:13:52.000",
    "date_modified": "2023-04-24T18:13:52.000",
    "request_status": "Pending",
    "responsible_agency": "Department of Code Enforcement",
    "final_address": "2010 Second St",
    "address_councildis": "B",
    "status": "Pending",
    "rowid": "993889",
    "final_x": "3675819.79374",
    "final_y": "524310.139516",
    "longitude": "-90.0862541624071",
    "latitude": "29.9358421929424",
    "geocoded_column": {
      "latitude": "29.9358421929424",
      "longitude": "-90.0862541624071"
    }
  },
  {
    "service_request": "2023-993888",
    "request_type": "Trash/Recycling",
    "request_reason": "Illegal Dumping",
    "date_created": "2023-04-24T18:11:18.000",
    "date_modified": "2023-04-24T18:11:18.000",
    "request_status": "Pending",
    "responsible_agency": "Department of Sanitation",
    "final_address": "2501 Danneel St",
    "address_councildis": "B",
    "status": "Pending",
    "rowid": "993888",
    "final_x": "3675842.922",
    "final_y": "524237.47846",
    "longitude": "-90.08618364273636",
    "latitude": "29.935641706637202",
    "geocoded_column": {
      "latitude": "29.935641706637202",
      "longitude": "-90.08618364273636"
    }
  },
  {
    "service_request": "2023-993887",
    "request_type": "Trash/Recycling",
    "request_reason": "Illegal Dumping",
    "date_created": "2023-04-24T18:09:48.000",
    "date_modified": "2023-04-24T18:09:48.000",
    "request_status": "Pending",
    "responsible_agency": "Department of Sanitation",
    "final_address": "2416 Danneel St",
    "address_councildis": "B",
    "status": "Pending",
    "rowid": "993887",
    "final_x": "3676051.74005",
    "final_y": "524295.561532",
    "longitude": "-90.08552240418358",
    "latitude": "29.935795164961817",
    "geocoded_column": {
      "latitude": "29.935795164961817",
      "longitude": "-90.08552240418358"
    }
  },
  {
    "service_request": "2023-993886",
    "request_type": "Roads/Drainage",
    "request_reason": "Street Flooding / Drainage",
    "date_created": "2023-04-24T17:58:04.000",
    "date_modified": "2023-04-24T17:58:04.000",
    "request_status": "Pending",
    "responsible_agency": "Department of Public Works",
    "final_address": "7401 Downman Rd",
    "address_councildis": "D",
    "status": "Pending",
    "rowid": "993886",
    "final_x": "3694944.48976",
    "final_y": "557816.998811",
    "longitude": "-90.02466931586191",
    "latitude": "30.02738777777175",
    "geocoded_column": {
      "latitude": "30.02738777777175",
      "longitude": "-90.02466931586191"
    }
  },
  {
    "service_request": "2023-993885",
    "request_type": "Trash/Recycling",
    "request_reason": "Request a Large Item Pick Up",
    "date_created": "2023-04-24T17:56:28.000",
    "date_modified": "2023-04-24T17:56:28.000",
    "request_status": "Pending",
    "responsible_agency": "Department of Sanitation",
    "final_address": "4745 Tulip St",
    "address_councildis": "E",
    "status": "Assigned to Contractor",
    "contractor": "Waste Pro",
    "rowid": "993885",
    "final_x": "3702127.19357",
    "final_y": "554346.128024",
    "longitude": "-90.00210015633633",
    "latitude": "30.017616699108352",
    "geocoded_column": {
      "latitude": "30.017616699108352",
      "longitude": "-90.00210015633633"
    }
  },
  {
    "service_request": "2023-993884",
    "request_type": "Roads/Drainage",
    "request_reason": "Accessibility Ramps, Curbs and Sidewalk Repair",
    "date_created": "2023-04-24T17:55:18.000",
    "date_modified": "2023-04-24T17:55:18.000",
    "request_status": "Pending",
    "responsible_agency": "Department of Public Works",
    "final_address": "7766 Scottwood Dr",
    "address_councildis": "E",
    "status": "Pending",
    "rowid": "993884",
    "final_x": "3716673.27628",
    "final_y": "571425.706344",
    "longitude": "-89.95549189517958",
    "latitude": "30.064105914750094",
    "geocoded_column": {
      "latitude": "30.064105914750094",
      "longitude": "-89.95549189517958"
    }
  },
  {
    "service_request": "2023-993883",
    "request_type": "Health Related Request",
    "request_reason": "Noise Ordinance Complaint",
    "date_created": "2023-04-24T17:43:32.000",
    "date_modified": "2023-04-24T20:18:48.000",
    "request_status": "Pending",
    "responsible_agency": "Health Department",
    "final_address": "711 Bourbon St, New Orleans, Louisiana, 70116",
    "address_councildis": "C",
    "rowid": "993883",
    "final_x": "3682299.38447",
    "final_y": "532765.705988",
    "longitude": "-90.06550263299877",
    "latitude": "29.95889665479323",
    "geocoded_column": {
      "latitude": "29.95889665479323",
      "longitude": "-90.06550263299877"
    }
  },
  {
    "service_request": "2023-993882",
    "request_type": "Health Related Request",
    "request_reason": "Noise Ordinance Complaint",
    "date_created": "2023-04-24T17:42:31.000",
    "date_modified": "2023-04-24T17:42:31.000",
    "request_status": "Pending",
    "responsible_agency": "Health Department",
    "final_address": "711 Bourbon St, New Orleans, Louisiana, 70116",
    "address_councildis": "C",
    "status": "Pending",
    "rowid": "993882",
    "final_x": "3682299.38447",
    "final_y": "532765.705988",
    "longitude": "-90.06550263299877",
    "latitude": "29.95889665479323",
    "geocoded_column": {
      "latitude": "29.95889665479323",
      "longitude": "-90.06550263299877"
    }
  },
  {
    "service_request": "2023-993881",
    "request_type": "Health Related Request",
    "request_reason": "Noise Ordinance Complaint",
    "date_created": "2023-04-24T17:41:26.000",
    "date_modified": "2023-04-24T17:41:26.000",
    "request_status": "Pending",
    "responsible_agency": "Health Department",
    "final_address": "711 Bourbon St, New Orleans, Louisiana, 70116",
    "address_councildis": "C",
    "status": "Pending",
    "rowid": "993881",
    "final_x": "3682299.38447",
    "final_y": "532765.705988",
    "longitude": "-90.06550263299877",
    "latitude": "29.95889665479323",
    "geocoded_column": {
      "latitude": "29.95889665479323",
      "longitude": "-90.06550263299877"
    }
  },
  {
    "service_request": "2023-993880",
    "request_type": "Roads/Drainage",
    "request_reason": "Pothole",
    "date_created": "2023-04-24T17:40:44.000",
    "date_modified": "2023-04-24T17:40:44.000",
    "request_status": "Pending",
    "responsible_agency": "Department of Public Works",
    "status": "Pending",
    "rowid": "993880",
    "longitude": "0.0",
    "latitude": "0.0",
    "geocoded_column": {
      "latitude": "0.0",
      "longitude": "0.0"
    }
  },
  {
    "service_request": "2023-993879",
    "request_type": "Trash/Recycling",
    "request_reason": "Request a Large Item Pick Up",
    "date_created": "2023-04-24T17:35:21.000",
    "date_modified": "2023-04-24T17:35:22.000",
    "request_status": "Pending",
    "responsible_agency": "Department of Sanitation",
    "final_address": "871 Topaz St",
    "address_councildis": "D",
    "status": "Assigned to Contractor",
    "contractor": "IV Waste",
    "rowid": "993879",
    "final_x": "3670730.00161",
    "final_y": "556772.790298",
    "longitude": "-90.10122075241216",
    "latitude": "30.025254770092427",
    "geocoded_column": {
      "latitude": "30.025254770092427",
      "longitude": "-90.10122075241216"
    }
  },
  {
    "service_request": "2023-993878",
    "request_type": "Trash/Recycling",
    "request_reason": "Illegal Dumping",
    "date_created": "2023-04-24T17:26:37.000",
    "date_modified": "2023-04-24T17:26:38.000",
    "request_status": "Pending",
    "responsible_agency": "Department of Sanitation",
    "final_address": "2900 BLK Cleveland Ave",
    "address_councildis": "B",
    "status": "Pending",
    "rowid": "993878",
    "final_x": "3674222.69384",
    "final_y": "535430.940081",
    "longitude": "-90.09091556600316",
    "latitude": "29.966468407093554",
    "geocoded_column": {
      "latitude": "29.966468407093554",
      "longitude": "-90.09091556600316"
    }
  },
  {
    "service_request": "2023-993877",
    "request_type": "Trash/Recycling",
    "request_reason": "Request a Large Item Pick Up",
    "date_created": "2023-04-24T17:03:46.000",
    "date_modified": "2023-04-24T17:03:47.000",
    "request_status": "Pending",
    "responsible_agency": "Department of Sanitation",
    "final_address": "2427 St Bernard Ave",
    "address_councildis": "D",
    "status": "Assigned to Contractor",
    "contractor": "IV Waste",
    "rowid": "993877",
    "final_x": "3680626.33391",
    "final_y": "541003.588939",
    "longitude": "-90.07049901009209",
    "latitude": "29.981598792884803",
    "geocoded_column": {
      "latitude": "29.981598792884803",
      "longitude": "-90.07049901009209"
    }
  },
  {
    "service_request": "2023-993876",
    "request_type": "Trash/Recycling",
    "request_reason": "Request a Large Item Pick Up",
    "date_created": "2023-04-24T17:02:17.000",
    "date_modified": "2023-04-24T17:02:18.000",
    "request_status": "Pending",
    "responsible_agency": "Department of Sanitation",
    "final_address": "2729 DAbadie St",
    "address_councildis": "D",
    "status": "Assigned to Contractor",
    "contractor": "IV Waste",
    "rowid": "993876",
    "final_x": "3679072.84047",
    "final_y": "541165.8923",
    "longitude": "-90.075400038796",
    "latitude": "29.982092056348762",
    "geocoded_column": {
      "latitude": "29.982092056348762",
      "longitude": "-90.075400038796"
    }
  },
  {
    "service_request": "2023-993875",
    "request_type": "Trash/Recycling",
    "request_reason": "Replace Recycling Cart",
    "date_created": "2023-04-24T17:00:58.000",
    "date_modified": "2023-04-24T17:00:58.000",
    "request_status": "Pending",
    "responsible_agency": "Department of Sanitation",
    "final_address": "817 Aline St",
    "address_councildis": "B",
    "status": "Pending",
    "rowid": "993875",
    "final_x": "3674803.07816",
    "final_y": "518528.492791",
    "longitude": "-90.08966206803672",
    "latitude": "29.91997492080536",
    "geocoded_column": {
      "latitude": "29.91997492080536",
      "longitude": "-90.08966206803672"
    }
  },
  {
    "service_request": "2023-993874",
    "request_type": "Property Maintenance",
    "request_reason": "Property Maintenance",
    "date_created": "2023-04-24T16:59:50.000",
    "date_modified": "2023-04-24T16:59:50.000",
    "request_status": "Pending",
    "responsible_agency": "Department of Code Enforcement",
    "final_address": "441 S Norman C Francis Prkwy",
    "address_councildis": "B",
    "status": "Pending",
    "rowid": "993874",
    "final_x": "3672138.56014",
    "final_y": "535574.605126",
    "longitude": "-90.0974923540725",
    "latitude": "29.96692540984467",
    "geocoded_column": {
      "latitude": "29.96692540984467",
      "longitude": "-90.0974923540725"
    }
  },
  {
    "service_request": "2023-993873",
    "request_type": "Trash/Recycling",
    "request_reason": "Repair Trash Cart",
    "date_created": "2023-04-24T16:54:57.000",
    "date_modified": "2023-04-24T16:54:58.000",
    "request_status": "Pending",
    "responsible_agency": "Department of Sanitation",
    "final_address": "7401 Sheffield St",
    "address_councildis": "E",
    "status": "Assigned to Contractor",
    "contractor": "Waste Pro",
    "rowid": "993873",
    "final_x": "3699541.97808",
    "final_y": "559588.947293",
    "longitude": "-90.01007706797498",
    "latitude": "30.032114774817103",
    "geocoded_column": {
      "latitude": "30.032114774817103",
      "longitude": "-90.01007706797498"
    }
  },
  {
    "service_request": "2023-993872",
    "request_type": "Trash/Recycling",
    "request_reason": "Order Recycling Cart",
    "date_created": "2023-04-24T16:45:29.000",
    "date_modified": "2023-04-24T16:46:13.000",
    "request_status": "Pending",
    "responsible_agency": "Department of Sanitation",
    "final_address": "3318 Danneel St",
    "address_councildis": "B",
    "status": "Pending",
    "rowid": "993872",
    "final_x": "3673878.06862",
    "final_y": "522868.784123",
    "longitude": "-90.09243351262032",
    "latitude": "29.931936899125702",
    "geocoded_column": {
      "latitude": "29.931936899125702",
      "longitude": "-90.09243351262032"
    }
  },
  {
    "service_request": "2023-993871",
    "request_type": "Trash/Recycling",
    "request_reason": "Replace Trash Cart",
    "date_created": "2023-04-24T16:44:29.000",
    "date_modified": "2023-04-24T16:47:03.000",
    "request_status": "Pending",
    "responsible_agency": "Department of Sanitation",
    "final_address": "5850 Winchester Park Drive, New Orleans, LA 70128",
    "address_councildis": "E",
    "status": "Assigned to Contractor",
    "rowid": "993871",
    "final_x": "3714849.77515",
    "final_y": "562374.479775",
    "longitude": "-89.96159858476555",
    "latitude": "30.039278908414083",
    "geocoded_column": {
      "latitude": "30.039278908414083",
      "longitude": "-89.96159858476555"
    }
  },
  {
    "service_request": "2023-993870",
    "request_type": "Property Maintenance",
    "request_reason": "Property Maintenance",
    "date_created": "2023-04-24T16:43:58.000",
    "date_modified": "2023-04-24T16:43:58.000",
    "request_status": "Pending",
    "responsible_agency": "Department of Code Enforcement",
    "final_address": "1009 N Claiborne Ave",
    "address_councildis": "D",
    "status": "Pending",
    "rowid": "993870",
    "final_x": "3680417.66101",
    "final_y": "535635.218886",
    "longitude": "-90.07134484150656",
    "latitude": "29.966843952035386",
    "geocoded_column": {
      "latitude": "29.966843952035386",
      "longitude": "-90.07134484150656"
    }
  },
  {
    "service_request": "2023-993869",
    "request_type": "Trash/Recycling",
    "request_reason": "MIssed Recycling Pick-Up",
    "date_created": "2023-04-24T16:42:59.000",
    "date_modified": "2023-04-24T16:43:00.000",
    "request_status": "Pending",
    "responsible_agency": "Department of Sanitation",
    "final_address": "4311 State Street Dr",
    "address_councildis": "B",
    "status": "Assigned to Contractor",
    "contractor": "Richards Disposal",
    "rowid": "993869",
    "final_x": "3668558.99514",
    "final_y": "531229.526466",
    "longitude": "-90.1089432864963",
    "latitude": "29.95508355119546",
    "geocoded_column": {
      "latitude": "29.95508355119546",
      "longitude": "-90.1089432864963"
    }
  },
  {
    "service_request": "2023-993868",
    "request_type": "Traffic Signals/Signs/Striping/Streetlights",
    "request_reason": "Street Light Outage/Malfunction",
    "date_created": "2023-04-24T16:41:44.000",
    "date_modified": "2023-04-24T16:41:45.000",
    "request_status": "Pending",
    "responsible_agency": "Department of Public Works",
    "final_address": "2028 Lamarque St",
    "address_councildis": "C",
    "status": "Assigned to Contractor",
    "contractor": "Legacy Professional Services",
    "rowid": "993868",
    "final_x": "3691626.3078",
    "final_y": "526690.850366",
    "longitude": "-90.03626782085793",
    "latitude": "29.94190584371258",
    "geocoded_column": {
      "latitude": "29.94190584371258",
      "longitude": "-90.03626782085793"
    }
  },
  {
    "service_request": "2023-993867",
    "request_type": "Roads/Drainage",
    "request_reason": "Damaged Sidewalk",
    "date_created": "2023-04-24T16:37:27.000",
    "date_modified": "2023-04-24T16:37:27.000",
    "request_status": "Pending",
    "responsible_agency": "Department of Public Works",
    "final_address": "9831 Andover Dr",
    "address_councildis": "E",
    "status": "Pending",
    "rowid": "993867",
    "final_x": "3708942.26936",
    "final_y": "562145.081887",
    "longitude": "-89.9802764209972",
    "latitude": "30.03884128876977",
    "geocoded_column": {
      "latitude": "30.03884128876977",
      "longitude": "-89.9802764209972"
    }
  },
  {
    "service_request": "2023-993866",
    "request_type": "Trash/Recycling",
    "request_reason": "Repair Trash Cart",
    "date_created": "2023-04-24T16:37:19.000",
    "date_modified": "2023-04-24T16:43:36.000",
    "request_status": "Pending",
    "responsible_agency": "Department of Sanitation",
    "final_address": "1522 St Ann St",
    "address_councildis": "C",
    "status": "Assigned to Contractor",
    "contractor": "Richards Disposal",
    "rowid": "993866",
    "final_x": "3680355.31906",
    "final_y": "534560.738245",
    "longitude": "-90.07157908192595",
    "latitude": "29.963891385492946",
    "geocoded_column": {
      "latitude": "29.963891385492946",
      "longitude": "-90.07157908192595"
    }
  },
  {
    "service_request": "2023-993865",
    "request_type": "Trash/Recycling",
    "request_reason": "Order Recycling Cart",
    "date_created": "2023-04-24T16:34:24.000",
    "date_modified": "2023-04-24T16:34:25.000",
    "request_status": "Pending",
    "responsible_agency": "Department of Sanitation",
    "final_address": "1552 Magazine St",
    "address_councildis": "B",
    "status": "Pending",
    "rowid": "993865",
    "final_x": "3680133.25832",
    "final_y": "523383.380347",
    "longitude": "-90.0726686699988",
    "latitude": "29.933164121034533",
    "geocoded_column": {
      "latitude": "29.933164121034533",
      "longitude": "-90.0726686699988"
    }
  },
  {
    "service_request": "2023-993864",
    "request_type": "Trash/Recycling",
    "request_reason": "Return Trash Cart",
    "date_created": "2023-04-24T16:32:20.000",
    "date_modified": "2023-04-24T16:32:21.000",
    "request_status": "Pending",
    "responsible_agency": "Department of Sanitation",
    "final_address": "525 S Cortez St",
    "address_councildis": "B",
    "status": "Assigned to Contractor",
    "contractor": "Richards Disposal",
    "rowid": "993864",
    "final_x": "3670933.90868",
    "final_y": "536172.126919",
    "longitude": "-90.10127636513752",
    "latitude": "29.96860406509282",
    "geocoded_column": {
      "latitude": "29.96860406509282",
      "longitude": "-90.10127636513752"
    }
  },
  {
    "service_request": "2023-993863",
    "request_type": "Trash/Recycling",
    "request_reason": "Request a Large Item Pick Up",
    "date_created": "2023-04-24T16:30:55.000",
    "date_modified": "2023-04-24T16:30:55.000",
    "request_status": "Pending",
    "responsible_agency": "Department of Sanitation",
    "final_address": "3518 Elysian Fields Ave",
    "address_councildis": "D",
    "status": "Assigned to Contractor",
    "contractor": "IV Waste",
    "rowid": "993863",
    "final_x": "3684119.77717",
    "final_y": "545736.078032",
    "longitude": "-90.05929890804278",
    "latitude": "29.9945051339066",
    "geocoded_column": {
      "latitude": "29.9945051339066",
      "longitude": "-90.05929890804278"
    }
  },
  {
    "service_request": "2023-993862",
    "request_type": "Roads/Drainage",
    "request_reason": "Pothole",
    "date_created": "2023-04-24T16:24:40.000",
    "date_modified": "2023-04-24T16:24:40.000",
    "request_status": "Pending",
    "responsible_agency": "Department of Public Works",
    "final_address": "9015 Fig St",
    "address_councildis": "A",
    "status": "Pending",
    "rowid": "993862",
    "final_x": "3663878.15181",
    "final_y": "535395.37607",
    "longitude": "-90.12358483139208",
    "latitude": "29.966674976974947",
    "geocoded_column": {
      "latitude": "29.966674976974947",
      "longitude": "-90.12358483139208"
    }
  },
  {
    "service_request": "2023-993861",
    "request_type": "Trash/Recycling",
    "request_reason": "Request a Large Item Pick Up",
    "date_created": "2023-04-24T16:21:44.000",
    "date_modified": "2023-04-24T16:21:45.000",
    "request_status": "Pending",
    "responsible_agency": "Department of Sanitation",
    "final_address": "13300 Granville St",
    "address_councildis": "E",
    "status": "Assigned to Contractor",
    "contractor": "Waste Pro",
    "rowid": "993861",
    "final_x": "3725160.63174",
    "final_y": "561961.397087",
    "longitude": "-89.92902973418255",
    "latitude": "30.037799669448507",
    "geocoded_column": {
      "latitude": "30.037799669448507",
      "longitude": "-89.92902973418255"
    }
  },
  {
    "service_request": "2023-993860",
    "request_type": "Abandoned Vehicles",
    "request_reason": "Vehicle Blocking Your Driveway",
    "date_created": "2023-04-24T16:17:03.000",
    "date_modified": "2023-04-24T16:17:03.000",
    "request_status": "Pending",
    "responsible_agency": "Department of Public Works",
    "final_address": "902 N Dorgenois St",
    "address_councildis": "D",
    "status": "Pending",
    "rowid": "993860",
    "final_x": "3677655.4708",
    "final_y": "537208.384328",
    "longitude": "-90.08001349893955",
    "latitude": "29.971252980734743",
    "geocoded_column": {
      "latitude": "29.971252980734743",
      "longitude": "-90.08001349893955"
    }
  },
  {
    "service_request": "2023-993859",
    "request_type": "Trash/Recycling",
    "request_reason": "Missed Trash Pick-Up",
    "date_created": "2023-04-24T16:16:34.000",
    "date_modified": "2023-04-24T16:16:34.000",
    "request_status": "Pending",
    "responsible_agency": "Department of Sanitation",
    "final_address": "5575 Jacquelyn Ct",
    "address_councildis": "A",
    "status": "Assigned to Contractor",
    "contractor": "IV Waste",
    "rowid": "993859",
    "final_x": "3664531.53306",
    "final_y": "544794.791375",
    "longitude": "-90.1212074438025",
    "latitude": "29.992501239349508",
    "geocoded_column": {
      "latitude": "29.992501239349508",
      "longitude": "-90.1212074438025"
    }
  },
  {
    "service_request": "2023-993858",
    "request_type": "Trash/Recycling",
    "request_reason": "Repair Trash Cart",
    "date_created": "2023-04-24T16:14:25.000",
    "date_modified": "2023-04-24T16:14:26.000",
    "request_status": "Pending",
    "responsible_agency": "Department of Sanitation",
    "final_address": "5918 Hayne Blvd",
    "address_councildis": "D",
    "status": "Assigned to Contractor",
    "contractor": "Waste Pro",
    "rowid": "993858",
    "final_x": "3694647.67523",
    "final_y": "559852.030749",
    "longitude": "-90.02553382601361",
    "latitude": "30.032992657405718",
    "geocoded_column": {
      "latitude": "30.032992657405718",
      "longitude": "-90.02553382601361"
    }
  },
  {
    "service_request": "2023-993857",
    "request_type": "Trash/Recycling",
    "request_reason": "Order Recycling Cart",
    "date_created": "2023-04-24T16:11:52.000",
    "date_modified": "2023-04-24T16:11:52.000",
    "request_status": "Pending",
    "responsible_agency": "Department of Sanitation",
    "final_address": "231 Leboeuf St",
    "address_councildis": "C",
    "status": "Pending",
    "rowid": "993857",
    "final_x": "3689852.16432",
    "final_y": "530880.631874",
    "longitude": "-90.04172003736035",
    "latitude": "29.95348140697195",
    "geocoded_column": {
      "latitude": "29.95348140697195",
      "longitude": "-90.04172003736035"
    }
  },
  {
    "service_request": "2023-993856",
    "request_type": "Trash/Recycling",
    "request_reason": "Order Trash Cart",
    "date_created": "2023-04-24T16:06:53.000",
    "date_modified": "2023-04-24T16:07:18.000",
    "request_status": "Pending",
    "responsible_agency": "Department of Sanitation",
    "final_address": "1909 Annette St",
    "address_councildis": "D",
    "status": "Assigned to Contractor",
    "contractor": "IV Waste",
    "rowid": "993856",
    "final_x": "3682953.55189",
    "final_y": "539209.62305",
    "longitude": "-90.0632113869395",
    "latitude": "29.97659528454461",
    "geocoded_column": {
      "latitude": "29.97659528454461",
      "longitude": "-90.0632113869395"
    }
  },
  {
    "service_request": "2023-993855",
    "request_type": "Trash/Recycling",
    "request_reason": "Order Trash Cart",
    "date_created": "2023-04-24T16:06:30.000",
    "date_modified": "2023-04-24T16:06:51.000",
    "request_status": "Pending",
    "responsible_agency": "Department of Sanitation",
    "final_address": "1907 Annette St",
    "address_councildis": "D",
    "status": "Assigned to Contractor",
    "contractor": "IV Waste",
    "rowid": "993855",
    "final_x": "3682955.47292",
    "final_y": "539198.751818",
    "longitude": "-90.06320570033166",
    "latitude": "29.976565333894985",
    "geocoded_column": {
      "latitude": "29.976565333894985",
      "longitude": "-90.06320570033166"
    }
  },
  {
    "service_request": "2023-993854",
    "request_type": "Trash/Recycling",
    "request_reason": "Request a Large Item Pick Up",
    "date_created": "2023-04-24T16:06:05.000",
    "date_modified": "2023-04-24T16:06:48.000",
    "request_status": "Pending",
    "responsible_agency": "Department of Sanitation",
    "final_address": "2407 Iberville St",
    "address_councildis": "B",
    "status": "Assigned to Contractor",
    "contractor": "Richards Disposal",
    "rowid": "993854",
    "final_x": "3676633.30056",
    "final_y": "534709.763526",
    "longitude": "-90.08332774012753",
    "latitude": "29.9644133255772",
    "geocoded_column": {
      "latitude": "29.9644133255772",
      "longitude": "-90.08332774012753"
    }
  },
  {
    "service_request": "2023-993853",
    "request_type": "Traffic Signals/Signs/Striping/Streetlights",
    "request_reason": "Street Light Outage/Malfunction",
    "date_created": "2023-04-24T16:05:14.000",
    "date_modified": "2023-04-24T16:05:49.000",
    "request_status": "Pending",
    "responsible_agency": "Department of Public Works",
    "final_address": "3321 N Roman St",
    "address_councildis": "D",
    "status": "Assigned to Contractor",
    "contractor": "Legacy Professional Services",
    "rowid": "993853",
    "final_x": "3690702.91568",
    "final_y": "538477.918729",
    "longitude": "-90.03876270714389",
    "latitude": "29.97434488952309",
    "geocoded_column": {
      "latitude": "29.97434488952309",
      "longitude": "-90.03876270714389"
    }
  },
  {
    "service_request": "2023-993852",
    "request_type": "Trash/Recycling",
    "request_reason": "Order Trash Cart",
    "date_created": "2023-04-24T16:04:51.000",
    "date_modified": "2023-04-24T16:06:33.000",
    "request_status": "Pending",
    "responsible_agency": "Department of Sanitation",
    "final_address": "1905 Annette St",
    "address_councildis": "D",
    "status": "Assigned to Contractor",
    "contractor": "IV Waste",
    "rowid": "993852",
    "final_x": "3682942.09352",
    "final_y": "539167.351498",
    "longitude": "-90.06324905578278",
    "latitude": "29.976479401743482",
    "geocoded_column": {
      "latitude": "29.976479401743482",
      "longitude": "-90.06324905578278"
    }
  },
  {
    "service_request": "2023-993851",
    "request_type": "Trash/Recycling",
    "request_reason": "Missed Trash Pick-Up",
    "date_created": "2023-04-24T15:59:46.000",
    "date_modified": "2023-04-24T15:59:47.000",
    "request_status": "Pending",
    "responsible_agency": "Department of Sanitation",
    "final_address": "4337 Duplessis St",
    "address_councildis": "D",
    "status": "Assigned to Contractor",
    "contractor": "IV Waste",
    "rowid": "993851",
    "final_x": "3678369.63611",
    "final_y": "548434.440402",
    "longitude": "-90.07736945773826",
    "latitude": "30.00209922026084",
    "geocoded_column": {
      "latitude": "30.00209922026084",
      "longitude": "-90.07736945773826"
    }
  },
  {
    "service_request": "2023-993850",
    "request_type": "Trash/Recycling",
    "request_reason": "Order Recycling Cart",
    "date_created": "2023-04-24T15:56:39.000",
    "date_modified": "2023-04-24T15:56:39.000",
    "request_status": "Pending",
    "responsible_agency": "Department of Sanitation",
    "final_address": "6990 Edgefield Dr",
    "address_councildis": "E",
    "status": "Pending",
    "rowid": "993850",
    "final_x": "3718902.1518",
    "final_y": "568861.605477",
    "longitude": "-89.94854428519706",
    "latitude": "30.05698182380586",
    "geocoded_column": {
      "latitude": "30.05698182380586",
      "longitude": "-89.94854428519706"
    }
  },
  {
    "service_request": "2023-993849",
    "request_type": "Trash/Recycling",
    "request_reason": "Repair Trash Cart",
    "date_created": "2023-04-24T15:55:47.000",
    "date_modified": "2023-04-24T15:55:47.000",
    "request_status": "Pending",
    "responsible_agency": "Department of Sanitation",
    "final_address": "6990 Edgefield Dr",
    "address_councildis": "E",
    "status": "Assigned to Contractor",
    "contractor": "Waste Pro",
    "rowid": "993849",
    "final_x": "3718902.1518",
    "final_y": "568861.605477",
    "longitude": "-89.94854428519706",
    "latitude": "30.05698182380586",
    "geocoded_column": {
      "latitude": "30.05698182380586",
      "longitude": "-89.94854428519706"
    }
  },
  {
    "service_request": "2023-993848",
    "request_type": "Trash/Recycling",
    "request_reason": "MIssed Recycling Pick-Up",
    "date_created": "2023-04-24T15:51:05.000",
    "date_modified": "2023-04-24T15:51:06.000",
    "request_status": "Pending",
    "responsible_agency": "Department of Sanitation",
    "final_address": "719 Jourdan Ave",
    "address_councildis": "E",
    "status": "Assigned to Contractor",
    "contractor": "Waste Pro",
    "rowid": "993848",
    "final_x": "3694713.78934",
    "final_y": "533179.614852",
    "longitude": "-90.02628635468632",
    "latitude": "29.959651223878378",
    "geocoded_column": {
      "latitude": "29.959651223878378",
      "longitude": "-90.02628635468632"
    }
  },
  {
    "service_request": "2023-993847",
    "request_type": "Trash/Recycling",
    "request_reason": "MIssed Recycling Pick-Up",
    "date_created": "2023-04-24T15:48:18.000",
    "date_modified": "2023-04-24T15:48:18.000",
    "request_status": "Pending",
    "responsible_agency": "Department of Sanitation",
    "final_address": "1200 N Derbigny St",
    "address_councildis": "D",
    "status": "Assigned to Contractor",
    "contractor": "Richards Disposal",
    "rowid": "993847",
    "final_x": "3680631.01365",
    "final_y": "536295.941895",
    "longitude": "-90.07064808101914",
    "latitude": "29.968654250760657",
    "geocoded_column": {
      "latitude": "29.968654250760657",
      "longitude": "-90.07064808101914"
    }
  },
  {
    "service_request": "2023-993846",
    "request_type": "Trash/Recycling",
    "request_reason": "Missed Trash Pick-Up",
    "date_created": "2023-04-24T15:45:09.000",
    "date_modified": "2023-04-24T15:45:10.000",
    "request_status": "Pending",
    "responsible_agency": "Department of Sanitation",
    "final_address": "1738 Prytania St",
    "address_councildis": "B",
    "status": "Assigned to Contractor",
    "contractor": "Richards Disposal",
    "rowid": "993846",
    "final_x": "3679164.56847",
    "final_y": "524407.243132",
    "longitude": "-90.07569128298755",
    "latitude": "29.936008675926224",
    "geocoded_column": {
      "latitude": "29.936008675926224",
      "longitude": "-90.07569128298755"
    }
  },
  {
    "service_request": "2023-993845",
    "request_type": "Abandoned Vehicles",
    "request_reason": "Abandoned/Junk Vehicles",
    "date_created": "2023-04-24T15:44:10.000",
    "date_modified": "2023-04-24T15:44:10.000",
    "request_status": "Pending",
    "responsible_agency": "Department of Public Works",
    "final_address": "3824 Perrier St",
    "address_councildis": "B",
    "status": "Pending",
    "rowid": "993845",
    "final_x": "3672868.42254",
    "final_y": "520226.071224",
    "longitude": "-90.09571097529646",
    "latitude": "29.92470031569007",
    "geocoded_column": {
      "latitude": "29.92470031569007",
      "longitude": "-90.09571097529646"
    }
  },
  {
    "service_request": "2023-993844",
    "request_type": "Trash/Recycling",
    "request_reason": "Request a Large Item Pick Up",
    "date_created": "2023-04-24T15:44:07.000",
    "date_modified": "2023-04-24T15:44:07.000",
    "request_status": "Pending",
    "responsible_agency": "Department of Sanitation",
    "final_address": "1734 Burbank Dr",
    "address_councildis": "D",
    "status": "Assigned to Contractor",
    "contractor": "IV Waste",
    "rowid": "993844",
    "final_x": "3679910.18242",
    "final_y": "554417.396056",
    "longitude": "-90.07229468503535",
    "latitude": "30.01850367377588",
    "geocoded_column": {
      "latitude": "30.01850367377588",
      "longitude": "-90.07229468503535"
    }
  },
  {
    "service_request": "2023-993843",
    "request_type": "Trash/Recycling",
    "request_reason": "Replace Trash Cart",
    "date_created": "2023-04-24T15:43:15.000",
    "date_modified": "2023-04-24T15:43:16.000",
    "request_status": "Pending",
    "responsible_agency": "Department of Sanitation",
    "final_address": "883 Hidalgo Street",
    "address_councildis": "A",
    "status": "Assigned to Contractor",
    "contractor": "IV Waste",
    "rowid": "993843",
    "final_x": "3669402.88526",
    "final_y": "544101.052174",
    "longitude": "-90.10584319201104",
    "latitude": "29.990451101622863",
    "geocoded_column": {
      "latitude": "29.990451101622863",
      "longitude": "-90.10584319201104"
    }
  },
  {
    "service_request": "2023-993842",
    "request_type": "Abandoned Vehicles",
    "request_reason": "Abandoned/Junk Vehicles",
    "date_created": "2023-04-24T15:40:20.000",
    "date_modified": "2023-04-24T15:40:20.000",
    "request_status": "Pending",
    "responsible_agency": "Department of Public Works",
    "final_address": "1545 Sixth St Apt C",
    "address_councildis": "B",
    "status": "Pending",
    "rowid": "993842",
    "final_x": "3675585.75905",
    "final_y": "522169.633018",
    "longitude": "-90.08706651385467",
    "latitude": "29.9299634989787",
    "geocoded_column": {
      "latitude": "29.9299634989787",
      "longitude": "-90.08706651385467"
    }
  },
  {
    "service_request": "2023-993841",
    "request_type": "Abandoned Vehicles",
    "request_reason": "Vehicle Blocking Your Driveway",
    "date_created": "2023-04-24T15:39:44.000",
    "date_modified": "2023-04-24T15:39:45.000",
    "request_status": "Pending",
    "responsible_agency": "Department of Public Works",
    "final_address": "2338 Conti St",
    "address_councildis": "B",
    "status": "Pending",
    "rowid": "993841",
    "final_x": "3677136.47426",
    "final_y": "535172.29095",
    "longitude": "-90.0817228012638",
    "latitude": "29.965670016218585",
    "geocoded_column": {
      "latitude": "29.965670016218585",
      "longitude": "-90.0817228012638"
    }
  },
  {
    "service_request": "2023-993840",
    "request_type": "Trash/Recycling",
    "request_reason": "Request a Large Item Pick Up",
    "date_created": "2023-04-24T15:39:21.000",
    "date_modified": "2023-04-24T15:39:21.000",
    "request_status": "Pending",
    "responsible_agency": "Department of Sanitation",
    "final_address": "7722 Willow St B",
    "address_councildis": "A",
    "status": "Assigned to Contractor",
    "contractor": "Richards Disposal",
    "rowid": "993840",
    "final_x": "3663351.69402",
    "final_y": "527988.742015",
    "longitude": "-90.12549394691156",
    "latitude": "29.946324410510123",
    "geocoded_column": {
      "latitude": "29.946324410510123",
      "longitude": "-90.12549394691156"
    }
  },
  {
    "service_request": "2023-993839",
    "request_type": "Roads/Drainage",
    "request_reason": "Street Subsidence (Sinking)",
    "date_created": "2023-04-24T15:38:57.000",
    "date_modified": "2023-04-24T15:38:58.000",
    "request_status": "Pending",
    "responsible_agency": "Department of Public Works",
    "final_address": "9127 Palmetto St A",
    "address_councildis": "A",
    "status": "Pending",
    "rowid": "993839",
    "final_x": "3665440.0681",
    "final_y": "537792.169864",
    "longitude": "-90.11857204608448",
    "latitude": "29.973219930093983",
    "geocoded_column": {
      "latitude": "29.973219930093983",
      "longitude": "-90.11857204608448"
    }
  },
  {
    "service_request": "2023-993838",
    "request_type": "Trash/Recycling",
    "request_reason": "Request a Large Item Pick Up",
    "date_created": "2023-04-24T15:38:05.000",
    "date_modified": "2023-04-24T15:38:06.000",
    "request_status": "Pending",
    "responsible_agency": "Department of Sanitation",
    "final_address": "916 Jourdan Ave",
    "address_councildis": "E",
    "status": "Assigned to Contractor",
    "contractor": "Waste Pro",
    "rowid": "993838",
    "final_x": "3694783.21629",
    "final_y": "533885.764613",
    "longitude": "-90.02604168083347",
    "latitude": "29.961590709144318",
    "geocoded_column": {
      "latitude": "29.961590709144318",
      "longitude": "-90.02604168083347"
    }
  },
  {
    "service_request": "2023-993837",
    "request_type": "Trash/Recycling",
    "request_reason": "Order Trash Cart",
    "date_created": "2023-04-24T15:36:26.000",
    "date_modified": "2023-04-24T15:36:26.000",
    "request_status": "Pending",
    "responsible_agency": "Department of Sanitation",
    "final_address": "1315 Lark St",
    "address_councildis": "D",
    "status": "Assigned to Contractor",
    "contractor": "IV Waste",
    "rowid": "993837",
    "final_x": "3677498.8804",
    "final_y": "556748.031898",
    "longitude": "-90.07983296415483",
    "latitude": "30.024984823697828",
    "geocoded_column": {
      "latitude": "30.024984823697828",
      "longitude": "-90.07983296415483"
    }
  },
  {
    "service_request": "2023-993836",
    "request_type": "Abandoned Vehicles",
    "request_reason": "Abandoned/Junk Vehicles",
    "date_created": "2023-04-24T15:35:40.000",
    "date_modified": "2023-04-24T15:35:41.000",
    "request_status": "Pending",
    "responsible_agency": "Department of Public Works",
    "final_address": "3334 Grand Route St John St",
    "address_councildis": "A",
    "status": "Pending",
    "rowid": "993836",
    "final_x": "3675496.74606",
    "final_y": "540299.792139",
    "longitude": "-90.08672484144358",
    "latitude": "29.979818043747027",
    "geocoded_column": {
      "latitude": "29.979818043747027",
      "longitude": "-90.08672484144358"
    }
  },
  {
    "service_request": "2023-993835",
    "request_type": "Trash/Recycling",
    "request_reason": "Request a Large Item Pick Up",
    "date_created": "2023-04-24T15:33:20.000",
    "date_modified": "2023-04-24T15:33:20.000",
    "request_status": "Pending",
    "responsible_agency": "Department of Sanitation",
    "final_address": "2523 Nashville Ave",
    "address_councildis": "A",
    "status": "Assigned to Contractor",
    "contractor": "Richards Disposal",
    "rowid": "993835",
    "final_x": "3667271.78407",
    "final_y": "525372.646269",
    "longitude": "-90.11320476201956",
    "latitude": "29.93901678700318",
    "geocoded_column": {
      "latitude": "29.93901678700318",
      "longitude": "-90.11320476201956"
    }
  },
  {
    "service_request": "2023-993834",
    "request_type": "Trash/Recycling",
    "request_reason": "Request a Large Item Pick Up",
    "date_created": "2023-04-24T15:33:12.000",
    "date_modified": "2023-04-24T15:33:12.000",
    "request_status": "Pending",
    "responsible_agency": "Department of Sanitation",
    "final_address": "3741 Rue Mignon",
    "address_councildis": "C",
    "status": "Assigned to Contractor",
    "contractor": "Richards Disposal",
    "rowid": "993834",
    "final_x": "3703236.54295",
    "final_y": "516679.621621",
    "longitude": "-89.99997994256609",
    "latitude": "29.914011961950614",
    "geocoded_column": {
      "latitude": "29.914011961950614",
      "longitude": "-89.99997994256609"
    }
  },
  {
    "service_request": "2023-993833",
    "request_type": "Trash/Recycling",
    "request_reason": "Request a Large Item Pick Up",
    "date_created": "2023-04-24T15:32:51.000",
    "date_modified": "2023-04-24T15:32:52.000",
    "request_status": "Pending",
    "responsible_agency": "Department of Sanitation",
    "final_address": "7819 Mercier St",
    "address_councildis": "E",
    "status": "Assigned to Contractor",
    "contractor": "Waste Pro",
    "rowid": "993833",
    "final_x": "3711086.40037",
    "final_y": "567095.634276",
    "longitude": "-89.97331474221654",
    "latitude": "30.05238352263999",
    "geocoded_column": {
      "latitude": "30.05238352263999",
      "longitude": "-89.97331474221654"
    }
  },
  {
    "service_request": "2023-993832",
    "request_type": "Roads/Drainage",
    "request_reason": "Street Subsidence (Sinking)",
    "date_created": "2023-04-24T15:32:46.000",
    "date_modified": "2023-04-24T15:32:47.000",
    "request_status": "Pending",
    "responsible_agency": "Department of Public Works",
    "final_address": "8200 Palmetto St",
    "address_councildis": "A",
    "status": "Pending",
    "rowid": "993832",
    "final_x": "3667690.19386",
    "final_y": "535456.130566",
    "longitude": "-90.11154433957769",
    "latitude": "29.96673081663645",
    "geocoded_column": {
      "latitude": "29.96673081663645",
      "longitude": "-90.11154433957769"
    }
  },
  {
    "service_request": "2023-993831",
    "request_type": "Trash/Recycling",
    "request_reason": "Order Recycling Cart",
    "date_created": "2023-04-24T15:31:40.000",
    "date_modified": "2023-04-24T15:31:40.000",
    "request_status": "Pending",
    "responsible_agency": "Department of Sanitation",
    "final_address": "3638 Inwood Ave",
    "address_councildis": "C",
    "status": "Pending",
    "contractor": "Richards Disposal",
    "rowid": "993831",
    "final_x": "3704054.59582",
    "final_y": "515076.138099",
    "longitude": "-89.99745692432411",
    "latitude": "29.9095767313571",
    "geocoded_column": {
      "latitude": "29.9095767313571",
      "longitude": "-89.99745692432411"
    }
  },
  {
    "service_request": "2023-993830",
    "request_type": "Trash/Recycling",
    "request_reason": "Request a Large Item Pick Up",
    "date_created": "2023-04-24T15:31:18.000",
    "date_modified": "2023-04-24T15:31:19.000",
    "request_status": "Pending",
    "responsible_agency": "Department of Sanitation",
    "final_address": "3638 Inwood Ave",
    "address_councildis": "C",
    "status": "Assigned to Contractor",
    "contractor": "Richards Disposal",
    "rowid": "993830",
    "final_x": "3704054.59582",
    "final_y": "515076.138099",
    "longitude": "-89.99745692432411",
    "latitude": "29.9095767313571",
    "geocoded_column": {
      "latitude": "29.9095767313571",
      "longitude": "-89.99745692432411"
    }
  },
  {
    "service_request": "2023-993829",
    "request_type": "Abandoned Vehicles",
    "request_reason": "Abandoned/Junk Vehicles",
    "date_created": "2023-04-24T15:30:50.000",
    "date_modified": "2023-04-24T15:30:50.000",
    "request_status": "Pending",
    "responsible_agency": "Department of Public Works",
    "final_address": "1545 Sixth St",
    "address_councildis": "B",
    "status": "Pending",
    "rowid": "993829",
    "final_x": "3675601.21806",
    "final_y": "522148.22041",
    "longitude": "-90.08701844753327",
    "latitude": "29.9299041589221",
    "geocoded_column": {
      "latitude": "29.9299041589221",
      "longitude": "-90.08701844753327"
    }
  },
  {
    "service_request": "2023-993828",
    "request_type": "Trash/Recycling",
    "request_reason": "Replace Trash Cart",
    "date_created": "2023-04-24T15:30:35.000",
    "date_modified": "2023-04-24T15:30:36.000",
    "request_status": "Pending",
    "responsible_agency": "Department of Sanitation",
    "final_address": "5536 Dayna Ct",
    "address_councildis": "A",
    "status": "Assigned to Contractor",
    "contractor": "IV Waste",
    "rowid": "993828",
    "final_x": "3664451.72922",
    "final_y": "544100.152782",
    "longitude": "-90.12148273659513",
    "latitude": "29.990593540055713",
    "geocoded_column": {
      "latitude": "29.990593540055713",
      "longitude": "-90.12148273659513"
    }
  },
  {
    "service_request": "2023-993827",
    "request_type": "Trash/Recycling",
    "request_reason": "Request a Large Item Pick Up",
    "date_created": "2023-04-24T15:30:21.000",
    "date_modified": "2023-04-24T15:30:45.000",
    "request_status": "Pending",
    "responsible_agency": "Department of Sanitation",
    "final_address": "14073 Wales St",
    "address_councildis": "E",
    "status": "Assigned to Contractor",
    "contractor": "Waste Pro",
    "rowid": "993827",
    "final_x": "3718411.58604",
    "final_y": "572884.692137",
    "longitude": "-89.94994134629324",
    "latitude": "30.068059925635858",
    "geocoded_column": {
      "latitude": "30.068059925635858",
      "longitude": "-89.94994134629324"
    }
  },
  {
    "service_request": "2023-993826",
    "request_type": "Trash/Recycling",
    "request_reason": "Repair Trash Cart",
    "date_created": "2023-04-24T15:30:02.000",
    "date_modified": "2023-04-24T15:30:30.000",
    "request_status": "Pending",
    "responsible_agency": "Department of Sanitation",
    "final_address": "3911 Virgil Blvd",
    "address_councildis": "D",
    "status": "Assigned to Contractor",
    "contractor": "IV Waste",
    "rowid": "993826",
    "final_x": "3680236.59842",
    "final_y": "546969.924817",
    "longitude": "-90.07152245885275",
    "latitude": "29.998015923085354",
    "geocoded_column": {
      "latitude": "29.998015923085354",
      "longitude": "-90.07152245885275"
    }
  },
  {
    "service_request": "2023-993825",
    "request_type": "Trash/Recycling",
    "request_reason": "Order Recycling Cart",
    "date_created": "2023-04-24T15:29:57.000",
    "date_modified": "2023-04-24T15:29:57.000",
    "request_status": "Pending",
    "responsible_agency": "Department of Sanitation",
    "final_address": "716 Peniston St",
    "address_councildis": "B",
    "status": "Pending",
    "rowid": "993825",
    "final_x": "3673485.12014",
    "final_y": "518469.724342",
    "longitude": "-90.09382423794936",
    "latitude": "29.91985259424551",
    "geocoded_column": {
      "latitude": "29.91985259424551",
      "longitude": "-90.09382423794936"
    }
  },
  {
    "service_request": "2023-993824",
    "request_type": "Trash/Recycling",
    "request_reason": "Request a Large Item Pick Up",
    "date_created": "2023-04-24T15:28:49.000",
    "date_modified": "2023-04-24T15:28:50.000",
    "request_status": "Pending",
    "responsible_agency": "Department of Sanitation",
    "final_address": "23 Honeysuckle Ln",
    "address_councildis": "E",
    "status": "Assigned to Contractor",
    "contractor": "Waste Pro",
    "rowid": "993824",
    "final_x": "3712947.10264",
    "final_y": "568449.062373",
    "longitude": "-89.96738267223158",
    "latitude": "30.056044040651045",
    "geocoded_column": {
      "latitude": "30.056044040651045",
      "longitude": "-89.96738267223158"
    }
  },
  {
    "service_request": "2023-993823",
    "request_type": "Traffic Signals/Signs/Striping/Streetlights",
    "request_reason": "Traffic Sign Missing/Damaged",
    "date_created": "2023-04-24T15:27:52.000",
    "date_modified": "2023-04-24T15:27:52.000",
    "request_status": "Pending",
    "responsible_agency": "Department of Public Works",
    "final_address": "HOLIDAY DR & MACARTHUR BLVD",
    "address_councildis": "C",
    "status": "Pending",
    "rowid": "993823",
    "final_x": "3698736.7",
    "final_y": "520398.98",
    "longitude": "-90.01404767124727",
    "latitude": "29.924382143358752",
    "geocoded_column": {
      "latitude": "29.924382143358752",
      "longitude": "-90.01404767124727"
    }
  },
  {
    "service_request": "2023-993822",
    "request_type": "Traffic Signals/Signs/Striping/Streetlights",
    "request_reason": "Street Light Outage/Malfunction",
    "date_created": "2023-04-24T15:23:52.000",
    "date_modified": "2023-04-24T15:26:15.000",
    "request_status": "Pending",
    "responsible_agency": "Department of Public Works",
    "final_address": "5941 Kensington Blvd",
    "address_councildis": "E",
    "status": "Assigned to Contractor",
    "contractor": "Legacy Professional Services",
    "rowid": "993822",
    "final_x": "3713383.54693",
    "final_y": "561324.800926",
    "longitude": "-89.96627182301239",
    "latitude": "30.036440894918673",
    "geocoded_column": {
      "latitude": "30.036440894918673",
      "longitude": "-89.96627182301239"
    }
  },
  {
    "service_request": "2023-993821",
    "request_type": "Trash/Recycling",
    "request_reason": "Repair Trash Cart",
    "date_created": "2023-04-24T15:22:17.000",
    "date_modified": "2023-04-24T15:22:17.000",
    "request_status": "Pending",
    "responsible_agency": "Department of Sanitation",
    "final_address": "2418 General Collins Ave",
    "address_councildis": "C",
    "status": "Assigned to Contractor",
    "contractor": "Richards Disposal",
    "rowid": "993821",
    "final_x": "3698479.55447",
    "final_y": "522178.896634",
    "longitude": "-90.01479473241493",
    "latitude": "29.92928444211377",
    "geocoded_column": {
      "latitude": "29.92928444211377",
      "longitude": "-90.01479473241493"
    }
  },
  {
    "service_request": "2023-993820",
    "request_type": "Property Maintenance",
    "request_reason": "Property Maintenance",
    "date_created": "2023-04-24T15:21:04.000",
    "date_modified": "2023-04-24T15:21:04.000",
    "request_status": "Pending",
    "responsible_agency": "Department of Code Enforcement",
    "final_address": "27 Christopher Ct",
    "address_councildis": "E",
    "status": "Pending",
    "rowid": "993820",
    "final_x": "3716452.68127",
    "final_y": "570139.390823",
    "longitude": "-89.95623807308125",
    "latitude": "30.060576373175895",
    "geocoded_column": {
      "latitude": "30.060576373175895",
      "longitude": "-89.95623807308125"
    }
  },
  {
    "service_request": "2023-993819",
    "request_type": "Property Maintenance",
    "request_reason": "Property Maintenance",
    "date_created": "2023-04-24T15:20:37.000",
    "date_modified": "2023-04-24T15:20:38.000",
    "request_status": "Pending",
    "responsible_agency": "Department of Code Enforcement",
    "final_address": "25 Christopher Ct",
    "address_councildis": "E",
    "status": "Pending",
    "rowid": "993819",
    "final_x": "3716529.39122",
    "final_y": "570203.688999",
    "longitude": "-89.9559931551734",
    "latitude": "30.060750631364407",
    "geocoded_column": {
      "latitude": "30.060750631364407",
      "longitude": "-89.9559931551734"
    }
  },
  {
    "service_request": "2023-993818",
    "request_type": "Trash/Recycling",
    "request_reason": "Order Recycling Cart",
    "date_created": "2023-04-24T15:19:53.000",
    "date_modified": "2023-04-24T15:19:53.000",
    "request_status": "Pending",
    "responsible_agency": "Department of Sanitation",
    "final_address": "4349 Vixen St",
    "address_councildis": "C",
    "status": "Pending",
    "rowid": "993818",
    "final_x": "3699742.62116",
    "final_y": "520641.702328",
    "longitude": "-90.01086350171144",
    "latitude": "29.925017661815442",
    "geocoded_column": {
      "latitude": "29.925017661815442",
      "longitude": "-90.01086350171144"
    }
  },
  {
    "service_request": "2023-993817",
    "request_type": "Property Maintenance",
    "request_reason": "Property Maintenance",
    "date_created": "2023-04-24T15:19:27.000",
    "date_modified": "2023-04-24T15:19:27.000",
    "request_status": "Pending",
    "responsible_agency": "Department of Code Enforcement",
    "final_address": "3231 Milan St",
    "address_councildis": "B",
    "status": "Pending",
    "rowid": "993817",
    "final_x": "3671041.98779",
    "final_y": "526909.388286",
    "longitude": "-90.10124958426898",
    "latitude": "29.94313140034041",
    "geocoded_column": {
      "latitude": "29.94313140034041",
      "longitude": "-90.10124958426898"
    }
  },
  {
    "service_request": "2023-993816",
    "request_type": "Trash/Recycling",
    "request_reason": "Order Recycling Cart",
    "date_created": "2023-04-24T15:17:32.000",
    "date_modified": "2023-04-24T15:17:32.000",
    "request_status": "Pending",
    "responsible_agency": "Department of Sanitation",
    "final_address": "7825 Primrose Dr",
    "address_councildis": "E",
    "status": "Pending",
    "rowid": "993816",
    "final_x": "3701575.30858",
    "final_y": "561890.159455",
    "longitude": "-90.00356726172112",
    "latitude": "30.038377489445327",
    "geocoded_column": {
      "latitude": "30.038377489445327",
      "longitude": "-90.00356726172112"
    }
  },
  {
    "service_request": "2023-993815",
    "request_type": "Trash/Recycling",
    "request_reason": "Replace Trash Cart",
    "date_created": "2023-04-24T15:13:35.000",
    "date_modified": "2023-04-24T15:13:36.000",
    "request_status": "Pending",
    "responsible_agency": "Department of Sanitation",
    "final_address": "6969 General Diaz St",
    "address_councildis": "A",
    "status": "Assigned to Contractor",
    "contractor": "IV Waste",
    "rowid": "993815",
    "final_x": "3670167.10433",
    "final_y": "553800.522647",
    "longitude": "-90.10310026401277",
    "latitude": "30.01709872525129",
    "geocoded_column": {
      "latitude": "30.01709872525129",
      "longitude": "-90.10310026401277"
    }
  },
  {
    "service_request": "2023-993814",
    "request_type": "Traffic Signals/Signs/Striping/Streetlights",
    "request_reason": "Street Name Sign Damaged or Missing",
    "date_created": "2023-04-24T15:13:30.000",
    "date_modified": "2023-04-24T15:13:31.000",
    "request_status": "Pending",
    "responsible_agency": "Department of Public Works",
    "final_address": "5113 Sandhurst Dr",
    "address_councildis": "E",
    "status": "Pending",
    "rowid": "993814",
    "final_x": "3705241.19243",
    "final_y": "556791.116186",
    "longitude": "-89.99217080456813",
    "latitude": "30.02423962712976",
    "geocoded_column": {
      "latitude": "30.02423962712976",
      "longitude": "-89.99217080456813"
    }
  },
  {
    "service_request": "2023-993813",
    "request_type": "Roads/Drainage",
    "request_reason": "Street Subsidence (Sinking)",
    "date_created": "2023-04-24T15:13:12.000",
    "date_modified": "2023-04-24T16:24:23.000",
    "case_close_date": "2023-04-24T11:24:23.000",
    "request_status": "Closed",
    "responsible_agency": "Department of Public Works",
    "final_address": "MORRISON RD & BEACONFIELD DR",
    "address_councildis": "E",
    "status": "Duplicate Request",
    "rowid": "993813",
    "final_x": "3713155.8",
    "final_y": "566290.88",
    "longitude": "-89.9668043780795",
    "latitude": "30.05010307749456",
    "geocoded_column": {
      "latitude": "30.05010307749456",
      "longitude": "-89.9668043780795"
    }
  },
  {
    "service_request": "2023-993812",
    "request_type": "Abandoned Vehicles",
    "request_reason": "Abandoned/Junk Vehicles",
    "date_created": "2023-04-24T15:11:49.000",
    "date_modified": "2023-04-24T15:11:49.000",
    "request_status": "Pending",
    "responsible_agency": "Department of Public Works",
    "final_address": "3712 Trafalgar St",
    "address_councildis": "A",
    "status": "Pending",
    "rowid": "993812",
    "final_x": "3676869.97333",
    "final_y": "543155.016909",
    "longitude": "-90.08228916468823",
    "latitude": "29.987627771806196",
    "geocoded_column": {
      "latitude": "29.987627771806196",
      "longitude": "-90.08228916468823"
    }
  },
  {
    "service_request": "2023-993811",
    "request_type": "Property Maintenance",
    "request_reason": "Property Maintenance",
    "date_created": "2023-04-24T15:10:27.000",
    "date_modified": "2023-04-24T15:10:28.000",
    "request_status": "Pending",
    "responsible_agency": "Department of Code Enforcement",
    "final_address": "850 City Park Ave",
    "address_councildis": "A",
    "status": "Pending",
    "rowid": "993811",
    "final_x": "3671420.58094",
    "final_y": "541594.805132",
    "longitude": "-90.09955502994619",
    "latitude": "29.983500195221303",
    "geocoded_column": {
      "latitude": "29.983500195221303",
      "longitude": "-90.09955502994619"
    }
  },
  {
    "service_request": "2023-993810",
    "request_type": "Property Maintenance",
    "request_reason": "Property Maintenance",
    "date_created": "2023-04-24T15:10:07.000",
    "date_modified": "2023-04-24T15:10:08.000",
    "request_status": "Pending",
    "responsible_agency": "Department of Code Enforcement",
    "final_address": "840 City Park Ave",
    "address_councildis": "A",
    "status": "Pending",
    "rowid": "993810",
    "final_x": "3671420.58094",
    "final_y": "541594.805132",
    "longitude": "-90.09955502994619",
    "latitude": "29.983500195221303",
    "geocoded_column": {
      "latitude": "29.983500195221303",
      "longitude": "-90.09955502994619"
    }
  },
  {
    "service_request": "2023-993809",
    "request_type": "Trash/Recycling",
    "request_reason": "Request a Large Item Pick Up",
    "date_created": "2023-04-24T15:07:54.000",
    "date_modified": "2023-04-24T15:07:55.000",
    "request_status": "Pending",
    "responsible_agency": "Department of Sanitation",
    "final_address": "713 Forstall St",
    "address_councildis": "E",
    "status": "Assigned to Contractor",
    "contractor": "Waste Pro",
    "rowid": "993809",
    "final_x": "3695912.14326",
    "final_y": "532823.310596",
    "longitude": "-90.02251511769222",
    "latitude": "29.95863387206328",
    "geocoded_column": {
      "latitude": "29.95863387206328",
      "longitude": "-90.02251511769222"
    }
  },
  {
    "service_request": "2023-993808",
    "request_type": "Abandoned Vehicles",
    "request_reason": "Abandoned/Junk Vehicles",
    "date_created": "2023-04-24T15:04:48.000",
    "date_modified": "2023-04-24T15:04:48.000",
    "request_status": "Pending",
    "responsible_agency": "Department of Public Works",
    "final_address": "1200 N Tonti St",
    "address_councildis": "D",
    "status": "Pending",
    "rowid": "993808",
    "final_x": "3678972.46914",
    "final_y": "537594.754888",
    "longitude": "-90.0758408443045",
    "latitude": "29.972275691709978",
    "geocoded_column": {
      "latitude": "29.972275691709978",
      "longitude": "-90.0758408443045"
    }
  },
  {
    "service_request": "2023-993807",
    "request_type": "Trash/Recycling",
    "request_reason": "Request a Large Item Pick Up",
    "date_created": "2023-04-24T15:02:39.000",
    "date_modified": "2023-04-24T15:02:40.000",
    "request_status": "Pending",
    "responsible_agency": "Department of Sanitation",
    "final_address": "2922 Dublin St",
    "address_councildis": "A",
    "status": "Assigned to Contractor",
    "contractor": "Richards Disposal",
    "rowid": "993807",
    "final_x": "3665906.65332",
    "final_y": "533283.639428",
    "longitude": "-90.11724958787177",
    "latitude": "29.960809353191017",
    "geocoded_column": {
      "latitude": "29.960809353191017",
      "longitude": "-90.11724958787177"
    }
  },
  {
    "service_request": "2023-993806",
    "request_type": "Traffic Signals/Signs/Striping/Streetlights",
    "request_reason": "Street Light Outage/Malfunction",
    "date_created": "2023-04-24T15:02:01.000",
    "date_modified": "2023-04-24T15:02:01.000",
    "request_status": "Pending",
    "responsible_agency": "Department of Public Works",
    "final_address": "800 BLK Austerlitz St",
    "address_councildis": "B",
    "status": "Assigned to Contractor",
    "contractor": "Legacy Professional Services",
    "rowid": "993806",
    "final_x": "3672888.16829",
    "final_y": "518781.708287",
    "longitude": "-90.09569789076463",
    "latitude": "29.92072819313916",
    "geocoded_column": {
      "latitude": "29.92072819313916",
      "longitude": "-90.09569789076463"
    }
  },
  {
    "service_request": "2023-993805",
    "request_type": "Trash/Recycling",
    "request_reason": "Illegal Dumping",
    "date_created": "2023-04-24T15:01:06.000",
    "date_modified": "2023-04-24T15:01:07.000",
    "request_status": "Pending",
    "responsible_agency": "Department of Sanitation",
    "final_address": "LAW ST & ALMONASTER AV OVERPASS",
    "address_councildis": "D",
    "status": "Pending",
    "rowid": "993805",
    "final_x": "3688515.3",
    "final_y": "542128.91",
    "longitude": "-90.04554210344119",
    "latitude": "29.984451599715083",
    "geocoded_column": {
      "latitude": "29.984451599715083",
      "longitude": "-90.04554210344119"
    }
  },