[
  {
    "service_request": "2024-1103029",
    "request_type": "Roads/Drainage",
    "request_reason": "Pothole",
    "date_created": "2024-06-12T23:32:50.000",
    "date_modified": "2024-06-12T23:32:50.000",
    "request_status": "Pending",
    "responsible_agency": "Department of Public Works",
    "final_address": "900 BLK General Pershing St",
    "address_councildis": "B",
    "status": "Pending",
    "rowid": "1103029",
    "final_x": "3671434.25257",
    "final_y": "519008.473254",
    "longitude": "-90.10027954212089",
    "latitude": "29.921394825297973",
    "geocoded_column": {
      "latitude": "29.921394825297973",
      "longitude": "-90.10027954212089"
    }
  },
  {
    "service_request": "2024-1103028",
    "request_type": "Property Maintenance",
    "request_reason": "Property Maintenance",
    "date_created": "2024-06-12T23:13:03.000",
    "date_modified": "2024-06-12T23:13:03.000",
    "request_status": "Pending",
    "responsible_agency": "Department of Code Enforcement",
    "final_address": "1508 Marais St",
    "address_councildis": "C",
    "status": "Pending",
    "rowid": "1103028",
    "final_x": "3682751.39285",
    "final_y": "536418.958343",
    "longitude": "-90.06394750752477",
    "latitude": "29.96892808465146",
    "geocoded_column": {
      "latitude": "29.96892808465146",
      "longitude": "-90.06394750752477"
    }
  },
  {
    "service_request": "2024-1103027",
    "request_type": "Roads/Drainage",
    "request_reason": "Pothole",
    "date_created": "2024-06-12T23:10:56.000",
    "date_modified": "2024-06-12T23:10:56.000",
    "request_status": "Pending",
    "responsible_agency": "Department of Public Works",
    "final_address": "4216 Coliseum St",
    "address_councildis": "B",
    "status": "Pending",
    "rowid": "1103027",
    "final_x": "3671574.34702",
    "final_y": "519828.46828",
    "longitude": "-90.09980946002878",
    "latitude": "29.923645404197224",
    "geocoded_column": {
      "latitude": "29.923645404197224",
      "longitude": "-90.09980946002878"
    }
  },
  {
    "service_request": "2024-1103026",
    "request_type": "Property Maintenance",
    "request_reason": "Property Maintenance",
    "date_created": "2024-06-12T22:35:14.000",
    "date_modified": "2024-06-12T22:35:14.000",
    "request_status": "Pending",
    "responsible_agency": "Department of Code Enforcement",
    "final_address": "3930 Mimosa Dr",
    "address_councildis": "C",
    "status": "Pending",
    "rowid": "1103026",
    "final_x": "3704587.09802",
    "final_y": "512879.362225",
    "longitude": "-89.99585719070468",
    "latitude": "29.903519266042185",
    "geocoded_column": {
      "latitude": "29.903519266042185",
      "longitude": "-89.99585719070468"
    }
  },
  {
    "service_request": "2024-1103025",
    "request_type": "Property Maintenance",
    "request_reason": "Property Maintenance",
    "date_created": "2024-06-12T22:31:14.000",
    "date_modified": "2024-06-12T22:31:14.000",
    "request_status": "Pending",
    "responsible_agency": "Department of Code Enforcement",
    "final_address": "3930 Mimosa Dr",
    "address_councildis": "C",
    "status": "Pending",
    "rowid": "1103025",
    "final_x": "3704587.09802",
    "final_y": "512879.362225",
    "longitude": "-89.99585719070468",
    "latitude": "29.903519266042185",
    "geocoded_column": {
      "latitude": "29.903519266042185",
      "longitude": "-89.99585719070468"
    }
  },
  {
    "service_request": "2024-1103024",
    "request_type": "Property Maintenance",
    "request_reason": "Property Maintenance",
    "date_created": "2024-06-12T22:29:48.000",
    "date_modified": "2024-06-12T22:29:48.000",
    "request_status": "Pending",
    "responsible_agency": "Department of Code Enforcement",
    "final_address": "3930 Mimosa Dr",
    "address_councildis": "C",
    "status": "Pending",
    "rowid": "1103024",
    "final_x": "3704587.09802",
    "final_y": "512879.362225",
    "longitude": "-89.99585719070468",
    "latitude": "29.903519266042185",
    "geocoded_column": {
      "latitude": "29.903519266042185",
      "longitude": "-89.99585719070468"
    }
  },
  {
    "service_request": "2024-1103023",
    "request_type": "Traffic Signals/Signs/Striping/Streetlights",
    "request_reason": "Street Light Outage/Malfunction",
    "date_created": "2024-06-12T22:28:54.000",
    "date_modified": "2024-06-12T22:28:55.000",
    "request_status": "Pending",
    "responsible_agency": "Department of Public Works",
    "final_address": "21 Petit Bayou Ln, New Orleans, Louisiana, 70129",
    "address_councildis": "E",
    "status": "Assigned to Contractor",
    "contractor": "Legacy Professional Services",
    "rowid": "1103023",
    "final_x": "3724916.94502",
    "final_y": "564160.515809",
    "longitude": "-89.92971470100946",
    "latitude": "30.043854546814966",
    "geocoded_column": {
      "latitude": "30.043854546814966",
      "longitude": "-89.92971470100946"
    }
  },
  {
    "service_request": "2024-1103022",
    "request_type": "Traffic Signals/Signs/Striping/Streetlights",
    "request_reason": "Street Light Outage/Malfunction",
    "date_created": "2024-06-12T22:23:06.000",
    "date_modified": "2024-06-12T22:23:06.000",
    "request_status": "Pending",
    "responsible_agency": "Department of Public Works",
    "final_address": "0 BLK Petit Bayou Ln",
    "address_councildis": "E",
    "status": "Assigned to Contractor",
    "contractor": "Legacy Professional Services",
    "rowid": "1103022",
    "final_x": "3724852.17985",
    "final_y": "563983.734025",
    "longitude": "-89.92992622726281",
    "latitude": "30.04337065142619",
    "geocoded_column": {
      "latitude": "30.04337065142619",
      "longitude": "-89.92992622726281"
    }
  },
  {
    "service_request": "2024-1103021",
    "request_type": "Trash/Recycling",
    "request_reason": "Repair Trash Cart",
    "date_created": "2024-06-12T22:15:31.000",
    "date_modified": "2024-06-12T22:15:32.000",
    "request_status": "Pending",
    "responsible_agency": "Department of Sanitation",
    "final_address": "5000 Mexico St",
    "address_councildis": "D",
    "status": "Assigned to Contractor",
    "contractor": "IV Waste",
    "rowid": "1103021",
    "final_x": "3690940.74819",
    "final_y": "556509.45129",
    "longitude": "-90.03736748920235",
    "latitude": "30.02391763759887",
    "geocoded_column": {
      "latitude": "30.02391763759887",
      "longitude": "-90.03736748920235"
    }
  },
  {
    "service_request": "2024-1103020",
    "request_type": "Property Maintenance",
    "request_reason": "Property Maintenance",
    "date_created": "2024-06-12T22:03:30.000",
    "date_modified": "2024-06-12T22:03:30.000",
    "request_status": "Pending",
    "responsible_agency": "Department of Code Enforcement",
    "final_address": "5612 Hawthorne Pl",
    "address_councildis": "A",
    "status": "Pending",
    "rowid": "1103020",
    "final_x": "3667788.35476",
    "final_y": "544735.861455",
    "longitude": "-90.11092170963295",
    "latitude": "29.992244068560925",
    "geocoded_column": {
      "latitude": "29.992244068560925",
      "longitude": "-90.11092170963295"
    }
  },
  {
    "service_request": "2024-1103019",
    "request_type": "Trash/Recycling",
    "request_reason": "Request a Large Item Pick Up",
    "date_created": "2024-06-12T21:19:25.000",
    "date_modified": "2024-06-12T21:19:26.000",
    "request_status": "Pending",
    "responsible_agency": "Department of Sanitation",
    "final_address": "4114 State Street Dr",
    "address_councildis": "B",
    "status": "Assigned to Contractor",
    "contractor": "IV Waste",
    "rowid": "1103019",
    "final_x": "3668323.03342",
    "final_y": "530781.827266",
    "longitude": "-90.10970346438634",
    "latitude": "29.95385945599723",
    "geocoded_column": {
      "latitude": "29.95385945599723",
      "longitude": "-90.10970346438634"
    }
  },
  {
    "service_request": "2024-1103016",
    "request_type": "Trash/Recycling",
    "request_reason": "Start Trash Service",
    "date_created": "2024-06-12T20:55:42.000",
    "date_modified": "2024-06-12T20:55:43.000",
    "request_status": "Pending",
    "responsible_agency": "Department of Sanitation",
    "final_address": "3848 Napoleon Ave",
    "address_councildis": "B",
    "status": "Assigned to Contractor",
    "contractor": "IV Waste",
    "rowid": "1103016",
    "final_x": "3669941.99258",
    "final_y": "528913.871232",
    "longitude": "-90.10465469049362",
    "latitude": "29.948675552063694",
    "geocoded_column": {
      "latitude": "29.948675552063694",
      "longitude": "-90.10465469049362"
    }
  },
  {
    "service_request": "2024-1103015",
    "request_type": "Traffic Signals/Signs/Striping/Streetlights",
    "request_reason": "Street Light Outage/Malfunction",
    "date_created": "2024-06-12T20:45:34.000",
    "date_modified": "2024-06-12T20:45:35.000",
    "request_status": "Pending",
    "responsible_agency": "Department of Public Works",
    "final_address": "2021 Chestnut St",
    "address_councildis": "B",
    "status": "Assigned to Contractor",
    "contractor": "Legacy Professional Services",
    "rowid": "1103015",
    "final_x": "3678874.11592",
    "final_y": "523055.073083",
    "longitude": "-90.07665506618164",
    "latitude": "29.93229941557592",
    "geocoded_column": {
      "latitude": "29.93229941557592",
      "longitude": "-90.07665506618164"
    }
  },
  {
    "service_request": "2024-1103014",
    "request_type": "Trash/Recycling",
    "request_reason": "Replace Recycling Cart",
    "date_created": "2024-06-12T20:37:43.000",
    "date_modified": "2024-06-12T20:37:43.000",
    "request_status": "Pending",
    "responsible_agency": "Department of Sanitation",
    "final_address": "1728 Fourth St",
    "address_councildis": "B",
    "status": "Pending",
    "rowid": "1103014",
    "final_x": "3675810.30888",
    "final_y": "523212.994363",
    "longitude": "-90.08632180164958",
    "latitude": "29.932825685759862",
    "geocoded_column": {
      "latitude": "29.932825685759862",
      "longitude": "-90.08632180164958"
    }
  },
  {
    "service_request": "2024-1103013",
    "request_type": "Trash/Recycling",
    "request_reason": "Replace Trash Cart",
    "date_created": "2024-06-12T20:26:18.000",
    "date_modified": "2024-06-12T20:26:19.000",
    "request_status": "Pending",
    "responsible_agency": "Department of Sanitation",
    "final_address": "4166 Bienville Ave",
    "address_councildis": "A",
    "status": "Assigned to Contractor",
    "contractor": "IV Waste",
    "rowid": "1103013",
    "final_x": "3671114.69511",
    "final_y": "539227.768778",
    "longitude": "-90.10060161370451",
    "latitude": "29.977000703371946",
    "geocoded_column": {
      "latitude": "29.977000703371946",
      "longitude": "-90.10060161370451"
    }
  },
  {
    "service_request": "2024-1103012",
    "request_type": "Property Maintenance",
    "request_reason": "Property Maintenance",
    "date_created": "2024-06-12T20:18:26.000",
    "date_modified": "2024-06-12T20:18:26.000",
    "request_status": "Pending",
    "responsible_agency": "Department of Code Enforcement",
    "final_address": "2415 St Thomas St",
    "address_councildis": "B",
    "status": "Pending",
    "rowid": "1103012",
    "final_x": "3678934.64194",
    "final_y": "519924.58476",
    "longitude": "-90.07657238446174",
    "latitude": "29.92368977010126",
    "geocoded_column": {
      "latitude": "29.92368977010126",
      "longitude": "-90.07657238446174"
    }
  },
  {
    "service_request": "2024-1103011",
    "request_type": "Trash/Recycling",
    "request_reason": "Request a Large Item Pick Up",
    "date_created": "2024-06-12T20:14:44.000",
    "date_modified": "2024-06-12T20:14:45.000",
    "request_status": "Pending",
    "responsible_agency": "Department of Sanitation",
    "final_address": "501 Amethyst St",
    "address_councildis": "D",
    "status": "Assigned to Contractor",
    "contractor": "IV Waste",
    "rowid": "1103011",
    "final_x": "3668379.70446",
    "final_y": "556908.384218",
    "longitude": "-90.10864278045791",
    "latitude": "30.025696885841125",
    "geocoded_column": {
      "latitude": "30.025696885841125",
      "longitude": "-90.10864278045791"
    }
  },
  {
    "service_request": "2024-1103010",
    "request_type": "Trash/Recycling",
    "request_reason": "Replace Trash Cart",
    "date_created": "2024-06-12T19:57:44.000",
    "date_modified": "2024-06-12T19:57:45.000",
    "request_status": "Pending",
    "responsible_agency": "Department of Sanitation",
    "final_address": "4930 S Miro St",
    "address_councildis": "B",
    "status": "Assigned to Contractor",
    "contractor": "IV Waste",
    "rowid": "1103010",
    "final_x": "3669014.17914",
    "final_y": "527670.004799",
    "longitude": "-90.10762621159833",
    "latitude": "29.9452826478831",
    "geocoded_column": {
      "latitude": "29.9452826478831",
      "longitude": "-90.10762621159833"
    }
  },
  {
    "service_request": "2024-1103009",
    "request_type": "Roads/Drainage",
    "request_reason": "Man hole cover issue",
    "date_created": "2024-06-12T19:43:58.000",
    "date_modified": "2024-06-12T19:43:58.000",
    "request_status": "Pending",
    "responsible_agency": "Department of Public Works",
    "final_address": "LEAKE AVE & SHORT ST",
    "address_councildis": "A",
    "status": "Pending",
    "rowid": "1103009",
    "final_x": "3660522.0",
    "final_y": "526126.58",
    "longitude": "-90.13448984471117",
    "latitude": "29.941285770277545",
    "geocoded_column": {
      "latitude": "29.941285770277545",
      "longitude": "-90.13448984471117"
    }
  },
  {
    "service_request": "2024-1103008",
    "request_type": "Trash/Recycling",
    "request_reason": "Request a Large Item Pick Up",
    "date_created": "2024-06-12T19:40:07.000",
    "date_modified": "2024-06-12T19:40:07.000",
    "request_status": "Pending",
    "responsible_agency": "Department of Sanitation",
    "final_address": "7610 Founders Ct",
    "address_councildis": "E",
    "status": "Assigned to Contractor",
    "contractor": "Waste Pro",
    "rowid": "1103008",
    "final_x": "3725642.69772",
    "final_y": "570817.553831",
    "longitude": "-89.92716284834282",
    "latitude": "30.06213414403922",
    "geocoded_column": {
      "latitude": "30.06213414403922",
      "longitude": "-89.92716284834282"
    }
  },
  {
    "service_request": "2024-1103007",
    "request_type": "Roads/Drainage",
    "request_reason": "Street Flooding / Drainage",
    "date_created": "2024-06-12T19:31:17.000",
    "date_modified": "2024-06-12T19:31:17.000",
    "request_status": "Pending",
    "responsible_agency": "Department of Public Works",
    "final_address": "1850 Moss St",
    "address_councildis": "A",
    "status": "Pending",
    "rowid": "1103007",
    "final_x": "3675404.20853",
    "final_y": "543552.772814",
    "longitude": "-90.08690535146648",
    "latitude": "29.98876538491296",
    "geocoded_column": {
      "latitude": "29.98876538491296",
      "longitude": "-90.08690535146648"
    }
  },
  {
    "service_request": "2024-1103006",
    "request_type": "Trash/Recycling",
    "request_reason": "Request a Large Item Pick Up",
    "date_created": "2024-06-12T19:11:44.000",
    "date_modified": "2024-06-12T19:11:44.000",
    "request_status": "Pending",
    "responsible_agency": "Department of Sanitation",
    "final_address": "1023 Jourdan Ave",
    "address_councildis": "E",
    "status": "Assigned to Contractor",
    "contractor": "Waste Pro",
    "rowid": "1103006",
    "final_x": "3695023.6776",
    "final_y": "534268.735493",
    "longitude": "-90.02526854221097",
    "latitude": "29.962636198146978",
    "geocoded_column": {
      "latitude": "29.962636198146978",
      "longitude": "-90.02526854221097"
    }
  },
  {
    "service_request": "2024-1103005",
    "request_type": "Trash/Recycling",
    "request_reason": "Request a Large Item Pick Up",
    "date_created": "2024-06-12T19:09:27.000",
    "date_modified": "2024-06-12T19:09:27.000",
    "request_status": "Pending",
    "responsible_agency": "Department of Sanitation",
    "final_address": "980 Porteous St",
    "address_councildis": "A",
    "status": "Assigned to Contractor",
    "contractor": "IV Waste",
    "rowid": "1103005",
    "final_x": "3671180.84699",
    "final_y": "551099.722069",
    "longitude": "-90.09998909578235",
    "latitude": "30.009642513894867",
    "geocoded_column": {
      "latitude": "30.009642513894867",
      "longitude": "-90.09998909578235"
    }
  },
  {
    "service_request": "2024-1103004",
    "request_type": "Trash/Recycling",
    "request_reason": "Request a Large Item Pick Up",
    "date_created": "2024-06-12T18:46:53.000",
    "date_modified": "2024-06-12T18:46:53.000",
    "request_status": "Pending",
    "responsible_agency": "Department of Sanitation",
    "final_address": "2623 Saint Philip St, New Orleans, Louisiana, 70119",
    "status": "Assigned to Contractor",
    "rowid": "1103004",
    "longitude": "0.0",
    "latitude": "0.0",
    "geocoded_column": {
      "latitude": "0.0",
      "longitude": "0.0"
    }
  },
  {
    "service_request": "2024-1103003",
    "request_type": "Trash/Recycling",
    "request_reason": "Order Trash Cart",
    "date_created": "2024-06-12T18:45:40.000",
    "date_modified": "2024-06-12T18:45:41.000",
    "request_status": "Pending",
    "responsible_agency": "Department of Sanitation",
    "final_address": "1401 Henry Clay Ave",
    "address_councildis": "A",
    "status": "Assigned to Contractor",
    "contractor": "IV Waste",
    "rowid": "1103003",
    "final_x": "3664609.97485",
    "final_y": "521479.125625",
    "longitude": "-90.12173842311657",
    "latitude": "29.928388507765806",
    "geocoded_column": {
      "latitude": "29.928388507765806",
      "longitude": "-90.12173842311657"
    }
  },
  {
    "service_request": "2024-1103001",
    "request_type": "Trash/Recycling",
    "request_reason": "Order Recycling Cart",
    "date_created": "2024-06-12T18:42:56.000",
    "date_modified": "2024-06-12T18:42:56.000",
    "request_status": "Pending",
    "responsible_agency": "Department of Sanitation",
    "final_address": "1401 Henry Clay Ave",
    "address_councildis": "A",
    "status": "Pending",
    "rowid": "1103001",
    "final_x": "3664609.97485",
    "final_y": "521479.125625",
    "longitude": "-90.12173842311657",
    "latitude": "29.928388507765806",
    "geocoded_column": {
      "latitude": "29.928388507765806",
      "longitude": "-90.12173842311657"
    }
  },
  {
    "service_request": "2024-1103000",
    "request_type": "Traffic Signals/Signs/Striping/Streetlights",
    "request_reason": "Request for Traffic Calming due to Speeding",
    "date_created": "2024-06-12T18:37:41.000",
    "date_modified": "2024-06-12T18:37:41.000",
    "request_status": "Pending",
    "responsible_agency": "Department of Public Works",
    "final_address": "CLEVELAND AVE & S CORTEZ ST",
    "address_councildis": "A",
    "status": "Pending",
    "rowid": "1103000",
    "final_x": "3671819.4",
    "final_y": "537263.38",
    "longitude": "-90.0984427882384",
    "latitude": "29.97157843385313",
    "geocoded_column": {
      "latitude": "29.97157843385313",
      "longitude": "-90.0984427882384"
    }
  },
  {
    "service_request": "2024-1102999",
    "request_type": "Traffic Signals/Signs/Striping/Streetlights",
    "request_reason": "Request for Stop Sign",
    "date_created": "2024-06-12T18:34:18.000",
    "date_modified": "2024-06-12T18:34:18.000",
    "request_status": "Pending",
    "responsible_agency": "Department of Public Works",
    "final_address": "CLEVELAND AVE & S CORTEZ ST",
    "address_councildis": "A",
    "status": "Pending",
    "rowid": "1102999",
    "final_x": "3671819.4",
    "final_y": "537263.38",
    "longitude": "-90.0984427882384",
    "latitude": "29.97157843385313",
    "geocoded_column": {
      "latitude": "29.97157843385313",
      "longitude": "-90.0984427882384"
    }
  },
  {
    "service_request": "2024-1102998",
    "request_type": "Trash/Recycling",
    "request_reason": "Request a Large Item Pick Up",
    "date_created": "2024-06-12T18:28:29.000",
    "date_modified": "2024-06-12T18:28:30.000",
    "request_status": "Pending",
    "responsible_agency": "Department of Sanitation",
    "final_address": "501 Amethyst St",
    "address_councildis": "D",
    "status": "Assigned to Contractor",
    "contractor": "IV Waste",
    "rowid": "1102998",
    "final_x": "3668379.70446",
    "final_y": "556908.384218",
    "longitude": "-90.10864278045791",
    "latitude": "30.025696885841125",
    "geocoded_column": {
      "latitude": "30.025696885841125",
      "longitude": "-90.10864278045791"
    }
  },
  {
    "service_request": "2024-1102997",
    "request_type": "Roads/Drainage",
    "request_reason": "Damaged Sidewalk",
    "date_created": "2024-06-12T17:59:52.000",
    "date_modified": "2024-06-12T17:59:52.000",
    "request_status": "Pending",
    "responsible_agency": "Department of Public Works",
    "final_address": "1300 BLK Florida Ave",
    "address_councildis": "D",
    "status": "Pending",
    "rowid": "1102997",
    "final_x": "3678587.92527",
    "final_y": "544473.443977",
    "longitude": "-90.07681707589364",
    "latitude": "29.991201298041275",
    "geocoded_column": {
      "latitude": "29.991201298041275",
      "longitude": "-90.07681707589364"
    }
  },
  {
    "service_request": "2024-1102996",
    "request_type": "Trash/Recycling",
    "request_reason": "Request a Large Item Pick Up",
    "date_created": "2024-06-12T17:56:11.000",
    "date_modified": "2024-06-12T17:56:12.000",
    "request_status": "Pending",
    "responsible_agency": "Department of Sanitation",
    "final_address": "1443 Filmore Ave",
    "address_councildis": "D",
    "status": "Assigned to Contractor",
    "contractor": "IV Waste",
    "rowid": "1102996",
    "final_x": "3677769.9933",
    "final_y": "551897.673302",
    "longitude": "-90.07914404630904",
    "latitude": "30.011639934165597",
    "geocoded_column": {
      "latitude": "30.011639934165597",
      "longitude": "-90.07914404630904"
    }
  },
  {
    "service_request": "2024-1102995",
    "request_type": "Trash/Recycling",
    "request_reason": "Repair Trash Cart",
    "date_created": "2024-06-12T17:50:26.000",
    "date_modified": "2024-06-12T17:50:27.000",
    "request_status": "Pending",
    "responsible_agency": "Department of Sanitation",
    "final_address": "1443 Filmore Ave",
    "address_councildis": "D",
    "status": "Assigned to Contractor",
    "contractor": "IV Waste",
    "rowid": "1102995",
    "final_x": "3677769.9933",
    "final_y": "551897.673302",
    "longitude": "-90.07914404630904",
    "latitude": "30.011639934165597",
    "geocoded_column": {
      "latitude": "30.011639934165597",
      "longitude": "-90.07914404630904"
    }
  },
  {
    "service_request": "2024-1102994",
    "request_type": "Traffic Signals/Signs/Striping/Streetlights",
    "request_reason": "Additional signage",
    "date_created": "2024-06-12T17:47:22.000",
    "date_modified": "2024-06-12T17:47:22.000",
    "request_status": "Pending",
    "responsible_agency": "Department of Public Works",
    "final_address": "104 Chalfant Pl",
    "address_councildis": "D",
    "status": "Pending",
    "rowid": "1102994",
    "final_x": "3677654.35086",
    "final_y": "544339.398543",
    "longitude": "-90.07977065643576",
    "latitude": "29.990860836451006",
    "geocoded_column": {
      "latitude": "29.990860836451006",
      "longitude": "-90.07977065643576"
    }
  },
  {
    "service_request": "2024-1102993",
    "request_type": "Trash/Recycling",
    "request_reason": "Missed Trash Pick-Up",
    "date_created": "2024-06-12T17:47:03.000",
    "date_modified": "2024-06-12T17:47:04.000",
    "request_status": "Pending",
    "responsible_agency": "Department of Sanitation",
    "final_address": "1914 Adams St",
    "address_councildis": "A",
    "status": "Assigned to Contractor",
    "contractor": "IV Waste",
    "rowid": "1102993",
    "final_x": "3664770.9088",
    "final_y": "529319.459777",
    "longitude": "-90.12096851552486",
    "latitude": "29.94994224358321",
    "geocoded_column": {
      "latitude": "29.94994224358321",
      "longitude": "-90.12096851552486"
    }
  },
  {
    "service_request": "2024-1102992",
    "request_type": "Roads/Drainage",
    "request_reason": "Pothole",
    "date_created": "2024-06-12T17:45:35.000",
    "date_modified": "2024-06-12T17:45:35.000",
    "request_status": "Pending",
    "responsible_agency": "Department of Public Works",
    "final_address": "1400 BLK Valence St",
    "address_councildis": "B",
    "status": "Pending",
    "rowid": "1102992",
    "final_x": "3669784.65285",
    "final_y": "520336.257015",
    "longitude": "-90.1054417057675",
    "latitude": "29.925094517046503",
    "geocoded_column": {
      "latitude": "29.925094517046503",
      "longitude": "-90.1054417057675"
    }
  },
  {
    "service_request": "2024-1102990",
    "request_type": "Trash/Recycling",
    "request_reason": "Request a Large Item Pick Up",
    "date_created": "2024-06-12T17:35:21.000",
    "date_modified": "2024-06-12T17:35:21.000",
    "request_status": "Pending",
    "responsible_agency": "Department of Sanitation",
    "final_address": "2311 Killdeer St",
    "address_councildis": "D",
    "status": "Assigned to Contractor",
    "contractor": "IV Waste",
    "rowid": "1102990",
    "final_x": "3684197.21506",
    "final_y": "557633.748187",
    "longitude": "-90.05863619491832",
    "latitude": "30.02721702963286",
    "geocoded_column": {
      "latitude": "30.02721702963286",
      "longitude": "-90.05863619491832"
    }
  },
  {
    "service_request": "2024-1102989",
    "request_type": "Roads/Drainage",
    "request_reason": "Catch Basin - Broken/Damage",
    "date_created": "2024-06-12T17:33:42.000",
    "date_modified": "2024-06-12T17:33:42.000",
    "request_status": "Pending",
    "responsible_agency": "Department of Public Works",
    "final_address": "1426 Eighth St",
    "address_councildis": "B",
    "status": "Pending",
    "rowid": "1102989",
    "final_x": "3675381.65691",
    "final_y": "521234.027257",
    "longitude": "-90.08774293751237",
    "latitude": "29.927396988737055",
    "geocoded_column": {
      "latitude": "29.927396988737055",
      "longitude": "-90.08774293751237"
    }
  },
  {
    "service_request": "2024-1102988",
    "request_type": "Trash/Recycling",
    "request_reason": "Repair Recycling Cart",
    "date_created": "2024-06-12T17:33:42.000",
    "date_modified": "2024-06-12T17:33:42.000",
    "request_status": "Pending",
    "responsible_agency": "Department of Sanitation",
    "final_address": "2042 N Dorgenois St",
    "address_councildis": "D",
    "status": "Pending",
    "rowid": "1102988",
    "final_x": "3682867.43669",
    "final_y": "541281.628812",
    "longitude": "-90.06341083816707",
    "latitude": "29.982295200329535",
    "geocoded_column": {
      "latitude": "29.982295200329535",
      "longitude": "-90.06341083816707"
    }
  },
  {
    "service_request": "2024-1102987",
    "request_type": "Trash/Recycling",
    "request_reason": "Replace Trash Cart",
    "date_created": "2024-06-12T17:29:51.000",
    "date_modified": "2024-06-12T17:29:51.000",
    "request_status": "Pending",
    "responsible_agency": "Department of Sanitation",
    "final_address": "828 Harmony St",
    "address_councildis": "B",
    "status": "Assigned to Contractor",
    "contractor": "IV Waste",
    "rowid": "1102987",
    "final_x": "3676165.42875",
    "final_y": "519224.123959",
    "longitude": "-90.08533786683334",
    "latitude": "29.92184695374649",
    "geocoded_column": {
      "latitude": "29.92184695374649",
      "longitude": "-90.08533786683334"
    }
  },
  {
    "service_request": "2024-1102985",
    "request_type": "Trash/Recycling",
    "request_reason": "Request a Large Item Pick Up",
    "date_created": "2024-06-12T17:26:58.000",
    "date_modified": "2024-06-12T17:26:58.000",
    "request_status": "Pending",
    "responsible_agency": "Department of Sanitation",
    "final_address": "3507 Nashville Ave",
    "address_councildis": "A",
    "status": "Assigned to Contractor",
    "contractor": "IV Waste",
    "rowid": "1102985",
    "final_x": "3668279.3778",
    "final_y": "528505.468224",
    "longitude": "-90.10991805566245",
    "latitude": "29.94760149341001",
    "geocoded_column": {
      "latitude": "29.94760149341001",
      "longitude": "-90.10991805566245"
    }
  },
  {
    "service_request": "2024-1102984",
    "request_type": "Trash/Recycling",
    "request_reason": "Request a Large Item Pick Up",
    "date_created": "2024-06-12T17:22:42.000",
    "date_modified": "2024-06-12T17:22:43.000",
    "request_status": "Pending",
    "responsible_agency": "Department of Sanitation",
    "final_address": "3015 Frenchmen St",
    "address_councildis": "D",
    "status": "Assigned to Contractor",
    "contractor": "IV Waste",
    "rowid": "1102984",
    "final_x": "3684032.09199",
    "final_y": "543791.564878",
    "longitude": "-90.05964417238299",
    "latitude": "29.98916109486121",
    "geocoded_column": {
      "latitude": "29.98916109486121",
      "longitude": "-90.05964417238299"
    }
  },
  {
    "service_request": "2024-1102983",
    "request_type": "Trash/Recycling",
    "request_reason": "Start Trash Service",
    "date_created": "2024-06-12T17:16:54.000",
    "date_modified": "2024-06-12T17:16:55.000",
    "request_status": "Pending",
    "responsible_agency": "Department of Sanitation",
    "final_address": "3015 Frenchmen St",
    "address_councildis": "D",
    "status": "Assigned to Contractor",
    "contractor": "IV Waste",
    "rowid": "1102983",
    "final_x": "3684032.09199",
    "final_y": "543791.564878",
    "longitude": "-90.05964417238299",
    "latitude": "29.98916109486121",
    "geocoded_column": {
      "latitude": "29.98916109486121",
      "longitude": "-90.05964417238299"
    }
  },
  {
    "service_request": "2024-1102982",
    "request_type": "Parks & Parkways",
    "request_reason": "Request Tree Service (Right of Way/Public Property)",
    "date_created": "2024-06-12T17:05:02.000",
    "date_modified": "2024-06-12T17:05:02.000",
    "request_status": "Pending",
    "responsible_agency": "Department of Parks & Parkway",
    "final_address": "7724 Cohn St",
    "address_councildis": "A",
    "status": "Pending",
    "rowid": "1102982",
    "final_x": "3664519.57357",
    "final_y": "529317.747585",
    "longitude": "-90.1217621581384",
    "latitude": "29.949944845328908",
    "geocoded_column": {
      "latitude": "29.949944845328908",
      "longitude": "-90.1217621581384"
    }
  },
  {
    "service_request": "2024-1102981",
    "request_type": "Roads/Drainage",
    "request_reason": "Street Subsidence (Sinking)",
    "date_created": "2024-06-12T17:02:36.000",
    "date_modified": "2024-06-12T17:02:37.000",
    "request_status": "Pending",
    "responsible_agency": "Department of Public Works",
    "final_address": "7300 BLK Garfield St",
    "address_councildis": "A",
    "status": "Pending",
    "rowid": "1102981",
    "final_x": "3661672.03456",
    "final_y": "523571.720361",
    "longitude": "-90.13094359056676",
    "latitude": "29.934227579171736",
    "geocoded_column": {
      "latitude": "29.934227579171736",
      "longitude": "-90.13094359056676"
    }
  },
  {
    "service_request": "2024-1102980",
    "request_type": "Property Maintenance",
    "request_reason": "Property Maintenance",
    "date_created": "2024-06-12T16:59:31.000",
    "date_modified": "2024-06-12T16:59:32.000",
    "request_status": "Pending",
    "responsible_agency": "Department of Code Enforcement",
    "final_address": "7718 Cohn St",
    "address_councildis": "A",
    "status": "Pending",
    "rowid": "1102980",
    "final_x": "3664551.26765",
    "final_y": "529286.268801",
    "longitude": "-90.12166313581278",
    "latitude": "29.949857367330175",
    "geocoded_column": {
      "latitude": "29.949857367330175",
      "longitude": "-90.12166313581278"
    }
  },
  {
    "service_request": "2024-1102977",
    "request_type": "Trash/Recycling",
    "request_reason": "Request a Large Item Pick Up",
    "date_created": "2024-06-12T16:51:29.000",
    "date_modified": "2024-06-12T16:51:29.000",
    "request_status": "Pending",
    "responsible_agency": "Department of Sanitation",
    "final_address": "2506 Upperline St",
    "address_councildis": "B",
    "status": "Assigned to Contractor",
    "contractor": "IV Waste",
    "rowid": "1102977",
    "final_x": "3669124.47617",
    "final_y": "523984.191548",
    "longitude": "-90.10740247487317",
    "latitude": "29.93514460779688",
    "geocoded_column": {
      "latitude": "29.93514460779688",
      "longitude": "-90.10740247487317"
    }
  },
  {
    "service_request": "2024-1102976",
    "request_type": "Trash/Recycling",
    "request_reason": "Request a Large Item Pick Up",
    "date_created": "2024-06-12T16:46:28.000",
    "date_modified": "2024-06-12T16:46:28.000",
    "request_status": "Pending",
    "responsible_agency": "Department of Sanitation",
    "final_address": "2267 N Galvez St",
    "address_councildis": "D",
    "status": "Assigned to Contractor",
    "contractor": "IV Waste",
    "rowid": "1102976",
    "final_x": "3685398.96188",
    "final_y": "540076.471435",
    "longitude": "-90.05545751198864",
    "latitude": "29.978904053266795",
    "geocoded_column": {
      "latitude": "29.978904053266795",
      "longitude": "-90.05545751198864"
    }
  },
  {
    "service_request": "2024-1102975",
    "request_type": "Trash/Recycling",
    "request_reason": "Request a Large Item Pick Up",
    "date_created": "2024-06-12T16:41:26.000",
    "date_modified": "2024-06-12T16:41:36.000",
    "request_status": "Pending",
    "responsible_agency": "Department of Sanitation",
    "final_address": "3547 Rue Colette",
    "address_councildis": "C",
    "contractor": "Richards Disposal",
    "rowid": "1102975",
    "final_x": "3704479.78526",
    "final_y": "517420.01055",
    "longitude": "-89.99602861928297",
    "latitude": "29.916007938923745",
    "geocoded_column": {
      "latitude": "29.916007938923745",
      "longitude": "-89.99602861928297"
    }
  },
  {
    "service_request": "2024-1102974",
    "request_type": "Mosquito, Termite & Rodent Control",
    "request_reason": "Non-Rodent Complaint (Mice, Possums, Snakes)",
    "date_created": "2024-06-12T16:34:58.000",
    "date_modified": "2024-06-12T16:34:59.000",
    "request_status": "Pending",
    "responsible_agency": "Mosquito, Termite & Rodent Control Board",
    "final_address": "4500 Virgilian St",
    "address_councildis": "D",
    "status": "Pending",
    "rowid": "1102974",
    "final_x": "3697526.22179",
    "final_y": "552425.517142",
    "longitude": "-90.0167070636959",
    "latitude": "30.012481919568398",
    "geocoded_column": {
      "latitude": "30.012481919568398",
      "longitude": "-90.0167070636959"
    }
  },
  {
    "service_request": "2024-1102973",
    "request_type": "Trash/Recycling",
    "request_reason": "Request a Large Item Pick Up",
    "date_created": "2024-06-12T16:32:21.000",
    "date_modified": "2024-06-12T16:32:22.000",
    "request_status": "Pending",
    "responsible_agency": "Department of Sanitation",
    "final_address": "140 E Greenbrier Dr",
    "address_councildis": "E",
    "status": "Assigned to Contractor",
    "contractor": "Waste Pro",
    "rowid": "1102973",
    "final_x": "3717063.34482",
    "final_y": "565110.554082",
    "longitude": "-89.95449909002977",
    "latitude": "30.046728949758897",
    "geocoded_column": {
      "latitude": "30.046728949758897",
      "longitude": "-89.95449909002977"
    }
  },
  {
    "service_request": "2024-1102972",
    "request_type": "Parks & Parkways",
    "request_reason": "Request Tree Service (Right of Way/Public Property)",
    "date_created": "2024-06-12T16:30:52.000",
    "date_modified": "2024-06-12T16:30:53.000",
    "request_status": "Pending",
    "responsible_agency": "Department of Parks & Parkway",
    "final_address": "5439 N Johnson St",
    "address_councildis": "E",
    "status": "Pending",
    "rowid": "1102972",
    "final_x": "3698428.34103",
    "final_y": "537286.578312",
    "longitude": "-90.01440744127811",
    "latitude": "29.970826876224013",
    "geocoded_column": {
      "latitude": "29.970826876224013",
      "longitude": "-90.01440744127811"
    }
  },
  {
    "service_request": "2024-1102971",
    "request_type": "Trash/Recycling",
    "request_reason": "Dead Animal Pick Up",
    "date_created": "2024-06-12T16:30:30.000",
    "date_modified": "2024-06-12T16:30:30.000",
    "request_status": "Pending",
    "responsible_agency": "Department of Sanitation",
    "final_address": "WRIGHT RD & ROGER DR",
    "address_councildis": "E",
    "status": "Assigned to Contractor",
    "contractor": "Waste Pro",
    "rowid": "1102971",
    "final_x": "3712421.4",
    "final_y": "563647.28",
    "longitude": "-89.96922499532756",
    "latitude": "30.042858308373265",
    "geocoded_column": {
      "latitude": "30.042858308373265",
      "longitude": "-89.96922499532756"
    }
  },
  {
    "service_request": "2024-1102970",
    "request_type": "Trash/Recycling",
    "request_reason": "Request a Large Item Pick Up",
    "date_created": "2024-06-12T16:28:51.000",
    "date_modified": "2024-06-12T16:28:51.000",
    "request_status": "Pending",
    "responsible_agency": "Department of Sanitation",
    "final_address": "5439 N Johnson St",
    "address_councildis": "E",
    "status": "Assigned to Contractor",
    "contractor": "Waste Pro",
    "rowid": "1102970",
    "final_x": "3698428.34103",
    "final_y": "537286.578312",
    "longitude": "-90.01440744127811",
    "latitude": "29.970826876224013",
    "geocoded_column": {
      "latitude": "29.970826876224013",
      "longitude": "-90.01440744127811"
    }
  },
  {
    "service_request": "2024-1102969",
    "request_type": "Trash/Recycling",
    "request_reason": "Request a Large Item Pick Up",
    "date_created": "2024-06-12T16:26:31.000",
    "date_modified": "2024-06-12T16:26:32.000",
    "request_status": "Pending",
    "responsible_agency": "Department of Sanitation",
    "final_address": "516 Washington Ave",
    "address_councildis": "B",
    "status": "Assigned to Contractor",
    "contractor": "IV Waste",
    "rowid": "1102969",
    "final_x": "3678094.28846",
    "final_y": "519173.247287",
    "longitude": "-90.0792510309982",
    "latitude": "29.92164915263575",
    "geocoded_column": {
      "latitude": "29.92164915263575",
      "longitude": "-90.0792510309982"
    }
  },
  {
    "service_request": "2024-1102968",
    "request_type": "Trash/Recycling",
    "request_reason": "Order Trash Cart",
    "date_created": "2024-06-12T16:25:00.000",
    "date_modified": "2024-06-12T16:25:00.000",
    "request_status": "Pending",
    "responsible_agency": "Department of Sanitation",
    "final_address": "14474 Peltier Dr",
    "address_councildis": "E",
    "status": "Assigned to Contractor",
    "contractor": "Waste Pro",
    "rowid": "1102968",
    "final_x": "3730828.62944",
    "final_y": "562668.3448",
    "longitude": "-89.91109003369378",
    "latitude": "30.039551260065693",
    "geocoded_column": {
      "latitude": "30.039551260065693",
      "longitude": "-89.91109003369378"
    }
  },
  {
    "service_request": "2024-1102967",
    "request_type": "Trash/Recycling",
    "request_reason": "Request a Large Item Pick Up",
    "date_created": "2024-06-12T16:24:06.000",
    "date_modified": "2024-06-12T16:24:07.000",
    "request_status": "Pending",
    "responsible_agency": "Department of Sanitation",
    "final_address": "2338 Charbonnet St",
    "address_councildis": "E",
    "status": "Assigned to Contractor",
    "contractor": "Waste Pro",
    "rowid": "1102967",
    "final_x": "3699834.53578",
    "final_y": "538436.834505",
    "longitude": "-90.00992457496588",
    "latitude": "29.973945084088363",
    "geocoded_column": {
      "latitude": "29.973945084088363",
      "longitude": "-90.00992457496588"
    }
  },
  {
    "service_request": "2024-1102966",
    "request_type": "Property Maintenance",
    "request_reason": "Property Maintenance",
    "date_created": "2024-06-12T16:23:19.000",
    "date_modified": "2024-06-12T16:23:20.000",
    "request_status": "Pending",
    "responsible_agency": "Department of Code Enforcement",
    "final_address": "7913 Sheephead St",
    "address_councildis": "E",
    "status": "Pending",
    "rowid": "1102966",
    "final_x": "3699361.42564",
    "final_y": "561269.916702",
    "longitude": "-90.01058630125263",
    "latitude": "30.03674252167989",
    "geocoded_column": {
      "latitude": "30.03674252167989",
      "longitude": "-90.01058630125263"
    }
  },
  {
    "service_request": "2024-1102965",
    "request_type": "Property Maintenance",
    "request_reason": "Property Maintenance",
    "date_created": "2024-06-12T16:22:19.000",
    "date_modified": "2024-06-12T16:22:19.000",
    "request_status": "Pending",
    "responsible_agency": "Department of Code Enforcement",
    "final_address": "4839 Cerise Ave",
    "address_councildis": "E",
    "status": "Pending",
    "rowid": "1102965",
    "final_x": "3708620.8268",
    "final_y": "556300.755482",
    "longitude": "-89.98151015844248",
    "latitude": "30.022782125790656",
    "geocoded_column": {
      "latitude": "30.022782125790656",
      "longitude": "-89.98151015844248"
    }
  },
  {
    "service_request": "2024-1102964",
    "request_type": "Parks & Parkways",
    "request_reason": "Request Tree Service (Right of Way/Public Property)",
    "date_created": "2024-06-12T16:19:46.000",
    "date_modified": "2024-06-12T16:19:46.000",
    "request_status": "Pending",
    "responsible_agency": "Department of Parks & Parkway",
    "final_address": "110 Country Club Dr",
    "address_councildis": "A",
    "status": "Pending",
    "rowid": "1102964",
    "final_x": "3665761.77991",
    "final_y": "544222.39419",
    "longitude": "-90.11734049862147",
    "latitude": "29.99089150028852",
    "geocoded_column": {
      "latitude": "29.99089150028852",
      "longitude": "-90.11734049862147"
    }
  },
  {
    "service_request": "2024-1102963",
    "request_type": "Parks & Parkways",
    "request_reason": "Request Grass Cutting Service (City Owned Property)",
    "date_created": "2024-06-12T16:17:41.000",
    "date_modified": "2024-06-12T16:17:42.000",
    "request_status": "Pending",
    "responsible_agency": "Department of Parks & Parkway",
    "final_address": "CURRAN BLVD & BASS ST",
    "address_councildis": "E",
    "status": "Pending",
    "rowid": "1102963",
    "final_x": "3720088.6",
    "final_y": "573675.98",
    "longitude": "-89.94460971310794",
    "latitude": "30.070179855853077",
    "geocoded_column": {
      "latitude": "30.070179855853077",
      "longitude": "-89.94460971310794"
    }
  },
  {
    "service_request": "2024-1102962",
    "request_type": "Trash/Recycling",
    "request_reason": "Request a Large Item Pick Up",
    "date_created": "2024-06-12T16:15:41.000",
    "date_modified": "2024-06-12T16:15:41.000",
    "request_status": "Pending",
    "responsible_agency": "Department of Sanitation",
    "final_address": "2025 Lowerline St",
    "address_councildis": "A",
    "status": "Assigned to Contractor",
    "contractor": "IV Waste",
    "rowid": "1102962",
    "final_x": "3665435.94106",
    "final_y": "529293.193025",
    "longitude": "-90.1188695704137",
    "latitude": "29.949850653934384",
    "geocoded_column": {
      "latitude": "29.949850653934384",
      "longitude": "-90.1188695704137"
    }
  },
  {
    "service_request": "2024-1102961",
    "request_type": "Trash/Recycling",
    "request_reason": "Repair Recycling Cart",
    "date_created": "2024-06-12T16:15:04.000",
    "date_modified": "2024-06-12T16:15:04.000",
    "request_status": "Pending",
    "responsible_agency": "Department of Sanitation",
    "final_address": "10101 Springwood St",
    "address_councildis": "E",
    "status": "Pending",
    "rowid": "1102961",
    "final_x": "3712915.28798",
    "final_y": "555711.239769",
    "longitude": "-89.96796298771048",
    "latitude": "30.021021181854316",
    "geocoded_column": {
      "latitude": "30.021021181854316",
      "longitude": "-89.96796298771048"
    }
  },
  {
    "service_request": "2024-1102960",
    "request_type": "Property Maintenance",
    "request_reason": "Property Maintenance",
    "date_created": "2024-06-12T16:12:21.000",
    "date_modified": "2024-06-12T16:12:21.000",
    "request_status": "Pending",
    "responsible_agency": "Department of Code Enforcement",
    "final_address": "4921 Little John Dr",
    "address_councildis": "E",
    "status": "Pending",
    "rowid": "1102960",
    "final_x": "3717231.58757",
    "final_y": "557771.227803",
    "longitude": "-89.95424653865308",
    "latitude": "30.02654320162729",
    "geocoded_column": {
      "latitude": "30.02654320162729",
      "longitude": "-89.95424653865308"
    }
  },
  {
    "service_request": "2024-1102959",
    "request_type": "Roads/Drainage",
    "request_reason": "Pothole",
    "date_created": "2024-06-12T16:11:14.000",
    "date_modified": "2024-06-12T16:11:14.000",
    "request_status": "Pending",
    "responsible_agency": "Department of Public Works",
    "final_address": "5710 Garfield St",
    "address_councildis": "A",
    "status": "Pending",
    "rowid": "1102959",
    "final_x": "3666210.39777",
    "final_y": "521252.848057",
    "longitude": "-90.11669380107593",
    "latitude": "29.927719687236237",
    "geocoded_column": {
      "latitude": "29.927719687236237",
      "longitude": "-90.11669380107593"
    }
  },
  {
    "service_request": "2024-1102958",
    "request_type": "Abandoned Vehicles",
    "request_reason": "Abandoned/Junk Vehicles",
    "date_created": "2024-06-12T16:09:25.000",
    "date_modified": "2024-06-12T16:09:25.000",
    "request_status": "Pending",
    "responsible_agency": "Department of Public Works",
    "final_address": "1423 Henriette Delille St",
    "address_councildis": "C",
    "status": "Pending",
    "rowid": "1102958",
    "final_x": "3682703.29007",
    "final_y": "535752.964743",
    "longitude": "-90.06412271609551",
    "latitude": "29.967098297172207",
    "geocoded_column": {
      "latitude": "29.967098297172207",
      "longitude": "-90.06412271609551"
    }
  },
  {
    "service_request": "2024-1102957",
    "request_type": "Abandoned Vehicles",
    "request_reason": "Abandoned/Junk Vehicles",
    "date_created": "2024-06-12T16:09:17.000",
    "date_modified": "2024-06-12T16:09:17.000",
    "request_status": "Pending",
    "responsible_agency": "Department of Public Works",
    "final_address": "2925 Robert St",
    "address_councildis": "B",
    "status": "Pending",
    "rowid": "1102957",
    "final_x": "3668983.09524",
    "final_y": "526234.729662",
    "longitude": "-90.10777282265109",
    "latitude": "29.941337020766696",
    "geocoded_column": {
      "latitude": "29.941337020766696",
      "longitude": "-90.10777282265109"
    }
  },
  {
    "service_request": "2024-1102955",
    "request_type": "Roads/Drainage",
    "request_reason": "Catch Basin - Clogged",
    "date_created": "2024-06-12T16:02:29.000",
    "date_modified": "2024-06-12T16:02:29.000",
    "request_status": "Pending",
    "responsible_agency": "Department of Public Works",
    "final_address": "6219 St Bernard Ave",
    "address_councildis": "D",
    "status": "Pending",
    "rowid": "1102955",
    "final_x": "3677052.04891",
    "final_y": "555609.282521",
    "longitude": "-90.0812841990909",
    "latitude": "30.02186710972455",
    "geocoded_column": {
      "latitude": "30.02186710972455",
      "longitude": "-90.0812841990909"
    }
  },
  {
    "service_request": "2024-1102954",
    "request_type": "Trash/Recycling",
    "request_reason": "Repair Trash Cart",
    "date_created": "2024-06-12T16:00:42.000",
    "date_modified": "2024-06-12T16:00:43.000",
    "request_status": "Pending",
    "responsible_agency": "Department of Sanitation",
    "final_address": "3426 Blair St",
    "address_councildis": "C",
    "status": "Assigned to Contractor",
    "contractor": "Richards Disposal",
    "rowid": "1102954",
    "final_x": "3709441.97265",
    "final_y": "518081.223158",
    "longitude": "-89.98034152100388",
    "latitude": "29.9176658674668",
    "geocoded_column": {
      "latitude": "29.9176658674668",
      "longitude": "-89.98034152100388"
    }
  },
  {
    "service_request": "2024-1102953",
    "request_type": "Parks & Parkways",
    "request_reason": "Request Tree Service (Right of Way/Public Property)",
    "date_created": "2024-06-12T16:00:22.000",
    "date_modified": "2024-06-12T16:00:23.000",
    "request_status": "Pending",
    "responsible_agency": "Department of Parks & Parkway",
    "final_address": "3111 Palmyra St",
    "address_councildis": "B",
    "status": "Pending",
    "rowid": "1102953",
    "final_x": "3673527.5668",
    "final_y": "535535.78247",
    "longitude": "-90.0931071883541",
    "latitude": "29.966777394669048",
    "geocoded_column": {
      "latitude": "29.966777394669048",
      "longitude": "-90.0931071883541"
    }
  },
  {
    "service_request": "2024-1102952",
    "request_type": "Trash/Recycling",
    "request_reason": "Request a Large Item Pick Up",
    "date_created": "2024-06-12T15:59:36.000",
    "date_modified": "2024-06-12T16:59:41.000",
    "case_close_date": "2024-06-12T11:59:41.000",
    "request_status": "Closed",
    "responsible_agency": "Department of Sanitation",
    "final_address": "5229 Camp St",
    "address_councildis": "B",
    "status": "Canceled By Citizen",
    "contractor": "IV Waste",
    "rowid": "1102952",
    "final_x": "3667823.20545",
    "final_y": "519049.914615",
    "longitude": "-90.11167667765838",
    "latitude": "29.921615131694615",
    "geocoded_column": {
      "latitude": "29.921615131694615",
      "longitude": "-90.11167667765838"
    }
  },
  {
    "service_request": "2024-1102951",
    "request_type": "Parks & Parkways",
    "request_reason": "Tree Stump (removal, grind)",
    "date_created": "2024-06-12T15:59:11.000",
    "date_modified": "2024-06-12T15:59:11.000",
    "request_status": "Pending",
    "responsible_agency": "Department of Parks & Parkway",
    "final_address": "4143 Mirabeau Ave",
    "address_councildis": "D",
    "status": "Pending",
    "rowid": "1102951",
    "final_x": "3689330.48444",
    "final_y": "551339.411221",
    "longitude": "-90.04263961000257",
    "latitude": "30.00975192353644",
    "geocoded_column": {
      "latitude": "30.00975192353644",
      "longitude": "-90.04263961000257"
    }
  },
  {
    "service_request": "2024-1102950",
    "request_type": "Roads/Drainage",
    "request_reason": "Pothole",
    "date_created": "2024-06-12T15:58:04.000",
    "date_modified": "2024-06-12T15:58:28.000",
    "case_close_date": "2024-06-12T10:58:28.000",
    "request_status": "Closed",
    "responsible_agency": "Department of Public Works",
    "final_address": "800 BLK Porteous St",
    "address_councildis": "A",
    "status": "Resolved",
    "rowid": "1102950",
    "final_x": "3669956.52718",
    "final_y": "551257.999634",
    "longitude": "-90.10385180073713",
    "latitude": "30.010113899980624",
    "geocoded_column": {
      "latitude": "30.010113899980624",
      "longitude": "-90.10385180073713"
    }
  },
  {
    "service_request": "2024-1102949",
    "request_type": "Property Maintenance",
    "request_reason": "Property Maintenance",
    "date_created": "2024-06-12T15:57:56.000",
    "date_modified": "2024-06-12T15:57:56.000",
    "request_status": "Pending",
    "responsible_agency": "Department of Code Enforcement",
    "final_address": "4640 Touro St",
    "address_councildis": "D",
    "status": "Pending",
    "rowid": "1102949",
    "final_x": "3683057.61308",
    "final_y": "549817.446996",
    "longitude": "-90.06251115960966",
    "latitude": "30.0057598664854",
    "geocoded_column": {
      "latitude": "30.0057598664854",
      "longitude": "-90.06251115960966"
    }
  },
  {
    "service_request": "2024-1102948",
    "request_type": "Property Maintenance",
    "request_reason": "Property Maintenance",
    "date_created": "2024-06-12T15:55:31.000",
    "date_modified": "2024-06-12T15:55:31.000",
    "request_status": "Pending",
    "responsible_agency": "Department of Code Enforcement",
    "final_address": "2100 BLK Mirabeau Ave",
    "address_councildis": "D",
    "status": "Pending",
    "rowid": "1102948",
    "final_x": "3683619.6675",
    "final_y": "550660.929962",
    "longitude": "-90.06070590607347",
    "latitude": "30.008061987433106",
    "geocoded_column": {
      "latitude": "30.008061987433106",
      "longitude": "-90.06070590607347"
    }
  },
  {
    "service_request": "2024-1102947",
    "request_type": "Trash/Recycling",
    "request_reason": "Missed Trash Pick-Up",
    "date_created": "2024-06-12T15:53:45.000",
    "date_modified": "2024-06-12T15:53:45.000",
    "request_status": "Pending",
    "responsible_agency": "Department of Sanitation",
    "final_address": "7601 Branch Dr",
    "address_councildis": "E",
    "status": "Assigned to Contractor",
    "contractor": "Waste Pro",
    "rowid": "1102947",
    "final_x": "3714907.85528",
    "final_y": "568520.869157",
    "longitude": "-89.96118242919847",
    "latitude": "30.056177064507995",
    "geocoded_column": {
      "latitude": "30.056177064507995",
      "longitude": "-89.96118242919847"
    }
  },
  {
    "service_request": "2024-1102946",
    "request_type": "Roads/Drainage",
    "request_reason": "Pothole",
    "date_created": "2024-06-12T15:53:23.000",
    "date_modified": "2024-06-12T15:53:23.000",
    "request_status": "Pending",
    "responsible_agency": "Department of Public Works",
    "final_address": "1227 Henry Clay Ave",
    "address_councildis": "A",
    "status": "Pending",
    "rowid": "1102946",
    "final_x": "3664434.64",
    "final_y": "521028.889465",
    "longitude": "-90.12230694108062",
    "latitude": "29.927155596706097",
    "geocoded_column": {
      "latitude": "29.927155596706097",
      "longitude": "-90.12230694108062"
    }
  },
  {
    "service_request": "2024-1102945",
    "request_type": "Roads/Drainage",
    "request_reason": "Pothole",
    "date_created": "2024-06-12T15:52:12.000",
    "date_modified": "2024-06-12T15:52:12.000",
    "request_status": "Pending",
    "responsible_agency": "Department of Public Works",
    "final_address": "1521 Webster St",
    "address_councildis": "A",
    "status": "Pending",
    "rowid": "1102945",
    "final_x": "3665172.71917",
    "final_y": "522143.293626",
    "longitude": "-90.11993975188861",
    "latitude": "29.93019838632039",
    "geocoded_column": {
      "latitude": "29.93019838632039",
      "longitude": "-90.11993975188861"
    }
  },
  {
    "service_request": "2024-1102944",
    "request_type": "Safety & Permits",
    "request_reason": "Construction permit",
    "date_created": "2024-06-12T15:51:06.000",
    "date_modified": "2024-06-12T15:51:06.000",
    "request_status": "Pending",
    "responsible_agency": "Safety and Permits",
    "final_address": "100 S Claiborne Ave",
    "address_councildis": "B",
    "status": "Pending",
    "rowid": "1102944",
    "final_x": "3678432.48782",
    "final_y": "532544.505412",
    "longitude": "-90.07772097328827",
    "latitude": "29.958405507843604",
    "geocoded_column": {
      "latitude": "29.958405507843604",
      "longitude": "-90.07772097328827"
    }
  },
  {
    "service_request": "2024-1102943",
    "request_type": "Trash/Recycling",
    "request_reason": "Repair Trash Cart",
    "date_created": "2024-06-12T15:50:23.000",
    "date_modified": "2024-06-12T15:50:24.000",
    "request_status": "Pending",
    "responsible_agency": "Department of Sanitation",
    "final_address": "11260 Lake Forest Blvd",
    "address_councildis": "E",
    "status": "Assigned to Contractor",
    "contractor": "Waste Pro",
    "rowid": "1102943",
    "final_x": "3716339.74431",
    "final_y": "561649.219167",
    "longitude": "-89.95691743338071",
    "latitude": "30.0372356055835",
    "geocoded_column": {
      "latitude": "30.0372356055835",
      "longitude": "-89.95691743338071"
    }
  },
  {
    "service_request": "2024-1102942",
    "request_type": "Trash/Recycling",
    "request_reason": "Request a Large Item Pick Up",
    "date_created": "2024-06-12T15:49:35.000",
    "date_modified": "2024-06-12T15:49:35.000",
    "request_status": "Pending",
    "responsible_agency": "Department of Sanitation",
    "final_address": "4737 Virgilian St",
    "address_councildis": "D",
    "status": "Assigned to Contractor",
    "contractor": "Waste Pro",
    "rowid": "1102942",
    "final_x": "3697559.25283",
    "final_y": "553762.707735",
    "longitude": "-90.01655415426141",
    "latitude": "30.016157646194056",
    "geocoded_column": {
      "latitude": "30.016157646194056",
      "longitude": "-90.01655415426141"
    }
  },
  {
    "service_request": "2024-1102941",
    "request_type": "Trash/Recycling",
    "request_reason": "Order Trash Cart",
    "date_created": "2024-06-12T15:48:17.000",
    "date_modified": "2024-06-12T15:48:18.000",
    "request_status": "Pending",
    "responsible_agency": "Department of Sanitation",
    "final_address": "8320 Oleander St",
    "address_councildis": "A",
    "status": "Assigned to Contractor",
    "contractor": "IV Waste",
    "rowid": "1102941",
    "final_x": "3666066.74157",
    "final_y": "534247.122949",
    "longitude": "-90.11671175351384",
    "latitude": "29.96345394320257",
    "geocoded_column": {
      "latitude": "29.96345394320257",
      "longitude": "-90.11671175351384"
    }
  },
  {
    "service_request": "2024-1102940",
    "request_type": "Trash/Recycling",
    "request_reason": "Illegal Dumping",
    "date_created": "2024-06-12T15:47:06.000",
    "date_modified": "2024-06-12T15:47:57.000",
    "request_status": "Pending",
    "responsible_agency": "Department of Sanitation",
    "final_address": "3581 Plymouth Pl",
    "address_councildis": "C",
    "status": "Pending",
    "rowid": "1102940",
    "final_x": "3702706.42961",
    "final_y": "517627.90591",
    "longitude": "-90.00161835564666",
    "latitude": "29.916636369998535",
    "geocoded_column": {
      "latitude": "29.916636369998535",
      "longitude": "-90.00161835564666"
    }
  },
  {
    "service_request": "2024-1102939",
    "request_type": "Trash/Recycling",
    "request_reason": "Replace Trash Cart",
    "date_created": "2024-06-12T15:46:13.000",
    "date_modified": "2024-06-12T15:46:13.000",
    "request_status": "Pending",
    "responsible_agency": "Department of Sanitation",
    "final_address": "2630 Palmyra St",
    "address_councildis": "B",
    "status": "Assigned to Contractor",
    "contractor": "IV Waste",
    "rowid": "1102939",
    "final_x": "3675076.93019",
    "final_y": "534266.252805",
    "longitude": "-90.08825786130627",
    "latitude": "29.963240414029602",
    "geocoded_column": {
      "latitude": "29.963240414029602",
      "longitude": "-90.08825786130627"
    }
  },
  {
    "service_request": "2024-1102937",
    "request_type": "Trash/Recycling",
    "request_reason": "Replace Recycling Cart",
    "date_created": "2024-06-12T15:45:35.000",
    "date_modified": "2024-06-12T15:45:35.000",
    "request_status": "Pending",
    "responsible_agency": "Department of Sanitation",
    "final_address": "2359 Mendez St",
    "address_councildis": "D",
    "status": "Pending",
    "rowid": "1102937",
    "final_x": "3684937.47055",
    "final_y": "553556.339863",
    "longitude": "-90.05644063597818",
    "latitude": "30.01598299786138",
    "geocoded_column": {
      "latitude": "30.01598299786138",
      "longitude": "-90.05644063597818"
    }
  },
  {
    "service_request": "2024-1102936",
    "request_type": "Abandoned Vehicles",
    "request_reason": "Abandoned/Junk Vehicles",
    "date_created": "2024-06-12T15:45:33.000",
    "date_modified": "2024-06-12T15:45:33.000",
    "request_status": "Pending",
    "responsible_agency": "Department of Public Works",
    "final_address": "4138 Erato St Unit B",
    "address_councildis": "B",
    "status": "Pending",
    "rowid": "1102936",
    "final_x": "3671134.56423",
    "final_y": "531282.362626",
    "longitude": "-90.10080878610633",
    "latitude": "29.955152907503987",
    "geocoded_column": {
      "latitude": "29.955152907503987",
      "longitude": "-90.10080878610633"
    }
  },
  {
    "service_request": "2024-1102935",
    "request_type": "Property Maintenance",
    "request_reason": "Property Maintenance",
    "date_created": "2024-06-12T15:43:30.000",
    "date_modified": "2024-06-12T15:56:48.000",
    "case_close_date": "2024-06-12T10:56:48.000",
    "request_status": "Closed",
    "responsible_agency": "Department of Code Enforcement",
    "final_address": "4901 Friar Tuck Dr",
    "address_councildis": "E",
    "status": "Referred to Code Enforcement",
    "rowid": "1102935",
    "final_x": "3717721.33746",
    "final_y": "557692.186075",
    "longitude": "-89.95270201143508",
    "latitude": "30.026309651950086",
    "geocoded_column": {
      "latitude": "30.026309651950086",
      "longitude": "-89.95270201143508"
    }
  },
  {
    "service_request": "2024-1102934",
    "request_type": "Abandoned Vehicles",
    "request_reason": "Abandoned/Junk Vehicles",
    "date_created": "2024-06-12T15:43:29.000",
    "date_modified": "2024-06-12T15:43:29.000",
    "request_status": "Pending",
    "responsible_agency": "Department of Public Works",
    "final_address": "3710 S Claiborne Ave",
    "address_councildis": "B",
    "status": "Pending",
    "rowid": "1102934",
    "final_x": "3671751.09102",
    "final_y": "525864.731581",
    "longitude": "-90.09904629231198",
    "latitude": "29.94023795017181",
    "geocoded_column": {
      "latitude": "29.94023795017181",
      "longitude": "-90.09904629231198"
    }
  },
  {
    "service_request": "2024-1102933",
    "request_type": "Trash/Recycling",
    "request_reason": "Order Trash Cart",
    "date_created": "2024-06-12T15:42:35.000",
    "date_modified": "2024-06-12T15:42:36.000",
    "request_status": "Pending",
    "responsible_agency": "Department of Sanitation",
    "final_address": "8719 Marks St",
    "address_councildis": "A",
    "status": "Assigned to Contractor",
    "contractor": "IV Waste",
    "rowid": "1102933",
    "final_x": "3667262.02874",
    "final_y": "537581.346952",
    "longitude": "-90.11282500010444",
    "latitude": "29.9725870007202",
    "geocoded_column": {
      "latitude": "29.9725870007202",
      "longitude": "-90.11282500010444"
    }
  },
  {
    "service_request": "2024-1102932",
    "request_type": "Property Maintenance",
    "request_reason": "Property Maintenance",
    "date_created": "2024-06-12T15:41:51.000",
    "date_modified": "2024-06-12T15:41:51.000",
    "request_status": "Pending",
    "responsible_agency": "Department of Code Enforcement",
    "final_address": "11342 Pressburg St",
    "address_councildis": "E",
    "status": "Pending",
    "rowid": "1102932",
    "final_x": "3717266.61458",
    "final_y": "557505.501275",
    "longitude": "-89.95414596508766",
    "latitude": "30.02581140064734",
    "geocoded_column": {
      "latitude": "30.02581140064734",
      "longitude": "-89.95414596508766"
    }
  },
  {
    "service_request": "2024-1102931",
    "request_type": "Abandoned Vehicles",
    "request_reason": "Abandoned/Junk Vehicles",
    "date_created": "2024-06-12T15:40:07.000",
    "date_modified": "2024-06-12T15:40:07.000",
    "request_status": "Pending",
    "responsible_agency": "Department of Public Works",
    "final_address": "1320 Harrison Ave",
    "address_councildis": "D",
    "status": "Pending",
    "rowid": "1102931",
    "final_x": "3677436.40834",
    "final_y": "547510.06645",
    "longitude": "-90.0803495659599",
    "latitude": "29.999585612656702",
    "geocoded_column": {
      "latitude": "29.999585612656702",
      "longitude": "-90.0803495659599"
    }
  },
  {
    "service_request": "2024-1102930",
    "request_type": "Trash/Recycling",
    "request_reason": "Replace Trash Cart",
    "date_created": "2024-06-12T15:38:26.000",
    "date_modified": "2024-06-12T15:38:27.000",
    "request_status": "Pending",
    "responsible_agency": "Department of Sanitation",
    "final_address": "7808 Freret St",
    "address_councildis": "A",
    "status": "Assigned to Contractor",
    "contractor": "IV Waste",
    "rowid": "1102930",
    "final_x": "3662216.22477",
    "final_y": "527143.125567",
    "longitude": "-90.12910709804797",
    "latitude": "29.94403209755523",
    "geocoded_column": {
      "latitude": "29.94403209755523",
      "longitude": "-90.12910709804797"
    }
  },
  {
    "service_request": "2024-1102929",
    "request_type": "Roads/Drainage",
    "request_reason": "Pothole",
    "date_created": "2024-06-12T15:37:29.000",
    "date_modified": "2024-06-12T15:37:29.000",
    "request_status": "Pending",
    "responsible_agency": "Department of Public Works",
    "final_address": " & BALDWIN ST",
    "address_councildis": "D",
    "status": "Pending",
    "rowid": "1102929",
    "final_x": "3687880.8",
    "final_y": "560035.64",
    "longitude": "-90.04691121641319",
    "latitude": "30.03370814054373",
    "geocoded_column": {
      "latitude": "30.03370814054373",
      "longitude": "-90.04691121641319"
    }
  },
  {
    "service_request": "2024-1102928",
    "request_type": "Trash/Recycling",
    "request_reason": "Repair Trash Cart",
    "date_created": "2024-06-12T15:36:24.000",
    "date_modified": "2024-06-12T15:36:25.000",
    "request_status": "Pending",
    "responsible_agency": "Department of Sanitation",
    "final_address": "2105 Pine St",
    "address_councildis": "A",
    "status": "Assigned to Contractor",
    "contractor": "IV Waste",
    "rowid": "1102928",
    "final_x": "3665774.81415",
    "final_y": "529361.334401",
    "longitude": "-90.11779730506596",
    "latitude": "29.9500281403591",
    "geocoded_column": {
      "latitude": "29.9500281403591",
      "longitude": "-90.11779730506596"
    }
  },
  {
    "service_request": "2024-1102927",
    "request_type": "Trash/Recycling",
    "request_reason": "Request a Large Item Pick Up",
    "date_created": "2024-06-12T15:35:25.000",
    "date_modified": "2024-06-12T15:35:25.000",
    "request_status": "Pending",
    "responsible_agency": "Department of Sanitation",
    "final_address": "4619 Clara St",
    "address_councildis": "B",
    "status": "Assigned to Contractor",
    "contractor": "IV Waste",
    "rowid": "1102927",
    "final_x": "3669504.99585",
    "final_y": "525029.116861",
    "longitude": "-90.10616584259417",
    "latitude": "29.93800661597745",
    "geocoded_column": {
      "latitude": "29.93800661597745",
      "longitude": "-90.10616584259417"
    }
  },
  {
    "service_request": "2024-1102926",
    "request_type": "Roads/Drainage",
    "request_reason": "Pothole",
    "date_created": "2024-06-12T15:34:35.000",
    "date_modified": "2024-06-12T15:34:35.000",
    "request_status": "Pending",
    "responsible_agency": "Department of Public Works",
    "final_address": "1227 Henry Clay Ave",
    "address_councildis": "A",
    "status": "Pending",
    "rowid": "1102926",
    "final_x": "3664434.64",
    "final_y": "521028.889465",
    "longitude": "-90.12230694108062",
    "latitude": "29.927155596706097",
    "geocoded_column": {
      "latitude": "29.927155596706097",
      "longitude": "-90.12230694108062"
    }
  },
  {
    "service_request": "2024-1102925",
    "request_type": "Trash/Recycling",
    "request_reason": "Request a Large Item Pick Up",
    "date_created": "2024-06-12T15:34:22.000",
    "date_modified": "2024-06-12T15:34:23.000",
    "request_status": "Pending",
    "responsible_agency": "Department of Sanitation",
    "final_address": "1424 N Derbigny St",
    "address_councildis": "D",
    "status": "Assigned to Contractor",
    "contractor": "IV Waste",
    "rowid": "1102925",
    "final_x": "3681140.13999",
    "final_y": "536954.202504",
    "longitude": "-90.06901729465486",
    "latitude": "29.970448804236337",
    "geocoded_column": {
      "latitude": "29.970448804236337",
      "longitude": "-90.06901729465486"
    }
  },
  {
    "service_request": "2024-1102924",
    "request_type": "Traffic Signals/Signs/Striping/Streetlights",
    "request_reason": "Street Light Outage/Malfunction",
    "date_created": "2024-06-12T15:32:39.000",
    "date_modified": "2024-06-12T15:32:39.000",
    "request_status": "Pending",
    "responsible_agency": "Department of Public Works",
    "final_address": "7320 Brevard Ave",
    "address_councildis": "E",
    "status": "Assigned to Contractor",
    "contractor": "Legacy Professional Services",
    "rowid": "1102924",
    "final_x": "3706719.89937",
    "final_y": "562713.624288",
    "longitude": "-89.98727856324324",
    "latitude": "30.040476525288796",
    "geocoded_column": {
      "latitude": "30.040476525288796",
      "longitude": "-89.98727856324324"
    }
  },
  {
    "service_request": "2024-1102923",
    "request_type": "Trash/Recycling",
    "request_reason": "Replace Trash Cart",
    "date_created": "2024-06-12T15:30:21.000",
    "date_modified": "2024-06-12T15:30:21.000",
    "request_status": "Pending",
    "responsible_agency": "Department of Sanitation",
    "final_address": "407 State St",
    "address_councildis": "A",
    "status": "Assigned to Contractor",
    "contractor": "IV Waste",
    "rowid": "1102923",
    "final_x": "3664334.52423",
    "final_y": "517900.514102",
    "longitude": "-90.1227273190627",
    "latitude": "29.918556452656237",
    "geocoded_column": {
      "latitude": "29.918556452656237",
      "longitude": "-90.1227273190627"
    }
  },
  {
    "service_request": "2024-1102922",
    "request_type": "Trash/Recycling",
    "request_reason": "Missed Trash Pick-Up",
    "date_created": "2024-06-12T15:28:54.000",
    "date_modified": "2024-06-12T15:29:28.000",
    "request_status": "Pending",
    "responsible_agency": "Department of Sanitation",
    "final_address": "4945 St Roch Ave",
    "address_councildis": "D",
    "status": "Assigned to Contractor",
    "contractor": "IV Waste",
    "rowid": "1102922",
    "final_x": "3685321.96764",
    "final_y": "551184.275477",
    "longitude": "-90.0553093909843",
    "latitude": "30.00944890098638",
    "geocoded_column": {
      "latitude": "30.00944890098638",
      "longitude": "-90.0553093909843"
    }
  },
  {
    "service_request": "2024-1102921",
    "request_type": "Abandoned Vehicles",
    "request_reason": "Abandoned/Junk Vehicles",
    "date_created": "2024-06-12T15:27:28.000",
    "date_modified": "2024-06-12T15:27:29.000",
    "request_status": "Pending",
    "responsible_agency": "Department of Public Works",
    "final_address": "JOLIET ST & PALMETTO ST",
    "address_councildis": "A",
    "status": "Pending",
    "rowid": "1102921",
    "final_x": "3667145.3",
    "final_y": "536172.68",
    "longitude": "-90.11324102309332",
    "latitude": "29.968717054233263",
    "geocoded_column": {
      "latitude": "29.968717054233263",
      "longitude": "-90.11324102309332"
    }
  },
  {
    "service_request": "2024-1102920",
    "request_type": "Trash/Recycling",
    "request_reason": "Illegal Dumping",
    "date_created": "2024-06-12T15:26:49.000",
    "date_modified": "2024-06-12T15:26:49.000",
    "request_status": "Pending",
    "responsible_agency": "Department of Sanitation",
    "final_address": "1302 Leboeuf St",
    "address_councildis": "C",
    "status": "Pending",
    "rowid": "1102920",
    "final_x": "3689742.20092",
    "final_y": "526557.514046",
    "longitude": "-90.04222106608107",
    "latitude": "29.9415977237336",
    "geocoded_column": {
      "latitude": "29.9415977237336",
      "longitude": "-90.04222106608107"
    }
  },
  {
    "service_request": "2024-1102919",
    "request_type": "Trash/Recycling",
    "request_reason": "Request a Large Item Pick Up",
    "date_created": "2024-06-12T15:24:05.000",
    "date_modified": "2024-06-12T15:24:06.000",
    "request_status": "Pending",
    "responsible_agency": "Department of Sanitation",
    "final_address": "6335 Painters St",
    "address_councildis": "D",
    "status": "Assigned to Contractor",
    "contractor": "IV Waste",
    "rowid": "1102919",
    "final_x": "3686019.41532",
    "final_y": "556673.848538",
    "longitude": "-90.05291211093393",
    "latitude": "30.024521798456895",
    "geocoded_column": {
      "latitude": "30.024521798456895",
      "longitude": "-90.05291211093393"
    }
  },
  {
    "service_request": "2024-1102918",
    "request_type": "Abandoned Vehicles",
    "request_reason": "Abandoned/Junk Vehicles",
    "date_created": "2024-06-12T15:21:00.000",
    "date_modified": "2024-06-12T15:21:00.000",
    "request_status": "Pending",
    "responsible_agency": "Department of Public Works",
    "final_address": "6777 Downman Rd",
    "address_councildis": "D",
    "status": "Pending",
    "rowid": "1102918",
    "final_x": "3695649.93616",
    "final_y": "555736.464857",
    "longitude": "-90.02251538427285",
    "latitude": "30.021644926814947",
    "geocoded_column": {
      "latitude": "30.021644926814947",
      "longitude": "-90.02251538427285"
    }
  },
  {
    "service_request": "2024-1102916",
    "request_type": "Roads/Drainage",
    "request_reason": "Street Subsidence (Sinking)",
    "date_created": "2024-06-12T15:18:08.000",
    "date_modified": "2024-06-12T15:18:08.000",
    "request_status": "Pending",
    "responsible_agency": "Department of Public Works",
    "final_address": "5000 BLK Canal Blvd",
    "address_councildis": "A",
    "status": "Pending",
    "rowid": "1102916",
    "final_x": "3667881.86794",
    "final_y": "541397.379919",
    "longitude": "-90.11073883906256",
    "latitude": "29.983061638092252",
    "geocoded_column": {
      "latitude": "29.983061638092252",
      "longitude": "-90.11073883906256"
    }
  },
  {
    "service_request": "2024-1102915",
    "request_type": "Parks & Parkways",
    "request_reason": "Request Tree Service (Right of Way/Public Property)",
    "date_created": "2024-06-12T15:17:47.000",
    "date_modified": "2024-06-12T15:17:48.000",
    "request_status": "Pending",
    "responsible_agency": "Department of Parks & Parkway",
    "final_address": "2735 Canal St",
    "address_councildis": "B",
    "status": "Pending",
    "rowid": "1102915",
    "final_x": "3675131.80219",
    "final_y": "535401.056006",
    "longitude": "-90.08804563565538",
    "latitude": "29.96635910037772",
    "geocoded_column": {
      "latitude": "29.96635910037772",
      "longitude": "-90.08804563565538"
    }
  },
  {
    "service_request": "2024-1102913",
    "request_type": "Trash/Recycling",
    "request_reason": "Order Recycling Cart",
    "date_created": "2024-06-12T15:16:06.000",
    "date_modified": "2024-06-12T15:16:07.000",
    "request_status": "Pending",
    "responsible_agency": "Department of Sanitation",
    "final_address": "1118 Milan St",
    "address_councildis": "B",
    "status": "Pending",
    "rowid": "1102913",
    "final_x": "3671672.97326",
    "final_y": "519748.327224",
    "longitude": "-90.09950085656419",
    "latitude": "29.923422122075202",
    "geocoded_column": {
      "latitude": "29.923422122075202",
      "longitude": "-90.09950085656419"
    }
  },
  {
    "service_request": "2024-1102912",
    "request_type": "Trash/Recycling",
    "request_reason": "Illegal Dumping",
    "date_created": "2024-06-12T15:15:59.000",
    "date_modified": "2024-06-12T15:16:00.000",
    "request_status": "Pending",
    "responsible_agency": "Department of Sanitation",
    "final_address": "5411 Edenboro Rd",
    "address_councildis": "E",
    "status": "Pending",
    "rowid": "1102912",
    "final_x": "3708380.44875",
    "final_y": "557795.508443",
    "longitude": "-89.98221399886887",
    "latitude": "30.02689990750971",
    "geocoded_column": {
      "latitude": "30.02689990750971",
      "longitude": "-89.98221399886887"
    }
  },
  {
    "service_request": "2024-1102911",
    "request_type": "Trash/Recycling",
    "request_reason": "Order Trash Cart",
    "date_created": "2024-06-12T15:15:48.000",
    "date_modified": "2024-06-12T15:15:49.000",
    "request_status": "Pending",
    "responsible_agency": "Department of Sanitation",
    "final_address": "1118 Milan St",
    "address_councildis": "B",
    "status": "Assigned to Contractor",
    "contractor": "IV Waste",
    "rowid": "1102911",
    "final_x": "3671672.97326",
    "final_y": "519748.327224",
    "longitude": "-90.09950085656419",
    "latitude": "29.923422122075202",
    "geocoded_column": {
      "latitude": "29.923422122075202",
      "longitude": "-90.09950085656419"
    }
  },
  {
    "service_request": "2024-1102910",
    "request_type": "Trash/Recycling",
    "request_reason": "Replace Trash Cart",
    "date_created": "2024-06-12T15:13:15.000",
    "date_modified": "2024-06-12T15:13:15.000",
    "request_status": "Pending",
    "responsible_agency": "Department of Sanitation",
    "final_address": "7660 Dune Dr",
    "address_councildis": "E",
    "status": "Assigned to Contractor",
    "contractor": "Waste Pro",
    "rowid": "1102910",
    "final_x": "3715180.2892",
    "final_y": "569180.36919",
    "longitude": "-89.96029634319336",
    "latitude": "30.05798144485274",
    "geocoded_column": {
      "latitude": "30.05798144485274",
      "longitude": "-89.96029634319336"
    }
  },
  {
    "service_request": "2024-1102909",
    "request_type": "Trash/Recycling",
    "request_reason": "Request a Large Item Pick Up",
    "date_created": "2024-06-12T15:12:49.000",
    "date_modified": "2024-06-12T15:12:49.000",
    "request_status": "Pending",
    "responsible_agency": "Department of Sanitation",
    "final_address": "3900 Franklin Ave",
    "address_councildis": "D",
    "status": "Assigned to Contractor",
    "contractor": "IV Waste",
    "rowid": "1102909",
    "final_x": "3686995.67919",
    "final_y": "547242.115025",
    "longitude": "-90.05016103999712",
    "latitude": "29.998557955714542",
    "geocoded_column": {
      "latitude": "29.998557955714542",
      "longitude": "-90.05016103999712"
    }
  },
  {
    "service_request": "2024-1102908",
    "request_type": "Trash/Recycling",
    "request_reason": "Order Trash Cart",
    "date_created": "2024-06-12T15:09:11.000",
    "date_modified": "2024-06-12T15:09:12.000",
    "request_status": "Pending",
    "responsible_agency": "Department of Sanitation",
    "final_address": "2631 Carondelet St",
    "address_councildis": "B",
    "status": "Assigned to Contractor",
    "contractor": "IV Waste",
    "rowid": "1102908",
    "final_x": "3675989.55297",
    "final_y": "523081.755579",
    "longitude": "-90.0857604523041",
    "latitude": "29.93245945687225",
    "geocoded_column": {
      "latitude": "29.93245945687225",
      "longitude": "-90.0857604523041"
    }
  },
  {
    "service_request": "2024-1102907",
    "request_type": "Trash/Recycling",
    "request_reason": "Request a Large Item Pick Up",
    "date_created": "2024-06-12T15:07:18.000",
    "date_modified": "2024-06-12T15:07:18.000",
    "request_status": "Pending",
    "responsible_agency": "Department of Sanitation",
    "final_address": "1944 Tennessee St",
    "address_councildis": "E",
    "status": "Assigned to Contractor",
    "contractor": "Waste Pro",
    "rowid": "1102907",
    "final_x": "3696565.44784",
    "final_y": "537661.147144",
    "longitude": "-90.02027710375705",
    "latitude": "29.97191563546463",
    "geocoded_column": {
      "latitude": "29.97191563546463",
      "longitude": "-90.02027710375705"
    }
  },
  {
    "service_request": "2024-1102906",
    "request_type": "Abandoned Vehicles",
    "request_reason": "Abandoned/Junk Vehicles",
    "date_created": "2024-06-12T15:06:02.000",
    "date_modified": "2024-06-12T15:06:03.000",
    "request_status": "Pending",
    "responsible_agency": "Department of Public Works",
    "final_address": "2109 Cadiz St",
    "address_councildis": "B",
    "status": "Pending",
    "rowid": "1102906",
    "final_x": "3669952.00052",
    "final_y": "522671.17881",
    "longitude": "-90.10483441852892",
    "latitude": "29.93150987400052",
    "geocoded_column": {
      "latitude": "29.93150987400052",
      "longitude": "-90.10483441852892"
    }
  },
  {
    "service_request": "2024-1102905",
    "request_type": "Trash/Recycling",
    "request_reason": "Order Recycling Cart",
    "date_created": "2024-06-12T15:05:59.000",
    "date_modified": "2024-06-12T15:05:59.000",
    "request_status": "Pending",
    "responsible_agency": "Department of Sanitation",
    "final_address": "7517 Freret St",
    "address_councildis": "A",
    "status": "Pending",
    "rowid": "1102905",
    "final_x": "3662964.28512",
    "final_y": "526566.345214",
    "longitude": "-90.12676442849933",
    "latitude": "29.942424497249064",
    "geocoded_column": {
      "latitude": "29.942424497249064",
      "longitude": "-90.12676442849933"
    }
  },
  {
    "service_request": "2024-1102904",
    "request_type": "Trash/Recycling",
    "request_reason": "Order Trash Cart",
    "date_created": "2024-06-12T15:05:11.000",
    "date_modified": "2024-06-12T15:05:12.000",
    "request_status": "Pending",
    "responsible_agency": "Department of Sanitation",
    "final_address": "3222 First St",
    "address_councildis": "B",
    "status": "Assigned to Contractor",
    "contractor": "IV Waste",
    "rowid": "1102904",
    "final_x": "3673673.66619",
    "final_y": "528116.600447",
    "longitude": "-90.09289944597603",
    "latitude": "29.946372765917822",
    "geocoded_column": {
      "latitude": "29.946372765917822",
      "longitude": "-90.09289944597603"
    }
  },
  {
    "service_request": "2024-1102903",
    "request_type": "Roads/Drainage",
    "request_reason": "Pothole",
    "date_created": "2024-06-12T15:03:56.000",
    "date_modified": "2024-06-12T15:03:56.000",
    "request_status": "Pending",
    "responsible_agency": "Department of Public Works",
    "final_address": "4216 Chestnut St",
    "address_councildis": "B",
    "status": "Pending",
    "rowid": "1102903",
    "final_x": "3671574.31393",
    "final_y": "519539.203703",
    "longitude": "-90.09981939416457",
    "latitude": "29.922850019854593",
    "geocoded_column": {
      "latitude": "29.922850019854593",
      "longitude": "-90.09981939416457"
    }
  },
  {
    "service_request": "2024-1102902",
    "request_type": "Mosquito, Termite & Rodent Control",
    "request_reason": "Mosquito Complaint",
    "date_created": "2024-06-12T15:03:39.000",
    "date_modified": "2024-06-12T15:03:39.000",
    "request_status": "Pending",
    "responsible_agency": "Mosquito, Termite & Rodent Control Board",
    "final_address": "9213 S Claiborne Ave",
    "address_councildis": "A",
    "status": "Pending",
    "rowid": "1102902",
    "final_x": "3661876.22163",
    "final_y": "534366.851269",
    "longitude": "-90.12994105888717",
    "latitude": "29.963904834586426",
    "geocoded_column": {
      "latitude": "29.963904834586426",
      "longitude": "-90.12994105888717"
    }
  },
  {
    "service_request": "2024-1102901",
    "request_type": "Roads/Drainage",
    "request_reason": "Pothole",
    "date_created": "2024-06-12T15:03:05.000",
    "date_modified": "2024-06-12T15:04:31.000",
    "case_close_date": "2024-06-12T10:04:31.000",
    "request_status": "Closed",
    "responsible_agency": "Department of Public Works",
    "final_address": "7000 BLK Milne Blvd",
    "address_councildis": "A",
    "status": "Resolved",
    "rowid": "1102901",
    "final_x": "3667747.65594",
    "final_y": "554305.403644",
    "longitude": "-90.11072773492938",
    "latitude": "30.018558173573517",
    "geocoded_column": {
      "latitude": "30.018558173573517",
      "longitude": "-90.11072773492938"
    }
  },
  {
    "service_request": "2024-1102900",
    "request_type": "Roads/Drainage",
    "request_reason": "Pothole",
    "date_created": "2024-06-12T15:02:35.000",
    "date_modified": "2024-06-12T15:02:35.000",
    "request_status": "Pending",
    "responsible_agency": "Department of Public Works",
    "final_address": "1312 Milan St",
    "address_councildis": "B",
    "status": "Pending",
    "rowid": "1102900",
    "final_x": "3671625.82823",
    "final_y": "520286.919608",
    "longitude": "-90.09963137110304",
    "latitude": "29.92490447494246",
    "geocoded_column": {
      "latitude": "29.92490447494246",
      "longitude": "-90.09963137110304"
    }
  },
  {
    "service_request": "2024-1102899",
    "request_type": "Trash/Recycling",
    "request_reason": "Order Recycling Cart",
    "date_created": "2024-06-12T15:01:10.000",
    "date_modified": "2024-06-12T15:01:10.000",
    "request_status": "Pending",
    "responsible_agency": "Department of Sanitation",
    "final_address": "9213 S Claiborne Ave",
    "address_councildis": "A",
    "status": "Pending",
    "rowid": "1102899",
    "final_x": "3661876.22163",
    "final_y": "534366.851269",
    "longitude": "-90.12994105888717",
    "latitude": "29.963904834586426",
    "geocoded_column": {
      "latitude": "29.963904834586426",
      "longitude": "-90.12994105888717"
    }
  },
  {
    "service_request": "2024-1102898",
    "request_type": "Trash/Recycling",
    "request_reason": "Request a Large Item Pick Up",
    "date_created": "2024-06-12T15:00:38.000",
    "date_modified": "2024-06-12T15:00:39.000",
    "request_status": "Pending",
    "responsible_agency": "Department of Sanitation",
    "final_address": "2520 Bienville Ave",
    "address_councildis": "B",
    "status": "Assigned to Contractor",
    "contractor": "IV Waste",
    "rowid": "1102898",
    "final_x": "3676415.17499",
    "final_y": "535189.489926",
    "longitude": "-90.08400004657219",
    "latitude": "29.965738951903134",
    "geocoded_column": {
      "latitude": "29.965738951903134",
      "longitude": "-90.08400004657219"
    }
  },
  {
    "service_request": "2024-1102896",
    "request_type": "Trash/Recycling",
    "request_reason": "MIssed Recycling Pick-Up",
    "date_created": "2024-06-12T14:59:48.000",
    "date_modified": "2024-06-12T14:59:49.000",
    "request_status": "Pending",
    "responsible_agency": "Department of Sanitation",
    "final_address": "5560 Bullard Ave",
    "address_councildis": "E",
    "status": "Assigned to Contractor",
    "contractor": "Waste Pro",
    "rowid": "1102896",
    "final_x": "3717234.16146",
    "final_y": "561683.195103",
    "longitude": "-89.95408961262913",
    "latitude": "30.0372994534601",
    "geocoded_column": {
      "latitude": "30.0372994534601",
      "longitude": "-89.95408961262913"
    }
  },
  {
    "service_request": "2024-1102895",
    "request_type": "Trash/Recycling",
    "request_reason": "Order Trash Cart",
    "date_created": "2024-06-12T14:58:39.000",
    "date_modified": "2024-06-12T14:58:39.000",
    "request_status": "Pending",
    "responsible_agency": "Department of Sanitation",
    "final_address": "9213 S Claiborne Ave",
    "address_councildis": "A",
    "status": "Assigned to Contractor",
    "contractor": "IV Waste",
    "rowid": "1102895",
    "final_x": "3661876.22163",
    "final_y": "534366.851269",
    "longitude": "-90.12994105888717",
    "latitude": "29.963904834586426",
    "geocoded_column": {
      "latitude": "29.963904834586426",
      "longitude": "-90.12994105888717"
    }
  },
  {
    "service_request": "2024-1102894",
    "request_type": "Trash/Recycling",
    "request_reason": "Repair Trash Cart",
    "date_created": "2024-06-12T14:50:14.000",
    "date_modified": "2024-06-12T14:50:15.000",
    "request_status": "Pending",
    "responsible_agency": "Department of Sanitation",
    "final_address": "347 18Th St",
    "address_councildis": "A",
    "status": "Assigned to Contractor",
    "contractor": "IV Waste",
    "rowid": "1102894",
    "final_x": "3664800.62413",
    "final_y": "548798.787987",
    "longitude": "-90.12022352815022",
    "latitude": "30.00350302906252",
    "geocoded_column": {
      "latitude": "30.00350302906252",
      "longitude": "-90.12022352815022"
    }
  },
  {
    "service_request": "2024-1102893",
    "request_type": "Roads/Drainage",
    "request_reason": "Catch Basin - Clogged",
    "date_created": "2024-06-12T14:45:02.000",
    "date_modified": "2024-06-12T14:45:03.000",
    "request_status": "Pending",
    "responsible_agency": "Department of Public Works",
    "final_address": "2323 Amelia St",
    "address_councildis": "B",
    "status": "Pending",
    "rowid": "1102893",
    "final_x": "3672541.22299",
    "final_y": "523786.846587",
    "longitude": "-90.0966225211533",
    "latitude": "29.934501014768493",
    "geocoded_column": {
      "latitude": "29.934501014768493",
      "longitude": "-90.0966225211533"
    }
  },
  {
    "service_request": "2024-1102892",
    "request_type": "Trash/Recycling",
    "request_reason": "Repair Trash Cart",
    "date_created": "2024-06-12T14:42:31.000",
    "date_modified": "2024-06-12T14:42:31.000",
    "request_status": "Pending",
    "responsible_agency": "Department of Sanitation",
    "final_address": "1322 Arabella St",
    "address_councildis": "A",
    "status": "Assigned to Contractor",
    "contractor": "IV Waste",
    "rowid": "1102892",
    "final_x": "3666193.92077",
    "final_y": "520793.212985",
    "longitude": "-90.11676122049721",
    "latitude": "29.92645631707063",
    "geocoded_column": {
      "latitude": "29.92645631707063",
      "longitude": "-90.11676122049721"
    }
  },
  {
    "service_request": "2024-1102891",
    "request_type": "Trash/Recycling",
    "request_reason": "Illegal Dumping",
    "date_created": "2024-06-12T14:40:52.000",
    "date_modified": "2024-06-12T14:40:52.000",
    "request_status": "Pending",
    "responsible_agency": "Department of Sanitation",
    "final_address": "2300 BLK Amelia St",
    "address_councildis": "B",
    "status": "Pending",
    "rowid": "1102891",
    "final_x": "3672490.69763",
    "final_y": "523771.202245",
    "longitude": "-90.09678256179765",
    "latitude": "29.93445949725463",
    "geocoded_column": {
      "latitude": "29.93445949725463",
      "longitude": "-90.09678256179765"
    }
  },
  {
    "service_request": "2024-1102890",
    "request_type": "Roads/Drainage",
    "request_reason": "Accessibility Ramps, Curbs and Sidewalk Repair",
    "date_created": "2024-06-12T14:38:18.000",
    "date_modified": "2024-06-12T14:38:19.000",
    "request_status": "Pending",
    "responsible_agency": "Department of Public Works",
    "final_address": "8731 Edinburgh St",
    "address_councildis": "A",
    "status": "Pending",
    "rowid": "1102890",
    "final_x": "3665743.74644",
    "final_y": "536067.789831",
    "longitude": "-90.1176707430168",
    "latitude": "29.96846960186198",
    "geocoded_column": {
      "latitude": "29.96846960186198",
      "longitude": "-90.1176707430168"
    }
  },
  {
    "service_request": "2024-1102889",
    "request_type": "Roads/Drainage",
    "request_reason": "Catch Basin - Clogged",
    "date_created": "2024-06-12T14:38:09.000",
    "date_modified": "2024-06-12T14:38:09.000",
    "request_status": "Pending",
    "responsible_agency": "Department of Public Works",
    "final_address": "5421 St Charles Ave",
    "address_councildis": "A",
    "status": "Pending",
    "rowid": "1102889",
    "final_x": "3667148.02471",
    "final_y": "521773.367226",
    "longitude": "-90.11371643649376",
    "latitude": "29.9291235418274",
    "geocoded_column": {
      "latitude": "29.9291235418274",
      "longitude": "-90.11371643649376"
    }
  },
  {
    "service_request": "2024-1102888",
    "request_type": "Property Maintenance",
    "request_reason": "Property Maintenance",
    "date_created": "2024-06-12T14:35:00.000",
    "date_modified": "2024-06-12T15:45:33.000",
    "case_close_date": "2024-06-12T10:45:33.000",
    "request_status": "Closed",
    "responsible_agency": "Department of Code Enforcement",
    "final_address": "7801 Windward Ct",
    "address_councildis": "E",
    "status": "Referred to Code Enforcement",
    "rowid": "1102888",
    "final_x": "3715420.29195",
    "final_y": "570033.477671",
    "longitude": "-89.95950539952803",
    "latitude": "30.06031923107057",
    "geocoded_column": {
      "latitude": "30.06031923107057",
      "longitude": "-89.95950539952803"
    }
  },
  {
    "service_request": "2024-1102887",
    "request_type": "Trash/Recycling",
    "request_reason": "Repair Trash Cart",
    "date_created": "2024-06-12T14:34:33.000",
    "date_modified": "2024-06-12T14:34:33.000",
    "request_status": "Pending",
    "responsible_agency": "Department of Sanitation",
    "final_address": "1486 Riviera Ave",
    "address_councildis": "D",
    "status": "Assigned to Contractor",
    "contractor": "IV Waste",
    "rowid": "1102887",
    "final_x": "3678442.1179",
    "final_y": "550826.429141",
    "longitude": "-90.07705763071257",
    "latitude": "30.008674151342777",
    "geocoded_column": {
      "latitude": "30.008674151342777",
      "longitude": "-90.07705763071257"
    }
  },
  {
    "service_request": "2024-1102886",
    "request_type": "Trash/Recycling",
    "request_reason": "Missed Trash Pick-Up",
    "date_created": "2024-06-12T14:31:42.000",
    "date_modified": "2024-06-12T14:51:10.000",
    "case_close_date": "2024-06-12T09:51:10.000",
    "request_status": "Closed",
    "responsible_agency": "Department of Sanitation",
    "final_address": "5510 Wilton Dr",
    "address_councildis": "D",
    "status": "Invalid Request",
    "contractor": "IV Waste",
    "contractor_action": "Invalid",
    "rowid": "1102886",
    "final_x": "3681817.74255",
    "final_y": "553149.117015",
    "longitude": "-90.06631180738746",
    "latitude": "30.01495850642007",
    "geocoded_column": {
      "latitude": "30.01495850642007",
      "longitude": "-90.06631180738746"
    }
  },
  {
    "service_request": "2024-1102885",
    "request_type": "Trash/Recycling",
    "request_reason": "Request a Large Item Pick Up",
    "date_created": "2024-06-12T14:31:30.000",
    "date_modified": "2024-06-12T14:31:31.000",
    "request_status": "Pending",
    "responsible_agency": "Department of Sanitation",
    "final_address": "13652 N Cavelier Dr",
    "address_councildis": "E",
    "status": "Assigned to Contractor",
    "contractor": "Waste Pro",
    "rowid": "1102885",
    "final_x": "3724065.73727",
    "final_y": "570056.767591",
    "longitude": "-89.93217698357395",
    "latitude": "30.060095419917687",
    "geocoded_column": {
      "latitude": "30.060095419917687",
      "longitude": "-89.93217698357395"
    }
  },
  {
    "service_request": "2024-1102884",
    "request_type": "Trash/Recycling",
    "request_reason": "Request a Large Item Pick Up",
    "date_created": "2024-06-12T14:31:11.000",
    "date_modified": "2024-06-12T14:31:11.000",
    "request_status": "Pending",
    "responsible_agency": "Department of Sanitation",
    "final_address": "6858 Mayo Rd",
    "address_councildis": "E",
    "status": "Assigned to Contractor",
    "contractor": "Waste Pro",
    "rowid": "1102884",
    "final_x": "3701824.35543",
    "final_y": "557532.396699",
    "longitude": "-90.00294011090502",
    "latitude": "30.026387385486693",
    "geocoded_column": {
      "latitude": "30.026387385486693",
      "longitude": "-90.00294011090502"
    }
  },
  {
    "service_request": "2024-1102883",
    "request_type": "Trash/Recycling",
    "request_reason": "Request a Large Item Pick Up",
    "date_created": "2024-06-12T14:28:14.000",
    "date_modified": "2024-06-12T14:28:15.000",
    "request_status": "Pending",
    "responsible_agency": "Department of Sanitation",
    "final_address": "4711 Coronado Dr",
    "address_councildis": "E",
    "status": "Assigned to Contractor",
    "contractor": "Waste Pro",
    "rowid": "1102883",
    "final_x": "3714206.37464",
    "final_y": "556359.593114",
    "longitude": "-89.96385908324322",
    "latitude": "30.02276153286843",
    "geocoded_column": {
      "latitude": "30.02276153286843",
      "longitude": "-89.96385908324322"
    }
  },
  {
    "service_request": "2024-1102882",
    "request_type": "Abandoned Vehicles",
    "request_reason": "Abandoned/Junk Vehicles",
    "date_created": "2024-06-12T14:26:41.000",
    "date_modified": "2024-06-12T14:29:04.000",
    "request_status": "Pending",
    "responsible_agency": "Department of Public Works",
    "final_address": "408 Thayer St",
    "address_councildis": "C",
    "status": "Pending",
    "rowid": "1102882",
    "final_x": "3689596.91721",
    "final_y": "530163.892545",
    "longitude": "-90.04255149129911",
    "latitude": "29.951518529775505",
    "geocoded_column": {
      "latitude": "29.951518529775505",
      "longitude": "-90.04255149129911"
    }
  },
  {
    "service_request": "2024-1102881",
    "request_type": "Property Maintenance",
    "request_reason": "Property Maintenance",
    "date_created": "2024-06-12T14:26:39.000",
    "date_modified": "2024-06-12T14:26:39.000",
    "request_status": "Pending",
    "responsible_agency": "Department of Code Enforcement",
    "final_address": "4842 Camelia St",
    "address_councildis": "E",
    "status": "Pending",
    "rowid": "1102881",
    "final_x": "3701409.51005",
    "final_y": "554799.830808",
    "longitude": "-90.00435111191017",
    "latitude": "30.01888711545372",
    "geocoded_column": {
      "latitude": "30.01888711545372",
      "longitude": "-90.00435111191017"
    }
  },
  {
    "service_request": "2024-1102880",
    "request_type": "Trash/Recycling",
    "request_reason": "Request a Large Item Pick Up",
    "date_created": "2024-06-12T14:26:30.000",
    "date_modified": "2024-06-12T14:26:30.000",
    "request_status": "Pending",
    "responsible_agency": "Department of Sanitation",
    "final_address": "4959 Elysian Fields Ave",
    "address_councildis": "D",
    "status": "Assigned to Contractor",
    "contractor": "IV Waste",
    "rowid": "1102880",
    "final_x": "3683942.92981",
    "final_y": "551166.022037",
    "longitude": "-90.05966688608936",
    "latitude": "30.00944093139664",
    "geocoded_column": {
      "latitude": "30.00944093139664",
      "longitude": "-90.05966688608936"
    }
  },
  {
    "service_request": "2024-1102879",
    "request_type": "Trash/Recycling",
    "request_reason": "Illegal Dumping",
    "date_created": "2024-06-12T14:25:17.000",
    "date_modified": "2024-06-12T14:25:18.000",
    "request_status": "Pending",
    "responsible_agency": "Department of Sanitation",
    "final_address": "8030 Arcadia Ln",
    "address_councildis": "E",
    "status": "Pending",
    "rowid": "1102879",
    "final_x": "3711612.44382",
    "final_y": "568154.068645",
    "longitude": "-89.97161233244367",
    "latitude": "30.055276608079776",
    "geocoded_column": {
      "latitude": "30.055276608079776",
      "longitude": "-89.97161233244367"
    }
  },