[
  {
    "service_request": "2022-903870",
    "request_type": "Trash/Recycling",
    "request_reason": "Replace Trash Cart",
    "date_created": "2022-07-27T01:29:38.000",
    "date_modified": "2022-07-27T01:29:38.000",
    "request_status": "Pending",
    "responsible_agency": "Department of Sanitation",
    "final_address": "127 Westpark Ct",
    "address_councildis": "C",
    "status": "Assigned to Contractor",
    "contractor": "Richards Disposal",
    "rowid": "903870",
    "final_x": "3695773.19421",
    "final_y": "522029.955002",
    "longitude": "-90.02334353130077",
    "latitude": "29.928960257736495",
    "geocoded_column": {
      "latitude": "29.928960257736495",
      "longitude": "-90.02334353130077"
    }
  },
  {
    "service_request": "2022-903869",
    "request_type": "Property Maintenance",
    "request_reason": "Property Maintenance",
    "date_created": "2022-07-27T00:49:40.000",
    "date_modified": "2022-07-27T00:49:40.000",
    "request_status": "Pending",
    "responsible_agency": "Department of Code Enforcement",
    "final_address": "6143 Chef Menteur Hwy",
    "address_councildis": "D",
    "status": "Pending",
    "rowid": "903869",
    "final_x": "3697515.58973",
    "final_y": "551749.944981",
    "longitude": "-90.01676517944013",
    "latitude": "30.01062468576353",
    "geocoded_column": {
      "latitude": "30.01062468576353",
      "longitude": "-90.01676517944013"
    }
  },
  {
    "service_request": "2022-903868",
    "request_type": "Roads/Drainage",
    "request_reason": "Accessibility Ramps, Curbs and Sidewalk Repair",
    "date_created": "2022-07-26T23:54:11.000",
    "date_modified": "2022-07-26T23:54:11.000",
    "request_status": "Pending",
    "responsible_agency": "Department of Public Works",
    "final_address": "1239 S Carrollton Ave",
    "address_councildis": "A",
    "status": "Pending",
    "rowid": "903868",
    "final_x": "3662288.7824",
    "final_y": "528483.84544",
    "longitude": "-90.12883351500743",
    "latitude": "29.947716551560887",
    "geocoded_column": {
      "latitude": "29.947716551560887",
      "longitude": "-90.12883351500743"
    }
  },
  {
    "service_request": "2022-903867",
    "request_type": "Roads/Drainage",
    "request_reason": "Catch Basin - Clogged",
    "date_created": "2022-07-26T23:29:22.000",
    "date_modified": "2022-07-26T23:29:22.000",
    "request_status": "Pending",
    "responsible_agency": "Department of Public Works",
    "final_address": "7730 Burthe St",
    "address_councildis": "A",
    "status": "Pending",
    "rowid": "903867",
    "final_x": "3662142.10496",
    "final_y": "526739.823358",
    "longitude": "-90.12935449548296",
    "latitude": "29.94292528671794",
    "geocoded_column": {
      "latitude": "29.94292528671794",
      "longitude": "-90.12935449548296"
    }
  },
  {
    "service_request": "2022-903866",
    "request_type": "Abandoned Vehicles",
    "request_reason": "Abandoned/Junk Vehicles",
    "date_created": "2022-07-26T23:12:00.000",
    "date_modified": "2022-07-26T23:12:00.000",
    "request_status": "Pending",
    "responsible_agency": "Department of Public Works",
    "final_address": "3039 St Claude Ave",
    "address_councildis": "C",
    "status": "Pending",
    "rowid": "903866",
    "final_x": "3688803.14953",
    "final_y": "536162.636679",
    "longitude": "-90.04484482532725",
    "latitude": "29.968037558000603",
    "geocoded_column": {
      "latitude": "29.968037558000603",
      "longitude": "-90.04484482532725"
    }
  },
  {
    "service_request": "2022-903865",
    "request_type": "Traffic Signals/Signs/Striping/Streetlights",
    "request_reason": "Street Light Outage/Malfunction",
    "date_created": "2022-07-26T23:10:33.000",
    "date_modified": "2022-07-26T23:10:34.000",
    "request_status": "Pending",
    "responsible_agency": "Department of Public Works",
    "final_address": "3810 Prytania St",
    "address_councildis": "B",
    "status": "Pending",
    "contractor": "Royal Engineering",
    "rowid": "903865",
    "final_x": "3672915.57441",
    "final_y": "520473.155384",
    "longitude": "-90.09555370687322",
    "latitude": "29.925378317431434",
    "geocoded_column": {
      "latitude": "29.925378317431434",
      "longitude": "-90.09555370687322"
    }
  },
  {
    "service_request": "2022-903864",
    "request_type": "Trash/Recycling",
    "request_reason": "Request a Large Item Pick Up",
    "date_created": "2022-07-26T23:06:32.000",
    "date_modified": "2022-07-26T23:06:33.000",
    "request_status": "Pending",
    "responsible_agency": "Department of Sanitation",
    "final_address": "6910 Camberley Dr",
    "address_councildis": "E",
    "status": "Assigned to Contractor",
    "contractor": "Metro Disposal",
    "rowid": "903864",
    "final_x": "3713350.91576",
    "final_y": "564107.623073",
    "longitude": "-89.96627002179103",
    "latitude": "30.04409360655841",
    "geocoded_column": {
      "latitude": "30.04409360655841",
      "longitude": "-89.96627002179103"
    }
  },
  {
    "service_request": "2022-903863",
    "request_type": "Traffic Signals/Signs/Striping/Streetlights",
    "request_reason": "Street Light Outage/Malfunction",
    "date_created": "2022-07-26T22:46:29.000",
    "date_modified": "2022-07-26T22:46:30.000",
    "request_status": "Pending",
    "responsible_agency": "Department of Public Works",
    "final_address": "6248 Vicksburg St",
    "address_councildis": "A",
    "status": "Pending",
    "contractor": "Royal Engineering",
    "rowid": "903863",
    "final_x": "3668932.98337",
    "final_y": "548994.187091",
    "longitude": "-90.10716209975149",
    "latitude": "30.003919365352395",
    "geocoded_column": {
      "latitude": "30.003919365352395",
      "longitude": "-90.10716209975149"
    }
  },
  {
    "service_request": "2022-903862",
    "request_type": "Traffic Signals/Signs/Striping/Streetlights",
    "request_reason": "Street Light Outage/Malfunction",
    "date_created": "2022-07-26T22:42:56.000",
    "date_modified": "2022-07-26T22:42:57.000",
    "request_status": "Pending",
    "responsible_agency": "Department of Public Works",
    "final_address": "4711 Evangeline Dr",
    "address_councildis": "E",
    "status": "Pending",
    "contractor": "Royal Engineering",
    "rowid": "903862",
    "final_x": "3709197.02033",
    "final_y": "555559.647193",
    "longitude": "-89.9797171998687",
    "latitude": "30.020725663455153",
    "geocoded_column": {
      "latitude": "30.020725663455153",
      "longitude": "-89.9797171998687"
    }
  },
  {
    "service_request": "2022-903861",
    "request_type": "Mosquito, Termite & Rodent Control",
    "request_reason": "Rodent Complaint (Rats)",
    "date_created": "2022-07-26T22:39:03.000",
    "date_modified": "2022-07-26T22:39:03.000",
    "request_status": "Pending",
    "responsible_agency": "Mosquito, Termite & Rodent Control Board",
    "final_address": "5726 St Charles Ave",
    "address_councildis": "A",
    "status": "Pending",
    "rowid": "903861",
    "final_x": "3666288.55757",
    "final_y": "522017.200314",
    "longitude": "-90.1164214428881",
    "latitude": "29.929819131740146",
    "geocoded_column": {
      "latitude": "29.929819131740146",
      "longitude": "-90.1164214428881"
    }
  },
  {
    "service_request": "2022-903860",
    "request_type": "Health Related Questions",
    "request_reason": "Noise Ordinance Complaint",
    "date_created": "2022-07-26T22:31:42.000",
    "date_modified": "2022-07-26T22:31:42.000",
    "request_status": "Pending",
    "responsible_agency": "Health Department",
    "final_address": "2549 banks street",
    "address_councildis": "B",
    "status": "Pending",
    "rowid": "903860",
    "final_x": "3675148.01403",
    "final_y": "533816.262341",
    "longitude": "-90.08804882988795",
    "latitude": "29.962000967671727",
    "geocoded_column": {
      "latitude": "29.962000967671727",
      "longitude": "-90.08804882988795"
    }
  },
  {
    "service_request": "2022-903859",
    "request_type": "Health Related Questions",
    "request_reason": "Noise Ordinance Complaint",
    "date_created": "2022-07-26T22:16:50.000",
    "date_modified": "2022-07-26T22:16:50.000",
    "request_status": "Pending",
    "responsible_agency": "Health Department",
    "final_address": "2549 Banks St, New Orleans, Louisiana, 70119",
    "address_councildis": "B",
    "status": "Pending",
    "rowid": "903859",
    "final_x": "3675148.01403",
    "final_y": "533816.262341",
    "longitude": "-90.08804882988795",
    "latitude": "29.962000967671727",
    "geocoded_column": {
      "latitude": "29.962000967671727",
      "longitude": "-90.08804882988795"
    }
  },
  {
    "service_request": "2022-903858",
    "request_type": "Traffic Signals/Signs/Striping/Streetlights",
    "request_reason": "Street Light Outage/Malfunction",
    "date_created": "2022-07-26T22:15:42.000",
    "date_modified": "2022-07-26T22:15:42.000",
    "request_status": "Pending",
    "responsible_agency": "Department of Public Works",
    "final_address": "3731 Rue Mignon, New Orleans, Louisiana, 70131",
    "address_councildis": "C",
    "status": "Pending",
    "contractor": "Royal Engineering",
    "rowid": "903858",
    "final_x": "3703244.86359",
    "final_y": "516753.080693",
    "longitude": "-89.99995098200141",
    "latitude": "29.914213682996753",
    "geocoded_column": {
      "latitude": "29.914213682996753",
      "longitude": "-89.99995098200141"
    }
  },
  {
    "service_request": "2022-903857",
    "request_type": "Health Related Questions",
    "request_reason": "Noise Ordinance Complaint",
    "date_created": "2022-07-26T22:12:07.000",
    "date_modified": "2022-07-26T22:12:07.000",
    "request_status": "Pending",
    "responsible_agency": "Health Department",
    "final_address": "2549 Banks St, New Orleans, Louisiana, 70119",
    "address_councildis": "B",
    "status": "Pending",
    "rowid": "903857",
    "final_x": "3675148.01403",
    "final_y": "533816.262341",
    "longitude": "-90.08804882988795",
    "latitude": "29.962000967671727",
    "geocoded_column": {
      "latitude": "29.962000967671727",
      "longitude": "-90.08804882988795"
    }
  },
  {
    "service_request": "2022-903856",
    "request_type": "Safety & Permits",
    "request_reason": "Licenses & Permits",
    "date_created": "2022-07-26T22:05:55.000",
    "date_modified": "2022-07-26T22:05:55.000",
    "request_status": "Pending",
    "responsible_agency": "Safety and Permits",
    "final_address": "2549 Banks St",
    "address_councildis": "B",
    "status": "Pending",
    "rowid": "903856",
    "final_x": "3675148.01403",
    "final_y": "533816.262341",
    "longitude": "-90.08804882988795",
    "latitude": "29.962000967671727",
    "geocoded_column": {
      "latitude": "29.962000967671727",
      "longitude": "-90.08804882988795"
    }
  },
  {
    "service_request": "2022-903855",
    "request_type": "Health Related Questions",
    "request_reason": "Noise Ordinance Complaint",
    "date_created": "2022-07-26T22:04:38.000",
    "date_modified": "2022-07-26T22:04:38.000",
    "request_status": "Pending",
    "responsible_agency": "Health Department",
    "final_address": "2549 banks st",
    "address_councildis": "B",
    "status": "Pending",
    "rowid": "903855",
    "final_x": "3675148.01403",
    "final_y": "533816.262341",
    "longitude": "-90.08804882988795",
    "latitude": "29.962000967671727",
    "geocoded_column": {
      "latitude": "29.962000967671727",
      "longitude": "-90.08804882988795"
    }
  },
  {
    "service_request": "2022-903854",
    "request_type": "Health Related Questions",
    "request_reason": "Noise Ordinance Complaint",
    "date_created": "2022-07-26T21:57:24.000",
    "date_modified": "2022-07-26T21:57:24.000",
    "request_status": "Pending",
    "responsible_agency": "Health Department",
    "final_address": "2549 banks street",
    "address_councildis": "B",
    "status": "Pending",
    "rowid": "903854",
    "final_x": "3675148.01403",
    "final_y": "533816.262341",
    "longitude": "-90.08804882988795",
    "latitude": "29.962000967671727",
    "geocoded_column": {
      "latitude": "29.962000967671727",
      "longitude": "-90.08804882988795"
    }
  },
  {
    "service_request": "2022-903853",
    "request_type": "Trash/Recycling",
    "request_reason": "Request a Large Item Pick Up",
    "date_created": "2022-07-26T21:53:02.000",
    "date_modified": "2022-07-26T21:53:03.000",
    "request_status": "Pending",
    "responsible_agency": "Department of Sanitation",
    "final_address": "543 Octavia St",
    "address_councildis": "A",
    "status": "Assigned to Contractor",
    "contractor": "Richards Disposal",
    "rowid": "903853",
    "final_x": "3666338.27393",
    "final_y": "518215.309174",
    "longitude": "-90.11639196296173",
    "latitude": "29.919363677551434",
    "geocoded_column": {
      "latitude": "29.919363677551434",
      "longitude": "-90.11639196296173"
    }
  },
  {
    "service_request": "2022-903852",
    "request_type": "Traffic Signals/Signs/Striping/Streetlights",
    "request_reason": "Street Light Outage/Malfunction",
    "date_created": "2022-07-26T21:49:30.000",
    "date_modified": "2022-07-26T21:49:31.000",
    "request_status": "Pending",
    "responsible_agency": "Department of Public Works",
    "final_address": "2100 Napoleon Ave",
    "address_councildis": "B",
    "status": "Pending",
    "contractor": "Royal Engineering",
    "rowid": "903852",
    "final_x": "3670394.96826",
    "final_y": "522656.31161",
    "longitude": "-90.10343652210679",
    "latitude": "29.931455927719163",
    "geocoded_column": {
      "latitude": "29.931455927719163",
      "longitude": "-90.10343652210679"
    }
  },
  {
    "service_request": "2022-903851",
    "request_type": "Health Related Questions",
    "request_reason": "Noise Ordinance Complaint",
    "date_created": "2022-07-26T21:47:04.000",
    "date_modified": "2022-07-26T21:47:04.000",
    "request_status": "Pending",
    "responsible_agency": "Health Department",
    "final_address": "2549 Banks St",
    "address_councildis": "B",
    "status": "Pending",
    "rowid": "903851",
    "final_x": "3675148.01403",
    "final_y": "533816.262341",
    "longitude": "-90.08804882988795",
    "latitude": "29.962000967671727",
    "geocoded_column": {
      "latitude": "29.962000967671727",
      "longitude": "-90.08804882988795"
    }
  },
  {
    "service_request": "2022-903850",
    "request_type": "Traffic Signals/Signs/Striping/Streetlights",
    "request_reason": "Street Light Outage/Malfunction",
    "date_created": "2022-07-26T21:32:10.000",
    "date_modified": "2022-07-26T21:32:11.000",
    "request_status": "Pending",
    "responsible_agency": "Department of Public Works",
    "final_address": "1 Virginia Ct",
    "address_councildis": "A",
    "status": "Pending",
    "contractor": "Royal Engineering",
    "rowid": "903850",
    "final_x": "3668704.63207",
    "final_y": "542268.174413",
    "longitude": "-90.10811071061121",
    "latitude": "29.98543186272606",
    "geocoded_column": {
      "latitude": "29.98543186272606",
      "longitude": "-90.10811071061121"
    }
  },
  {
    "service_request": "2022-903849",
    "request_type": "Traffic Signals/Signs/Striping/Streetlights",
    "request_reason": "Street Light Outage/Malfunction",
    "date_created": "2022-07-26T21:28:07.000",
    "date_modified": "2022-07-26T21:28:08.000",
    "request_status": "Pending",
    "responsible_agency": "Department of Public Works",
    "final_address": "2900 BLK Dublin St",
    "address_councildis": "A",
    "status": "Pending",
    "contractor": "Royal Engineering",
    "rowid": "903849",
    "final_x": "3665923.66484",
    "final_y": "533244.219388",
    "longitude": "-90.11719718972303",
    "latitude": "29.960700464578014",
    "geocoded_column": {
      "latitude": "29.960700464578014",
      "longitude": "-90.11719718972303"
    }
  },
  {
    "service_request": "2022-903848",
    "request_type": "Traffic Signals/Signs/Striping/Streetlights",
    "request_reason": "Street Light Outage/Malfunction",
    "date_created": "2022-07-26T21:27:14.000",
    "date_modified": "2022-07-26T21:27:15.000",
    "request_status": "Pending",
    "responsible_agency": "Department of Public Works",
    "final_address": "2456 N Rampart St",
    "address_councildis": "C",
    "status": "Pending",
    "contractor": "Royal Engineering",
    "rowid": "903848",
    "final_x": "3686296.61404",
    "final_y": "536015.361159",
    "longitude": "-90.05276573736514",
    "latitude": "29.967709864726412",
    "geocoded_column": {
      "latitude": "29.967709864726412",
      "longitude": "-90.05276573736514"
    }
  },
  {
    "service_request": "2022-903846",
    "request_type": "Traffic Signals/Signs/Striping/Streetlights",
    "request_reason": "Street Light Outage/Malfunction",
    "date_created": "2022-07-26T21:15:45.000",
    "date_modified": "2022-07-26T21:15:46.000",
    "request_status": "Pending",
    "responsible_agency": "Department of Public Works",
    "final_address": "2736 Octavia St",
    "address_councildis": "A",
    "status": "Pending",
    "contractor": "Royal Engineering",
    "rowid": "903846",
    "final_x": "3667901.85767",
    "final_y": "525666.879741",
    "longitude": "-90.11120563047973",
    "latitude": "29.939807371131554",
    "geocoded_column": {
      "latitude": "29.939807371131554",
      "longitude": "-90.11120563047973"
    }
  },
  {
    "service_request": "2022-903845",
    "request_type": "Trash/Recycling",
    "request_reason": "Request a Large Item Pick Up",
    "date_created": "2022-07-26T21:09:27.000",
    "date_modified": "2022-07-26T21:09:28.000",
    "request_status": "Pending",
    "responsible_agency": "Department of Sanitation",
    "final_address": "1519 Dublin St",
    "address_councildis": "A",
    "status": "Assigned to Contractor",
    "contractor": "Richards Disposal",
    "rowid": "903845",
    "final_x": "3662551.3065",
    "final_y": "529480.084417",
    "longitude": "-90.12797152976133",
    "latitude": "29.95044829809536",
    "geocoded_column": {
      "latitude": "29.95044829809536",
      "longitude": "-90.12797152976133"
    }
  },
  {
    "service_request": "2022-903844",
    "request_type": "Property Maintenance",
    "request_reason": "Property Maintenance",
    "date_created": "2022-07-26T21:04:08.000",
    "date_modified": "2022-07-26T21:04:08.000",
    "request_status": "Pending",
    "responsible_agency": "Department of Code Enforcement",
    "final_address": "4766 Bundy Rd",
    "address_councildis": "E",
    "status": "Pending",
    "rowid": "903844",
    "final_x": "3709245.04555",
    "final_y": "555995.856985",
    "longitude": "-89.9795491715839",
    "latitude": "30.021923510129138",
    "geocoded_column": {
      "latitude": "30.021923510129138",
      "longitude": "-89.9795491715839"
    }
  },
  {
    "service_request": "2022-903843",
    "request_type": "Property Maintenance",
    "request_reason": "Property Maintenance",
    "date_created": "2022-07-26T21:04:03.000",
    "date_modified": "2022-07-26T21:04:03.000",
    "request_status": "Pending",
    "responsible_agency": "Department of Code Enforcement",
    "final_address": "4766 Bundy Rd",
    "address_councildis": "E",
    "status": "Pending",
    "rowid": "903843",
    "final_x": "3709245.04555",
    "final_y": "555995.856985",
    "longitude": "-89.9795491715839",
    "latitude": "30.021923510129138",
    "geocoded_column": {
      "latitude": "30.021923510129138",
      "longitude": "-89.9795491715839"
    }
  },
  {
    "service_request": "2022-903842",
    "request_type": "Abandoned Vehicles",
    "request_reason": "Abandoned/Junk Vehicles",
    "date_created": "2022-07-26T20:59:30.000",
    "date_modified": "2022-07-26T20:59:30.000",
    "request_status": "Pending",
    "responsible_agency": "Department of Public Works",
    "final_address": "826 Vallette St",
    "address_councildis": "C",
    "status": "Pending",
    "rowid": "903842",
    "final_x": "3687502.87574",
    "final_y": "528510.528896",
    "longitude": "-90.04922194480929",
    "latitude": "29.947037041146004",
    "geocoded_column": {
      "latitude": "29.947037041146004",
      "longitude": "-90.04922194480929"
    }
  },
  {
    "service_request": "2022-903840",
    "request_type": "Safety & Permits",
    "request_reason": "Short term Rental (Enforcement)",
    "date_created": "2022-07-26T20:14:28.000",
    "date_modified": "2022-07-26T20:14:28.000",
    "request_status": "Pending",
    "responsible_agency": "Safety and Permits",
    "status": "Pending",
    "rowid": "903840",
    "longitude": "0.0",
    "latitude": "0.0",
    "geocoded_column": {
      "latitude": "0.0",
      "longitude": "0.0"
    }
  },
  {
    "service_request": "2022-903839",
    "request_type": "Trash/Recycling",
    "request_reason": "MIssed Recycling Pick-Up",
    "date_created": "2022-07-26T20:02:50.000",
    "date_modified": "2022-07-26T20:02:54.000",
    "request_status": "Pending",
    "responsible_agency": "Department of Sanitation",
    "final_address": "1219 Hillary St, New Orleans, Louisiana, 70118",
    "address_councildis": "A",
    "status": "Assigned to Contractor",
    "contractor": "Richards Disposal",
    "rowid": "903839",
    "final_x": "3663421.42739",
    "final_y": "527241.778175",
    "longitude": "-90.12529863765509",
    "latitude": "29.94426847793119",
    "geocoded_column": {
      "latitude": "29.94426847793119",
      "longitude": "-90.12529863765509"
    }
  },
  {
    "service_request": "2022-903838",
    "request_type": "Trash/Recycling",
    "request_reason": "Missed Trash Pick-Up",
    "date_created": "2022-07-26T19:54:34.000",
    "date_modified": "2022-07-26T19:54:35.000",
    "request_status": "Pending",
    "responsible_agency": "Department of Sanitation",
    "final_address": "5629 Marshal Foch St",
    "address_councildis": "A",
    "status": "Assigned to Contractor",
    "contractor": "Metro Disposal",
    "rowid": "903838",
    "final_x": "3669645.75674",
    "final_y": "544568.408911",
    "longitude": "-90.10506019576123",
    "latitude": "29.99172901590333",
    "geocoded_column": {
      "latitude": "29.99172901590333",
      "longitude": "-90.10506019576123"
    }
  },
  {
    "service_request": "2022-903837",
    "request_type": "Property Maintenance",
    "request_reason": "Property Maintenance",
    "date_created": "2022-07-26T19:51:30.000",
    "date_modified": "2022-07-26T19:51:30.000",
    "request_status": "Pending",
    "responsible_agency": "Department of Code Enforcement",
    "final_address": "2130 St Andrew St",
    "address_councildis": "B",
    "status": "Pending",
    "rowid": "903837",
    "final_x": "3676842.39137",
    "final_y": "525825.984125",
    "longitude": "-90.08297358012769",
    "latitude": "29.93997962551702",
    "geocoded_column": {
      "latitude": "29.93997962551702",
      "longitude": "-90.08297358012769"
    }
  },
  {
    "service_request": "2022-903836",
    "request_type": "Trash/Recycling",
    "request_reason": "Illegal Dumping",
    "date_created": "2022-07-26T19:50:22.000",
    "date_modified": "2022-07-26T19:50:22.000",
    "request_status": "Pending",
    "responsible_agency": "Department of Sanitation",
    "final_address": "2128 St Andrew St",
    "address_councildis": "B",
    "status": "Pending",
    "rowid": "903836",
    "final_x": "3676851.91688",
    "final_y": "525814.340861",
    "longitude": "-90.08294390778713",
    "latitude": "29.939947324561064",
    "geocoded_column": {
      "latitude": "29.939947324561064",
      "longitude": "-90.08294390778713"
    }
  },
  {
    "service_request": "2022-903835",
    "request_type": "Trash/Recycling",
    "request_reason": "Order Recycling Cart",
    "date_created": "2022-07-26T19:42:44.000",
    "date_modified": "2022-07-26T19:45:11.000",
    "request_status": "Pending",
    "responsible_agency": "Department of Sanitation",
    "final_address": "1800 Magic Walk",
    "address_councildis": "D",
    "status": "Pending",
    "rowid": "903835",
    "final_x": "3679342.00495",
    "final_y": "534735.116998",
    "longitude": "-90.07477298363821",
    "latitude": "29.96440151004883",
    "geocoded_column": {
      "latitude": "29.96440151004883",
      "longitude": "-90.07477298363821"
    }
  },
  {
    "service_request": "2022-903834",
    "request_type": "Trash/Recycling",
    "request_reason": "Missed Trash Pick-Up",
    "date_created": "2022-07-26T19:41:33.000",
    "date_modified": "2022-07-26T19:41:33.000",
    "request_status": "Pending",
    "responsible_agency": "Department of Sanitation",
    "final_address": "850 Homedale St, New Orleans, Louisiana, 70124",
    "address_councildis": "A",
    "status": "Assigned to Contractor",
    "contractor": "Metro Disposal",
    "rowid": "903834",
    "final_x": "3669209.86074",
    "final_y": "544596.823055",
    "longitude": "-90.10643614136465",
    "latitude": "29.991819985714717",
    "geocoded_column": {
      "latitude": "29.991819985714717",
      "longitude": "-90.10643614136465"
    }
  },
  {
    "service_request": "2022-903833",
    "request_type": "Traffic Signals/Signs/Striping/Streetlights",
    "request_reason": "Street Light Outage/Malfunction",
    "date_created": "2022-07-26T19:34:06.000",
    "date_modified": "2022-07-26T19:34:07.000",
    "request_status": "Pending",
    "responsible_agency": "Department of Public Works",
    "final_address": "5926 General Diaz St",
    "address_councildis": "A",
    "status": "Pending",
    "contractor": "Royal Engineering",
    "rowid": "903833",
    "final_x": "3669369.39489",
    "final_y": "546754.755857",
    "longitude": "-90.10585918414851",
    "latitude": "29.99774885899321",
    "geocoded_column": {
      "latitude": "29.99774885899321",
      "longitude": "-90.10585918414851"
    }
  },
  {
    "service_request": "2022-903832",
    "request_type": "Trash/Recycling",
    "request_reason": "Missed Trash Pick-Up",
    "date_created": "2022-07-26T19:32:52.000",
    "date_modified": "2022-07-26T19:32:52.000",
    "request_status": "Pending",
    "responsible_agency": "Department of Sanitation",
    "final_address": "5926 General Diaz St",
    "address_councildis": "A",
    "status": "Assigned to Contractor",
    "contractor": "Metro Disposal",
    "rowid": "903832",
    "final_x": "3669369.39489",
    "final_y": "546754.755857",
    "longitude": "-90.10585918414851",
    "latitude": "29.99774885899321",
    "geocoded_column": {
      "latitude": "29.99774885899321",
      "longitude": "-90.10585918414851"
    }
  },
  {
    "service_request": "2022-903831",
    "request_type": "Trash/Recycling",
    "request_reason": "Missed Trash Pick-Up",
    "date_created": "2022-07-26T19:28:46.000",
    "date_modified": "2022-07-26T19:28:47.000",
    "request_status": "Pending",
    "responsible_agency": "Department of Sanitation",
    "final_address": "5961 General Diaz St",
    "address_councildis": "A",
    "status": "Assigned to Contractor",
    "contractor": "Metro Disposal",
    "rowid": "903831",
    "final_x": "3669573.68135",
    "final_y": "546987.167633",
    "longitude": "-90.10520597689062",
    "latitude": "29.998381891961117",
    "geocoded_column": {
      "latitude": "29.998381891961117",
      "longitude": "-90.10520597689062"
    }
  },
  {
    "service_request": "2022-903830",
    "request_type": "Roads/Drainage",
    "request_reason": "Damaged Sidewalk",
    "date_created": "2022-07-26T19:26:44.000",
    "date_modified": "2022-07-26T19:26:44.000",
    "request_status": "Pending",
    "responsible_agency": "Department of Public Works",
    "final_address": "141 26Th St",
    "address_councildis": "A",
    "status": "Pending",
    "rowid": "903830",
    "final_x": "3665889.99533",
    "final_y": "549944.994836",
    "longitude": "-90.11674357062894",
    "latitude": "30.00662294361968",
    "geocoded_column": {
      "latitude": "30.00662294361968",
      "longitude": "-90.11674357062894"
    }
  },
  {
    "service_request": "2022-903829",
    "request_type": "Mosquito, Termite & Rodent Control",
    "request_reason": "Mosquito Complaint",
    "date_created": "2022-07-26T19:24:10.000",
    "date_modified": "2022-07-26T19:24:10.000",
    "request_status": "Pending",
    "responsible_agency": "Mosquito, Termite & Rodent Control Board",
    "final_address": "141 26Th St",
    "address_councildis": "A",
    "status": "Pending",
    "rowid": "903829",
    "final_x": "3665889.99533",
    "final_y": "549944.994836",
    "longitude": "-90.11674357062894",
    "latitude": "30.00662294361968",
    "geocoded_column": {
      "latitude": "30.00662294361968",
      "longitude": "-90.11674357062894"
    }
  },
  {
    "service_request": "2022-903827",
    "request_type": "Trash/Recycling",
    "request_reason": "Request a Large Item Pick Up",
    "date_created": "2022-07-26T19:12:19.000",
    "date_modified": "2022-07-26T19:12:20.000",
    "request_status": "Pending",
    "responsible_agency": "Department of Sanitation",
    "final_address": "924 Hagan St",
    "address_councildis": "A",
    "status": "Assigned to Contractor",
    "contractor": "Richards Disposal",
    "rowid": "903827",
    "final_x": "3675286.65397",
    "final_y": "539219.694602",
    "longitude": "-90.08742549224051",
    "latitude": "29.976854429040092",
    "geocoded_column": {
      "latitude": "29.976854429040092",
      "longitude": "-90.08742549224051"
    }
  },
  {
    "service_request": "2022-903826",
    "request_type": "Abandoned Vehicles",
    "request_reason": "Vehicle Blocking Your Driveway",
    "date_created": "2022-07-26T19:08:39.000",
    "date_modified": "2022-07-26T19:11:32.000",
    "request_status": "Pending",
    "responsible_agency": "Department of Public Works",
    "final_address": "2421 D'Abadue Street",
    "status": "Pending",
    "rowid": "903826",
    "longitude": "0.0",
    "latitude": "0.0",
    "geocoded_column": {
      "latitude": "0.0",
      "longitude": "0.0"
    }
  },
  {
    "service_request": "2022-903825",
    "request_type": "Abandoned Vehicles",
    "request_reason": "Abandoned/Junk Vehicles",
    "date_created": "2022-07-26T19:07:41.000",
    "date_modified": "2022-07-26T19:07:41.000",
    "request_status": "Pending",
    "responsible_agency": "Department of Public Works",
    "final_address": "910 Hagan St",
    "address_councildis": "A",
    "status": "Pending",
    "rowid": "903825",
    "final_x": "3675199.97134",
    "final_y": "539107.027978",
    "longitude": "-90.08770313195913",
    "latitude": "29.976547225714835",
    "geocoded_column": {
      "latitude": "29.976547225714835",
      "longitude": "-90.08770313195913"
    }
  },
  {
    "service_request": "2022-903824",
    "request_type": "Safety & Permits",
    "request_reason": "Short term Rental (Enforcement)",
    "date_created": "2022-07-26T18:56:57.000",
    "date_modified": "2022-07-26T18:56:57.000",
    "request_status": "Pending",
    "responsible_agency": "Safety and Permits",
    "final_address": "620 S Rocheblave St",
    "address_councildis": "B",
    "status": "Pending",
    "rowid": "903824",
    "final_x": "3674828.45845",
    "final_y": "532719.337284",
    "longitude": "-90.08909555225756",
    "latitude": "29.95899433715369",
    "geocoded_column": {
      "latitude": "29.95899433715369",
      "longitude": "-90.08909555225756"
    }
  },
  {
    "service_request": "2022-903823",
    "request_type": "Trash/Recycling",
    "request_reason": "Missed Trash Pick-Up",
    "date_created": "2022-07-26T18:38:36.000",
    "date_modified": "2022-07-26T18:38:37.000",
    "request_status": "Pending",
    "responsible_agency": "Department of Sanitation",
    "final_address": "5491 Canal Blvd",
    "address_councildis": "A",
    "status": "Assigned to Contractor",
    "contractor": "Metro Disposal",
    "rowid": "903823",
    "final_x": "3668281.39105",
    "final_y": "543736.891534",
    "longitude": "-90.10939800618732",
    "latitude": "29.989482771270737",
    "geocoded_column": {
      "latitude": "29.989482771270737",
      "longitude": "-90.10939800618732"
    }
  },
  {
    "service_request": "2022-903822",
    "request_type": "Traffic Signals/Signs/Striping/Streetlights",
    "request_reason": "Street Light Outage/Malfunction",
    "date_created": "2022-07-26T18:36:51.000",
    "date_modified": "2022-07-26T18:36:52.000",
    "request_status": "Pending",
    "responsible_agency": "Department of Public Works",
    "final_address": "956 Filmore Ave",
    "address_councildis": "A",
    "status": "Pending",
    "contractor": "Royal Engineering",
    "rowid": "903822",
    "final_x": "3670739.1691",
    "final_y": "551756.985045",
    "longitude": "-90.10136219000378",
    "latitude": "30.011462819958457",
    "geocoded_column": {
      "latitude": "30.011462819958457",
      "longitude": "-90.10136219000378"
    }
  },
  {
    "service_request": "2022-903821",
    "request_type": "Property Maintenance",
    "request_reason": "Property Maintenance",
    "date_created": "2022-07-26T18:36:22.000",
    "date_modified": "2022-07-26T18:36:22.000",
    "request_status": "Pending",
    "responsible_agency": "Department of Code Enforcement",
    "final_address": "116 Bourbon St",
    "address_councildis": "C",
    "status": "Pending",
    "rowid": "903821",
    "final_x": "3681059.31861",
    "final_y": "531044.51373",
    "longitude": "-90.06947839440974",
    "latitude": "29.95420162927716",
    "geocoded_column": {
      "latitude": "29.95420162927716",
      "longitude": "-90.06947839440974"
    }
  },
  {
    "service_request": "2022-903820",
    "request_type": "Roads/Drainage",
    "request_reason": "Man hole cover issue",
    "date_created": "2022-07-26T18:33:26.000",
    "date_modified": "2022-07-26T18:33:26.000",
    "request_status": "Pending",
    "responsible_agency": "Department of Public Works",
    "final_address": "2432 Broadway St",
    "address_councildis": "A",
    "status": "Pending",
    "rowid": "903820",
    "final_x": "3666694.30881",
    "final_y": "530359.17261",
    "longitude": "-90.1148605167177",
    "latitude": "29.95274501786478",
    "geocoded_column": {
      "latitude": "29.95274501786478",
      "longitude": "-90.1148605167177"
    }
  },
  {
    "service_request": "2022-903819",
    "request_type": "Trash/Recycling",
    "request_reason": "Missed Trash Pick-Up",
    "date_created": "2022-07-26T18:30:17.000",
    "date_modified": "2022-07-26T18:30:18.000",
    "request_status": "Pending",
    "responsible_agency": "Department of Sanitation",
    "final_address": "728 Navarre Ave, New Orleans, Louisiana, 70124",
    "status": "Assigned to Contractor",
    "rowid": "903819",
    "longitude": "0.0",
    "latitude": "0.0",
    "geocoded_column": {
      "latitude": "0.0",
      "longitude": "0.0"
    }
  },
  {
    "service_request": "2022-903818",
    "request_type": "Trash/Recycling",
    "request_reason": "Missed Trash Pick-Up",
    "date_created": "2022-07-26T18:27:20.000",
    "date_modified": "2022-07-26T18:27:21.000",
    "request_status": "Pending",
    "responsible_agency": "Department of Sanitation",
    "final_address": "6653 General Haig St, New Orleans, Louisiana, 70124",
    "address_councildis": "A",
    "status": "Assigned to Contractor",
    "contractor": "Metro Disposal",
    "rowid": "903818",
    "final_x": "3671041.47079",
    "final_y": "551588.293589",
    "longitude": "-90.10041282684844",
    "latitude": "30.01099003752552",
    "geocoded_column": {
      "latitude": "30.01099003752552",
      "longitude": "-90.10041282684844"
    }
  },
  {
    "service_request": "2022-903817",
    "request_type": "Property Maintenance",
    "request_reason": "Property Maintenance",
    "date_created": "2022-07-26T18:24:34.000",
    "date_modified": "2022-07-26T18:24:34.000",
    "request_status": "Pending",
    "responsible_agency": "Department of Code Enforcement",
    "final_address": "1207 Gallier St",
    "address_councildis": "C",
    "status": "Pending",
    "rowid": "903817",
    "final_x": "3690596.5",
    "final_y": "536048.214151",
    "longitude": "-90.03918545956525",
    "latitude": "29.967667364640064",
    "geocoded_column": {
      "latitude": "29.967667364640064",
      "longitude": "-90.03918545956525"
    }
  },
  {
    "service_request": "2022-903816",
    "request_type": "Trash/Recycling",
    "request_reason": "Start Trash Service",
    "date_created": "2022-07-26T18:23:52.000",
    "date_modified": "2022-07-26T18:23:52.000",
    "request_status": "Pending",
    "responsible_agency": "Department of Sanitation",
    "final_address": "6416 Catina St",
    "address_councildis": "A",
    "status": "Assigned to Contractor",
    "contractor": "Metro Disposal",
    "rowid": "903816",
    "final_x": "3666859.55738",
    "final_y": "550516.544148",
    "longitude": "-90.11366124202901",
    "latitude": "30.00816616406159",
    "geocoded_column": {
      "latitude": "30.00816616406159",
      "longitude": "-90.11366124202901"
    }
  },
  {
    "service_request": "2022-903815",
    "request_type": "Trash/Recycling",
    "request_reason": "Missed Trash Pick-Up",
    "date_created": "2022-07-26T18:11:01.000",
    "date_modified": "2022-07-26T18:11:02.000",
    "request_status": "Pending",
    "responsible_agency": "Department of Sanitation",
    "final_address": "1885 Crete St",
    "address_councildis": "A",
    "status": "Assigned to Contractor",
    "contractor": "Metro Disposal",
    "rowid": "903815",
    "final_x": "3678647.46325",
    "final_y": "542988.861133",
    "longitude": "-90.0766804387333",
    "latitude": "29.987117419598103",
    "geocoded_column": {
      "latitude": "29.987117419598103",
      "longitude": "-90.0766804387333"
    }
  },
  {
    "service_request": "2022-903814",
    "request_type": "Trash/Recycling",
    "request_reason": "Request a Large Item Pick Up",
    "date_created": "2022-07-26T18:08:27.000",
    "date_modified": "2022-07-26T18:08:28.000",
    "request_status": "Pending",
    "responsible_agency": "Department of Sanitation",
    "final_address": "3879 Mimosa Dr",
    "address_councildis": "C",
    "status": "Assigned to Contractor",
    "contractor": "Richards Disposal",
    "rowid": "903814",
    "final_x": "3704330.01764",
    "final_y": "512935.929137",
    "longitude": "-89.99666644648696",
    "latitude": "29.90368305442151",
    "geocoded_column": {
      "latitude": "29.90368305442151",
      "longitude": "-89.99666644648696"
    }
  },
  {
    "service_request": "2022-903813",
    "request_type": "Roads/Drainage",
    "request_reason": "Catch Basin - Clogged",
    "date_created": "2022-07-26T18:07:12.000",
    "date_modified": "2022-07-26T18:07:12.000",
    "request_status": "Pending",
    "responsible_agency": "Department of Public Works",
    "final_address": "1735 S Carrollton Ave",
    "address_councildis": "A",
    "status": "Pending",
    "rowid": "903813",
    "final_x": "3663474.98208",
    "final_y": "529775.207681",
    "longitude": "-90.12504520247383",
    "latitude": "29.951233042216785",
    "geocoded_column": {
      "latitude": "29.951233042216785",
      "longitude": "-90.12504520247383"
    }
  },
  {
    "service_request": "2022-903812",
    "request_type": "Roads/Drainage",
    "request_reason": "Accessibility Ramps, Curbs and Sidewalk Repair",
    "date_created": "2022-07-26T18:03:18.000",
    "date_modified": "2022-07-26T18:03:18.000",
    "request_status": "Pending",
    "responsible_agency": "Department of Public Works",
    "final_address": "839 Opelousas Ave",
    "address_councildis": "C",
    "status": "Pending",
    "rowid": "903812",
    "final_x": "3688143.25788",
    "final_y": "529033.011008",
    "longitude": "-90.04718150876602",
    "latitude": "29.948453939676035",
    "geocoded_column": {
      "latitude": "29.948453939676035",
      "longitude": "-90.04718150876602"
    }
  },
  {
    "service_request": "2022-903811",
    "request_type": "Parks & Parkways",
    "request_reason": "Request Grass Cutting Service (City Owned Property)",
    "date_created": "2022-07-26T17:58:09.000",
    "date_modified": "2022-07-26T17:58:09.000",
    "request_status": "Pending",
    "responsible_agency": "Department of Parks & Parkway",
    "final_address": "839 Opelousas Ave",
    "address_councildis": "C",
    "status": "Pending",
    "rowid": "903811",
    "final_x": "3688143.25788",
    "final_y": "529033.011008",
    "longitude": "-90.04718150876602",
    "latitude": "29.948453939676035",
    "geocoded_column": {
      "latitude": "29.948453939676035",
      "longitude": "-90.04718150876602"
    }
  },
  {
    "service_request": "2022-903810",
    "request_type": "Property Maintenance",
    "request_reason": "Property Maintenance",
    "date_created": "2022-07-26T17:55:44.000",
    "date_modified": "2022-07-26T17:55:44.000",
    "request_status": "Pending",
    "responsible_agency": "Department of Code Enforcement",
    "final_address": "839 Opelousas Ave",
    "address_councildis": "C",
    "status": "Pending",
    "rowid": "903810",
    "final_x": "3688143.25788",
    "final_y": "529033.011008",
    "longitude": "-90.04718150876602",
    "latitude": "29.948453939676035",
    "geocoded_column": {
      "latitude": "29.948453939676035",
      "longitude": "-90.04718150876602"
    }
  },
  {
    "service_request": "2022-903809",
    "request_type": "Trash/Recycling",
    "request_reason": "Missed Trash Pick-Up",
    "date_created": "2022-07-26T17:55:34.000",
    "date_modified": "2022-07-26T17:55:34.000",
    "request_status": "Pending",
    "responsible_agency": "Department of Sanitation",
    "final_address": "2431 Milan St",
    "address_councildis": "B",
    "status": "Assigned to Contractor",
    "contractor": "Richards Disposal",
    "rowid": "903809",
    "final_x": "3671333.8066",
    "final_y": "524039.28454",
    "longitude": "-90.10042573942604",
    "latitude": "29.935230915296785",
    "geocoded_column": {
      "latitude": "29.935230915296785",
      "longitude": "-90.10042573942604"
    }
  },
  {
    "service_request": "2022-903808",
    "request_type": "Trash/Recycling",
    "request_reason": "Replace Trash Cart",
    "date_created": "2022-07-26T17:54:29.000",
    "date_modified": "2022-07-26T17:54:30.000",
    "request_status": "Pending",
    "responsible_agency": "Department of Sanitation",
    "final_address": "2015 Calhoun St",
    "address_councildis": "A",
    "status": "Assigned to Contractor",
    "contractor": "Richards Disposal",
    "rowid": "903808",
    "final_x": "3665612.03284",
    "final_y": "524546.792892",
    "longitude": "-90.11847245839458",
    "latitude": "29.936794446230707",
    "geocoded_column": {
      "latitude": "29.936794446230707",
      "longitude": "-90.11847245839458"
    }
  },
  {
    "service_request": "2022-903807",
    "request_type": "Property Maintenance",
    "request_reason": "Property Maintenance",
    "date_created": "2022-07-26T17:46:59.000",
    "date_modified": "2022-07-26T17:46:59.000",
    "request_status": "Pending",
    "responsible_agency": "Department of Code Enforcement",
    "final_address": "928 N Rendon St",
    "address_councildis": "A",
    "status": "Pending",
    "rowid": "903807",
    "final_x": "3675606.29659",
    "final_y": "539046.66529",
    "longitude": "-90.08642190563653",
    "latitude": "29.976369097187103",
    "geocoded_column": {
      "latitude": "29.976369097187103",
      "longitude": "-90.08642190563653"
    }
  },
  {
    "service_request": "2022-903806",
    "request_type": "Property Maintenance",
    "request_reason": "Property Maintenance",
    "date_created": "2022-07-26T17:45:20.000",
    "date_modified": "2022-07-26T17:45:20.000",
    "request_status": "Pending",
    "responsible_agency": "Department of Code Enforcement",
    "final_address": "928 N Rendon St",
    "address_councildis": "A",
    "status": "Pending",
    "rowid": "903806",
    "final_x": "3675606.29659",
    "final_y": "539046.66529",
    "longitude": "-90.08642190563653",
    "latitude": "29.976369097187103",
    "geocoded_column": {
      "latitude": "29.976369097187103",
      "longitude": "-90.08642190563653"
    }
  },
  {
    "service_request": "2022-903805",
    "request_type": "Property Maintenance",
    "request_reason": "Property Maintenance",
    "date_created": "2022-07-26T17:45:18.000",
    "date_modified": "2022-07-26T17:45:18.000",
    "request_status": "Pending",
    "responsible_agency": "Department of Code Enforcement",
    "final_address": "928 N Rendon St",
    "address_councildis": "A",
    "status": "Pending",
    "rowid": "903805",
    "final_x": "3675606.29659",
    "final_y": "539046.66529",
    "longitude": "-90.08642190563653",
    "latitude": "29.976369097187103",
    "geocoded_column": {
      "latitude": "29.976369097187103",
      "longitude": "-90.08642190563653"
    }
  },
  {
    "service_request": "2022-903804",
    "request_type": "Roads/Drainage",
    "request_reason": "Catch Basin - Clogged",
    "date_created": "2022-07-26T17:44:51.000",
    "date_modified": "2022-07-26T17:44:52.000",
    "request_status": "Pending",
    "responsible_agency": "Department of Public Works",
    "final_address": "1930 Washington Ave",
    "address_councildis": "B",
    "status": "Pending",
    "rowid": "903804",
    "final_x": "3675144.52974",
    "final_y": "523636.300603",
    "longitude": "-90.08840909850733",
    "latitude": "29.93400954644397",
    "geocoded_column": {
      "latitude": "29.93400954644397",
      "longitude": "-90.08840909850733"
    }
  },
  {
    "service_request": "2022-903803",
    "request_type": "Trash/Recycling",
    "request_reason": "Order Recycling Cart",
    "date_created": "2022-07-26T17:44:01.000",
    "date_modified": "2022-07-26T17:44:01.000",
    "request_status": "Pending",
    "responsible_agency": "Department of Sanitation",
    "final_address": "1930 Washington Ave",
    "address_councildis": "B",
    "status": "Pending",
    "rowid": "903803",
    "final_x": "3675144.52974",
    "final_y": "523636.300603",
    "longitude": "-90.08840909850733",
    "latitude": "29.93400954644397",
    "geocoded_column": {
      "latitude": "29.93400954644397",
      "longitude": "-90.08840909850733"
    }
  },
  {
    "service_request": "2022-903802",
    "request_type": "Trash/Recycling",
    "request_reason": "Illegal Dumping",
    "date_created": "2022-07-26T17:38:57.000",
    "date_modified": "2022-07-26T17:38:57.000",
    "request_status": "Pending",
    "responsible_agency": "Department of Code Enforcement",
    "final_address": "CHEF MENTEUR HWY & DODT AVE",
    "address_councildis": "E",
    "status": "Pending",
    "rowid": "903802",
    "final_x": "3705672.2",
    "final_y": "553008.68",
    "longitude": "-89.99094892936071",
    "latitude": "30.013825509312756",
    "geocoded_column": {
      "latitude": "30.013825509312756",
      "longitude": "-89.99094892936071"
    }
  },
  {
    "service_request": "2022-903801",
    "request_type": "Abandoned Vehicles",
    "request_reason": "Abandoned/Junk Vehicles",
    "date_created": "2022-07-26T17:32:41.000",
    "date_modified": "2022-07-26T17:35:32.000",
    "request_status": "Pending",
    "responsible_agency": "Department of Public Works",
    "final_address": "326 N Salcedo St",
    "address_councildis": "B",
    "status": "Pending",
    "rowid": "903801",
    "final_x": "3674738.62222",
    "final_y": "536883.043336",
    "longitude": "-90.08923647910024",
    "latitude": "29.970445807446385",
    "geocoded_column": {
      "latitude": "29.970445807446385",
      "longitude": "-90.08923647910024"
    }
  },
  {
    "service_request": "2022-903800",
    "request_type": "Property Maintenance",
    "request_reason": "Property Maintenance",
    "date_created": "2022-07-26T17:30:23.000",
    "date_modified": "2022-07-26T17:30:23.000",
    "request_status": "Pending",
    "responsible_agency": "Department of Code Enforcement",
    "final_address": "3526 Adrian St",
    "address_councildis": "C",
    "status": "Pending",
    "rowid": "903800",
    "final_x": "3710654.99185",
    "final_y": "517682.787254",
    "longitude": "-89.97652762426355",
    "latitude": "29.916530868637704",
    "geocoded_column": {
      "latitude": "29.916530868637704",
      "longitude": "-89.97652762426355"
    }
  },
  {
    "service_request": "2022-903799",
    "request_type": "Property Maintenance",
    "request_reason": "Property Maintenance",
    "date_created": "2022-07-26T17:29:08.000",
    "date_modified": "2022-07-26T17:29:09.000",
    "request_status": "Pending",
    "responsible_agency": "Department of Code Enforcement",
    "final_address": "3500 BLK Adrian St",
    "address_councildis": "C",
    "status": "Pending",
    "rowid": "903799",
    "final_x": "3710614.24376",
    "final_y": "517800.353951",
    "longitude": "-89.97665184687794",
    "latitude": "29.916855462560054",
    "geocoded_column": {
      "latitude": "29.916855462560054",
      "longitude": "-89.97665184687794"
    }
  },
  {
    "service_request": "2022-903798",
    "request_type": "Trash/Recycling",
    "request_reason": "Missed Trash Pick-Up",
    "date_created": "2022-07-26T17:26:45.000",
    "date_modified": "2022-07-26T17:26:46.000",
    "request_status": "Pending",
    "responsible_agency": "Department of Sanitation",
    "final_address": "2600 BLK Arts St",
    "address_councildis": "D",
    "status": "Assigned to Contractor",
    "contractor": "Metro Disposal",
    "rowid": "903798",
    "final_x": "3686749.34038",
    "final_y": "542189.550579",
    "longitude": "-90.05111783025485",
    "latitude": "29.9846727947821",
    "geocoded_column": {
      "latitude": "29.9846727947821",
      "longitude": "-90.05111783025485"
    }
  },
  {
    "service_request": "2022-903797",
    "request_type": "Roads/Drainage",
    "request_reason": "Catch Basin - Clogged",
    "date_created": "2022-07-26T17:23:31.000",
    "date_modified": "2022-07-26T17:23:31.000",
    "request_status": "Pending",
    "responsible_agency": "Department of Public Works",
    "final_address": "420 Leslie Ln",
    "address_councildis": "A",
    "status": "Pending",
    "rowid": "903797",
    "final_x": "3664399.2281",
    "final_y": "547350.339473",
    "longitude": "-90.12154000055757",
    "latitude": "29.999531972151598",
    "geocoded_column": {
      "latitude": "29.999531972151598",
      "longitude": "-90.12154000055757"
    }
  },
  {
    "service_request": "2022-903796",
    "request_type": "Roads/Drainage",
    "request_reason": "Catch Basin - Clogged",
    "date_created": "2022-07-26T17:21:10.000",
    "date_modified": "2022-07-26T17:21:10.000",
    "request_status": "Pending",
    "responsible_agency": "Department of Public Works",
    "final_address": "420 Leslie Ln",
    "address_councildis": "A",
    "status": "Pending",
    "rowid": "903796",
    "final_x": "3664399.2281",
    "final_y": "547350.339473",
    "longitude": "-90.12154000055757",
    "latitude": "29.999531972151598",
    "geocoded_column": {
      "latitude": "29.999531972151598",
      "longitude": "-90.12154000055757"
    }
  },
  {
    "service_request": "2022-903795",
    "request_type": "Trash/Recycling",
    "request_reason": "Repair Recycling Cart",
    "date_created": "2022-07-26T17:17:41.000",
    "date_modified": "2022-07-26T17:17:42.000",
    "request_status": "Pending",
    "responsible_agency": "Department of Sanitation",
    "final_address": "5026 Macarthur Blvd",
    "address_councildis": "C",
    "status": "Pending",
    "contractor": "Richards Disposal",
    "rowid": "903795",
    "final_x": "3702648.40151",
    "final_y": "520208.435896",
    "longitude": "-90.00170685632966",
    "latitude": "29.923733793457593",
    "geocoded_column": {
      "latitude": "29.923733793457593",
      "longitude": "-90.00170685632966"
    }
  },
  {
    "service_request": "2022-903794",
    "request_type": "Trash/Recycling",
    "request_reason": "Repair Trash Cart",
    "date_created": "2022-07-26T17:17:15.000",
    "date_modified": "2022-07-26T17:17:16.000",
    "request_status": "Pending",
    "responsible_agency": "Department of Sanitation",
    "final_address": "5026 Macarthur Blvd",
    "address_councildis": "C",
    "status": "Assigned to Contractor",
    "contractor": "Richards Disposal",
    "rowid": "903794",
    "final_x": "3702648.40151",
    "final_y": "520208.435896",
    "longitude": "-90.00170685632966",
    "latitude": "29.923733793457593",
    "geocoded_column": {
      "latitude": "29.923733793457593",
      "longitude": "-90.00170685632966"
    }
  },
  {
    "service_request": "2022-903793",
    "request_type": "Abandoned Vehicles",
    "request_reason": "Abandoned/Junk Vehicles",
    "date_created": "2022-07-26T17:07:53.000",
    "date_modified": "2022-07-26T17:07:53.000",
    "request_status": "Pending",
    "responsible_agency": "Department of Public Works",
    "final_address": "619 N Rendon St",
    "address_councildis": "A",
    "status": "Pending",
    "rowid": "903793",
    "final_x": "3674740.50632",
    "final_y": "538034.612105",
    "longitude": "-90.08919104102772",
    "latitude": "29.973612173868023",
    "geocoded_column": {
      "latitude": "29.973612173868023",
      "longitude": "-90.08919104102772"
    }
  },
  {
    "service_request": "2022-903792",
    "request_type": "Roads/Drainage",
    "request_reason": "Debris in Roadway",
    "date_created": "2022-07-26T17:04:12.000",
    "date_modified": "2022-07-26T17:04:13.000",
    "request_status": "Pending",
    "responsible_agency": "Department of Public Works",
    "final_address": "ADVENTURE AVE & MICHOUD BLVD",
    "address_councildis": "E",
    "status": "Pending",
    "rowid": "903792",
    "final_x": "3725235.4",
    "final_y": "570877.48",
    "longitude": "-89.92844798212272",
    "latitude": "30.062312652791096",
    "geocoded_column": {
      "latitude": "30.062312652791096",
      "longitude": "-89.92844798212272"
    }
  },
  {
    "service_request": "2022-903791",
    "request_type": "Health Related Questions",
    "request_reason": "Noise Ordinance Complaint",
    "date_created": "2022-07-26T16:59:22.000",
    "date_modified": "2022-07-26T16:59:22.000",
    "request_status": "Pending",
    "responsible_agency": "Health Department",
    "final_address": "4801 Bienville Ave",
    "address_councildis": "A",
    "status": "Pending",
    "rowid": "903791",
    "final_x": "3669308.25492",
    "final_y": "540804.395403",
    "longitude": "-90.10625362222925",
    "latitude": "29.981389207009062",
    "geocoded_column": {
      "latitude": "29.981389207009062",
      "longitude": "-90.10625362222925"
    }
  },
  {
    "service_request": "2022-903790",
    "request_type": "Trash/Recycling",
    "request_reason": "Missed Trash Pick-Up",
    "date_created": "2022-07-26T16:58:31.000",
    "date_modified": "2022-07-26T16:58:31.000",
    "request_status": "Pending",
    "responsible_agency": "Department of Sanitation",
    "final_address": "6235 Waldo Dr",
    "address_councildis": "D",
    "status": "Assigned to Contractor",
    "contractor": "Metro Disposal",
    "rowid": "903790",
    "final_x": "3681127.96987",
    "final_y": "556032.864537",
    "longitude": "-90.06839057522275",
    "latitude": "30.02290871420191",
    "geocoded_column": {
      "latitude": "30.02290871420191",
      "longitude": "-90.06839057522275"
    }
  },
  {
    "service_request": "2022-903789",
    "request_type": "Parks & Parkways",
    "request_reason": "Request Tree Service (Right of Way/Public Property)",
    "date_created": "2022-07-26T16:58:22.000",
    "date_modified": "2022-07-26T16:58:23.000",
    "request_status": "Pending",
    "responsible_agency": "Department of Parks & Parkway",
    "final_address": "2115 Valence St",
    "address_councildis": "B",
    "status": "Pending",
    "rowid": "903789",
    "final_x": "3669645.5595",
    "final_y": "522676.366906",
    "longitude": "-90.10580164371216",
    "latitude": "29.93153317001814",
    "geocoded_column": {
      "latitude": "29.93153317001814",
      "longitude": "-90.10580164371216"
    }
  },
  {
    "service_request": "2022-903788",
    "request_type": "Roads/Drainage",
    "request_reason": "Catch Basin - Clogged",
    "date_created": "2022-07-26T16:50:45.000",
    "date_modified": "2022-07-26T16:50:46.000",
    "request_status": "Pending",
    "responsible_agency": "Department of Public Works",
    "final_address": "8919 Nelson St",
    "address_councildis": "A",
    "status": "Pending",
    "rowid": "903788",
    "final_x": "3662934.21792",
    "final_y": "533881.626629",
    "longitude": "-90.12661612698331",
    "latitude": "29.96254003051835",
    "geocoded_column": {
      "latitude": "29.96254003051835",
      "longitude": "-90.12661612698331"
    }
  },
  {
    "service_request": "2022-903787",
    "request_type": "Trash/Recycling",
    "request_reason": "Repair Trash Cart",
    "date_created": "2022-07-26T16:48:38.000",
    "date_modified": "2022-07-26T16:48:39.000",
    "request_status": "Pending",
    "responsible_agency": "Department of Sanitation",
    "final_address": "6502 Beauregard Ave",
    "address_councildis": "D",
    "status": "Assigned to Contractor",
    "contractor": "Metro Disposal",
    "rowid": "903787",
    "final_x": "3676177.53787",
    "final_y": "556199.793114",
    "longitude": "-90.08402708689873",
    "latitude": "30.023517045614668",
    "geocoded_column": {
      "latitude": "30.023517045614668",
      "longitude": "-90.08402708689873"
    }
  },
  {
    "service_request": "2022-903786",
    "request_type": "Roads/Drainage",
    "request_reason": "Catch Basin - Clogged",
    "date_created": "2022-07-26T16:45:37.000",
    "date_modified": "2022-07-26T16:45:37.000",
    "request_status": "Pending",
    "responsible_agency": "Department of Public Works",
    "final_address": "6237 Cambridge St",
    "address_councildis": "C",
    "status": "Pending",
    "rowid": "903786",
    "final_x": "3707216.62238",
    "final_y": "518346.88287",
    "longitude": "-89.98735580155179",
    "latitude": "29.918468403769133",
    "geocoded_column": {
      "latitude": "29.918468403769133",
      "longitude": "-89.98735580155179"
    }
  },
  {
    "service_request": "2022-903785",
    "request_type": "Trash/Recycling",
    "request_reason": "Missed Trash Pick-Up",
    "date_created": "2022-07-26T16:43:54.000",
    "date_modified": "2022-07-26T16:43:57.000",
    "request_status": "Pending",
    "responsible_agency": "Department of Sanitation",
    "final_address": "5491 Canal Blvd",
    "address_councildis": "A",
    "status": "Assigned to Contractor",
    "contractor": "Metro Disposal",
    "rowid": "903785",
    "final_x": "3668281.39105",
    "final_y": "543736.891534",
    "longitude": "-90.10939800618732",
    "latitude": "29.989482771270737",
    "geocoded_column": {
      "latitude": "29.989482771270737",
      "longitude": "-90.10939800618732"
    }
  },
  {
    "service_request": "2022-903784",
    "request_type": "Parks & Parkways",
    "request_reason": "Request Tree Service (Right of Way/Public Property)",
    "date_created": "2022-07-26T16:43:31.000",
    "date_modified": "2022-07-26T16:44:55.000",
    "request_status": "Pending",
    "responsible_agency": "Department of Parks & Parkway",
    "final_address": "DWYER RD & READ BLVD",
    "address_councildis": "E",
    "status": "Pending",
    "rowid": "903784",
    "final_x": "3712559.5",
    "final_y": "557858.48",
    "longitude": "-89.96900638108654",
    "latitude": "30.026936898070552",
    "geocoded_column": {
      "latitude": "30.026936898070552",
      "longitude": "-89.96900638108654"
    }
  },
  {
    "service_request": "2022-903783",
    "request_type": "Trash/Recycling",
    "request_reason": "Request a Large Item Pick Up",
    "date_created": "2022-07-26T16:38:26.000",
    "date_modified": "2022-07-26T16:38:27.000",
    "request_status": "Pending",
    "responsible_agency": "Department of Sanitation",
    "final_address": "2508 Ursulines Ave",
    "address_councildis": "D",
    "status": "Assigned to Contractor",
    "contractor": "Richards Disposal",
    "rowid": "903783",
    "final_x": "3678308.0116",
    "final_y": "537536.4242",
    "longitude": "-90.07794133367133",
    "latitude": "29.972135336171146",
    "geocoded_column": {
      "latitude": "29.972135336171146",
      "longitude": "-90.07794133367133"
    }
  },
  {
    "service_request": "2022-903782",
    "request_type": "Trash/Recycling",
    "request_reason": "Request a Large Item Pick Up",
    "date_created": "2022-07-26T16:38:22.000",
    "date_modified": "2022-07-26T17:14:48.000",
    "request_status": "Pending",
    "responsible_agency": "Department of Sanitation",
    "final_address": "136 Alvin Callender St",
    "address_councildis": "A",
    "status": "Assigned to Contractor",
    "contractor": "Richards Disposal",
    "rowid": "903782",
    "final_x": "3661052.99917",
    "final_y": "523383.265851",
    "longitude": "-90.13290410830635",
    "latitude": "29.93372723550225",
    "geocoded_column": {
      "latitude": "29.93372723550225",
      "longitude": "-90.13290410830635"
    }
  },
  {
    "service_request": "2022-903781",
    "request_type": "Trash/Recycling",
    "request_reason": "Missed Trash Pick-Up",
    "date_created": "2022-07-26T16:32:57.000",
    "date_modified": "2022-07-26T16:32:58.000",
    "request_status": "Pending",
    "responsible_agency": "Department of Sanitation",
    "final_address": "1215 N Dupre St",
    "address_councildis": "A",
    "status": "Assigned to Contractor",
    "contractor": "Richards Disposal",
    "rowid": "903781",
    "final_x": "3676948.56034",
    "final_y": "539403.262218",
    "longitude": "-90.08217033286698",
    "latitude": "29.97730938478441",
    "geocoded_column": {
      "latitude": "29.97730938478441",
      "longitude": "-90.08217033286698"
    }
  },
  {
    "service_request": "2022-903780",
    "request_type": "Trash/Recycling",
    "request_reason": "Missed Trash Pick-Up",
    "date_created": "2022-07-26T16:32:47.000",
    "date_modified": "2022-07-26T16:32:48.000",
    "request_status": "Pending",
    "responsible_agency": "Department of Sanitation",
    "final_address": "4838 Laurel St",
    "address_councildis": "B",
    "status": "Assigned to Contractor",
    "contractor": "Richards Disposal",
    "rowid": "903780",
    "final_x": "3669367.1643",
    "final_y": "517838.076982",
    "longitude": "-90.10684399672023",
    "latitude": "29.91823760791575",
    "geocoded_column": {
      "latitude": "29.91823760791575",
      "longitude": "-90.10684399672023"
    }
  },
  {
    "service_request": "2022-903779",
    "request_type": "Trash/Recycling",
    "request_reason": "Replace Trash Cart",
    "date_created": "2022-07-26T16:26:28.000",
    "date_modified": "2022-07-26T16:26:29.000",
    "request_status": "Pending",
    "responsible_agency": "Department of Sanitation",
    "final_address": "2500 Valence St",
    "address_councildis": "B",
    "status": "Assigned to Contractor",
    "contractor": "Richards Disposal",
    "rowid": "903779",
    "final_x": "3669375.61332",
    "final_y": "523973.347196",
    "longitude": "-90.10661000006372",
    "latitude": "29.935107398807382",
    "geocoded_column": {
      "latitude": "29.935107398807382",
      "longitude": "-90.10661000006372"
    }
  },
  {
    "service_request": "2022-903778",
    "request_type": "Trash/Recycling",
    "request_reason": "MIssed Recycling Pick-Up",
    "date_created": "2022-07-26T16:23:17.000",
    "date_modified": "2022-07-26T16:23:18.000",
    "request_status": "Pending",
    "responsible_agency": "Department of Sanitation",
    "final_address": "2134 Magazine St",
    "address_councildis": "B",
    "status": "Assigned to Contractor",
    "contractor": "Richards Disposal",
    "rowid": "903778",
    "final_x": "3678967.57442",
    "final_y": "522102.98137",
    "longitude": "-90.07639299736117",
    "latitude": "29.929678656778812",
    "geocoded_column": {
      "latitude": "29.929678656778812",
      "longitude": "-90.07639299736117"
    }
  },
  {
    "service_request": "2022-903777",
    "request_type": "Trash/Recycling",
    "request_reason": "MIssed Recycling Pick-Up",
    "date_created": "2022-07-26T16:19:38.000",
    "date_modified": "2022-07-26T16:19:39.000",
    "request_status": "Pending",
    "responsible_agency": "Department of Sanitation",
    "final_address": "2424 Chelsea Dr",
    "address_councildis": "C",
    "status": "Assigned to Contractor",
    "contractor": "Richards Disposal",
    "rowid": "903777",
    "final_x": "3704812.57412",
    "final_y": "522445.613626",
    "longitude": "-89.99479291180056",
    "latitude": "29.92981591915055",
    "geocoded_column": {
      "latitude": "29.92981591915055",
      "longitude": "-89.99479291180056"
    }
  },
  {
    "service_request": "2022-903776",
    "request_type": "Abandoned Vehicles",
    "request_reason": "Abandoned/Junk Vehicles",
    "date_created": "2022-07-26T16:19:36.000",
    "date_modified": "2022-07-26T16:19:36.000",
    "request_status": "Pending",
    "responsible_agency": "Department of Public Works",
    "final_address": "1934 Joliet St",
    "address_councildis": "A",
    "status": "Pending",
    "rowid": "903776",
    "final_x": "3662724.99098",
    "final_y": "531387.318979",
    "longitude": "-90.1273597407789",
    "latitude": "29.955687552492538",
    "geocoded_column": {
      "latitude": "29.955687552492538",
      "longitude": "-90.1273597407789"
    }
  },
  {
    "service_request": "2022-903775",
    "request_type": "Trash/Recycling",
    "request_reason": "Replace Trash Cart",
    "date_created": "2022-07-26T16:19:32.000",
    "date_modified": "2022-07-26T16:19:32.000",
    "request_status": "Pending",
    "responsible_agency": "Department of Sanitation",
    "final_address": "12951 Ashland Dr",
    "address_councildis": "E",
    "status": "Assigned to Contractor",
    "contractor": "Metro Disposal",
    "rowid": "903775",
    "final_x": "3717302.7804",
    "final_y": "567320.0641",
    "longitude": "-89.95365827331581",
    "latitude": "30.052796271318517",
    "geocoded_column": {
      "latitude": "30.052796271318517",
      "longitude": "-89.95365827331581"
    }
  },
  {
    "service_request": "2022-903774",
    "request_type": "Abandoned Vehicles",
    "request_reason": "Abandoned/Junk Vehicles",
    "date_created": "2022-07-26T16:17:02.000",
    "date_modified": "2022-07-26T16:17:02.000",
    "request_status": "Pending",
    "responsible_agency": "Department of Public Works",
    "final_address": "1934 Joliet St",
    "address_councildis": "A",
    "status": "Pending",
    "rowid": "903774",
    "final_x": "3662724.99098",
    "final_y": "531387.318979",
    "longitude": "-90.1273597407789",
    "latitude": "29.955687552492538",
    "geocoded_column": {
      "latitude": "29.955687552492538",
      "longitude": "-90.1273597407789"
    }
  },
  {
    "service_request": "2022-903773",
    "request_type": "Trash/Recycling",
    "request_reason": "Request a Large Item Pick Up",
    "date_created": "2022-07-26T16:15:35.000",
    "date_modified": "2022-07-26T16:15:35.000",
    "request_status": "Pending",
    "responsible_agency": "Department of Sanitation",
    "final_address": "7738 Green St",
    "address_councildis": "A",
    "status": "Assigned to Contractor",
    "contractor": "Richards Disposal",
    "rowid": "903773",
    "final_x": "3663977.71072",
    "final_y": "528857.002112",
    "longitude": "-90.12348843897671",
    "latitude": "29.948693686831145",
    "geocoded_column": {
      "latitude": "29.948693686831145",
      "longitude": "-90.12348843897671"
    }
  },
  {
    "service_request": "2022-903772",
    "request_type": "Parks & Parkways",
    "request_reason": "Request Tree Service (Right of Way/Public Property)",
    "date_created": "2022-07-26T16:14:30.000",
    "date_modified": "2022-07-26T16:14:31.000",
    "request_status": "Pending",
    "responsible_agency": "Department of Parks & Parkway",
    "final_address": "400 BLK Royal St",
    "address_councildis": "C",
    "status": "Pending",
    "rowid": "903772",
    "final_x": "3681991.72391",
    "final_y": "531726.11711",
    "longitude": "-90.06651044019951",
    "latitude": "29.956047495779725",
    "geocoded_column": {
      "latitude": "29.956047495779725",
      "longitude": "-90.06651044019951"
    }
  },
  {
    "service_request": "2022-903771",
    "request_type": "Roads/Drainage",
    "request_reason": "Catch Basin - Clogged",
    "date_created": "2022-07-26T16:14:21.000",
    "date_modified": "2022-07-26T16:14:21.000",
    "request_status": "Pending",
    "responsible_agency": "Department of Public Works",
    "final_address": "1636 Dublin St",
    "address_councildis": "A",
    "status": "Pending",
    "rowid": "903771",
    "final_x": "3662807.78893",
    "final_y": "529888.740545",
    "longitude": "-90.12714810483516",
    "latitude": "29.95156454956953",
    "geocoded_column": {
      "latitude": "29.95156454956953",
      "longitude": "-90.12714810483516"
    }
  },
  {
    "service_request": "2022-903770",
    "request_type": "Trash/Recycling",
    "request_reason": "Illegal Dumping",
    "date_created": "2022-07-26T16:11:41.000",
    "date_modified": "2022-07-26T16:11:41.000",
    "request_status": "Pending",
    "responsible_agency": "Department of Sanitation",
    "final_address": "1922 Jackson Ave",
    "address_councildis": "B",
    "status": "Pending",
    "rowid": "903770",
    "final_x": "3676655.4171",
    "final_y": "524876.484732",
    "longitude": "-90.08359658143911",
    "latitude": "29.93737442312184",
    "geocoded_column": {
      "latitude": "29.93737442312184",
      "longitude": "-90.08359658143911"
    }
  },
  {
    "service_request": "2022-903769",
    "request_type": "Traffic Signals/Signs/Striping/Streetlights",
    "request_reason": "Street Light Outage/Malfunction",
    "date_created": "2022-07-26T16:11:19.000",
    "date_modified": "2022-07-26T16:11:19.000",
    "request_status": "Pending",
    "responsible_agency": "Department of Public Works",
    "final_address": "7301 W Renaissance Ct",
    "address_councildis": "E",
    "status": "Pending",
    "contractor": "Royal Engineering",
    "rowid": "903769",
    "final_x": "3716362.76997",
    "final_y": "568064.009509",
    "longitude": "-89.95660109745747",
    "latitude": "30.054872902879747",
    "geocoded_column": {
      "latitude": "30.054872902879747",
      "longitude": "-89.95660109745747"
    }
  },
  {
    "service_request": "2022-903767",
    "request_type": "Abandoned Vehicles",
    "request_reason": "Abandoned/Junk Vehicles",
    "date_created": "2022-07-26T16:07:05.000",
    "date_modified": "2022-07-26T16:07:05.000",
    "request_status": "Pending",
    "responsible_agency": "Department of Public Works",
    "final_address": "10114 Airwood St",
    "address_councildis": "E",
    "status": "Pending",
    "rowid": "903767",
    "final_x": "3712959.95122",
    "final_y": "556083.408858",
    "longitude": "-89.96780785211925",
    "latitude": "30.022043036924003",
    "geocoded_column": {
      "latitude": "30.022043036924003",
      "longitude": "-89.96780785211925"
    }
  },
  {
    "service_request": "2022-903766",
    "request_type": "Roads/Drainage",
    "request_reason": "Debris in Roadway",
    "date_created": "2022-07-26T16:06:17.000",
    "date_modified": "2022-07-26T16:06:17.000",
    "request_status": "Pending",
    "responsible_agency": "Department of Public Works",
    "final_address": "633 Whitney Ave",
    "address_councildis": "C",
    "status": "Pending",
    "rowid": "903766",
    "final_x": "3690138.10172",
    "final_y": "529099.51392",
    "longitude": "-90.04088060737199",
    "latitude": "29.94857508087663",
    "geocoded_column": {
      "latitude": "29.94857508087663",
      "longitude": "-90.04088060737199"
    }
  },
  {
    "service_request": "2022-903764",
    "request_type": "Trash/Recycling",
    "request_reason": "Missed Trash Pick-Up",
    "date_created": "2022-07-26T16:01:03.000",
    "date_modified": "2022-07-26T16:01:04.000",
    "request_status": "Pending",
    "responsible_agency": "Department of Sanitation",
    "final_address": "1318 Prytania St HM",
    "address_councildis": "B",
    "status": "Assigned to Contractor",
    "contractor": "Richards Disposal",
    "rowid": "903764",
    "final_x": "3679948.7997",
    "final_y": "525585.334845",
    "longitude": "-90.07317454391969",
    "latitude": "29.939224347031498",
    "geocoded_column": {
      "latitude": "29.939224347031498",
      "longitude": "-90.07317454391969"
    }
  },
  {
    "service_request": "2022-903763",
    "request_type": "Roads/Drainage",
    "request_reason": "Accessibility Ramps, Curbs and Sidewalk Repair",
    "date_created": "2022-07-26T15:58:43.000",
    "date_modified": "2022-07-26T15:58:43.000",
    "request_status": "Pending",
    "responsible_agency": "Department of Public Works",
    "final_address": "2504 DAbadie St",
    "address_councildis": "D",
    "status": "Pending",
    "rowid": "903763",
    "final_x": "3679923.92808",
    "final_y": "540408.535947",
    "longitude": "-90.0727382113798",
    "latitude": "29.9799838710872",
    "geocoded_column": {
      "latitude": "29.9799838710872",
      "longitude": "-90.0727382113798"
    }
  },
  {
    "service_request": "2022-903762",
    "request_type": "Trash/Recycling",
    "request_reason": "Request a Large Item Pick Up",
    "date_created": "2022-07-26T15:57:16.000",
    "date_modified": "2022-07-26T15:57:17.000",
    "request_status": "Pending",
    "responsible_agency": "Department of Sanitation",
    "final_address": "107 Maumus Ave",
    "address_councildis": "C",
    "status": "Assigned to Contractor",
    "contractor": "Richards Disposal",
    "rowid": "903762",
    "final_x": "3705780.47204",
    "final_y": "516704.332021",
    "longitude": "-89.99194962192549",
    "latitude": "29.913998265246065",
    "geocoded_column": {
      "latitude": "29.913998265246065",
      "longitude": "-89.99194962192549"
    }
  },
  {
    "service_request": "2022-903761",
    "request_type": "Parks & Parkways",
    "request_reason": "Request Tree Service (Right of Way/Public Property)",
    "date_created": "2022-07-26T15:55:54.000",
    "date_modified": "2022-07-26T15:55:54.000",
    "request_status": "Pending",
    "responsible_agency": "Department of Parks & Parkway",
    "final_address": "2504 DAbadie St",
    "address_councildis": "D",
    "status": "Pending",
    "rowid": "903761",
    "final_x": "3679923.92808",
    "final_y": "540408.535947",
    "longitude": "-90.0727382113798",
    "latitude": "29.9799838710872",
    "geocoded_column": {
      "latitude": "29.9799838710872",
      "longitude": "-90.0727382113798"
    }
  },
  {
    "service_request": "2022-903760",
    "request_type": "Trash/Recycling",
    "request_reason": "MIssed Recycling Pick-Up",
    "date_created": "2022-07-26T15:54:45.000",
    "date_modified": "2022-07-26T15:54:45.000",
    "request_status": "Pending",
    "responsible_agency": "Department of Sanitation",
    "final_address": "2609 Palmyra St",
    "address_councildis": "B",
    "status": "Assigned to Contractor",
    "contractor": "Richards Disposal",
    "rowid": "903760",
    "final_x": "3675271.0667",
    "final_y": "534211.155589",
    "longitude": "-90.08764669133168",
    "latitude": "29.963083113418957",
    "geocoded_column": {
      "latitude": "29.963083113418957",
      "longitude": "-90.08764669133168"
    }
  },
  {
    "service_request": "2022-903759",
    "request_type": "Trash/Recycling",
    "request_reason": "Request a Large Item Pick Up",
    "date_created": "2022-07-26T15:42:23.000",
    "date_modified": "2022-07-26T15:42:24.000",
    "request_status": "Pending",
    "responsible_agency": "Department of Sanitation",
    "final_address": "7711 Oak St",
    "address_councildis": "A",
    "status": "Assigned to Contractor",
    "contractor": "Richards Disposal",
    "rowid": "903759",
    "final_x": "3662989.33056",
    "final_y": "527492.776639",
    "longitude": "-90.12665455140784",
    "latitude": "29.944971162491683",
    "geocoded_column": {
      "latitude": "29.944971162491683",
      "longitude": "-90.12665455140784"
    }
  },
  {
    "service_request": "2022-903755",
    "request_type": "Traffic Signals/Signs/Striping/Streetlights",
    "request_reason": "Street Light Outage/Malfunction",
    "date_created": "2022-07-26T15:34:18.000",
    "date_modified": "2022-07-26T15:34:19.000",
    "request_status": "Pending",
    "responsible_agency": "Department of Public Works",
    "final_address": "1520 Opelousas Ave",
    "address_councildis": "C",
    "status": "Pending",
    "contractor": "Royal Engineering",
    "rowid": "903755",
    "final_x": "3690014.87324",
    "final_y": "529101.523008",
    "longitude": "-90.04126961873517",
    "latitude": "29.948584426517517",
    "geocoded_column": {
      "latitude": "29.948584426517517",
      "longitude": "-90.04126961873517"
    }
  },
  {
    "service_request": "2022-903754",
    "request_type": "Abandoned Vehicles",
    "request_reason": "Abandoned/Junk Vehicles",
    "date_created": "2022-07-26T15:32:45.000",
    "date_modified": "2022-07-26T15:32:45.000",
    "request_status": "Pending",
    "responsible_agency": "Department of Public Works",
    "final_address": "1463 Annunciation St",
    "address_councildis": "B",
    "status": "Pending",
    "rowid": "903754",
    "final_x": "3680990.83195",
    "final_y": "523824.393403",
    "longitude": "-90.06994601784272",
    "latitude": "29.93435078987991",
    "geocoded_column": {
      "latitude": "29.93435078987991",
      "longitude": "-90.06994601784272"
    }
  },
  {
    "service_request": "2022-903753",
    "request_type": "Trash/Recycling",
    "request_reason": "Request a Large Item Pick Up",
    "date_created": "2022-07-26T15:31:40.000",
    "date_modified": "2022-07-26T15:31:41.000",
    "request_status": "Pending",
    "responsible_agency": "Department of Sanitation",
    "final_address": "911 Saint Ann St, New Orleans, Louisiana, 70116",
    "status": "Assigned to Contractor",
    "rowid": "903753",
    "longitude": "0.0",
    "latitude": "0.0",
    "geocoded_column": {
      "latitude": "0.0",
      "longitude": "0.0"
    }
  },
  {
    "service_request": "2022-903752",
    "request_type": "Property Maintenance",
    "request_reason": "Property Maintenance",
    "date_created": "2022-07-26T15:31:32.000",
    "date_modified": "2022-07-26T15:31:32.000",
    "request_status": "Pending",
    "responsible_agency": "Department of Code Enforcement",
    "final_address": "405 Calhoun St",
    "address_councildis": "A",
    "status": "Pending",
    "rowid": "903752",
    "final_x": "3662963.66874",
    "final_y": "518493.977462",
    "longitude": "-90.12703468528912",
    "latitude": "29.920228046065063",
    "geocoded_column": {
      "latitude": "29.920228046065063",
      "longitude": "-90.12703468528912"
    }
  },
  {
    "service_request": "2022-903751",
    "request_type": "Traffic Signals/Signs/Striping/Streetlights",
    "request_reason": "Street Light Outage/Malfunction",
    "date_created": "2022-07-26T15:31:22.000",
    "date_modified": "2022-07-26T15:31:22.000",
    "request_status": "Pending",
    "responsible_agency": "Department of Public Works",
    "final_address": "5542 Chatham Dr",
    "address_councildis": "D",
    "status": "Pending",
    "contractor": "Royal Engineering",
    "rowid": "903751",
    "final_x": "3679641.27439",
    "final_y": "552916.108375",
    "longitude": "-90.07319650292024",
    "latitude": "30.014383811412316",
    "geocoded_column": {
      "latitude": "30.014383811412316",
      "longitude": "-90.07319650292024"
    }
  },
  {
    "service_request": "2022-903750",
    "request_type": "Trash/Recycling",
    "request_reason": "Replace Trash Cart",
    "date_created": "2022-07-26T15:31:12.000",
    "date_modified": "2022-07-26T15:31:13.000",
    "request_status": "Pending",
    "responsible_agency": "Department of Sanitation",
    "final_address": "7821 Newcastle St",
    "address_councildis": "E",
    "status": "Assigned to Contractor",
    "contractor": "Metro Disposal",
    "rowid": "903750",
    "final_x": "3697089.68643",
    "final_y": "560011.538717",
    "longitude": "-90.0178110970215",
    "latitude": "30.03335437988444",
    "geocoded_column": {
      "latitude": "30.03335437988444",
      "longitude": "-90.0178110970215"
    }
  },
  {
    "service_request": "2022-903749",
    "request_type": "Roads/Drainage",
    "request_reason": "Pothole",
    "date_created": "2022-07-26T15:28:28.000",
    "date_modified": "2022-07-26T15:28:29.000",
    "request_status": "Pending",
    "responsible_agency": "Department of Public Works",
    "final_address": "5620 Read Blvd",
    "address_councildis": "E",
    "status": "Pending",
    "rowid": "903749",
    "final_x": "3710490.60779",
    "final_y": "558508.852252",
    "longitude": "-89.97551946044383",
    "latitude": "30.028792736910013",
    "geocoded_column": {
      "latitude": "30.028792736910013",
      "longitude": "-89.97551946044383"
    }
  },
  {
    "service_request": "2022-903748",
    "request_type": "Roads/Drainage",
    "request_reason": "Pothole",
    "date_created": "2022-07-26T15:23:55.000",
    "date_modified": "2022-07-26T15:23:55.000",
    "request_status": "Pending",
    "responsible_agency": "Department of Public Works",
    "final_address": "5045 Congress Dr",
    "address_councildis": "D",
    "status": "Pending",
    "rowid": "903748",
    "final_x": "3692018.24605",
    "final_y": "553037.828887",
    "longitude": "-90.03408720063005",
    "latitude": "30.014338421785933",
    "geocoded_column": {
      "latitude": "30.014338421785933",
      "longitude": "-90.03408720063005"
    }
  },
  {
    "service_request": "2022-903747",
    "request_type": "Trash/Recycling",
    "request_reason": "Missed Trash Pick-Up",
    "date_created": "2022-07-26T15:21:11.000",
    "date_modified": "2022-07-26T15:21:12.000",
    "request_status": "Pending",
    "responsible_agency": "Department of Sanitation",
    "final_address": "201 Ringold St",
    "address_councildis": "A",
    "status": "Assigned to Contractor",
    "contractor": "Metro Disposal",
    "rowid": "903747",
    "final_x": "3666896.30317",
    "final_y": "548572.760723",
    "longitude": "-90.11361052017838",
    "latitude": "30.002820359158296",
    "geocoded_column": {
      "latitude": "30.002820359158296",
      "longitude": "-90.11361052017838"
    }
  },
  {
    "service_request": "2022-903746",
    "request_type": "Roads/Drainage",
    "request_reason": "Debris in Roadway",
    "date_created": "2022-07-26T15:21:00.000",
    "date_modified": "2022-07-26T15:21:00.000",
    "request_status": "Pending",
    "responsible_agency": "Department of Public Works",
    "final_address": "405 Esplanade Ave",
    "address_councildis": "C",
    "status": "Pending",
    "rowid": "903746",
    "final_x": "3684951.26537",
    "final_y": "533814.223941",
    "longitude": "-90.05709179983954",
    "latitude": "29.96169877142504",
    "geocoded_column": {
      "latitude": "29.96169877142504",
      "longitude": "-90.05709179983954"
    }
  },
  {
    "service_request": "2022-903745",
    "request_type": "Trash/Recycling",
    "request_reason": "Repair Trash Cart",
    "date_created": "2022-07-26T15:20:47.000",
    "date_modified": "2022-07-26T15:20:48.000",
    "request_status": "Pending",
    "responsible_agency": "Department of Sanitation",
    "final_address": "3517 General Ogden St",
    "address_councildis": "A",
    "status": "Assigned to Contractor",
    "contractor": "Richards Disposal",
    "rowid": "903745",
    "final_x": "3665526.93664",
    "final_y": "536433.590855",
    "longitude": "-90.1183431927378",
    "latitude": "29.969481756538926",
    "geocoded_column": {
      "latitude": "29.969481756538926",
      "longitude": "-90.1183431927378"
    }
  },
  {
    "service_request": "2022-903744",
    "request_type": "Trash/Recycling",
    "request_reason": "Order Recycling Cart",
    "date_created": "2022-07-26T15:18:47.000",
    "date_modified": "2022-07-26T15:18:47.000",
    "request_status": "Pending",
    "responsible_agency": "Department of Sanitation",
    "final_address": "1336 Arts St",
    "address_councildis": "C",
    "status": "Pending",
    "rowid": "903744",
    "final_x": "3687090.33225",
    "final_y": "537509.382856",
    "longitude": "-90.05020632581719",
    "latitude": "29.971793487971166",
    "geocoded_column": {
      "latitude": "29.971793487971166",
      "longitude": "-90.05020632581719"
    }
  },
  {
    "service_request": "2022-903743",
    "request_type": "Trash/Recycling",
    "request_reason": "Order Trash Cart",
    "date_created": "2022-07-26T15:11:04.000",
    "date_modified": "2022-07-26T15:11:08.000",
    "request_status": "Pending",
    "responsible_agency": "Department of Sanitation",
    "final_address": "3100 Behrman Hwy",
    "address_councildis": "C",
    "status": "Assigned to Contractor",
    "contractor": "Richards Disposal",
    "rowid": "903743",
    "final_x": "3694623.90397",
    "final_y": "519141.873079",
    "longitude": "-90.02707552884621",
    "latitude": "29.921055090156532",
    "geocoded_column": {
      "latitude": "29.921055090156532",
      "longitude": "-90.02707552884621"
    }
  },
  {
    "service_request": "2022-903742",
    "request_type": "Traffic Signals/Signs/Striping/Streetlights",
    "request_reason": "Street Light Outage/Malfunction",
    "date_created": "2022-07-26T15:08:53.000",
    "date_modified": "2022-07-26T15:08:54.000",
    "request_status": "Pending",
    "responsible_agency": "Department of Public Works",
    "final_address": "13700 BLK Pierres Ct",
    "address_councildis": "E",
    "status": "Pending",
    "contractor": "Royal Engineering",
    "rowid": "903742",
    "final_x": "3725123.66455",
    "final_y": "570155.795171",
    "longitude": "-89.92882913753702",
    "latitude": "30.060332091102232",
    "geocoded_column": {
      "latitude": "30.060332091102232",
      "longitude": "-89.92882913753702"
    }
  },
  {
    "service_request": "2022-903741",
    "request_type": "Abandoned Vehicles",
    "request_reason": "Abandoned/Junk Vehicles",
    "date_created": "2022-07-26T15:08:44.000",
    "date_modified": "2022-07-26T15:08:44.000",
    "request_status": "Pending",
    "responsible_agency": "Department of Public Works",
    "final_address": "444 Port St",
    "address_councildis": "C",
    "status": "Pending",
    "rowid": "903741",
    "final_x": "3686737.13782",
    "final_y": "534222.968645",
    "longitude": "-90.05143788008516",
    "latitude": "29.962767863281424",
    "geocoded_column": {
      "latitude": "29.962767863281424",
      "longitude": "-90.05143788008516"
    }
  },
  {
    "service_request": "2022-903740",
    "request_type": "Taxi Issues",
    "request_reason": "Taxi Complaint",
    "date_created": "2022-07-26T15:08:13.000",
    "date_modified": "2022-07-26T15:08:13.000",
    "request_status": "Pending",
    "responsible_agency": "Ground Transportation Bureau",
    "status": "Pending",
    "rowid": "903740",
    "longitude": "0.0",
    "latitude": "0.0",
    "geocoded_column": {
      "latitude": "0.0",
      "longitude": "0.0"
    }
  },
  {
    "service_request": "2022-903739",
    "request_type": "Parks & Parkways",
    "request_reason": "Request Grass Cutting Service (City Owned Property)",
    "date_created": "2022-07-26T15:05:59.000",
    "date_modified": "2022-07-26T15:06:00.000",
    "request_status": "Pending",
    "responsible_agency": "Department of Parks & Parkway",
    "final_address": "ADVENTURE AVE & MICHOUD BLVD",
    "address_councildis": "E",
    "status": "Pending",
    "rowid": "903739",
    "final_x": "3725235.4",
    "final_y": "570877.48",
    "longitude": "-89.92844798212272",
    "latitude": "30.062312652791096",
    "geocoded_column": {
      "latitude": "30.062312652791096",
      "longitude": "-89.92844798212272"
    }
  },
  {
    "service_request": "2022-903738",
    "request_type": "Traffic Signals/Signs/Striping/Streetlights",
    "request_reason": "Street Light Outage/Malfunction",
    "date_created": "2022-07-26T15:04:53.000",
    "date_modified": "2022-07-26T15:04:54.000",
    "request_status": "Pending",
    "responsible_agency": "Department of Public Works",
    "final_address": "17 Dove St",
    "address_councildis": "D",
    "status": "Pending",
    "contractor": "Royal Engineering",
    "rowid": "903738",
    "final_x": "3673485.90984",
    "final_y": "554712.554072",
    "longitude": "-90.09258297694167",
    "latitude": "30.019508091215435",
    "geocoded_column": {
      "latitude": "30.019508091215435",
      "longitude": "-90.09258297694167"
    }
  },
  {
    "service_request": "2022-903737",
    "request_type": "Trash/Recycling",
    "request_reason": "Request a Large Item Pick Up",
    "date_created": "2022-07-26T15:03:05.000",
    "date_modified": "2022-07-26T15:03:06.000",
    "request_status": "Pending",
    "responsible_agency": "Department of Sanitation",
    "final_address": "7549 Avalon Way",
    "address_councildis": "E",
    "status": "Assigned to Contractor",
    "contractor": "Metro Disposal",
    "rowid": "903737",
    "final_x": "3709232.5948",
    "final_y": "564294.381665",
    "longitude": "-89.9792786539152",
    "latitude": "30.04474157518668",
    "geocoded_column": {
      "latitude": "30.04474157518668",
      "longitude": "-89.9792786539152"
    }
  },
  {
    "service_request": "2022-903736",
    "request_type": "Traffic Signals/Signs/Striping/Streetlights",
    "request_reason": "Street Light Outage/Malfunction",
    "date_created": "2022-07-26T15:01:43.000",
    "date_modified": "2022-07-26T15:01:44.000",
    "request_status": "Pending",
    "responsible_agency": "Department of Public Works",
    "final_address": "7548 Avalon Way",
    "address_councildis": "E",
    "status": "Pending",
    "contractor": "Royal Engineering",
    "rowid": "903736",
    "final_x": "3709167.65073",
    "final_y": "564259.161889",
    "longitude": "-89.9794852206957",
    "latitude": "30.044646844952634",
    "geocoded_column": {
      "latitude": "30.044646844952634",
      "longitude": "-89.9794852206957"
    }
  },
  {
    "service_request": "2022-903735",
    "request_type": "Traffic Signals/Signs/Striping/Streetlights",
    "request_reason": "Traffic Sign Missing/Damaged",
    "date_created": "2022-07-26T15:00:51.000",
    "date_modified": "2022-07-26T15:00:51.000",
    "request_status": "Pending",
    "responsible_agency": "Department of Public Works",
    "final_address": "1314 Amelia St",
    "address_councildis": "B",
    "status": "Pending",
    "rowid": "903735",
    "final_x": "3673389.85601",
    "final_y": "519959.546552",
    "longitude": "-90.09407408044011",
    "latitude": "29.923951961869562",
    "geocoded_column": {
      "latitude": "29.923951961869562",
      "longitude": "-90.09407408044011"
    }
  },
  {
    "service_request": "2022-903734",
    "request_type": "Trash/Recycling",
    "request_reason": "Request a Large Item Pick Up",
    "date_created": "2022-07-26T14:59:27.000",
    "date_modified": "2022-07-26T14:59:30.000",
    "request_status": "Pending",
    "responsible_agency": "Department of Sanitation",
    "final_address": "7549 Avalon Way",
    "address_councildis": "E",
    "status": "Assigned to Contractor",
    "contractor": "Metro Disposal",
    "rowid": "903734",
    "final_x": "3709232.5948",
    "final_y": "564294.381665",
    "longitude": "-89.9792786539152",
    "latitude": "30.04474157518668",
    "geocoded_column": {
      "latitude": "30.04474157518668",
      "longitude": "-89.9792786539152"
    }
  },
  {
    "service_request": "2022-903733",
    "request_type": "Trash/Recycling",
    "request_reason": "Request a Large Item Pick Up",
    "date_created": "2022-07-26T14:56:10.000",
    "date_modified": "2022-07-26T14:56:11.000",
    "request_status": "Pending",
    "responsible_agency": "Department of Sanitation",
    "final_address": "35 Curtis Dr",
    "address_councildis": "E",
    "status": "Assigned to Contractor",
    "contractor": "Metro Disposal",
    "rowid": "903733",
    "final_x": "3697769.98647",
    "final_y": "560832.794078",
    "longitude": "-90.01563144456394",
    "latitude": "30.035591021935446",
    "geocoded_column": {
      "latitude": "30.035591021935446",
      "longitude": "-90.01563144456394"
    }
  },
  {
    "service_request": "2022-903732",
    "request_type": "Trash/Recycling",
    "request_reason": "Request a Large Item Pick Up",
    "date_created": "2022-07-26T14:54:07.000",
    "date_modified": "2022-07-26T14:54:08.000",
    "request_status": "Pending",
    "responsible_agency": "Department of Sanitation",
    "final_address": "820 N Salcedo St",
    "address_councildis": "A",
    "status": "Assigned to Contractor",
    "contractor": "Richards Disposal",
    "rowid": "903732",
    "final_x": "3675802.83387",
    "final_y": "538274.144521",
    "longitude": "-90.08582774451415",
    "latitude": "29.974239047112295",
    "geocoded_column": {
      "latitude": "29.974239047112295",
      "longitude": "-90.08582774451415"
    }
  },
  {
    "service_request": "2022-903731",
    "request_type": "Trash/Recycling",
    "request_reason": "Request a Large Item Pick Up",
    "date_created": "2022-07-26T14:53:32.000",
    "date_modified": "2022-07-26T14:53:33.000",
    "request_status": "Pending",
    "responsible_agency": "Department of Sanitation",
    "final_address": "3316 Annunciation St, New Orleans, Louisiana, 70115",
    "address_councildis": "B",
    "status": "Assigned to Contractor",
    "contractor": "Richards Disposal",
    "rowid": "903731",
    "final_x": "3675715.02472",
    "final_y": "518682.034295",
    "longitude": "-90.08677821819508",
    "latitude": "29.920369862602744",
    "geocoded_column": {
      "latitude": "29.920369862602744",
      "longitude": "-90.08677821819508"
    }
  },
  {
    "service_request": "2022-903730",
    "request_type": "Trash/Recycling",
    "request_reason": "Request a Large Item Pick Up",
    "date_created": "2022-07-26T14:51:27.000",
    "date_modified": "2022-07-26T14:51:28.000",
    "request_status": "Pending",
    "responsible_agency": "Department of Sanitation",
    "final_address": "7725 Devine Ave",
    "address_councildis": "E",
    "status": "Assigned to Contractor",
    "contractor": "Metro Disposal",
    "rowid": "903730",
    "final_x": "3705524.681",
    "final_y": "563462.81872",
    "longitude": "-89.9910280812975",
    "latitude": "30.04257506551489",
    "geocoded_column": {
      "latitude": "30.04257506551489",
      "longitude": "-89.9910280812975"
    }
  },
  {
    "service_request": "2022-903729",
    "request_type": "Trash/Recycling",
    "request_reason": "Illegal Dumping",
    "date_created": "2022-07-26T14:50:50.000",
    "date_modified": "2022-07-26T14:50:50.000",
    "request_status": "Pending",
    "responsible_agency": "Department of Sanitation",
    "final_address": "1523 St Philip St A",
    "address_councildis": "C",
    "status": "Pending",
    "rowid": "903729",
    "final_x": "3680848.6756",
    "final_y": "535213.255814",
    "longitude": "-90.06999839052581",
    "latitude": "29.965670638411645",
    "geocoded_column": {
      "latitude": "29.965670638411645",
      "longitude": "-90.06999839052581"
    }
  },
  {
    "service_request": "2022-903728",
    "request_type": "Trash/Recycling",
    "request_reason": "Missed Trash Pick-Up",
    "date_created": "2022-07-26T14:50:16.000",
    "date_modified": "2022-07-26T14:50:17.000",
    "request_status": "Pending",
    "responsible_agency": "Department of Sanitation",
    "final_address": "3627 Cherry St",
    "address_councildis": "A",
    "status": "Assigned to Contractor",
    "contractor": "Richards Disposal",
    "rowid": "903728",
    "final_x": "3664823.84256",
    "final_y": "537675.853832",
    "longitude": "-90.12052210661118",
    "latitude": "29.97291804853789",
    "geocoded_column": {
      "latitude": "29.97291804853789",
      "longitude": "-90.12052210661118"
    }
  },
  {
    "service_request": "2022-903727",
    "request_type": "Trash/Recycling",
    "request_reason": "MIssed Recycling Pick-Up",
    "date_created": "2022-07-26T14:49:18.000",
    "date_modified": "2022-07-26T14:49:19.000",
    "request_status": "Pending",
    "responsible_agency": "Department of Sanitation",
    "final_address": "2643 Jefferson Ave, New Orleans, Louisiana, 70115",
    "address_councildis": "B",
    "status": "Assigned to Contractor",
    "contractor": "Richards Disposal",
    "rowid": "903727",
    "final_x": "3668294.60948",
    "final_y": "525221.917117",
    "longitude": "-90.10998065101649",
    "latitude": "29.938572343002797",
    "geocoded_column": {
      "latitude": "29.938572343002797",
      "longitude": "-90.10998065101649"
    }
  },
  {
    "service_request": "2022-903726",
    "request_type": "Trash/Recycling",
    "request_reason": "Request a Large Item Pick Up",
    "date_created": "2022-07-26T14:49:16.000",
    "date_modified": "2022-07-26T14:49:17.000",
    "request_status": "Pending",
    "responsible_agency": "Department of Sanitation",
    "final_address": "207 N Peters St",
    "address_councildis": "C",
    "status": "Assigned to Contractor",
    "contractor": "Empire Services",
    "rowid": "903726",
    "final_x": "3682294.68277",
    "final_y": "530445.581634",
    "longitude": "-90.06559853718802",
    "latitude": "29.952517244309814",
    "geocoded_column": {
      "latitude": "29.952517244309814",
      "longitude": "-90.06559853718802"
    }
  },
  {
    "service_request": "2022-903725",
    "request_type": "Safety & Permits",
    "request_reason": "Safety & Permits Request (Cyber Incident Back Up)",
    "date_created": "2022-07-26T14:48:36.000",
    "date_modified": "2022-07-26T14:48:36.000",
    "request_status": "Pending",
    "responsible_agency": "Safety and Permits",
    "status": "Pending",
    "rowid": "903725",
    "longitude": "0.0",
    "latitude": "0.0",
    "geocoded_column": {
      "latitude": "0.0",
      "longitude": "0.0"
    }
  },
  {
    "service_request": "2022-903724",
    "request_type": "Abandoned Vehicles",
    "request_reason": "Abandoned/Junk Vehicles",
    "date_created": "2022-07-26T14:48:00.000",
    "date_modified": "2022-07-26T14:48:00.000",
    "request_status": "Pending",
    "responsible_agency": "Department of Public Works",
    "status": "Inspected",
    "rowid": "903724",
    "longitude": "0.0",
    "latitude": "0.0",
    "geocoded_column": {
      "latitude": "0.0",
      "longitude": "0.0"
    }
  },
  {
    "service_request": "2022-903723",
    "request_type": "Trash/Recycling",
    "request_reason": "Illegal Dumping",
    "date_created": "2022-07-26T14:47:31.000",
    "date_modified": "2022-07-26T14:47:31.000",
    "request_status": "Pending",
    "responsible_agency": "Department of Sanitation",
    "final_address": "2022 Marais St",
    "address_councildis": "C",
    "status": "Pending",
    "rowid": "903723",
    "final_x": "3684401.63682",
    "final_y": "536586.408967",
    "longitude": "-90.05873005564031",
    "latitude": "29.96933814408542",
    "geocoded_column": {
      "latitude": "29.96933814408542",
      "longitude": "-90.05873005564031"
    }
  },