[
  {
    "service_request": "2026-1299040",
    "request_type": "Drainage",
    "request_reason": "Ditch and Culvert Maintenance",
    "date_created": "2026-07-11T23:19:53.000",
    "date_modified": "2026-07-11T23:19:55.000",
    "request_status": "Pending",
    "responsible_agency": "Department of Public Works",
    "final_address": "1516 Cambronne St",
    "address_councildis": "A",
    "status": "Pending",
    "rowid": "1299040",
    "final_x": "3661959.00877",
    "final_y": "530019.203137",
    "longitude": "-90.12982382833644",
    "latitude": "29.951947820187648",
    "geocoded_column": {
      "latitude": "29.951947820187648",
      "longitude": "-90.12982382833644"
    }
  },
  {
    "service_request": "2026-1299039",
    "request_type": "Drainage",
    "request_reason": "Catch Basin Not Draining",
    "date_created": "2026-07-11T23:11:54.000",
    "date_modified": "2026-07-11T23:11:57.000",
    "request_status": "Pending",
    "responsible_agency": "Sewerage & Water Board",
    "final_address": "4301 Iberville St",
    "address_councildis": "A",
    "status": "Pending",
    "rowid": "1299039",
    "final_x": "3670545.52846",
    "final_y": "539351.30273",
    "longitude": "-90.10239503769802",
    "latitude": "29.97735720454978",
    "geocoded_column": {
      "latitude": "29.97735720454978",
      "longitude": "-90.10239503769802"
    }
  },
  {
    "service_request": "2026-1299038",
    "request_type": "Health Related Request",
    "request_reason": "Noise Ordinance Complaint",
    "date_created": "2026-07-11T22:36:49.000",
    "date_modified": "2026-07-11T22:36:51.000",
    "request_status": "Pending",
    "responsible_agency": "Health Department",
    "final_address": "711 Bourbon St, New Orleans, Louisiana, 70116",
    "address_councildis": "C",
    "status": "Pending",
    "rowid": "1299038",
    "final_x": "3682299.38447",
    "final_y": "532765.705988",
    "longitude": "-90.06550263299877",
    "latitude": "29.95889665479323",
    "geocoded_column": {
      "latitude": "29.95889665479323",
      "longitude": "-90.06550263299877"
    }
  },
  {
    "service_request": "2026-1299037",
    "request_type": "Health Related Request",
    "request_reason": "Noise Ordinance Complaint",
    "date_created": "2026-07-11T22:36:21.000",
    "date_modified": "2026-07-11T22:36:24.000",
    "request_status": "Pending",
    "responsible_agency": "Health Department",
    "final_address": "727 Saint Peter St, New Orleans, Louisiana, 70116",
    "address_councildis": "C",
    "status": "Pending",
    "rowid": "1299037",
    "final_x": "3682374.3492",
    "final_y": "532606.069444",
    "longitude": "-90.06527149214479",
    "latitude": "29.958455427799798",
    "geocoded_column": {
      "latitude": "29.958455427799798",
      "longitude": "-90.06527149214479"
    }
  },
  {
    "service_request": "2026-1299036",
    "request_type": "Health Related Request",
    "request_reason": "Noise Ordinance Complaint",
    "date_created": "2026-07-11T22:35:31.000",
    "date_modified": "2026-07-11T22:35:35.000",
    "request_status": "Pending",
    "responsible_agency": "Health Department",
    "final_address": "733 Saint Peter St, New Orleans, Louisiana, 70116",
    "address_councildis": "C",
    "status": "Pending",
    "rowid": "1299036",
    "final_x": "3682344.91317",
    "final_y": "532622.317764",
    "longitude": "-90.06536387543098",
    "latitude": "29.958501000832207",
    "geocoded_column": {
      "latitude": "29.958501000832207",
      "longitude": "-90.06536387543098"
    }
  },
  {
    "service_request": "2026-1299035",
    "request_type": "Health Related Request",
    "request_reason": "Noise Ordinance Complaint",
    "date_created": "2026-07-11T22:32:46.000",
    "date_modified": "2026-07-11T22:32:48.000",
    "request_status": "Pending",
    "responsible_agency": "Health Department",
    "final_address": "633 Saint Peter St, New Orleans, Louisiana, 70116",
    "address_councildis": "C",
    "status": "Pending",
    "rowid": "1299035",
    "final_x": "3682602.66485",
    "final_y": "532434.400195",
    "longitude": "-90.06455653535485",
    "latitude": "29.957976446397396",
    "geocoded_column": {
      "latitude": "29.957976446397396",
      "longitude": "-90.06455653535485"
    }
  },
  {
    "service_request": "2026-1299034",
    "request_type": "Health Related Request",
    "request_reason": "Noise Ordinance Complaint",
    "date_created": "2026-07-11T22:32:02.000",
    "date_modified": "2026-07-11T22:32:04.000",
    "request_status": "Pending",
    "responsible_agency": "Health Department",
    "final_address": "627 Saint Peter St, New Orleans, Louisiana, 70116",
    "address_councildis": "C",
    "status": "Pending",
    "rowid": "1299034",
    "final_x": "3682645.82056",
    "final_y": "532395.269315",
    "longitude": "-90.06442163027707",
    "latitude": "29.95786753580051",
    "geocoded_column": {
      "latitude": "29.95786753580051",
      "longitude": "-90.06442163027707"
    }
  },
  {
    "service_request": "2026-1299033",
    "request_type": "Health Related Request",
    "request_reason": "Noise Ordinance Complaint",
    "date_created": "2026-07-11T22:31:19.000",
    "date_modified": "2026-07-11T22:31:21.000",
    "request_status": "Pending",
    "responsible_agency": "Health Department",
    "final_address": "711 Bourbon St, New Orleans, Louisiana, 70116",
    "address_councildis": "C",
    "status": "Pending",
    "rowid": "1299033",
    "final_x": "3682299.38447",
    "final_y": "532765.705988",
    "longitude": "-90.06550263299877",
    "latitude": "29.95889665479323",
    "geocoded_column": {
      "latitude": "29.95889665479323",
      "longitude": "-90.06550263299877"
    }
  },
  {
    "service_request": "2026-1299032",
    "request_type": "Health Related Request",
    "request_reason": "Noise Ordinance Complaint",
    "date_created": "2026-07-11T22:30:53.000",
    "date_modified": "2026-07-11T22:30:55.000",
    "request_status": "Pending",
    "responsible_agency": "Health Department",
    "final_address": "801 Bourbon St, New Orleans, Louisiana, 70116",
    "address_councildis": "C",
    "status": "Pending",
    "rowid": "1299032",
    "final_x": "3682490.98735",
    "final_y": "533018.672772",
    "longitude": "-90.06488875731978",
    "latitude": "29.959586396383013",
    "geocoded_column": {
      "latitude": "29.959586396383013",
      "longitude": "-90.06488875731978"
    }
  },
  {
    "service_request": "2026-1299031",
    "request_type": "Health Related Request",
    "request_reason": "Noise Ordinance Complaint",
    "date_created": "2026-07-11T22:30:27.000",
    "date_modified": "2026-07-11T22:30:29.000",
    "request_status": "Pending",
    "responsible_agency": "Health Department",
    "final_address": "800 Bourbon St, New Orleans, Louisiana, 70116",
    "address_councildis": "C",
    "status": "Pending",
    "rowid": "1299031",
    "final_x": "3682553.51528",
    "final_y": "533013.631428",
    "longitude": "-90.06469148499534",
    "latitude": "29.95957063099051",
    "geocoded_column": {
      "latitude": "29.95957063099051",
      "longitude": "-90.06469148499534"
    }
  },
  {
    "service_request": "2026-1299030",
    "request_type": "Abandoned Vehicles",
    "request_reason": "Abandoned/Junk Vehicles",
    "date_created": "2026-07-11T22:03:16.000",
    "date_modified": "2026-07-11T22:03:17.000",
    "request_status": "Pending",
    "responsible_agency": "Department of Public Works",
    "final_address": "1874 N Roman St",
    "address_councildis": "C",
    "status": "Pending",
    "rowid": "1299030",
    "final_x": "3683540.45295",
    "final_y": "538746.979081",
    "longitude": "-90.06137399524636",
    "latitude": "29.97530527385337",
    "geocoded_column": {
      "latitude": "29.97530527385337",
      "longitude": "-90.06137399524636"
    }
  },
  {
    "service_request": "2026-1299029",
    "request_type": "Drainage",
    "request_reason": "Catch Basin Not Draining",
    "date_created": "2026-07-11T21:55:47.000",
    "date_modified": "2026-07-11T21:55:50.000",
    "request_status": "Pending",
    "responsible_agency": "Sewerage & Water Board",
    "final_address": "936 Florida Blvd",
    "address_councildis": "A",
    "status": "Pending",
    "rowid": "1299029",
    "final_x": "3670053.60858",
    "final_y": "545125.725711",
    "longitude": "-90.10375298420362",
    "latitude": "29.993249417585318",
    "geocoded_column": {
      "latitude": "29.993249417585318",
      "longitude": "-90.10375298420362"
    }
  },
  {
    "service_request": "2026-1299028",
    "request_type": "Road Striping",
    "request_reason": "Lane Striping or other Pavement Markings",
    "date_created": "2026-07-11T21:24:52.000",
    "date_modified": "2026-07-11T21:24:54.000",
    "request_status": "Pending",
    "responsible_agency": "Department of Public Works",
    "final_address": "2216 S Salcedo St",
    "address_councildis": "B",
    "status": "Pending",
    "rowid": "1299028",
    "final_x": "3669285.7595",
    "final_y": "528860.585216",
    "longitude": "-90.1067285038451",
    "latitude": "29.948548365331032",
    "geocoded_column": {
      "latitude": "29.948548365331032",
      "longitude": "-90.1067285038451"
    }
  },
  {
    "service_request": "2026-1299027",
    "request_type": "Trash/Recycling",
    "request_reason": "Order Recycling Cart",
    "date_created": "2026-07-11T21:21:14.000",
    "date_modified": "2026-07-11T21:21:16.000",
    "request_status": "Pending",
    "responsible_agency": "Department of Sanitation",
    "final_address": "2216 S Salcedo St",
    "address_councildis": "B",
    "status": "Pending",
    "rowid": "1299027",
    "final_x": "3669285.7595",
    "final_y": "528860.585216",
    "longitude": "-90.1067285038451",
    "latitude": "29.948548365331032",
    "geocoded_column": {
      "latitude": "29.948548365331032",
      "longitude": "-90.1067285038451"
    }
  },
  {
    "service_request": "2026-1299026",
    "request_type": "Trash/Recycling",
    "request_reason": "Order Second Trash Cart",
    "date_created": "2026-07-11T21:19:08.000",
    "date_modified": "2026-07-11T21:19:11.000",
    "request_status": "Pending",
    "responsible_agency": "Department of Sanitation",
    "final_address": "2216 S Salcedo St",
    "address_councildis": "B",
    "status": "Assigned to Contractor",
    "contractor": "IV Waste",
    "rowid": "1299026",
    "final_x": "3669285.7595",
    "final_y": "528860.585216",
    "longitude": "-90.1067285038451",
    "latitude": "29.948548365331032",
    "geocoded_column": {
      "latitude": "29.948548365331032",
      "longitude": "-90.1067285038451"
    }
  },
  {
    "service_request": "2026-1299025",
    "request_type": "Roads and Streets",
    "request_reason": "Pothole",
    "date_created": "2026-07-11T21:13:04.000",
    "date_modified": "2026-07-11T21:13:06.000",
    "request_status": "Pending",
    "responsible_agency": "Department of Public Works",
    "final_address": "2216 S Salcedo St",
    "address_councildis": "B",
    "status": "Pending",
    "rowid": "1299025",
    "final_x": "3669285.7595",
    "final_y": "528860.585216",
    "longitude": "-90.1067285038451",
    "latitude": "29.948548365331032",
    "geocoded_column": {
      "latitude": "29.948548365331032",
      "longitude": "-90.1067285038451"
    }
  },
  {
    "service_request": "2026-1299024",
    "request_type": "Abandoned Vehicles",
    "request_reason": "Abandoned/Junk Vehicles",
    "date_created": "2026-07-11T21:09:27.000",
    "date_modified": "2026-07-11T21:09:30.000",
    "request_status": "Pending",
    "responsible_agency": "Department of Public Works",
    "final_address": "827 Port St",
    "address_councildis": "C",
    "status": "Pending",
    "rowid": "1299024",
    "final_x": "3687212.08879",
    "final_y": "535457.498246",
    "longitude": "-90.04989438402704",
    "latitude": "29.96614777211766",
    "geocoded_column": {
      "latitude": "29.96614777211766",
      "longitude": "-90.04989438402704"
    }
  },
  {
    "service_request": "2026-1299023",
    "request_type": "Health Related Request",
    "request_reason": "Noise Ordinance Complaint",
    "date_created": "2026-07-11T20:55:48.000",
    "date_modified": "2026-07-11T20:55:52.000",
    "request_status": "Pending",
    "responsible_agency": "Health Department",
    "final_address": "733 Saint Peter St, New Orleans, Louisiana, 70116",
    "address_councildis": "C",
    "status": "Pending",
    "rowid": "1299023",
    "final_x": "3682344.91317",
    "final_y": "532622.317764",
    "longitude": "-90.06536387543098",
    "latitude": "29.958501000832207",
    "geocoded_column": {
      "latitude": "29.958501000832207",
      "longitude": "-90.06536387543098"
    }
  },
  {
    "service_request": "2026-1299022",
    "request_type": "Health Related Request",
    "request_reason": "Noise Ordinance Complaint",
    "date_created": "2026-07-11T20:54:23.000",
    "date_modified": "2026-07-11T20:54:27.000",
    "request_status": "Pending",
    "responsible_agency": "Health Department",
    "final_address": "627 Saint Peter St, New Orleans, Louisiana, 70116",
    "address_councildis": "C",
    "status": "Pending",
    "rowid": "1299022",
    "final_x": "3682645.82056",
    "final_y": "532395.269315",
    "longitude": "-90.06442163027707",
    "latitude": "29.95786753580051",
    "geocoded_column": {
      "latitude": "29.95786753580051",
      "longitude": "-90.06442163027707"
    }
  },
  {
    "service_request": "2026-1299021",
    "request_type": "Drainage",
    "request_reason": "Catch Basin Not Draining",
    "date_created": "2026-07-11T20:54:17.000",
    "date_modified": "2026-07-11T20:54:20.000",
    "request_status": "Pending",
    "responsible_agency": "Sewerage & Water Board",
    "final_address": "9005 Hickory St",
    "address_councildis": "A",
    "status": "Pending",
    "rowid": "1299021",
    "final_x": "3661006.47162",
    "final_y": "532144.078467",
    "longitude": "-90.1327612084773",
    "latitude": "29.957818018273002",
    "geocoded_column": {
      "latitude": "29.957818018273002",
      "longitude": "-90.1327612084773"
    }
  },
  {
    "service_request": "2026-1299020",
    "request_type": "Health Related Request",
    "request_reason": "Noise Ordinance Complaint",
    "date_created": "2026-07-11T20:53:07.000",
    "date_modified": "2026-07-11T20:53:10.000",
    "request_status": "Pending",
    "responsible_agency": "Health Department",
    "final_address": "711 Bourbon St, New Orleans, Louisiana, 70116",
    "address_councildis": "C",
    "status": "Pending",
    "rowid": "1299020",
    "final_x": "3682299.38447",
    "final_y": "532765.705988",
    "longitude": "-90.06550263299877",
    "latitude": "29.95889665479323",
    "geocoded_column": {
      "latitude": "29.95889665479323",
      "longitude": "-90.06550263299877"
    }
  },
  {
    "service_request": "2026-1299019",
    "request_type": "Trash/Recycling",
    "request_reason": "Request a Large Item Pick Up",
    "date_created": "2026-07-11T20:52:45.000",
    "date_modified": "2026-07-11T20:52:47.000",
    "request_status": "Pending",
    "responsible_agency": "Department of Sanitation",
    "final_address": "8023 Benson St",
    "address_councildis": "E",
    "status": "Assigned to Contractor",
    "contractor": "Waste Pro",
    "rowid": "1299019",
    "final_x": "3703899.70276",
    "final_y": "563611.358817",
    "longitude": "-89.99615814068312",
    "latitude": "30.043035733599485",
    "geocoded_column": {
      "latitude": "30.043035733599485",
      "longitude": "-89.99615814068312"
    }
  },
  {
    "service_request": "2026-1299018",
    "request_type": "Health Related Request",
    "request_reason": "Noise Ordinance Complaint",
    "date_created": "2026-07-11T20:52:40.000",
    "date_modified": "2026-07-11T20:52:42.000",
    "request_status": "Pending",
    "responsible_agency": "Health Department",
    "final_address": "801 Bourbon St, New Orleans, Louisiana, 70116",
    "address_councildis": "C",
    "status": "Pending",
    "rowid": "1299018",
    "final_x": "3682490.98735",
    "final_y": "533018.672772",
    "longitude": "-90.06488875731978",
    "latitude": "29.959586396383013",
    "geocoded_column": {
      "latitude": "29.959586396383013",
      "longitude": "-90.06488875731978"
    }
  },
  {
    "service_request": "2026-1299017",
    "request_type": "Health Related Request",
    "request_reason": "Noise Ordinance Complaint",
    "date_created": "2026-07-11T20:52:15.000",
    "date_modified": "2026-07-11T20:52:18.000",
    "request_status": "Pending",
    "responsible_agency": "Health Department",
    "final_address": "800 Bourbon St, New Orleans, Louisiana, 70116",
    "address_councildis": "C",
    "status": "Pending",
    "rowid": "1299017",
    "final_x": "3682553.51528",
    "final_y": "533013.631428",
    "longitude": "-90.06469148499534",
    "latitude": "29.95957063099051",
    "geocoded_column": {
      "latitude": "29.95957063099051",
      "longitude": "-90.06469148499534"
    }
  },
  {
    "service_request": "2026-1299016",
    "request_type": "Trash/Recycling",
    "request_reason": "Replace Trash Cart",
    "date_created": "2026-07-11T20:26:24.000",
    "date_modified": "2026-07-11T20:26:28.000",
    "request_status": "Pending",
    "responsible_agency": "Department of Sanitation",
    "final_address": "4623 Dart St",
    "address_councildis": "B",
    "status": "Assigned to Contractor",
    "contractor": "IV Waste",
    "rowid": "1299016",
    "final_x": "3669207.88385",
    "final_y": "531658.224579",
    "longitude": "-90.106879842914",
    "latitude": "29.956243248612864",
    "geocoded_column": {
      "latitude": "29.956243248612864",
      "longitude": "-90.106879842914"
    }
  },
  {
    "service_request": "2026-1299015",
    "request_type": "Trash/Recycling",
    "request_reason": "Request a Large Item Pick Up",
    "date_created": "2026-07-11T20:24:22.000",
    "date_modified": "2026-07-11T20:24:24.000",
    "request_status": "Pending",
    "responsible_agency": "Department of Sanitation",
    "final_address": "4321 San Remo St",
    "address_councildis": "E",
    "status": "Assigned to Contractor",
    "contractor": "Waste Pro",
    "rowid": "1299015",
    "final_x": "3760503.32969",
    "final_y": "573413.47057",
    "longitude": "-89.81686215307367",
    "latitude": "30.068049334252184",
    "geocoded_column": {
      "latitude": "30.068049334252184",
      "longitude": "-89.81686215307367"
    }
  },
  {
    "service_request": "2026-1299014",
    "request_type": "Trash/Recycling",
    "request_reason": "Request a Large Item Pick Up",
    "date_created": "2026-07-11T20:19:10.000",
    "date_modified": "2026-07-11T20:19:13.000",
    "request_status": "Pending",
    "responsible_agency": "Department of Sanitation",
    "final_address": "1036 St Ferdinand St",
    "address_councildis": "C",
    "status": "Assigned to Contractor",
    "contractor": "IV Waste",
    "rowid": "1299014",
    "final_x": "3687648.64572",
    "final_y": "536177.181639",
    "longitude": "-90.0484902663615",
    "latitude": "29.96811319791942",
    "geocoded_column": {
      "latitude": "29.96811319791942",
      "longitude": "-90.0484902663615"
    }
  },
  {
    "service_request": "2026-1299013",
    "request_type": "Roads and Streets",
    "request_reason": "Street Subsidence (Sinking)",
    "date_created": "2026-07-11T20:05:54.000",
    "date_modified": "2026-07-11T20:05:57.000",
    "request_status": "Pending",
    "responsible_agency": "Sewerage & Water Board",
    "final_address": "132 Fairway Dr",
    "address_councildis": "A",
    "status": "Pending",
    "rowid": "1299013",
    "final_x": "3664073.89741",
    "final_y": "540610.675723",
    "longitude": "-90.12279266640125",
    "latitude": "29.98100963560136",
    "geocoded_column": {
      "latitude": "29.98100963560136",
      "longitude": "-90.12279266640125"
    }
  },
  {
    "service_request": "2026-1299012",
    "request_type": "Drainage",
    "request_reason": "Catch Basin Not Draining",
    "date_created": "2026-07-11T19:51:49.000",
    "date_modified": "2026-07-11T19:51:51.000",
    "request_status": "Pending",
    "responsible_agency": "Sewerage & Water Board",
    "final_address": "8000 BLK Belfast St",
    "address_councildis": "A",
    "status": "Pending",
    "rowid": "1299012",
    "final_x": "3665799.66804",
    "final_y": "532170.706772",
    "longitude": "-90.11762471546284",
    "latitude": "29.95775227468728",
    "geocoded_column": {
      "latitude": "29.95775227468728",
      "longitude": "-90.11762471546284"
    }
  },
  {
    "service_request": "2026-1299011",
    "request_type": "Property Maintenance",
    "request_reason": "Property Maintenance",
    "date_created": "2026-07-11T19:45:35.000",
    "date_modified": "2026-07-11T19:45:36.000",
    "request_status": "Pending",
    "responsible_agency": "Department of Code Enforcement",
    "final_address": "3324 Octavia St",
    "address_councildis": "B",
    "status": "Pending",
    "rowid": "1299011",
    "final_x": "3668388.43604",
    "final_y": "527935.548095",
    "longitude": "-90.10959293312362",
    "latitude": "29.94603119606775",
    "geocoded_column": {
      "latitude": "29.94603119606775",
      "longitude": "-90.10959293312362"
    }
  },
  {
    "service_request": "2026-1299010",
    "request_type": "Drainage",
    "request_reason": "Drainage Manhole Cover Missing or Damaged",
    "date_created": "2026-07-11T19:44:49.000",
    "date_modified": "2026-07-11T19:44:52.000",
    "request_status": "Pending",
    "responsible_agency": "Sewerage & Water Board",
    "final_address": "WASHINGTON AVE & S RENDON ST",
    "address_councildis": "B",
    "status": "Pending",
    "rowid": "1299010",
    "final_x": "3670307.4",
    "final_y": "531738.68",
    "longitude": "-90.10340520464617",
    "latitude": "29.956432068666338",
    "geocoded_column": {
      "latitude": "29.956432068666338",
      "longitude": "-90.10340520464617"
    }
  },
  {
    "service_request": "2026-1299009",
    "request_type": "Mosquito, Termite & Rodent Control",
    "request_reason": "Rodent Complaint (Mice & Rats)",
    "date_created": "2026-07-11T19:39:28.000",
    "date_modified": "2026-07-11T19:39:29.000",
    "request_status": "Pending",
    "responsible_agency": "Mosquito, Termite & Rodent Control Board",
    "final_address": "429 Decatur St",
    "address_councildis": "C",
    "status": "Pending",
    "rowid": "1299009",
    "final_x": "3682615.06274",
    "final_y": "531349.875714",
    "longitude": "-90.06455530685383",
    "latitude": "29.95499399576132",
    "geocoded_column": {
      "latitude": "29.95499399576132",
      "longitude": "-90.06455530685383"
    }
  },
  {
    "service_request": "2026-1299007",
    "request_type": "Abandoned Vehicles",
    "request_reason": "Abandoned/Junk Vehicles",
    "date_created": "2026-07-11T19:39:25.000",
    "date_modified": "2026-07-11T19:39:27.000",
    "request_status": "Pending",
    "responsible_agency": "Department of Public Works",
    "final_address": "1308 Philip St",
    "address_councildis": "B",
    "status": "Pending",
    "rowid": "1299007",
    "final_x": "3677996.31086",
    "final_y": "522493.31033",
    "longitude": "-90.07944562194822",
    "latitude": "29.930781194162794",
    "geocoded_column": {
      "latitude": "29.930781194162794",
      "longitude": "-90.07944562194822"
    }
  },
  {
    "service_request": "2026-1299006",
    "request_type": "Trash/Recycling",
    "request_reason": "Missed Trash Pick-Up",
    "date_created": "2026-07-11T19:29:16.000",
    "date_modified": "2026-07-11T19:29:18.000",
    "request_status": "Pending",
    "responsible_agency": "Department of Sanitation",
    "final_address": "4736 Coronado Dr",
    "address_councildis": "E",
    "status": "Assigned to Contractor",
    "contractor": "Waste Pro",
    "rowid": "1299006",
    "final_x": "3714055.75154",
    "final_y": "556492.634586",
    "longitude": "-89.96432998979209",
    "latitude": "30.02313229335515",
    "geocoded_column": {
      "latitude": "30.02313229335515",
      "longitude": "-89.96432998979209"
    }
  },
  {
    "service_request": "2026-1299005",
    "request_type": "Trash/Recycling",
    "request_reason": "Replace Recycling Cart",
    "date_created": "2026-07-11T19:29:14.000",
    "date_modified": "2026-07-11T19:29:16.000",
    "request_status": "Pending",
    "responsible_agency": "Department of Sanitation",
    "final_address": "2422 Nashville Ave",
    "address_councildis": "A",
    "status": "Pending",
    "rowid": "1299005",
    "final_x": "3667035.22938",
    "final_y": "525038.460989",
    "longitude": "-90.1139628236199",
    "latitude": "29.938104808763356",
    "geocoded_column": {
      "latitude": "29.938104808763356",
      "longitude": "-90.1139628236199"
    }
  },
  {
    "service_request": "2026-1299004",
    "request_type": "Mosquito, Termite & Rodent Control",
    "request_reason": "Mosquito Complaint",
    "date_created": "2026-07-11T19:23:37.000",
    "date_modified": "2026-07-11T19:23:39.000",
    "request_status": "Pending",
    "responsible_agency": "Mosquito, Termite & Rodent Control Board",
    "final_address": "801 Bourbon St, New Orleans, Louisiana, 70116",
    "address_councildis": "C",
    "status": "Pending",
    "rowid": "1299004",
    "final_x": "3682490.98735",
    "final_y": "533018.672772",
    "longitude": "-90.06488875731978",
    "latitude": "29.959586396383013",
    "geocoded_column": {
      "latitude": "29.959586396383013",
      "longitude": "-90.06488875731978"
    }
  },
  {
    "service_request": "2026-1299003",
    "request_type": "Trash/Recycling",
    "request_reason": "Illegal Dumping",
    "date_created": "2026-07-11T19:21:51.000",
    "date_modified": "2026-07-11T19:21:54.000",
    "request_status": "Pending",
    "responsible_agency": "Department of Code Enforcement",
    "final_address": "801 Bourbon St, New Orleans, Louisiana, 70116",
    "address_councildis": "C",
    "status": "Pending",
    "rowid": "1299003",
    "final_x": "3682490.98735",
    "final_y": "533018.672772",
    "longitude": "-90.06488875731978",
    "latitude": "29.959586396383013",
    "geocoded_column": {
      "latitude": "29.959586396383013",
      "longitude": "-90.06488875731978"
    }
  },
  {
    "service_request": "2026-1299002",
    "request_type": "Trash/Recycling",
    "request_reason": "Request a Large Item Pick Up",
    "date_created": "2026-07-11T18:56:41.000",
    "date_modified": "2026-07-11T18:56:44.000",
    "request_status": "Pending",
    "responsible_agency": "Department of Sanitation",
    "final_address": "3701 Conti St Apt 3323",
    "address_councildis": "B",
    "status": "Assigned to Contractor",
    "contractor": "IV Waste",
    "rowid": "1299002",
    "final_x": "3672968.96558",
    "final_y": "538532.540809",
    "longitude": "-90.0947689566904",
    "latitude": "29.97503408013545",
    "geocoded_column": {
      "latitude": "29.97503408013545",
      "longitude": "-90.0947689566904"
    }
  },
  {
    "service_request": "2026-1299001",
    "request_type": "Abandoned Vehicles",
    "request_reason": "Abandoned/Junk Vehicles",
    "date_created": "2026-07-11T18:48:02.000",
    "date_modified": "2026-07-11T18:48:05.000",
    "request_status": "Pending",
    "responsible_agency": "Department of Public Works",
    "final_address": "1541 Burdette St",
    "address_councildis": "A",
    "status": "Pending",
    "rowid": "1299001",
    "final_x": "3663752.87891",
    "final_y": "528595.690688",
    "longitude": "-90.12420703815935",
    "latitude": "29.947981690054736",
    "geocoded_column": {
      "latitude": "29.947981690054736",
      "longitude": "-90.12420703815935"
    }
  },
  {
    "service_request": "2026-1299000",
    "request_type": "Drainage",
    "request_reason": "Catch Basin Not Draining",
    "date_created": "2026-07-11T18:43:51.000",
    "date_modified": "2026-07-11T18:43:53.000",
    "request_status": "Pending",
    "responsible_agency": "Sewerage & Water Board",
    "final_address": "3412 Cleveland Ave",
    "address_councildis": "B",
    "status": "Pending",
    "rowid": "1299000",
    "final_x": "3672739.93614",
    "final_y": "536515.467783",
    "longitude": "-90.09556110769219",
    "latitude": "29.96949461698868",
    "geocoded_column": {
      "latitude": "29.96949461698868",
      "longitude": "-90.09556110769219"
    }
  },
  {
    "service_request": "2026-1298999",
    "request_type": "Trash/Recycling",
    "request_reason": "Request a Large Item Pick Up",
    "date_created": "2026-07-11T18:16:33.000",
    "date_modified": "2026-07-11T18:16:36.000",
    "request_status": "Pending",
    "responsible_agency": "Department of Sanitation",
    "final_address": "4600 Kendall Dr",
    "address_councildis": "D",
    "status": "Assigned to Contractor",
    "contractor": "IV Waste",
    "rowid": "1298999",
    "final_x": "3690678.45744",
    "final_y": "550418.432468",
    "longitude": "-90.03841377892871",
    "latitude": "30.00717775238279",
    "geocoded_column": {
      "latitude": "30.00717775238279",
      "longitude": "-90.03841377892871"
    }
  },
  {
    "service_request": "2026-1298998",
    "request_type": "General Services",
    "request_reason": "General Service Request",
    "date_created": "2026-07-11T17:56:28.000",
    "date_modified": "2026-07-11T17:56:31.000",
    "request_status": "Pending",
    "responsible_agency": "Orleans Parish Communication District",
    "final_address": "2230 St Claude Ave",
    "address_councildis": "C",
    "status": "Pending",
    "rowid": "1298998",
    "final_x": "3685340.98946",
    "final_y": "536296.943367",
    "longitude": "-90.05577370472797",
    "latitude": "29.96851344937551",
    "geocoded_column": {
      "latitude": "29.96851344937551",
      "longitude": "-90.05577370472797"
    }
  },
  {
    "service_request": "2026-1298997",
    "request_type": "General Services",
    "request_reason": "General Service Request",
    "date_created": "2026-07-11T17:54:28.000",
    "date_modified": "2026-07-11T17:54:32.000",
    "request_status": "Pending",
    "responsible_agency": "Orleans Parish Communication District",
    "final_address": "2230 St Claude Ave",
    "address_councildis": "C",
    "status": "Pending",
    "rowid": "1298997",
    "final_x": "3685340.98946",
    "final_y": "536296.943367",
    "longitude": "-90.05577370472797",
    "latitude": "29.96851344937551",
    "geocoded_column": {
      "latitude": "29.96851344937551",
      "longitude": "-90.05577370472797"
    }
  },
  {
    "service_request": "2026-1298996",
    "request_type": "Drainage",
    "request_reason": "Catch Basin Not Draining",
    "date_created": "2026-07-11T17:53:05.000",
    "date_modified": "2026-07-11T17:53:07.000",
    "request_status": "Pending",
    "responsible_agency": "Sewerage & Water Board",
    "final_address": "2331 S Carrollton Ave",
    "address_councildis": "A",
    "status": "Pending",
    "rowid": "1298996",
    "final_x": "3664907.98612",
    "final_y": "531355.822146",
    "longitude": "-90.12046763841364",
    "latitude": "29.955537590722443",
    "geocoded_column": {
      "latitude": "29.955537590722443",
      "longitude": "-90.12046763841364"
    }
  },
  {
    "service_request": "2026-1298995",
    "request_type": "Drainage",
    "request_reason": "Catch Basin Not Draining",
    "date_created": "2026-07-11T17:50:24.000",
    "date_modified": "2026-07-11T17:50:26.000",
    "request_status": "Pending",
    "responsible_agency": "Sewerage & Water Board",
    "final_address": "8023 S Claiborne Ave",
    "address_councildis": "A",
    "status": "Pending",
    "rowid": "1298995",
    "final_x": "3665167.31668",
    "final_y": "531372.720898",
    "longitude": "-90.11964819693193",
    "latitude": "29.95557650640491",
    "geocoded_column": {
      "latitude": "29.95557650640491",
      "longitude": "-90.11964819693193"
    }
  },
  {
    "service_request": "2026-1298994",
    "request_type": "Trash/Recycling",
    "request_reason": "Return Trash Cart",
    "date_created": "2026-07-11T17:50:00.000",
    "date_modified": "2026-07-11T17:50:02.000",
    "request_status": "Pending",
    "responsible_agency": "Department of Sanitation",
    "final_address": "2066 Pleasure St",
    "address_councildis": "D",
    "status": "Assigned to Contractor",
    "contractor": "IV Waste",
    "rowid": "1298994",
    "final_x": "3683474.30191",
    "final_y": "545016.836943",
    "longitude": "-90.06136310169714",
    "latitude": "29.992547195039222",
    "geocoded_column": {
      "latitude": "29.992547195039222",
      "longitude": "-90.06136310169714"
    }
  },
  {
    "service_request": "2026-1298993",
    "request_type": "Trash/Recycling",
    "request_reason": "Repair Trash Cart",
    "date_created": "2026-07-11T17:49:07.000",
    "date_modified": "2026-07-11T17:49:09.000",
    "request_status": "Pending",
    "responsible_agency": "Department of Sanitation",
    "final_address": "1612 St Roch Ave",
    "address_councildis": "D",
    "status": "Assigned to Contractor",
    "contractor": "IV Waste",
    "rowid": "1298993",
    "final_x": "3686246.88578",
    "final_y": "538388.129289",
    "longitude": "-90.05283904186567",
    "latitude": "29.974235676756845",
    "geocoded_column": {
      "latitude": "29.974235676756845",
      "longitude": "-90.05283904186567"
    }
  },
  {
    "service_request": "2026-1298992",
    "request_type": "Trash/Recycling",
    "request_reason": "Replace Trash Cart",
    "date_created": "2026-07-11T17:34:11.000",
    "date_modified": "2026-07-11T17:34:12.000",
    "request_status": "Pending",
    "responsible_agency": "Department of Sanitation",
    "final_address": "1323 N Rendon St",
    "address_councildis": "A",
    "status": "Assigned to Contractor",
    "contractor": "IV Waste",
    "rowid": "1298992",
    "final_x": "3676098.91899",
    "final_y": "540158.578379",
    "longitude": "-90.08482779057957",
    "latitude": "29.979411726957505",
    "geocoded_column": {
      "latitude": "29.979411726957505",
      "longitude": "-90.08482779057957"
    }
  },
  {
    "service_request": "2026-1298991",
    "request_type": "Property Maintenance",
    "request_reason": "Property Maintenance",
    "date_created": "2026-07-11T17:33:03.000",
    "date_modified": "2026-07-11T17:33:05.000",
    "request_status": "Pending",
    "responsible_agency": "Department of Code Enforcement",
    "final_address": "7311 Canal Blvd",
    "address_councildis": "D",
    "status": "Pending",
    "rowid": "1298991",
    "final_x": "3669395.32129",
    "final_y": "555639.225049",
    "longitude": "-90.10547653551451",
    "latitude": "30.02217726500917",
    "geocoded_column": {
      "latitude": "30.02217726500917",
      "longitude": "-90.10547653551451"
    }
  },
  {
    "service_request": "2026-1298990",
    "request_type": "Health Related Request",
    "request_reason": "Noise Ordinance Complaint",
    "date_created": "2026-07-11T17:25:31.000",
    "date_modified": "2026-07-11T17:25:33.000",
    "request_status": "Pending",
    "responsible_agency": "Health Department",
    "final_address": "5132 Arts St, New Orleans, Louisiana, 70122",
    "address_councildis": "D",
    "status": "Pending",
    "rowid": "1298990",
    "final_x": "3685730.8726",
    "final_y": "551839.691158",
    "longitude": "-90.05399440116331",
    "latitude": "30.011238508147045",
    "geocoded_column": {
      "latitude": "30.011238508147045",
      "longitude": "-90.05399440116331"
    }
  },
  {
    "service_request": "2026-1298989",
    "request_type": "Trash/Recycling",
    "request_reason": "Request a Large Item Pick Up",
    "date_created": "2026-07-11T17:21:53.000",
    "date_modified": "2026-07-11T17:21:55.000",
    "request_status": "Pending",
    "responsible_agency": "Department of Sanitation",
    "final_address": "1912 Elysian Fields Ave",
    "address_councildis": "D",
    "status": "Assigned to Contractor",
    "contractor": "IV Waste",
    "rowid": "1298989",
    "final_x": "3684656.40156",
    "final_y": "539351.185034",
    "longitude": "-90.05782829582164",
    "latitude": "29.97693251958694",
    "geocoded_column": {
      "latitude": "29.97693251958694",
      "longitude": "-90.05782829582164"
    }
  },
  {
    "service_request": "2026-1298988",
    "request_type": "Property Maintenance",
    "request_reason": "Property Maintenance",
    "date_created": "2026-07-11T17:16:57.000",
    "date_modified": "2026-07-11T17:16:59.000",
    "request_status": "Pending",
    "responsible_agency": "Department of Code Enforcement",
    "final_address": "752 Jewel St",
    "address_councildis": "D",
    "status": "Pending",
    "rowid": "1298988",
    "final_x": "3669813.77274",
    "final_y": "555799.422361",
    "longitude": "-90.10414889930509",
    "latitude": "30.02260541433247",
    "geocoded_column": {
      "latitude": "30.02260541433247",
      "longitude": "-90.10414889930509"
    }
  },
  {
    "service_request": "2026-1298987",
    "request_type": "Trash/Recycling",
    "request_reason": "Missed Trash Pick-Up",
    "date_created": "2026-07-11T17:16:46.000",
    "date_modified": "2026-07-11T17:16:48.000",
    "request_status": "Pending",
    "responsible_agency": "Department of Sanitation",
    "final_address": "2226 Lapeyrouse St, New Orleans, Louisiana, 70119",
    "address_councildis": "D",
    "status": "Assigned to Contractor",
    "contractor": "IV Waste",
    "rowid": "1298987",
    "final_x": "3680279.48904",
    "final_y": "539189.06785",
    "longitude": "-90.07165761219999",
    "latitude": "29.976619996389967",
    "geocoded_column": {
      "latitude": "29.976619996389967",
      "longitude": "-90.07165761219999"
    }
  },
  {
    "service_request": "2026-1298986",
    "request_type": "Property Maintenance",
    "request_reason": "Property Maintenance",
    "date_created": "2026-07-11T17:11:55.000",
    "date_modified": "2026-07-11T17:11:57.000",
    "request_status": "Pending",
    "responsible_agency": "Department of Code Enforcement",
    "final_address": "538 Topaz St",
    "address_councildis": "D",
    "status": "Pending",
    "rowid": "1298986",
    "final_x": "3668658.29031",
    "final_y": "556467.854042",
    "longitude": "-90.10777737322118",
    "latitude": "30.024477395049047",
    "geocoded_column": {
      "latitude": "30.024477395049047",
      "longitude": "-90.10777737322118"
    }
  },
  {
    "service_request": "2026-1298985",
    "request_type": "Drainage",
    "request_reason": "Catch Basin Not Draining",
    "date_created": "2026-07-11T17:09:49.000",
    "date_modified": "2026-07-11T17:09:53.000",
    "request_status": "Pending",
    "responsible_agency": "Sewerage & Water Board",
    "final_address": "2473 Jay St",
    "address_councildis": "D",
    "status": "Pending",
    "rowid": "1298985",
    "final_x": "3685266.25986",
    "final_y": "557528.277595",
    "longitude": "-90.05526183224387",
    "latitude": "30.026894280973874",
    "geocoded_column": {
      "latitude": "30.026894280973874",
      "longitude": "-90.05526183224387"
    }
  },
  {
    "service_request": "2026-1298984",
    "request_type": "Property Maintenance",
    "request_reason": "Property Maintenance",
    "date_created": "2026-07-11T17:04:04.000",
    "date_modified": "2026-07-11T17:04:06.000",
    "request_status": "Pending",
    "responsible_agency": "Department of Code Enforcement",
    "final_address": "438 Topaz St",
    "address_councildis": "D",
    "status": "Pending",
    "rowid": "1298984",
    "final_x": "3668027.38932",
    "final_y": "556392.994458",
    "longitude": "-90.10977344189449",
    "latitude": "30.02429009712686",
    "geocoded_column": {
      "latitude": "30.02429009712686",
      "longitude": "-90.10977344189449"
    }
  },
  {
    "service_request": "2026-1298983",
    "request_type": "Trash/Recycling",
    "request_reason": "Replace Trash Cart",
    "date_created": "2026-07-11T17:01:33.000",
    "date_modified": "2026-07-11T17:01:35.000",
    "request_status": "Pending",
    "responsible_agency": "Department of Sanitation",
    "final_address": "6979 Memphis St",
    "address_councildis": "A",
    "status": "Assigned to Contractor",
    "contractor": "IV Waste",
    "rowid": "1298983",
    "final_x": "3669884.38529",
    "final_y": "553869.260567",
    "longitude": "-90.10399121273396",
    "latitude": "30.017296073420546",
    "geocoded_column": {
      "latitude": "30.017296073420546",
      "longitude": "-90.10399121273396"
    }
  },
  {
    "service_request": "2026-1298982",
    "request_type": "Tree Service",
    "request_reason": "Dead or Dying Tree",
    "date_created": "2026-07-11T16:56:35.000",
    "date_modified": "2026-07-11T16:56:36.000",
    "request_status": "Pending",
    "responsible_agency": "Department of Parks & Parkways",
    "final_address": "7282 Canal Blvd",
    "address_councildis": "D",
    "status": "Pending",
    "rowid": "1298982",
    "final_x": "3669066.0827",
    "final_y": "555371.162521",
    "longitude": "-90.1065259193312",
    "latitude": "30.021449885254594",
    "geocoded_column": {
      "latitude": "30.021449885254594",
      "longitude": "-90.1065259193312"
    }
  },
  {
    "service_request": "2026-1298981",
    "request_type": "Drainage",
    "request_reason": "Catch Basin Not Draining",
    "date_created": "2026-07-11T16:56:15.000",
    "date_modified": "2026-07-11T16:56:17.000",
    "request_status": "Pending",
    "responsible_agency": "Sewerage & Water Board",
    "final_address": "6136 Marshal Foch St",
    "address_councildis": "A",
    "status": "Pending",
    "rowid": "1298981",
    "final_x": "3669846.69178",
    "final_y": "548195.571538",
    "longitude": "-90.10430259026877",
    "latitude": "30.001696534195297",
    "geocoded_column": {
      "latitude": "30.001696534195297",
      "longitude": "-90.10430259026877"
    }
  },
  {
    "service_request": "2026-1298980",
    "request_type": "Drainage",
    "request_reason": "Catch Basin Not Draining",
    "date_created": "2026-07-11T16:50:50.000",
    "date_modified": "2026-07-11T16:50:52.000",
    "request_status": "Pending",
    "responsible_agency": "Sewerage & Water Board",
    "final_address": "3900 General Ogden St",
    "address_councildis": "A",
    "status": "Pending",
    "rowid": "1298980",
    "final_x": "3666328.58369",
    "final_y": "537425.64596",
    "longitude": "-90.1157782247145",
    "latitude": "29.972186180961945",
    "geocoded_column": {
      "latitude": "29.972186180961945",
      "longitude": "-90.1157782247145"
    }
  },
  {
    "service_request": "2026-1298979",
    "request_type": "Health Related Request",
    "request_reason": "Noise Ordinance Complaint",
    "date_created": "2026-07-11T16:49:51.000",
    "date_modified": "2026-07-11T16:49:52.000",
    "request_status": "Pending",
    "responsible_agency": "Health Department",
    "final_address": "5132 Arts St, New Orleans, Louisiana, 70122",
    "address_councildis": "D",
    "status": "Pending",
    "rowid": "1298979",
    "final_x": "3685730.8726",
    "final_y": "551839.691158",
    "longitude": "-90.05399440116331",
    "latitude": "30.011238508147045",
    "geocoded_column": {
      "latitude": "30.011238508147045",
      "longitude": "-90.05399440116331"
    }
  },
  {
    "service_request": "2026-1298977",
    "request_type": "Trash/Recycling",
    "request_reason": "Request a Large Item Pick Up",
    "date_created": "2026-07-11T16:46:40.000",
    "date_modified": "2026-07-11T16:46:43.000",
    "request_status": "Pending",
    "responsible_agency": "Department of Sanitation",
    "final_address": "1000 BLK S Norman C Francis Pkwy",
    "address_councildis": "B",
    "status": "Assigned to Contractor",
    "contractor": "IV Waste",
    "rowid": "1298977",
    "final_x": "3670684.19403",
    "final_y": "533121.743584",
    "longitude": "-90.10216848591742",
    "latitude": "29.960223909132548",
    "geocoded_column": {
      "latitude": "29.960223909132548",
      "longitude": "-90.10216848591742"
    }
  },
  {
    "service_request": "2026-1298978",
    "request_type": "Trash/Recycling",
    "request_reason": "Request a Large Item Pick Up",
    "date_created": "2026-07-11T16:46:40.000",
    "date_modified": "2026-07-11T16:46:43.000",
    "request_status": "Pending",
    "responsible_agency": "Department of Sanitation",
    "final_address": "1000 BLK S Norman C Francis Pkwy",
    "address_councildis": "B",
    "status": "Assigned to Contractor",
    "contractor": "IV Waste",
    "rowid": "1298978",
    "final_x": "3670684.19403",
    "final_y": "533121.743584",
    "longitude": "-90.10216848591742",
    "latitude": "29.960223909132548",
    "geocoded_column": {
      "latitude": "29.960223909132548",
      "longitude": "-90.10216848591742"
    }
  },
  {
    "service_request": "2026-1298976",
    "request_type": "Drainage",
    "request_reason": "Catch Basin Not Draining",
    "date_created": "2026-07-11T16:44:35.000",
    "date_modified": "2026-07-11T16:44:37.000",
    "request_status": "Pending",
    "responsible_agency": "Sewerage & Water Board",
    "final_address": "3900 General Ogden St",
    "address_councildis": "A",
    "status": "Pending",
    "rowid": "1298976",
    "final_x": "3666328.58369",
    "final_y": "537425.64596",
    "longitude": "-90.1157782247145",
    "latitude": "29.972186180961945",
    "geocoded_column": {
      "latitude": "29.972186180961945",
      "longitude": "-90.1157782247145"
    }
  },
  {
    "service_request": "2026-1298975",
    "request_type": "Property Maintenance",
    "request_reason": "Property Maintenance",
    "date_created": "2026-07-11T16:41:15.000",
    "date_modified": "2026-07-11T16:41:17.000",
    "request_status": "Pending",
    "responsible_agency": "Department of Code Enforcement",
    "final_address": "811 Jewel St",
    "address_councildis": "D",
    "status": "Pending",
    "rowid": "1298975",
    "final_x": "3670495.59553",
    "final_y": "556050.141209",
    "longitude": "-90.10198598074199",
    "latitude": "30.02327467255748",
    "geocoded_column": {
      "latitude": "30.02327467255748",
      "longitude": "-90.10198598074199"
    }
  },
  {
    "service_request": "2026-1298974",
    "request_type": "Streetlights",
    "request_reason": "Streetlight Outage/Malfunction",
    "date_created": "2026-07-11T16:34:29.000",
    "date_modified": "2026-07-11T16:34:32.000",
    "request_status": "Pending",
    "responsible_agency": "Department of Public Works",
    "final_address": "7263 Canal Blvd",
    "address_councildis": "D",
    "status": "Pending",
    "rowid": "1298974",
    "final_x": "3669371.82766",
    "final_y": "555282.053849",
    "longitude": "-90.10556286244523",
    "latitude": "30.021195863670865",
    "geocoded_column": {
      "latitude": "30.021195863670865",
      "longitude": "-90.10556286244523"
    }
  },
  {
    "service_request": "2026-1298973",
    "request_type": "Drainage",
    "request_reason": "Catch Basin Not Draining",
    "date_created": "2026-07-11T16:06:31.000",
    "date_modified": "2026-07-11T16:06:34.000",
    "request_status": "Pending",
    "responsible_agency": "Sewerage & Water Board",
    "final_address": "1028 S Carrollton Ave",
    "address_councildis": "A",
    "status": "Pending",
    "rowid": "1298973",
    "final_x": "3661629.3776",
    "final_y": "528031.567423",
    "longitude": "-90.13093051159083",
    "latitude": "29.946491974796704",
    "geocoded_column": {
      "latitude": "29.946491974796704",
      "longitude": "-90.13093051159083"
    }
  },
  {
    "service_request": "2026-1298972",
    "request_type": "Streetlights",
    "request_reason": "Streetlight Outage/Malfunction",
    "date_created": "2026-07-11T15:47:56.000",
    "date_modified": "2026-07-11T15:47:58.000",
    "request_status": "Pending",
    "responsible_agency": "Department of Public Works",
    "final_address": "3903 Dumaine St",
    "address_councildis": "A",
    "status": "Pending",
    "rowid": "1298972",
    "final_x": "3673567.23348",
    "final_y": "540315.015179",
    "longitude": "-90.09281852244517",
    "latitude": "29.97991748152376",
    "geocoded_column": {
      "latitude": "29.97991748152376",
      "longitude": "-90.09281852244517"
    }
  },
  {
    "service_request": "2026-1298971",
    "request_type": "Streetlights",
    "request_reason": "Streetlight Outage/Malfunction",
    "date_created": "2026-07-11T15:46:18.000",
    "date_modified": "2026-07-11T15:46:22.000",
    "request_status": "Pending",
    "responsible_agency": "Department of Public Works",
    "final_address": "3903 Dumaine St",
    "address_councildis": "A",
    "status": "Pending",
    "rowid": "1298971",
    "final_x": "3673567.23348",
    "final_y": "540315.015179",
    "longitude": "-90.09281852244517",
    "latitude": "29.97991748152376",
    "geocoded_column": {
      "latitude": "29.97991748152376",
      "longitude": "-90.09281852244517"
    }
  },
  {
    "service_request": "2026-1298970",
    "request_type": "Trash/Recycling",
    "request_reason": "Dead Animal Pick Up",
    "date_created": "2026-07-11T15:33:53.000",
    "date_modified": "2026-07-11T15:33:55.000",
    "request_status": "Pending",
    "responsible_agency": "Department of Sanitation",
    "final_address": "1685 Soniat St",
    "address_councildis": "B",
    "status": "Assigned to Contractor",
    "contractor": "IV Waste",
    "rowid": "1298970",
    "final_x": "3668488.57127",
    "final_y": "521697.291449",
    "longitude": "-90.10948714302637",
    "latitude": "29.928875055597917",
    "geocoded_column": {
      "latitude": "29.928875055597917",
      "longitude": "-90.10948714302637"
    }
  },
  {
    "service_request": "2026-1298969",
    "request_type": "Trash/Recycling",
    "request_reason": "Request a Large Item Pick Up",
    "date_created": "2026-07-11T15:26:50.000",
    "date_modified": "2026-07-11T15:26:54.000",
    "request_status": "Pending",
    "responsible_agency": "Department of Sanitation",
    "final_address": "8631 Zimple St",
    "address_councildis": "A",
    "status": "Assigned to Contractor",
    "contractor": "IV Waste",
    "rowid": "1298969",
    "final_x": "3660248.09139",
    "final_y": "529509.878529",
    "longitude": "-90.13524294295644",
    "latitude": "29.950596641958587",
    "geocoded_column": {
      "latitude": "29.950596641958587",
      "longitude": "-90.13524294295644"
    }
  },
  {
    "service_request": "2026-1298968",
    "request_type": "Trash/Recycling",
    "request_reason": "Order Recycling Cart",
    "date_created": "2026-07-11T15:18:58.000",
    "date_modified": "2026-07-11T15:19:01.000",
    "request_status": "Pending",
    "responsible_agency": "Department of Sanitation",
    "final_address": "4633 Crowder Blvd",
    "address_councildis": "E",
    "status": "Pending",
    "rowid": "1298968",
    "final_x": "3706568.50999",
    "final_y": "554985.19964",
    "longitude": "-89.9880437566826",
    "latitude": "30.019231272966504",
    "geocoded_column": {
      "latitude": "30.019231272966504",
      "longitude": "-89.9880437566826"
    }
  },
  {
    "service_request": "2026-1298967",
    "request_type": "General Services",
    "request_reason": "General Service Request",
    "date_created": "2026-07-11T15:15:33.000",
    "date_modified": "2026-07-11T15:15:35.000",
    "request_status": "Pending",
    "responsible_agency": "Orleans Parish Communication District",
    "final_address": "1724 Dante St",
    "address_councildis": "A",
    "status": "Pending",
    "rowid": "1298967",
    "final_x": "3662724.05427",
    "final_y": "530350.556802",
    "longitude": "-90.12739715289393",
    "latitude": "29.95283681876463",
    "geocoded_column": {
      "latitude": "29.95283681876463",
      "longitude": "-90.12739715289393"
    }
  },
  {
    "service_request": "2026-1298966",
    "request_type": "Trash/Recycling",
    "request_reason": "Order Trash Cart",
    "date_created": "2026-07-11T15:11:35.000",
    "date_modified": "2026-07-11T15:11:37.000",
    "request_status": "Pending",
    "responsible_agency": "Department of Sanitation",
    "final_address": "8727 Stroelitz St",
    "address_councildis": "A",
    "status": "Assigned to Contractor",
    "contractor": "IV Waste",
    "rowid": "1298966",
    "final_x": "3666232.85261",
    "final_y": "536588.645959",
    "longitude": "-90.11610864142135",
    "latitude": "29.96988750602688",
    "geocoded_column": {
      "latitude": "29.96988750602688",
      "longitude": "-90.11610864142135"
    }
  },
  {
    "service_request": "2026-1298965",
    "request_type": "Drainage",
    "request_reason": "Catch Basin Not Draining",
    "date_created": "2026-07-11T15:10:40.000",
    "date_modified": "2026-07-11T15:10:44.000",
    "request_status": "Pending",
    "responsible_agency": "Sewerage & Water Board",
    "final_address": "504 S Alexander St",
    "address_councildis": "A",
    "status": "Pending",
    "rowid": "1298965",
    "final_x": "3669008.93767",
    "final_y": "537821.549065",
    "longitude": "-90.10729981214295",
    "latitude": "29.97319619614067",
    "geocoded_column": {
      "latitude": "29.97319619614067",
      "longitude": "-90.10729981214295"
    }
  },
  {
    "service_request": "2026-1298964",
    "request_type": "Trash/Recycling",
    "request_reason": "Illegal Dumping",
    "date_created": "2026-07-11T15:06:58.000",
    "date_modified": "2026-07-11T15:06:59.000",
    "request_status": "Pending",
    "responsible_agency": "Department of Sanitation",
    "final_address": "1509 Louisa St",
    "address_councildis": "D",
    "status": "Pending",
    "rowid": "1298964",
    "final_x": "3689987.21104",
    "final_y": "537433.138824",
    "longitude": "-90.0410602775181",
    "latitude": "29.97149432803074",
    "geocoded_column": {
      "latitude": "29.97149432803074",
      "longitude": "-90.0410602775181"
    }
  },
  {
    "service_request": "2026-1298963",
    "request_type": "Trash/Recycling",
    "request_reason": "Missed Trash Pick-Up",
    "date_created": "2026-07-11T15:05:47.000",
    "date_modified": "2026-07-11T15:05:49.000",
    "request_status": "Pending",
    "responsible_agency": "Department of Sanitation",
    "final_address": "1334 Harrison Ave, New Orleans, Louisiana, 70122",
    "address_councildis": "D",
    "status": "Assigned to Contractor",
    "contractor": "IV Waste",
    "rowid": "1298963",
    "final_x": "3677564.20699",
    "final_y": "547528.803474",
    "longitude": "-90.07994519781218",
    "latitude": "29.999633289637494",
    "geocoded_column": {
      "latitude": "29.999633289637494",
      "longitude": "-90.07994519781218"
    }
  },
  {
    "service_request": "2026-1298962",
    "request_type": "Trash/Recycling",
    "request_reason": "Replace Trash Cart",
    "date_created": "2026-07-11T14:45:54.000",
    "date_modified": "2026-07-11T14:45:56.000",
    "request_status": "Pending",
    "responsible_agency": "Department of Sanitation",
    "final_address": "3 Flowerdale Ct",
    "address_councildis": "A",
    "status": "Assigned to Contractor",
    "contractor": "IV Waste",
    "rowid": "1298962",
    "final_x": "3673558.76417",
    "final_y": "541219.868812",
    "longitude": "-90.09281433160923",
    "latitude": "29.982405771115737",
    "geocoded_column": {
      "latitude": "29.982405771115737",
      "longitude": "-90.09281433160923"
    }
  },
  {
    "service_request": "2026-1298961",
    "request_type": "Drainage",
    "request_reason": "Catch Basin Not Draining",
    "date_created": "2026-07-11T14:40:23.000",
    "date_modified": "2026-07-11T14:40:25.000",
    "request_status": "Pending",
    "responsible_agency": "Sewerage & Water Board",
    "final_address": "4741 Bienville Ave",
    "address_councildis": "A",
    "status": "Pending",
    "rowid": "1298961",
    "final_x": "3669404.45722",
    "final_y": "540682.960459",
    "longitude": "-90.10595387869155",
    "latitude": "29.981052468981787",
    "geocoded_column": {
      "latitude": "29.981052468981787",
      "longitude": "-90.10595387869155"
    }
  },
  {
    "service_request": "2026-1298960",
    "request_type": "Drainage",
    "request_reason": "Catch Basin Not Draining",
    "date_created": "2026-07-11T14:38:49.000",
    "date_modified": "2026-07-11T14:38:51.000",
    "request_status": "Pending",
    "responsible_agency": "Sewerage & Water Board",
    "final_address": "4741 Bienville Ave",
    "address_councildis": "A",
    "status": "Pending",
    "rowid": "1298960",
    "final_x": "3669404.45722",
    "final_y": "540682.960459",
    "longitude": "-90.10595387869155",
    "latitude": "29.981052468981787",
    "geocoded_column": {
      "latitude": "29.981052468981787",
      "longitude": "-90.10595387869155"
    }
  },
  {
    "service_request": "2026-1298959",
    "request_type": "Drainage",
    "request_reason": "Catch Basin Not Draining",
    "date_created": "2026-07-11T14:35:16.000",
    "date_modified": "2026-07-11T14:35:19.000",
    "request_status": "Pending",
    "responsible_agency": "Sewerage & Water Board",
    "final_address": "6153 West End Blvd",
    "address_councildis": "A",
    "status": "Pending",
    "rowid": "1298959",
    "final_x": "3666584.02573",
    "final_y": "548780.770067",
    "longitude": "-90.11459006202028",
    "latitude": "30.003401449358083",
    "geocoded_column": {
      "latitude": "30.003401449358083",
      "longitude": "-90.11459006202028"
    }
  },
  {
    "service_request": "2026-1298958",
    "request_type": "Drainage",
    "request_reason": "Catch Basin Frame and Cover Missing or Damaged",
    "date_created": "2026-07-11T14:28:02.000",
    "date_modified": "2026-07-11T14:28:06.000",
    "request_status": "Pending",
    "responsible_agency": "Sewerage & Water Board",
    "final_address": "1838 Dante St",
    "address_councildis": "A",
    "status": "Pending",
    "rowid": "1298958",
    "final_x": "3663026.21248",
    "final_y": "530679.124482",
    "longitude": "-90.12643213933542",
    "latitude": "29.95373152615957",
    "geocoded_column": {
      "latitude": "29.95373152615957",
      "longitude": "-90.12643213933542"
    }
  },
  {
    "service_request": "2026-1298957",
    "request_type": "Drainage",
    "request_reason": "Catch Basin Not Draining",
    "date_created": "2026-07-11T14:18:50.000",
    "date_modified": "2026-07-11T14:18:53.000",
    "request_status": "Pending",
    "responsible_agency": "Sewerage & Water Board",
    "final_address": "1712 Delachaise St",
    "address_councildis": "B",
    "status": "Pending",
    "rowid": "1298957",
    "final_x": "3673576.71188",
    "final_y": "521896.38617",
    "longitude": "-90.09341808361474",
    "latitude": "29.92927208939794",
    "geocoded_column": {
      "latitude": "29.92927208939794",
      "longitude": "-90.09341808361474"
    }
  },
  {
    "service_request": "2026-1298956",
    "request_type": "Drainage",
    "request_reason": "Catch Basin Not Draining",
    "date_created": "2026-07-11T14:11:55.000",
    "date_modified": "2026-07-11T14:11:57.000",
    "request_status": "Pending",
    "responsible_agency": "Sewerage & Water Board",
    "final_address": "3305 Camp St",
    "address_councildis": "B",
    "status": "Pending",
    "rowid": "1298956",
    "final_x": "3675166.31861",
    "final_y": "520138.678008",
    "longitude": "-90.08846027367184",
    "latitude": "29.924391566738844",
    "geocoded_column": {
      "latitude": "29.924391566738844",
      "longitude": "-90.08846027367184"
    }
  },
  {
    "service_request": "2026-1298955",
    "request_type": "Drainage",
    "request_reason": "Catch Basin Not Draining",
    "date_created": "2026-07-11T14:09:02.000",
    "date_modified": "2026-07-11T14:09:04.000",
    "request_status": "Pending",
    "responsible_agency": "Sewerage & Water Board",
    "final_address": "7000 BLK Dominican St",
    "address_councildis": "A",
    "status": "Pending",
    "rowid": "1298955",
    "final_x": "3662980.68253",
    "final_y": "523930.053962",
    "longitude": "-90.12680030043586",
    "latitude": "29.93517505899153",
    "geocoded_column": {
      "latitude": "29.93517505899153",
      "longitude": "-90.12680030043586"
    }
  },
  {
    "service_request": "2026-1298954",
    "request_type": "Trash/Recycling",
    "request_reason": "Request a Large Item Pick Up",
    "date_created": "2026-07-11T14:08:50.000",
    "date_modified": "2026-07-11T14:08:52.000",
    "request_status": "Pending",
    "responsible_agency": "Department of Sanitation",
    "final_address": "6020 General Diaz St",
    "address_councildis": "A",
    "status": "Assigned to Contractor",
    "contractor": "IV Waste",
    "rowid": "1298954",
    "final_x": "3669431.96206",
    "final_y": "547372.880017",
    "longitude": "-90.10564061401703",
    "latitude": "29.9994466432071",
    "geocoded_column": {
      "latitude": "29.9994466432071",
      "longitude": "-90.10564061401703"
    }
  },
  {
    "service_request": "2026-1298953",
    "request_type": "Drainage",
    "request_reason": "Catch Basin Frame and Cover Missing or Damaged",
    "date_created": "2026-07-11T14:08:07.000",
    "date_modified": "2026-07-11T14:08:09.000",
    "request_status": "Pending",
    "responsible_agency": "Sewerage & Water Board",
    "final_address": "4300 S Carrollton Ave",
    "address_councildis": "A",
    "status": "Pending",
    "rowid": "1298953",
    "final_x": "3669876.34311",
    "final_y": "536840.007368",
    "longitude": "-90.104593606373",
    "latitude": "29.970471737717265",
    "geocoded_column": {
      "latitude": "29.970471737717265",
      "longitude": "-90.104593606373"
    }
  },
  {
    "service_request": "2026-1298952",
    "request_type": "Drainage",
    "request_reason": "Catch Basin Not Draining",
    "date_created": "2026-07-11T14:06:08.000",
    "date_modified": "2026-07-11T14:06:11.000",
    "request_status": "Pending",
    "responsible_agency": "Sewerage & Water Board",
    "final_address": "5864 Memphis St",
    "address_councildis": "A",
    "status": "Pending",
    "rowid": "1298952",
    "final_x": "3669021.96782",
    "final_y": "546413.203473",
    "longitude": "-90.10696824957411",
    "latitude": "29.996819936999078",
    "geocoded_column": {
      "latitude": "29.996819936999078",
      "longitude": "-90.10696824957411"
    }
  },
  {
    "service_request": "2026-1298951",
    "request_type": "Healthy Homes",
    "request_reason": "Healthy Homes",
    "date_created": "2026-07-11T13:54:42.000",
    "date_modified": "2026-07-11T13:54:44.000",
    "request_status": "Pending",
    "responsible_agency": "Department of Code Enforcement",
    "final_address": "1925 Burdette St",
    "address_councildis": "A",
    "status": "Pending",
    "rowid": "1298951",
    "final_x": "3664608.24135",
    "final_y": "529546.036609",
    "longitude": "-90.12147456812008",
    "latitude": "29.950569988123323",
    "geocoded_column": {
      "latitude": "29.950569988123323",
      "longitude": "-90.12147456812008"
    }
  },
  {
    "service_request": "2026-1298950",
    "request_type": "Drainage",
    "request_reason": "Catch Basin Not Draining",
    "date_created": "2026-07-11T13:51:20.000",
    "date_modified": "2026-07-11T13:51:22.000",
    "request_status": "Pending",
    "responsible_agency": "Sewerage & Water Board",
    "final_address": "2502 Annette St",
    "address_councildis": "D",
    "status": "Pending",
    "rowid": "1298950",
    "final_x": "3682682.04008",
    "final_y": "541351.975052",
    "longitude": "-90.06399394918265",
    "latitude": "29.982494276309637",
    "geocoded_column": {
      "latitude": "29.982494276309637",
      "longitude": "-90.06399394918265"
    }
  },
  {
    "service_request": "2026-1298949",
    "request_type": "Drainage",
    "request_reason": "Catch Basin Not Draining",
    "date_created": "2026-07-11T13:41:49.000",
    "date_modified": "2026-07-11T13:41:58.000",
    "request_status": "Pending",
    "responsible_agency": "Sewerage & Water Board",
    "final_address": "3917 Laurel St",
    "address_councildis": "B",
    "status": "Pending",
    "rowid": "1298949",
    "final_x": "3673118.24692",
    "final_y": "518282.25695",
    "longitude": "-90.0949886751293",
    "latitude": "29.919348026086276",
    "geocoded_column": {
      "latitude": "29.919348026086276",
      "longitude": "-90.0949886751293"
    }
  },
  {
    "service_request": "2026-1298948",
    "request_type": "Trash/Recycling",
    "request_reason": "Request a Large Item Pick Up",
    "date_created": "2026-07-11T13:31:53.000",
    "date_modified": "2026-07-11T13:31:57.000",
    "request_status": "Pending",
    "responsible_agency": "Department of Sanitation",
    "final_address": "1217 Magazine St",
    "address_councildis": "B",
    "status": "Assigned to Contractor",
    "contractor": "IV Waste",
    "rowid": "1298948",
    "final_x": "3680554.02888",
    "final_y": "525478.476605",
    "longitude": "-90.07126747628374",
    "latitude": "29.938912206366634",
    "geocoded_column": {
      "latitude": "29.938912206366634",
      "longitude": "-90.07126747628374"
    }
  },
  {
    "service_request": "2026-1298947",
    "request_type": "Utility Poles",
    "request_reason": "Wires Sagging/Hanging Low",
    "date_created": "2026-07-11T13:28:10.000",
    "date_modified": "2026-07-11T13:28:13.000",
    "request_status": "Pending",
    "responsible_agency": "Utility Company Collective",
    "final_address": "239 Morgan St",
    "address_councildis": "C",
    "status": "Pending",
    "rowid": "1298947",
    "final_x": "3686044.57161",
    "final_y": "531030.22861",
    "longitude": "-90.05373750126022",
    "latitude": "29.95401021275132",
    "geocoded_column": {
      "latitude": "29.95401021275132",
      "longitude": "-90.05373750126022"
    }
  },
  {
    "service_request": "2026-1298946",
    "request_type": "Trash/Recycling",
    "request_reason": "Missed Trash Pick-Up",
    "date_created": "2026-07-11T13:21:34.000",
    "date_modified": "2026-07-11T13:21:37.000",
    "request_status": "Pending",
    "responsible_agency": "Department of Sanitation",
    "final_address": "1835 Andry St",
    "address_councildis": "E",
    "status": "Assigned to Contractor",
    "contractor": "Waste Pro",
    "rowid": "1298946",
    "final_x": "3698008.60535",
    "final_y": "536847.305736",
    "longitude": "-90.01574896339582",
    "latitude": "29.969632312269646",
    "geocoded_column": {
      "latitude": "29.969632312269646",
      "longitude": "-90.01574896339582"
    }
  },
  {
    "service_request": "2026-1298945",
    "request_type": "Trash/Recycling",
    "request_reason": "Illegal Dumping",
    "date_created": "2026-07-11T13:10:44.000",
    "date_modified": "2026-07-11T13:10:46.000",
    "request_status": "Pending",
    "responsible_agency": "Department of Sanitation",
    "final_address": "3600 Third St",
    "address_councildis": "B",
    "status": "Pending",
    "rowid": "1298945",
    "final_x": "3672500.62548",
    "final_y": "528758.935936",
    "longitude": "-90.09658126510085",
    "latitude": "29.948173842836123",
    "geocoded_column": {
      "latitude": "29.948173842836123",
      "longitude": "-90.09658126510085"
    }
  },
  {
    "service_request": "2026-1298944",
    "request_type": "Trash/Recycling",
    "request_reason": "Order Trash Cart",
    "date_created": "2026-07-11T13:04:51.000",
    "date_modified": "2026-07-11T13:04:54.000",
    "request_status": "Pending",
    "responsible_agency": "Department of Sanitation",
    "final_address": "59 Neron Pl",
    "address_councildis": "A",
    "status": "Assigned to Contractor",
    "contractor": "IV Waste",
    "rowid": "1298944",
    "final_x": "3665759.71092",
    "final_y": "530201.500353",
    "longitude": "-90.11781685209988",
    "latitude": "29.9523387646118",
    "geocoded_column": {
      "latitude": "29.9523387646118",
      "longitude": "-90.11781685209988"
    }
  },
  {
    "service_request": "2026-1298943",
    "request_type": "Trash/Recycling",
    "request_reason": "Request a Large Item Pick Up",
    "date_created": "2026-07-11T12:59:50.000",
    "date_modified": "2026-07-11T12:59:54.000",
    "request_status": "Pending",
    "responsible_agency": "Department of Sanitation",
    "final_address": "1721 New Orleans St",
    "address_councildis": "C",
    "status": "Assigned to Contractor",
    "contractor": "IV Waste",
    "rowid": "1298943",
    "final_x": "3682254.60482",
    "final_y": "538499.000969",
    "longitude": "-90.06544370899036",
    "latitude": "29.974662605460978",
    "geocoded_column": {
      "latitude": "29.974662605460978",
      "longitude": "-90.06544370899036"
    }
  },
  {
    "service_request": "2026-1298942",
    "request_type": "Abandoned Vehicles",
    "request_reason": "Abandoned/Junk Vehicles",
    "date_created": "2026-07-11T12:48:25.000",
    "date_modified": "2026-07-11T12:48:27.000",
    "request_status": "Pending",
    "responsible_agency": "Department of Public Works",
    "final_address": "1110 Treme St",
    "address_councildis": "C",
    "status": "Pending",
    "rowid": "1298942",
    "final_x": "3681809.40284",
    "final_y": "535043.188038",
    "longitude": "-90.06697038849592",
    "latitude": "29.96517384993224",
    "geocoded_column": {
      "latitude": "29.96517384993224",
      "longitude": "-90.06697038849592"
    }
  },
  {
    "service_request": "2026-1298941",
    "request_type": "Abandoned Vehicles",
    "request_reason": "Abandoned/Junk Vehicles",
    "date_created": "2026-07-11T12:46:03.000",
    "date_modified": "2026-07-11T12:46:05.000",
    "request_status": "Pending",
    "responsible_agency": "Department of Public Works",
    "final_address": "1110 Treme St",
    "address_councildis": "C",
    "status": "Pending",
    "rowid": "1298941",
    "final_x": "3681809.40284",
    "final_y": "535043.188038",
    "longitude": "-90.06697038849592",
    "latitude": "29.96517384993224",
    "geocoded_column": {
      "latitude": "29.96517384993224",
      "longitude": "-90.06697038849592"
    }
  },
  {
    "service_request": "2026-1298940",
    "request_type": "Abandoned Vehicles",
    "request_reason": "Abandoned/Junk Vehicles",
    "date_created": "2026-07-11T12:42:56.000",
    "date_modified": "2026-07-11T12:42:57.000",
    "request_status": "Pending",
    "responsible_agency": "Department of Public Works",
    "final_address": "1100 BLK Henriette Delille St",
    "address_councildis": "C",
    "status": "Pending",
    "rowid": "1298940",
    "final_x": "3682069.99081",
    "final_y": "534929.676647",
    "longitude": "-90.06615143066266",
    "latitude": "29.964853811054493",
    "geocoded_column": {
      "latitude": "29.964853811054493",
      "longitude": "-90.06615143066266"
    }
  },
  {
    "service_request": "2026-1298939",
    "request_type": "Roads and Streets",
    "request_reason": "Pothole",
    "date_created": "2026-07-11T12:39:53.000",
    "date_modified": "2026-07-11T12:39:55.000",
    "request_status": "Pending",
    "responsible_agency": "Department of Public Works",
    "final_address": "100 BLK City Park Ave",
    "address_councildis": "A",
    "status": "Pending",
    "rowid": "1298939",
    "final_x": "3667460.85828",
    "final_y": "540848.234692",
    "longitude": "-90.11208709421294",
    "latitude": "29.98156401942775",
    "geocoded_column": {
      "latitude": "29.98156401942775",
      "longitude": "-90.11208709421294"
    }
  },
  {
    "service_request": "2026-1298938",
    "request_type": "General Services",
    "request_reason": "General Service Request",
    "date_created": "2026-07-11T12:38:06.000",
    "date_modified": "2026-07-11T12:38:10.000",
    "request_status": "Pending",
    "responsible_agency": "Orleans Parish Communication District",
    "final_address": "1016 Henriette Delille St",
    "address_councildis": "C",
    "status": "Pending",
    "rowid": "1298938",
    "final_x": "3681863.05064",
    "final_y": "534571.535877",
    "longitude": "-90.06681743491802",
    "latitude": "29.963875337810986",
    "geocoded_column": {
      "latitude": "29.963875337810986",
      "longitude": "-90.06681743491802"
    }
  },
  {
    "service_request": "2026-1298937",
    "request_type": "Trash/Recycling",
    "request_reason": "Request a Large Item Pick Up",
    "date_created": "2026-07-11T12:20:02.000",
    "date_modified": "2026-07-11T12:20:05.000",
    "request_status": "Pending",
    "responsible_agency": "Department of Sanitation",
    "final_address": "5222 Lakeview Ct",
    "address_councildis": "E",
    "status": "Assigned to Contractor",
    "contractor": "Waste Pro",
    "rowid": "1298937",
    "final_x": "3698975.10711",
    "final_y": "556696.252122",
    "longitude": "-90.01197381988146",
    "latitude": "30.024178962250556",
    "geocoded_column": {
      "latitude": "30.024178962250556",
      "longitude": "-90.01197381988146"
    }
  },
  {
    "service_request": "2026-1298936",
    "request_type": "Drainage",
    "request_reason": "Catch Basin Not Draining",
    "date_created": "2026-07-11T12:04:35.000",
    "date_modified": "2026-07-11T12:04:37.000",
    "request_status": "Pending",
    "responsible_agency": "Sewerage & Water Board",
    "final_address": "21 Petit Bayou Ln",
    "address_councildis": "E",
    "status": "Pending",
    "rowid": "1298936",
    "final_x": "3724916.94502",
    "final_y": "564160.515809",
    "longitude": "-89.92971470100946",
    "latitude": "30.043854546814966",
    "geocoded_column": {
      "latitude": "30.043854546814966",
      "longitude": "-89.92971470100946"
    }
  },
  {
    "service_request": "2026-1298935",
    "request_type": "Trash/Recycling",
    "request_reason": "Request a Large Item Pick Up",
    "date_created": "2026-07-11T11:50:01.000",
    "date_modified": "2026-07-11T11:50:05.000",
    "request_status": "Pending",
    "responsible_agency": "Department of Sanitation",
    "final_address": "22 Plover St",
    "address_councildis": "D",
    "status": "Assigned to Contractor",
    "contractor": "IV Waste",
    "rowid": "1298935",
    "final_x": "3674052.59873",
    "final_y": "556775.812314",
    "longitude": "-90.09072172832568",
    "latitude": "30.02516442308123",
    "geocoded_column": {
      "latitude": "30.02516442308123",
      "longitude": "-90.09072172832568"
    }
  },
  {
    "service_request": "2026-1298934",
    "request_type": "Street and Traffic Signs",
    "request_reason": "Stop Sign Missing or Damaged",
    "date_created": "2026-07-11T11:15:41.000",
    "date_modified": "2026-07-11T11:15:44.000",
    "request_status": "Pending",
    "responsible_agency": "Department of Public Works",
    "final_address": "3200 Vincennes Pl",
    "address_councildis": "B",
    "status": "Pending",
    "rowid": "1298934",
    "final_x": "3667728.96474",
    "final_y": "527918.137279",
    "longitude": "-90.111675701761",
    "latitude": "29.946002671563548",
    "geocoded_column": {
      "latitude": "29.946002671563548",
      "longitude": "-90.111675701761"
    }
  },
  {
    "service_request": "2026-1298933",
    "request_type": "Trash/Recycling",
    "request_reason": "Damaged Caused By Contractor",
    "date_created": "2026-07-11T11:10:06.000",
    "date_modified": "2026-07-11T11:10:09.000",
    "request_status": "Pending",
    "responsible_agency": "Department of Sanitation",
    "final_address": "4844 Rosemont Pl",
    "address_councildis": "E",
    "status": "Assigned to Contractor",
    "contractor": "Waste Pro",
    "rowid": "1298933",
    "final_x": "3702607.60727",
    "final_y": "555477.712921",
    "longitude": "-90.00054066207103",
    "latitude": "30.020712768180754",
    "geocoded_column": {
      "latitude": "30.020712768180754",
      "longitude": "-90.00054066207103"
    }
  },
  {
    "service_request": "2026-1298932",
    "request_type": "Trash/Recycling",
    "request_reason": "Order Recycling Cart",
    "date_created": "2026-07-11T11:02:36.000",
    "date_modified": "2026-07-11T11:02:38.000",
    "request_status": "Pending",
    "responsible_agency": "Department of Sanitation",
    "final_address": "618 Cherokee St",
    "address_councildis": "A",
    "status": "Pending",
    "rowid": "1298932",
    "final_x": "3662235.856",
    "final_y": "525570.743101",
    "longitude": "-90.12909729109715",
    "latitude": "29.939707978807796",
    "geocoded_column": {
      "latitude": "29.939707978807796",
      "longitude": "-90.12909729109715"
    }
  },
  {
    "service_request": "2026-1298931",
    "request_type": "Trash/Recycling",
    "request_reason": "Request a Large Item Pick Up",
    "date_created": "2026-07-11T10:59:53.000",
    "date_modified": "2026-07-11T10:59:56.000",
    "request_status": "Pending",
    "responsible_agency": "Department of Sanitation",
    "final_address": "1127 Dauphine St",
    "address_councildis": "C",
    "status": "Assigned to Contractor",
    "contractor": "IV Waste",
    "rowid": "1298931",
    "final_x": "3682964.19202",
    "final_y": "534249.366085",
    "longitude": "-90.0633514149992",
    "latitude": "29.962955969211215",
    "geocoded_column": {
      "latitude": "29.962955969211215",
      "longitude": "-90.0633514149992"
    }
  },
  {
    "service_request": "2026-1298930",
    "request_type": "Trash/Recycling",
    "request_reason": "Return Trash Cart",
    "date_created": "2026-07-11T10:52:23.000",
    "date_modified": "2026-07-11T10:52:26.000",
    "request_status": "Pending",
    "responsible_agency": "Department of Sanitation",
    "final_address": "1432 Calhoun St",
    "address_councildis": "A",
    "status": "Assigned to Contractor",
    "contractor": "IV Waste",
    "rowid": "1298930",
    "final_x": "3664294.01568",
    "final_y": "521830.636154",
    "longitude": "-90.12272411822082",
    "latitude": "29.929364233590583",
    "geocoded_column": {
      "latitude": "29.929364233590583",
      "longitude": "-90.12272411822082"
    }
  },
  {
    "service_request": "2026-1298929",
    "request_type": "Trash/Recycling",
    "request_reason": "Replace Recycling Cart",
    "date_created": "2026-07-11T10:48:40.000",
    "date_modified": "2026-07-11T10:48:43.000",
    "request_status": "Pending",
    "responsible_agency": "Department of Sanitation",
    "final_address": "1359 Annette St",
    "address_councildis": "C",
    "status": "Pending",
    "rowid": "1298929",
    "final_x": "3683103.46101",
    "final_y": "537039.526344",
    "longitude": "-90.06281392433549",
    "latitude": "29.970623702809853",
    "geocoded_column": {
      "latitude": "29.970623702809853",
      "longitude": "-90.06281392433549"
    }
  },
  {
    "service_request": "2026-1298928",
    "request_type": "Trash/Recycling",
    "request_reason": "Missed Trash Pick-Up",
    "date_created": "2026-07-11T10:37:12.000",
    "date_modified": "2026-07-11T11:42:43.000",
    "case_close_date": "2026-07-11T06:42:42.000",
    "request_status": "Closed",
    "responsible_agency": "Department of Sanitation",
    "final_address": "1203 Josephine St",
    "address_councildis": "B",
    "status": "Invalid Request",
    "contractor": "IV Waste",
    "contractor_action": "Invalid",
    "rowid": "1298928",
    "final_x": "3678988.68469",
    "final_y": "522682.269114",
    "longitude": "-90.07630629438921",
    "latitude": "29.93127087150285",
    "geocoded_column": {
      "latitude": "29.93127087150285",
      "longitude": "-90.07630629438921"
    }
  },
  {
    "service_request": "2026-1298927",
    "request_type": "Trash/Recycling",
    "request_reason": "Order Recycling Cart",
    "date_created": "2026-07-11T10:20:05.000",
    "date_modified": "2026-07-11T10:20:08.000",
    "request_status": "Pending",
    "responsible_agency": "Department of Sanitation",
    "final_address": "5472 Hawthorne Pl",
    "address_councildis": "A",
    "status": "Pending",
    "rowid": "1298927",
    "final_x": "3667737.46004",
    "final_y": "543607.267086",
    "longitude": "-90.11112050284356",
    "latitude": "29.98914231260786",
    "geocoded_column": {
      "latitude": "29.98914231260786",
      "longitude": "-90.11112050284356"
    }
  },
  {
    "service_request": "2026-1298926",
    "request_type": "Trash/Recycling",
    "request_reason": "Request a Large Item Pick Up",
    "date_created": "2026-07-11T10:09:01.000",
    "date_modified": "2026-07-11T10:09:03.000",
    "request_status": "Pending",
    "responsible_agency": "Department of Sanitation",
    "final_address": "5147 Willowbrook Dr",
    "address_councildis": "E",
    "status": "Assigned to Contractor",
    "contractor": "Waste Pro",
    "rowid": "1298926",
    "final_x": "3727949.70342",
    "final_y": "563793.674785",
    "longitude": "-89.92014430463888",
    "latitude": "30.04274338924129",
    "geocoded_column": {
      "latitude": "30.04274338924129",
      "longitude": "-89.92014430463888"
    }
  },
  {
    "service_request": "2026-1298925",
    "request_type": "Trash/Recycling",
    "request_reason": "Order Trash Cart",
    "date_created": "2026-07-11T10:04:36.000",
    "date_modified": "2026-07-11T10:04:38.000",
    "request_status": "Pending",
    "responsible_agency": "Department of Sanitation",
    "final_address": "5619 Magazine St",
    "address_councildis": "A",
    "status": "Assigned to Contractor",
    "contractor": "IV Waste",
    "rowid": "1298925",
    "final_x": "3665940.0761",
    "final_y": "518954.888631",
    "longitude": "-90.1176241098881",
    "latitude": "29.921408911851852",
    "geocoded_column": {
      "latitude": "29.921408911851852",
      "longitude": "-90.1176241098881"
    }
  },
  {
    "service_request": "2026-1298924",
    "request_type": "Abandoned Vehicles",
    "request_reason": "Abandoned/Junk Vehicles",
    "date_created": "2026-07-11T09:45:46.000",
    "date_modified": "2026-07-11T09:45:50.000",
    "request_status": "Pending",
    "responsible_agency": "Department of Public Works",
    "final_address": "823 Mandeville St",
    "address_councildis": "C",
    "status": "Pending",
    "rowid": "1298924",
    "final_x": "3685876.34089",
    "final_y": "535485.945798",
    "longitude": "-90.05411163362024",
    "latitude": "29.966267064439148",
    "geocoded_column": {
      "latitude": "29.966267064439148",
      "longitude": "-90.05411163362024"
    }
  },
  {
    "service_request": "2026-1298923",
    "request_type": "Abandoned Vehicles",
    "request_reason": "Abandoned/Junk Vehicles",
    "date_created": "2026-07-11T09:35:01.000",
    "date_modified": "2026-07-11T09:35:03.000",
    "request_status": "Pending",
    "responsible_agency": "Department of Public Works",
    "final_address": "1111 Tulane Ave Unit 819",
    "address_councildis": "B",
    "status": "Pending",
    "rowid": "1298923",
    "final_x": "3679589.92879",
    "final_y": "531256.43597",
    "longitude": "-90.07411078382937",
    "latitude": "29.95482882674794",
    "geocoded_column": {
      "latitude": "29.95482882674794",
      "longitude": "-90.07411078382937"
    }
  },
  {
    "service_request": "2026-1298922",
    "request_type": "General Services",
    "request_reason": "General Service Request",
    "date_created": "2026-07-11T09:31:04.000",
    "date_modified": "2026-07-11T09:31:06.000",
    "request_status": "Pending",
    "responsible_agency": "Orleans Parish Communication District",
    "final_address": "2008 Bodenger Blvd",
    "address_councildis": "C",
    "status": "Pending",
    "rowid": "1298922",
    "final_x": "3688496.73609",
    "final_y": "524388.890556",
    "longitude": "-90.0462301453908",
    "latitude": "29.935673272682905",
    "geocoded_column": {
      "latitude": "29.935673272682905",
      "longitude": "-90.0462301453908"
    }
  },
  {
    "service_request": "2026-1298921",
    "request_type": "Drainage",
    "request_reason": "Drainage Manhole Cover Missing or Damaged",
    "date_created": "2026-07-11T09:25:03.000",
    "date_modified": "2026-07-11T09:25:07.000",
    "request_status": "Pending",
    "responsible_agency": "Sewerage & Water Board",
    "final_address": "500 BLK Delery St",
    "address_councildis": "E",
    "status": "Pending",
    "rowid": "1298921",
    "final_x": "3699662.96481",
    "final_y": "531022.370158",
    "longitude": "-90.01073671796864",
    "latitude": "29.953563407858415",
    "geocoded_column": {
      "latitude": "29.953563407858415",
      "longitude": "-90.01073671796864"
    }
  },
  {
    "service_request": "2026-1298920",
    "request_type": "Streetlights",
    "request_reason": "Streetlight Outage/Malfunction",
    "date_created": "2026-07-11T09:05:49.000",
    "date_modified": "2026-07-11T09:05:51.000",
    "request_status": "Pending",
    "responsible_agency": "Department of Public Works",
    "final_address": "719 Jourdan Ave",
    "address_councildis": "E",
    "status": "Pending",
    "rowid": "1298920",
    "final_x": "3694713.78934",
    "final_y": "533179.614852",
    "longitude": "-90.02628635468632",
    "latitude": "29.959651223878378",
    "geocoded_column": {
      "latitude": "29.959651223878378",
      "longitude": "-90.02628635468632"
    }
  },
  {
    "service_request": "2026-1298919",
    "request_type": "Roads and Streets",
    "request_reason": "Pothole",
    "date_created": "2026-07-11T08:44:03.000",
    "date_modified": "2026-07-11T08:44:06.000",
    "request_status": "Pending",
    "responsible_agency": "Department of Public Works",
    "final_address": "702 Mazant St",
    "address_councildis": "C",
    "status": "Pending",
    "rowid": "1298919",
    "final_x": "3691703.06857",
    "final_y": "533796.761541",
    "longitude": "-90.03577141759311",
    "latitude": "29.96144224935131",
    "geocoded_column": {
      "latitude": "29.96144224935131",
      "longitude": "-90.03577141759311"
    }
  },
  {
    "service_request": "2026-1298918",
    "request_type": "Trash/Recycling",
    "request_reason": "Illegal Dumping",
    "date_created": "2026-07-11T08:37:38.000",
    "date_modified": "2026-07-11T08:37:40.000",
    "request_status": "Pending",
    "responsible_agency": "Department of Sanitation",
    "final_address": "1331 Music St",
    "address_councildis": "C",
    "status": "Pending",
    "rowid": "1298918",
    "final_x": "3686824.807",
    "final_y": "537452.491016",
    "longitude": "-90.05104690462304",
    "latitude": "29.97164522843008",
    "geocoded_column": {
      "latitude": "29.97164522843008",
      "longitude": "-90.05104690462304"
    }
  },
  {
    "service_request": "2026-1298917",
    "request_type": "Streetlights",
    "request_reason": "Streetlight Outage/Malfunction",
    "date_created": "2026-07-11T08:36:03.000",
    "date_modified": "2026-07-11T08:36:06.000",
    "request_status": "Pending",
    "responsible_agency": "Department of Public Works",
    "final_address": "3826 Royal St",
    "address_councildis": "C",
    "status": "Pending",
    "rowid": "1298917",
    "final_x": "3691053.83612",
    "final_y": "533865.760197",
    "longitude": "-90.03781911111979",
    "latitude": "29.961652170985754",
    "geocoded_column": {
      "latitude": "29.961652170985754",
      "longitude": "-90.03781911111979"
    }
  },
  {
    "service_request": "2026-1298916",
    "request_type": "Trash/Recycling",
    "request_reason": "Dead Animal Pick Up",
    "date_created": "2026-07-11T08:15:58.000",
    "date_modified": "2026-07-11T08:16:01.000",
    "request_status": "Pending",
    "responsible_agency": "Department of Sanitation",
    "final_address": "11041 Guildford Rd",
    "address_councildis": "E",
    "status": "Assigned to Contractor",
    "contractor": "Waste Pro",
    "rowid": "1298916",
    "final_x": "3711772.85342",
    "final_y": "564321.771681",
    "longitude": "-89.97124930566",
    "latitude": "30.04473410245114",
    "geocoded_column": {
      "latitude": "30.04473410245114",
      "longitude": "-89.97124930566"
    }
  },
  {
    "service_request": "2026-1298915",
    "request_type": "Roads and Streets",
    "request_reason": "Pothole",
    "date_created": "2026-07-11T05:18:38.000",
    "date_modified": "2026-07-11T05:18:41.000",
    "request_status": "Pending",
    "responsible_agency": "Department of Public Works",
    "final_address": "2200 BLK Leon C Simon Dr",
    "address_councildis": "D",
    "status": "Pending",
    "rowid": "1298915",
    "final_x": "3683770.04942",
    "final_y": "556916.986019",
    "longitude": "-90.06001116728014",
    "latitude": "30.025259258438485",
    "geocoded_column": {
      "latitude": "30.025259258438485",
      "longitude": "-90.06001116728014"
    }
  },
  {
    "service_request": "2026-1298914",
    "request_type": "Health Related Request",
    "request_reason": "Noise Ordinance Complaint",
    "date_created": "2026-07-10T23:24:10.000",
    "date_modified": "2026-07-10T23:24:13.000",
    "request_status": "Pending",
    "responsible_agency": "Health Department",
    "final_address": "800 Bourbon St, New Orleans, Louisiana, 70116",
    "address_councildis": "C",
    "status": "Pending",
    "rowid": "1298914",
    "final_x": "3682553.51528",
    "final_y": "533013.631428",
    "longitude": "-90.06469148499534",
    "latitude": "29.95957063099051",
    "geocoded_column": {
      "latitude": "29.95957063099051",
      "longitude": "-90.06469148499534"
    }
  },
  {
    "service_request": "2026-1298913",
    "request_type": "Health Related Request",
    "request_reason": "Noise Ordinance Complaint",
    "date_created": "2026-07-10T22:37:42.000",
    "date_modified": "2026-07-10T22:37:44.000",
    "request_status": "Pending",
    "responsible_agency": "Health Department",
    "final_address": "711 Bourbon St, New Orleans, Louisiana, 70116",
    "address_councildis": "C",
    "status": "Pending",
    "rowid": "1298913",
    "final_x": "3682299.38447",
    "final_y": "532765.705988",
    "longitude": "-90.06550263299877",
    "latitude": "29.95889665479323",
    "geocoded_column": {
      "latitude": "29.95889665479323",
      "longitude": "-90.06550263299877"
    }
  },
  {
    "service_request": "2026-1298912",
    "request_type": "Health Related Request",
    "request_reason": "Noise Ordinance Complaint",
    "date_created": "2026-07-10T22:37:16.000",
    "date_modified": "2026-07-10T22:37:19.000",
    "request_status": "Pending",
    "responsible_agency": "Health Department",
    "final_address": "801 Bourbon St, New Orleans, Louisiana, 70116",
    "address_councildis": "C",
    "status": "Pending",
    "rowid": "1298912",
    "final_x": "3682490.98735",
    "final_y": "533018.672772",
    "longitude": "-90.06488875731978",
    "latitude": "29.959586396383013",
    "geocoded_column": {
      "latitude": "29.959586396383013",
      "longitude": "-90.06488875731978"
    }
  },
  {
    "service_request": "2026-1298911",
    "request_type": "Traffic Signals",
    "request_reason": "Traffic Signal Malfunctioning or Damaged",
    "date_created": "2026-07-10T22:27:39.000",
    "date_modified": "2026-07-10T22:27:42.000",
    "request_status": "Pending",
    "responsible_agency": "Department of Public Works",
    "final_address": "1010 Common St",
    "address_councildis": "B",
    "status": "Pending",
    "rowid": "1298911",
    "final_x": "3679756.67727",
    "final_y": "530907.359362",
    "longitude": "-90.07359637392588",
    "latitude": "29.953863944012166",
    "geocoded_column": {
      "latitude": "29.953863944012166",
      "longitude": "-90.07359637392588"
    }
  },
  {
    "service_request": "2026-1298910",
    "request_type": "Streetlights",
    "request_reason": "Streetlight Outage/Malfunction",
    "date_created": "2026-07-10T22:19:59.000",
    "date_modified": "2026-07-10T22:20:02.000",
    "request_status": "Pending",
    "responsible_agency": "Department of Public Works",
    "final_address": "100 BLK Baronne St",
    "address_councildis": "B",
    "status": "Pending",
    "rowid": "1298910",
    "final_x": "3680400.33733",
    "final_y": "530892.199486",
    "longitude": "-90.07156448832164",
    "latitude": "29.95380278606142",
    "geocoded_column": {
      "latitude": "29.95380278606142",
      "longitude": "-90.07156448832164"
    }
  },
  {
    "service_request": "2026-1298909",
    "request_type": "Streetlights",
    "request_reason": "Streetlight Outage/Malfunction",
    "date_created": "2026-07-10T22:16:07.000",
    "date_modified": "2026-07-10T22:16:09.000",
    "request_status": "Pending",
    "responsible_agency": "Department of Public Works",
    "final_address": "1000 BLK Canal St",
    "address_councildis": "B",
    "status": "Pending",
    "rowid": "1298909",
    "final_x": "3680153.82896",
    "final_y": "531410.267348",
    "longitude": "-90.07232485693862",
    "latitude": "29.95523475940532",
    "geocoded_column": {
      "latitude": "29.95523475940532",
      "longitude": "-90.07232485693862"
    }
  },
  {
    "service_request": "2026-1298908",
    "request_type": "Streetlights",
    "request_reason": "Streetlight Outage/Malfunction",
    "date_created": "2026-07-10T22:13:14.000",
    "date_modified": "2026-07-10T22:13:17.000",
    "request_status": "Pending",
    "responsible_agency": "Department of Public Works",
    "final_address": "1000 BLK Canal St",
    "address_councildis": "B",
    "status": "Pending",
    "rowid": "1298908",
    "final_x": "3680153.82896",
    "final_y": "531410.267348",
    "longitude": "-90.07232485693862",
    "latitude": "29.95523475940532",
    "geocoded_column": {
      "latitude": "29.95523475940532",
      "longitude": "-90.07232485693862"
    }
  },
  {
    "service_request": "2026-1298907",
    "request_type": "Trash/Recycling",
    "request_reason": "Order Recycling Cart",
    "date_created": "2026-07-10T22:11:57.000",
    "date_modified": "2026-07-10T22:11:59.000",
    "request_status": "Pending",
    "responsible_agency": "Department of Sanitation",
    "final_address": "1714 Fourth St",
    "address_councildis": "B",
    "status": "Pending",
    "rowid": "1298907",
    "final_x": "3675876.06005",
    "final_y": "523121.804859",
    "longitude": "-90.0861173635528",
    "latitude": "29.932572976605687",
    "geocoded_column": {
      "latitude": "29.932572976605687",
      "longitude": "-90.0861173635528"
    }
  },
  {
    "service_request": "2026-1298906",
    "request_type": "Streetlights",
    "request_reason": "Streetlight Outage/Malfunction",
    "date_created": "2026-07-10T22:10:59.000",
    "date_modified": "2026-07-10T22:11:01.000",
    "request_status": "Pending",
    "responsible_agency": "Department of Public Works",
    "final_address": "1100 Canal St",
    "address_councildis": "B",
    "status": "Pending",
    "rowid": "1298906",
    "final_x": "3679911.79426",
    "final_y": "531539.116611",
    "longitude": "-90.07308463838378",
    "latitude": "29.95559637318677",
    "geocoded_column": {
      "latitude": "29.95559637318677",
      "longitude": "-90.07308463838378"
    }
  },
  {
    "service_request": "2026-1298905",
    "request_type": "Streetlights",
    "request_reason": "Streetlight Outage/Malfunction",
    "date_created": "2026-07-10T22:07:39.000",
    "date_modified": "2026-07-10T22:07:40.000",
    "request_status": "Pending",
    "responsible_agency": "Department of Public Works",
    "final_address": "1200 Canal St",
    "address_councildis": "B",
    "status": "Pending",
    "rowid": "1298905",
    "final_x": "3679661.38056",
    "final_y": "531734.515203",
    "longitude": "-90.07386857354199",
    "latitude": "29.956141223983263",
    "geocoded_column": {
      "latitude": "29.956141223983263",
      "longitude": "-90.07386857354199"
    }
  },
  {
    "service_request": "2026-1298904",
    "request_type": "Streetlights",
    "request_reason": "Streetlight Outage/Malfunction",
    "date_created": "2026-07-10T22:06:32.000",
    "date_modified": "2026-07-10T22:06:35.000",
    "request_status": "Pending",
    "responsible_agency": "Department of Public Works",
    "final_address": "1200 Canal St",
    "address_councildis": "B",
    "status": "Pending",
    "rowid": "1298904",
    "final_x": "3679661.38056",
    "final_y": "531734.515203",
    "longitude": "-90.07386857354199",
    "latitude": "29.956141223983263",
    "geocoded_column": {
      "latitude": "29.956141223983263",
      "longitude": "-90.07386857354199"
    }
  },
  {
    "service_request": "2026-1298903",
    "request_type": "Streetlights",
    "request_reason": "Streetlight Outage/Malfunction",
    "date_created": "2026-07-10T21:54:58.000",
    "date_modified": "2026-07-10T21:55:01.000",
    "request_status": "Pending",
    "responsible_agency": "Department of Public Works",
    "final_address": "4412 Annette St",
    "address_councildis": "D",
    "status": "Pending",
    "rowid": "1298903",
    "final_x": "3682094.67592",
    "final_y": "548817.533907",
    "longitude": "-90.06558824832715",
    "latitude": "30.003039794962085",
    "geocoded_column": {
      "latitude": "30.003039794962085",
      "longitude": "-90.06558824832715"
    }
  },
  {
    "service_request": "2026-1298902",
    "request_type": "Healthy Homes",
    "request_reason": "Healthy Homes",
    "date_created": "2026-07-10T21:33:45.000",
    "date_modified": "2026-07-10T21:33:47.000",
    "request_status": "Pending",
    "responsible_agency": "Department of Code Enforcement",
    "final_address": "741 Bartholomew St",
    "address_councildis": "C",
    "status": "Pending",
    "rowid": "1298902",
    "final_x": "3691532.78192",
    "final_y": "534114.296389",
    "longitude": "-90.03629780122627",
    "latitude": "29.962320660217106",
    "geocoded_column": {
      "latitude": "29.962320660217106",
      "longitude": "-90.03629780122627"
    }
  },
  {
    "service_request": "2026-1298901",
    "request_type": "Streetlights",
    "request_reason": "Streetlight Outage/Malfunction",
    "date_created": "2026-07-10T21:29:58.000",
    "date_modified": "2026-07-10T21:30:01.000",
    "request_status": "Pending",
    "responsible_agency": "Department of Public Works",
    "final_address": "41 Winners Cir",
    "address_councildis": "E",
    "status": "Pending",
    "rowid": "1298901",
    "final_x": "3715781.78943",
    "final_y": "570200.939879",
    "longitude": "-89.95835638172908",
    "latitude": "30.060767760390632",
    "geocoded_column": {
      "latitude": "30.060767760390632",
      "longitude": "-89.95835638172908"
    }
  },
  {
    "service_request": "2026-1298900",
    "request_type": "Streetlights",
    "request_reason": "New Streetlight Request",
    "date_created": "2026-07-10T21:21:32.000",
    "date_modified": "2026-07-10T21:21:35.000",
    "request_status": "Pending",
    "responsible_agency": "Department of Public Works",
    "final_address": "866 Olga St",
    "address_councildis": "A",
    "status": "Pending",
    "rowid": "1298900",
    "final_x": "3673386.29345",
    "final_y": "540298.584779",
    "longitude": "-90.09339056831399",
    "latitude": "29.97987768860285",
    "geocoded_column": {
      "latitude": "29.97987768860285",
      "longitude": "-90.09339056831399"
    }
  },
  {
    "service_request": "2026-1298899",
    "request_type": "Trash/Recycling",
    "request_reason": "Replace Trash Cart",
    "date_created": "2026-07-10T20:50:18.000",
    "date_modified": "2026-07-10T20:50:22.000",
    "request_status": "Pending",
    "responsible_agency": "Department of Sanitation",
    "final_address": "824 Verret St",
    "address_councildis": "C",
    "status": "Assigned to Contractor",
    "contractor": "Richards Disposal",
    "rowid": "1298899",
    "final_x": "3687191.20636",
    "final_y": "528517.875904",
    "longitude": "-90.05020573890434",
    "latitude": "29.947066843237646",
    "geocoded_column": {
      "latitude": "29.947066843237646",
      "longitude": "-90.05020573890434"
    }
  },