[
  {
    "service_request": "2022-869048",
    "request_type": "Trash/Recycling",
    "request_reason": "Request a Large Item Pick Up",
    "date_created": "2022-03-22T23:42:13.000",
    "date_modified": "2022-03-22T23:42:14.000",
    "request_status": "Pending",
    "responsible_agency": "Department of Sanitation",
    "final_address": "815 Jackson Ave",
    "address_councildis": "B",
    "status": "Assigned to Contractor",
    "contractor": "Richards Disposal",
    "rowid": "869048",
    "final_x": "3679479.26837",
    "final_y": "521347.358969",
    "longitude": "-90.07480386971878",
    "latitude": "29.927585498535155",
    "geocoded_column": {
      "latitude": "29.927585498535155",
      "longitude": "-90.07480386971878"
    }
  },
  {
    "service_request": "2022-869047",
    "request_type": "Property Maintenance",
    "request_reason": "Property Maintenance",
    "date_created": "2022-03-22T23:08:17.000",
    "date_modified": "2022-03-22T23:08:17.000",
    "request_status": "Pending",
    "responsible_agency": "Department of Code Enforcement",
    "final_address": "2115 Independence St",
    "address_councildis": "D",
    "status": "Pending",
    "rowid": "869047",
    "final_x": "3691955.21622",
    "final_y": "539389.82721",
    "longitude": "-90.03477502280037",
    "latitude": "29.976813350524566",
    "geocoded_column": {
      "latitude": "29.976813350524566",
      "longitude": "-90.03477502280037"
    }
  },
  {
    "service_request": "2022-869046",
    "request_type": "Roads/Drainage",
    "request_reason": "Catch Basin - Clogged",
    "date_created": "2022-03-22T22:54:29.000",
    "date_modified": "2022-03-22T22:54:29.000",
    "request_status": "Pending",
    "responsible_agency": "Department of Public Works",
    "final_address": "CANAL ST & CHARTRES ST",
    "address_councildis": "C",
    "status": "Pending",
    "rowid": "869046",
    "final_x": "3681502.4",
    "final_y": "530495.68",
    "longitude": "-90.06809845776112",
    "latitude": "29.95267907670688",
    "geocoded_column": {
      "latitude": "29.95267907670688",
      "longitude": "-90.06809845776112"
    }
  },
  {
    "service_request": "2022-869044",
    "request_type": "Taxi Issues",
    "request_reason": "Taxi Complaint",
    "date_created": "2022-03-22T22:36:07.000",
    "date_modified": "2022-03-22T22:36:07.000",
    "request_status": "Pending",
    "responsible_agency": "Ground Transportation Bureau",
    "final_address": "334 OKeefe Ave",
    "address_councildis": "B",
    "status": "Pending",
    "rowid": "869044",
    "final_x": "3679747.31624",
    "final_y": "530153.936449",
    "longitude": "-90.07365208575929",
    "latitude": "29.95179256758149",
    "geocoded_column": {
      "latitude": "29.95179256758149",
      "longitude": "-90.07365208575929"
    }
  },
  {
    "service_request": "2022-869042",
    "request_type": "Parks & Parkways",
    "request_reason": "Request Tree Service (Right of Way/Public Property)",
    "date_created": "2022-03-22T22:30:44.000",
    "date_modified": "2022-03-22T22:51:56.000",
    "request_status": "Pending",
    "responsible_agency": "Department of Parks & Parkway",
    "final_address": "11210 N Idlewood Ct",
    "address_councildis": "E",
    "status": "Pending",
    "rowid": "869042",
    "final_x": "3716144.48428",
    "final_y": "560169.947165",
    "longitude": "-89.95759062022891",
    "latitude": "30.033174650962454",
    "geocoded_column": {
      "latitude": "30.033174650962454",
      "longitude": "-89.95759062022891"
    }
  },
  {
    "service_request": "2022-869040",
    "request_type": "Trash/Recycling",
    "request_reason": "Request a Large Item Pick Up",
    "date_created": "2022-03-22T21:38:49.000",
    "date_modified": "2022-03-22T21:38:50.000",
    "request_status": "Pending",
    "responsible_agency": "Department of Sanitation",
    "final_address": "3006 Laurel St",
    "address_councildis": "B",
    "status": "Assigned to Contractor",
    "contractor": "Richards Disposal",
    "rowid": "869040",
    "final_x": "3676722.87208",
    "final_y": "519690.958776",
    "longitude": "-90.08356218092703",
    "latitude": "29.92311389256644",
    "geocoded_column": {
      "latitude": "29.92311389256644",
      "longitude": "-90.08356218092703"
    }
  },
  {
    "service_request": "2022-869039",
    "request_type": "Trash/Recycling",
    "request_reason": "Missed Trash Pick-Up",
    "date_created": "2022-03-22T21:37:26.000",
    "date_modified": "2022-03-22T21:37:27.000",
    "request_status": "Pending",
    "responsible_agency": "Department of Sanitation",
    "final_address": "3327 General Taylor St",
    "address_councildis": "B",
    "status": "Assigned to Contractor",
    "contractor": "Richards Disposal",
    "rowid": "869039",
    "final_x": "3671232.2578",
    "final_y": "527219.966783",
    "longitude": "-90.10063830407029",
    "latitude": "29.943979762985556",
    "geocoded_column": {
      "latitude": "29.943979762985556",
      "longitude": "-90.10063830407029"
    }
  },
  {
    "service_request": "2022-869038",
    "request_type": "Property Maintenance",
    "request_reason": "Property Maintenance",
    "date_created": "2022-03-22T21:35:57.000",
    "date_modified": "2022-03-22T21:35:57.000",
    "request_status": "Pending",
    "responsible_agency": "Department of Code Enforcement",
    "final_address": "5171 Feliciana Dr",
    "address_councildis": "D",
    "status": "Pending",
    "rowid": "869038",
    "final_x": "3690106.20176",
    "final_y": "552616.622422",
    "longitude": "-90.0401433091797",
    "latitude": "30.013239734242855",
    "geocoded_column": {
      "latitude": "30.013239734242855",
      "longitude": "-90.0401433091797"
    }
  },
  {
    "service_request": "2022-869037",
    "request_type": "Trash/Recycling",
    "request_reason": "MIssed Recycling Pick-Up",
    "date_created": "2022-03-22T21:08:03.000",
    "date_modified": "2022-03-22T21:08:04.000",
    "request_status": "Pending",
    "responsible_agency": "Department of Sanitation",
    "final_address": "8419 Colapissa St",
    "address_councildis": "A",
    "status": "Assigned to Contractor",
    "contractor": "Richards Disposal",
    "rowid": "869037",
    "final_x": "3665652.57453",
    "final_y": "534257.007301",
    "longitude": "-90.11801932239428",
    "latitude": "29.963493207091478",
    "geocoded_column": {
      "latitude": "29.963493207091478",
      "longitude": "-90.11801932239428"
    }
  },
  {
    "service_request": "2022-869036",
    "request_type": "Property Maintenance",
    "request_reason": "Property Maintenance",
    "date_created": "2022-03-22T21:05:20.000",
    "date_modified": "2022-03-22T21:05:20.000",
    "request_status": "Pending",
    "responsible_agency": "Department of Code Enforcement",
    "final_address": "7210 Chadbourne Dr",
    "address_councildis": "E",
    "status": "Pending",
    "rowid": "869036",
    "final_x": "3700882.43556",
    "final_y": "557373.398107",
    "longitude": "-90.00592226920955",
    "latitude": "30.025980237631984",
    "geocoded_column": {
      "latitude": "30.025980237631984",
      "longitude": "-90.00592226920955"
    }
  },
  {
    "service_request": "2022-869034",
    "request_type": "Property Maintenance",
    "request_reason": "Property Maintenance",
    "date_created": "2022-03-22T20:53:32.000",
    "date_modified": "2022-03-22T20:53:32.000",
    "request_status": "Pending",
    "responsible_agency": "Department of Code Enforcement",
    "final_address": "7700 S Interstate 10 Service Rd",
    "address_councildis": "E",
    "status": "Pending",
    "rowid": "869034",
    "final_x": "3702361.02141",
    "final_y": "557847.845147",
    "longitude": "-90.00123273250617",
    "latitude": "30.027237602870162",
    "geocoded_column": {
      "latitude": "30.027237602870162",
      "longitude": "-90.00123273250617"
    }
  },
  {
    "service_request": "2022-869033",
    "request_type": "Property Maintenance",
    "request_reason": "Property Maintenance",
    "date_created": "2022-03-22T20:50:26.000",
    "date_modified": "2022-03-22T20:50:26.000",
    "request_status": "Pending",
    "responsible_agency": "Department of Code Enforcement",
    "final_address": "6821 Mayo Rd",
    "address_councildis": "E",
    "status": "Pending",
    "rowid": "869033",
    "final_x": "3702089.95274",
    "final_y": "557324.814235",
    "longitude": "-90.00210848062339",
    "latitude": "30.025808131978636",
    "geocoded_column": {
      "latitude": "30.025808131978636",
      "longitude": "-90.00210848062339"
    }
  },
  {
    "service_request": "2022-869032",
    "request_type": "Property Maintenance",
    "request_reason": "Property Maintenance",
    "date_created": "2022-03-22T20:49:22.000",
    "date_modified": "2022-03-22T20:49:22.000",
    "request_status": "Pending",
    "responsible_agency": "Department of Code Enforcement",
    "final_address": "6809 Mayo Rd",
    "address_councildis": "E",
    "status": "Pending",
    "rowid": "869032",
    "final_x": "3702103.69207",
    "final_y": "557272.691611",
    "longitude": "-90.0020669800159",
    "latitude": "30.02566437596254",
    "geocoded_column": {
      "latitude": "30.02566437596254",
      "longitude": "-90.0020669800159"
    }
  },
  {
    "service_request": "2022-869031",
    "request_type": "Property Maintenance",
    "request_reason": "Property Maintenance",
    "date_created": "2022-03-22T20:47:46.000",
    "date_modified": "2022-03-22T20:47:46.000",
    "request_status": "Pending",
    "responsible_agency": "Department of Code Enforcement",
    "final_address": "6805 Mayo Rd",
    "address_councildis": "E",
    "status": "Pending",
    "rowid": "869031",
    "final_x": "3702118.3057",
    "final_y": "557219.767707",
    "longitude": "-90.00202274630222",
    "latitude": "30.025518388787955",
    "geocoded_column": {
      "latitude": "30.025518388787955",
      "longitude": "-90.00202274630222"
    }
  },
  {
    "service_request": "2022-869030",
    "request_type": "Property Maintenance",
    "request_reason": "Property Maintenance",
    "date_created": "2022-03-22T20:45:23.000",
    "date_modified": "2022-03-22T20:45:23.000",
    "request_status": "Pending",
    "responsible_agency": "Department of Code Enforcement",
    "final_address": "6801 Mayo Rd",
    "address_councildis": "E",
    "status": "Pending",
    "rowid": "869030",
    "final_x": "3702182.34026",
    "final_y": "557172.671771",
    "longitude": "-90.00182213699544",
    "latitude": "30.025386847267303",
    "geocoded_column": {
      "latitude": "30.025386847267303",
      "longitude": "-90.00182213699544"
    }
  },
  {
    "service_request": "2022-869029",
    "request_type": "Trash/Recycling",
    "request_reason": "Repair Trash Cart",
    "date_created": "2022-03-22T20:44:03.000",
    "date_modified": "2022-03-22T20:44:05.000",
    "request_status": "Pending",
    "responsible_agency": "Department of Sanitation",
    "final_address": "2219 N Prieur St",
    "address_councildis": "D",
    "status": "Assigned to Contractor",
    "contractor": "Metro Disposal",
    "rowid": "869029",
    "final_x": "3685005.59439",
    "final_y": "539308.730698",
    "longitude": "-90.05672692951735",
    "latitude": "29.976805092301305",
    "geocoded_column": {
      "latitude": "29.976805092301305",
      "longitude": "-90.05672692951735"
    }
  },
  {
    "service_request": "2022-869028",
    "request_type": "Property Maintenance",
    "request_reason": "Property Maintenance",
    "date_created": "2022-03-22T20:43:18.000",
    "date_modified": "2022-03-22T20:43:18.000",
    "request_status": "Pending",
    "responsible_agency": "Department of Code Enforcement",
    "final_address": "6829 Mayo Rd",
    "address_councildis": "E",
    "status": "Pending",
    "rowid": "869028",
    "final_x": "3702077.34282",
    "final_y": "557377.459675",
    "longitude": "-90.0021463933938",
    "latitude": "30.02595328944287",
    "geocoded_column": {
      "latitude": "30.02595328944287",
      "longitude": "-90.0021463933938"
    }
  },
  {
    "service_request": "2022-869027",
    "request_type": "Property Maintenance",
    "request_reason": "Property Maintenance",
    "date_created": "2022-03-22T20:41:54.000",
    "date_modified": "2022-03-22T20:41:54.000",
    "request_status": "Pending",
    "responsible_agency": "Department of Code Enforcement",
    "final_address": "6835 Mayo Rd",
    "address_councildis": "E",
    "status": "Pending",
    "rowid": "869027",
    "final_x": "3702066.79127",
    "final_y": "557432.648219",
    "longitude": "-90.00217770877308",
    "latitude": "30.026105373696595",
    "geocoded_column": {
      "latitude": "30.026105373696595",
      "longitude": "-90.00217770877308"
    }
  },
  {
    "service_request": "2022-869026",
    "request_type": "Property Maintenance",
    "request_reason": "Property Maintenance",
    "date_created": "2022-03-22T20:40:41.000",
    "date_modified": "2022-03-22T20:40:41.000",
    "request_status": "Pending",
    "responsible_agency": "Department of Code Enforcement",
    "final_address": "6841 Mayo Rd",
    "address_councildis": "E",
    "status": "Pending",
    "rowid": "869026",
    "final_x": "3702048.03812",
    "final_y": "557483.763931",
    "longitude": "-90.00223508964288",
    "latitude": "30.02624652119984",
    "geocoded_column": {
      "latitude": "30.02624652119984",
      "longitude": "-90.00223508964288"
    }
  },
  {
    "service_request": "2022-869025",
    "request_type": "Property Maintenance",
    "request_reason": "Property Maintenance",
    "date_created": "2022-03-22T20:39:19.000",
    "date_modified": "2022-03-22T20:39:19.000",
    "request_status": "Pending",
    "responsible_agency": "Department of Code Enforcement",
    "final_address": "6847 Mayo Rd",
    "address_councildis": "E",
    "status": "Pending",
    "rowid": "869025",
    "final_x": "3702035.30455",
    "final_y": "557538.956699",
    "longitude": "-90.0022732999776",
    "latitude": "30.026398686735604",
    "geocoded_column": {
      "latitude": "30.026398686735604",
      "longitude": "-90.0022732999776"
    }
  },
  {
    "service_request": "2022-869024",
    "request_type": "Roads/Drainage",
    "request_reason": "Catch Basin - Clogged",
    "date_created": "2022-03-22T20:37:19.000",
    "date_modified": "2022-03-22T20:37:19.000",
    "request_status": "Pending",
    "responsible_agency": "Department of Public Works",
    "final_address": "2300 Martin Luther King, Jr. Blvd",
    "address_councildis": "B",
    "status": "Pending",
    "rowid": "869024",
    "final_x": "3676893.60219",
    "final_y": "526905.784766",
    "longitude": "-90.08277469333801",
    "latitude": "29.94294718432226",
    "geocoded_column": {
      "latitude": "29.94294718432226",
      "longitude": "-90.08277469333801"
    }
  },
  {
    "service_request": "2022-869022",
    "request_type": "Property Maintenance",
    "request_reason": "Property Maintenance",
    "date_created": "2022-03-22T20:36:53.000",
    "date_modified": "2022-03-22T20:36:53.000",
    "request_status": "Pending",
    "responsible_agency": "Department of Code Enforcement",
    "final_address": "6853 Mayo Rd",
    "address_councildis": "E",
    "status": "Pending",
    "rowid": "869022",
    "final_x": "3702024.46429",
    "final_y": "557589.603739",
    "longitude": "-90.00230569467483",
    "latitude": "30.026538292787134",
    "geocoded_column": {
      "latitude": "30.026538292787134",
      "longitude": "-90.00230569467483"
    }
  },
  {
    "service_request": "2022-869023",
    "request_type": "Property Maintenance",
    "request_reason": "Property Maintenance",
    "date_created": "2022-03-22T20:36:53.000",
    "date_modified": "2022-03-22T20:36:53.000",
    "request_status": "Pending",
    "responsible_agency": "Department of Code Enforcement",
    "final_address": "6853 Mayo Rd",
    "address_councildis": "E",
    "status": "Pending",
    "rowid": "869023",
    "final_x": "3702024.46429",
    "final_y": "557589.603739",
    "longitude": "-90.00230569467483",
    "latitude": "30.026538292787134",
    "geocoded_column": {
      "latitude": "30.026538292787134",
      "longitude": "-90.00230569467483"
    }
  },
  {
    "service_request": "2022-869021",
    "request_type": "Property Maintenance",
    "request_reason": "Property Maintenance",
    "date_created": "2022-03-22T20:35:38.000",
    "date_modified": "2022-03-22T20:35:38.000",
    "request_status": "Pending",
    "responsible_agency": "Department of Code Enforcement",
    "final_address": "6859 Mayo Rd",
    "address_councildis": "E",
    "status": "Pending",
    "rowid": "869021",
    "final_x": "3702014.05009",
    "final_y": "557640.340187",
    "longitude": "-90.00233673988626",
    "latitude": "30.026678131056954",
    "geocoded_column": {
      "latitude": "30.026678131056954",
      "longitude": "-90.00233673988626"
    }
  },
  {
    "service_request": "2022-869020",
    "request_type": "Roads/Drainage",
    "request_reason": "Catch Basin - Clogged",
    "date_created": "2022-03-22T20:34:43.000",
    "date_modified": "2022-03-22T20:34:43.000",
    "request_status": "Pending",
    "responsible_agency": "Department of Public Works",
    "final_address": "1401 Simon Bolivar Ave",
    "address_councildis": "B",
    "status": "Pending",
    "rowid": "869020",
    "final_x": "3677343.08424",
    "final_y": "526954.159358",
    "longitude": "-90.08135389975078",
    "latitude": "29.943066702013905",
    "geocoded_column": {
      "latitude": "29.943066702013905",
      "longitude": "-90.08135389975078"
    }
  },
  {
    "service_request": "2022-869019",
    "request_type": "Property Maintenance",
    "request_reason": "Property Maintenance",
    "date_created": "2022-03-22T20:34:12.000",
    "date_modified": "2022-03-22T20:34:12.000",
    "request_status": "Pending",
    "responsible_agency": "Department of Code Enforcement",
    "final_address": "6865 Mayo Rd",
    "address_councildis": "E",
    "status": "Pending",
    "rowid": "869019",
    "final_x": "3702001.94173",
    "final_y": "557689.060955",
    "longitude": "-90.0023732125034",
    "latitude": "30.026812481083823",
    "geocoded_column": {
      "latitude": "30.026812481083823",
      "longitude": "-90.0023732125034"
    }
  },
  {
    "service_request": "2022-869018",
    "request_type": "Trash/Recycling",
    "request_reason": "Missed Trash Pick-Up",
    "date_created": "2022-03-22T20:34:07.000",
    "date_modified": "2022-03-22T20:34:08.000",
    "request_status": "Pending",
    "responsible_agency": "Department of Sanitation",
    "final_address": "4600 BLK Constance St",
    "address_councildis": "B",
    "status": "Assigned to Contractor",
    "contractor": "Richards Disposal",
    "rowid": "869018",
    "final_x": "3670165.28365",
    "final_y": "518323.058942",
    "longitude": "-90.10430833733331",
    "latitude": "29.91954764044729",
    "geocoded_column": {
      "latitude": "29.91954764044729",
      "longitude": "-90.10430833733331"
    }
  },
  {
    "service_request": "2022-869017",
    "request_type": "Property Maintenance",
    "request_reason": "Property Maintenance",
    "date_created": "2022-03-22T20:32:06.000",
    "date_modified": "2022-03-22T20:32:06.000",
    "request_status": "Pending",
    "responsible_agency": "Department of Code Enforcement",
    "final_address": "6871 Mayo Rd",
    "address_councildis": "E",
    "status": "Pending",
    "rowid": "869017",
    "final_x": "3701992.44413",
    "final_y": "557740.077083",
    "longitude": "-90.00240135128368",
    "latitude": "30.026953059069417",
    "geocoded_column": {
      "latitude": "30.026953059069417",
      "longitude": "-90.00240135128368"
    }
  },
  {
    "service_request": "2022-869016",
    "request_type": "Roads/Drainage",
    "request_reason": "Catch Basin - Clogged",
    "date_created": "2022-03-22T20:31:35.000",
    "date_modified": "2022-03-22T20:31:35.000",
    "request_status": "Pending",
    "responsible_agency": "Department of Public Works",
    "final_address": "1701 Simon Bolivar Ave",
    "address_councildis": "B",
    "status": "Pending",
    "rowid": "869016",
    "final_x": "3676910.22754",
    "final_y": "526217.346942",
    "longitude": "-90.08274592565637",
    "latitude": "29.94105370867618",
    "geocoded_column": {
      "latitude": "29.94105370867618",
      "longitude": "-90.08274592565637"
    }
  },
  {
    "service_request": "2022-869015",
    "request_type": "Property Maintenance",
    "request_reason": "Property Maintenance",
    "date_created": "2022-03-22T20:28:18.000",
    "date_modified": "2022-03-22T20:28:18.000",
    "request_status": "Pending",
    "responsible_agency": "Department of Code Enforcement",
    "final_address": "6877 Mayo Rd",
    "address_councildis": "E",
    "status": "Pending",
    "rowid": "869015",
    "final_x": "3701980.90628",
    "final_y": "557792.707419",
    "longitude": "-90.00243587785255",
    "latitude": "30.02709814065389",
    "geocoded_column": {
      "latitude": "30.02709814065389",
      "longitude": "-90.00243587785255"
    }
  },
  {
    "service_request": "2022-869014",
    "request_type": "Roads/Drainage",
    "request_reason": "Man hole cover issue",
    "date_created": "2022-03-22T20:23:35.000",
    "date_modified": "2022-03-22T20:23:35.000",
    "request_status": "Pending",
    "responsible_agency": "Department of Public Works",
    "final_address": "3338 S Claiborne Ave",
    "address_councildis": "B",
    "status": "Pending",
    "rowid": "869014",
    "final_x": "3672330.40731",
    "final_y": "526024.85363",
    "longitude": "-90.09721184232684",
    "latitude": "29.94066106206253",
    "geocoded_column": {
      "latitude": "29.94066106206253",
      "longitude": "-90.09721184232684"
    }
  },
  {
    "service_request": "2022-869013",
    "request_type": "Trash/Recycling",
    "request_reason": "Missed Trash Pick-Up",
    "date_created": "2022-03-22T20:11:11.000",
    "date_modified": "2022-03-22T20:11:11.000",
    "request_status": "Pending",
    "responsible_agency": "Department of Sanitation",
    "final_address": "4916 Baronne St",
    "address_councildis": "B",
    "status": "Assigned to Contractor",
    "contractor": "Richards Disposal",
    "rowid": "869013",
    "final_x": "3668935.87751",
    "final_y": "521346.846969",
    "longitude": "-90.10808691281377",
    "latitude": "29.92789830058563",
    "geocoded_column": {
      "latitude": "29.92789830058563",
      "longitude": "-90.10808691281377"
    }
  },
  {
    "service_request": "2022-869012",
    "request_type": "Traffic Signals/Signs/Striping/Streetlights",
    "request_reason": "Street Light Outage/Malfunction",
    "date_created": "2022-03-22T19:57:32.000",
    "date_modified": "2022-03-22T19:57:32.000",
    "request_status": "Pending",
    "responsible_agency": "Department of Public Works",
    "final_address": "1005 Robert E Lee Blvd",
    "address_councildis": "D",
    "status": "Pending",
    "contractor": "Royal Engineering",
    "rowid": "869012",
    "final_x": "3672492.989",
    "final_y": "554497.006168",
    "longitude": "-90.09572763814991",
    "latitude": "30.01894493735141",
    "geocoded_column": {
      "latitude": "30.01894493735141",
      "longitude": "-90.09572763814991"
    }
  },
  {
    "service_request": "2022-869011",
    "request_type": "Traffic Signals/Signs/Striping/Streetlights",
    "request_reason": "Street Light Outage/Malfunction",
    "date_created": "2022-03-22T19:53:20.000",
    "date_modified": "2022-03-22T20:15:32.000",
    "request_status": "Pending",
    "responsible_agency": "Department of Public Works",
    "final_address": "5220 Conti Street",
    "address_councildis": "A",
    "status": "Pending",
    "contractor": "Royal Engineering",
    "rowid": "869011",
    "final_x": "3668451.66836",
    "final_y": "541755.865356",
    "longitude": "-90.1089270124331",
    "latitude": "29.984030622030264",
    "geocoded_column": {
      "latitude": "29.984030622030264",
      "longitude": "-90.1089270124331"
    }
  },
  {
    "service_request": "2022-869010",
    "request_type": "Roads/Drainage",
    "request_reason": "Catch Basin - Clogged",
    "date_created": "2022-03-22T19:35:45.000",
    "date_modified": "2022-03-22T19:35:45.000",
    "request_status": "Pending",
    "responsible_agency": "Department of Public Works",
    "final_address": "2357 N Claiborne Ave",
    "address_councildis": "D",
    "status": "Pending",
    "rowid": "869010",
    "final_x": "3686126.31196",
    "final_y": "538281.088265",
    "longitude": "-90.05322361801507",
    "latitude": "29.9739450558492",
    "geocoded_column": {
      "latitude": "29.9739450558492",
      "longitude": "-90.05322361801507"
    }
  },
  {
    "service_request": "2022-869009",
    "request_type": "Roads/Drainage",
    "request_reason": "Catch Basin - Broken/Damage",
    "date_created": "2022-03-22T19:32:16.000",
    "date_modified": "2022-03-22T19:32:16.000",
    "request_status": "Pending",
    "responsible_agency": "Department of Public Works",
    "final_address": "1538 St Roch Ave",
    "address_councildis": "C",
    "status": "Pending",
    "rowid": "869009",
    "final_x": "3686222.97852",
    "final_y": "538180.161993",
    "longitude": "-90.05292188586378",
    "latitude": "29.973664574134258",
    "geocoded_column": {
      "latitude": "29.973664574134258",
      "longitude": "-90.05292188586378"
    }
  },
  {
    "service_request": "2022-869008",
    "request_type": "Mosquito, Termite & Rodent Control",
    "request_reason": "Non-Rodent Complaint (Mice, Possums, Snakes)",
    "date_created": "2022-03-22T19:30:18.000",
    "date_modified": "2022-03-22T19:30:18.000",
    "request_status": "Pending",
    "responsible_agency": "Mosquito, Termite & Rodent Control Board",
    "final_address": "837 Washington Ave",
    "address_councildis": "B",
    "status": "Pending",
    "rowid": "869008",
    "final_x": "3677531.77646",
    "final_y": "520175.600504",
    "longitude": "-90.08099205923831",
    "latitude": "29.92442221582028",
    "geocoded_column": {
      "latitude": "29.92442221582028",
      "longitude": "-90.08099205923831"
    }
  },
  {
    "service_request": "2022-869007",
    "request_type": "Roads/Drainage",
    "request_reason": "Catch Basin - Clogged",
    "date_created": "2022-03-22T19:29:09.000",
    "date_modified": "2022-03-22T19:29:09.000",
    "request_status": "Pending",
    "responsible_agency": "Department of Public Works",
    "final_address": "833 Washington Ave",
    "address_councildis": "B",
    "status": "Pending",
    "rowid": "869007",
    "final_x": "3677546.21051",
    "final_y": "520156.09804",
    "longitude": "-90.0809471687402",
    "latitude": "29.924368156582094",
    "geocoded_column": {
      "latitude": "29.924368156582094",
      "longitude": "-90.0809471687402"
    }
  },
  {
    "service_request": "2022-869006",
    "request_type": "Roads/Drainage",
    "request_reason": "Catch Basin - Clogged",
    "date_created": "2022-03-22T19:27:56.000",
    "date_modified": "2022-03-22T19:27:56.000",
    "request_status": "Pending",
    "responsible_agency": "Department of Public Works",
    "final_address": "841 Washington Ave",
    "address_councildis": "B",
    "status": "Pending",
    "rowid": "869006",
    "final_x": "3677516.89499",
    "final_y": "520201.584312",
    "longitude": "-90.08103813853621",
    "latitude": "29.92449411008254",
    "geocoded_column": {
      "latitude": "29.92449411008254",
      "longitude": "-90.08103813853621"
    }
  },
  {
    "service_request": "2022-869005",
    "request_type": "Roads/Drainage",
    "request_reason": "Catch Basin - Clogged",
    "date_created": "2022-03-22T19:25:45.000",
    "date_modified": "2022-03-22T19:25:45.000",
    "request_status": "Pending",
    "responsible_agency": "Department of Public Works",
    "final_address": "837 Washington Ave",
    "address_councildis": "B",
    "status": "Pending",
    "rowid": "869005",
    "final_x": "3677531.77646",
    "final_y": "520175.600504",
    "longitude": "-90.08099205923831",
    "latitude": "29.92442221582028",
    "geocoded_column": {
      "latitude": "29.92442221582028",
      "longitude": "-90.08099205923831"
    }
  },
  {
    "service_request": "2022-869003",
    "request_type": "Trash/Recycling",
    "request_reason": "MIssed Recycling Pick-Up",
    "date_created": "2022-03-22T19:25:08.000",
    "date_modified": "2022-03-22T19:25:09.000",
    "request_status": "Pending",
    "responsible_agency": "Department of Sanitation",
    "final_address": "4172 Bienville Ave",
    "address_councildis": "A",
    "status": "Assigned to Contractor",
    "contractor": "Richards Disposal",
    "rowid": "869003",
    "final_x": "3671053.19118",
    "final_y": "539243.17185",
    "longitude": "-90.10079534001426",
    "latitude": "29.97704487584635",
    "geocoded_column": {
      "latitude": "29.97704487584635",
      "longitude": "-90.10079534001426"
    }
  },
  {
    "service_request": "2022-869002",
    "request_type": "Trash/Recycling",
    "request_reason": "Missed Trash Pick-Up",
    "date_created": "2022-03-22T19:02:28.000",
    "date_modified": "2022-03-22T19:02:29.000",
    "request_status": "Pending",
    "responsible_agency": "Department of Sanitation",
    "final_address": "4911 Laurel St",
    "address_councildis": "B",
    "status": "Assigned to Contractor",
    "contractor": "Richards Disposal",
    "rowid": "869002",
    "final_x": "3668859.88481",
    "final_y": "517875.42303",
    "longitude": "-90.1084439496831",
    "latitude": "29.91835521835189",
    "geocoded_column": {
      "latitude": "29.91835521835189",
      "longitude": "-90.1084439496831"
    }
  },
  {
    "service_request": "2022-869001",
    "request_type": "Abandoned Vehicles",
    "request_reason": "Vehicle Blocking Your Driveway",
    "date_created": "2022-03-22T18:51:03.000",
    "date_modified": "2022-03-22T18:51:03.000",
    "request_status": "Pending",
    "responsible_agency": "Department of Public Works",
    "final_address": "1522 N Prieur St",
    "address_councildis": "D",
    "status": "Pending",
    "rowid": "869001",
    "final_x": "3681058.53448",
    "final_y": "537953.249481",
    "longitude": "-90.06924020679288",
    "latitude": "29.973198314296173",
    "geocoded_column": {
      "latitude": "29.973198314296173",
      "longitude": "-90.06924020679288"
    }
  },
  {
    "service_request": "2022-869000",
    "request_type": "Abandoned Vehicles",
    "request_reason": "Abandoned/Junk Vehicles",
    "date_created": "2022-03-22T18:26:07.000",
    "date_modified": "2022-03-22T18:26:07.000",
    "request_status": "Pending",
    "responsible_agency": "Department of Public Works",
    "final_address": "3033 Dryades St",
    "address_councildis": "B",
    "status": "Pending",
    "rowid": "869000",
    "final_x": "3674394.5362",
    "final_y": "522875.472891",
    "longitude": "-90.09080284754548",
    "latitude": "29.931939901660616",
    "geocoded_column": {
      "latitude": "29.931939901660616",
      "longitude": "-90.09080284754548"
    }
  },
  {
    "service_request": "2022-868999",
    "request_type": "Traffic Signals/Signs/Striping/Streetlights",
    "request_reason": "Traffic Signal Malfunctioning/Damaged",
    "date_created": "2022-03-22T18:10:49.000",
    "date_modified": "2022-03-22T18:10:50.000",
    "request_status": "Pending",
    "responsible_agency": "Department of Public Works",
    "final_address": "S CLAIBORNE AVE & JACKSON AVE",
    "address_councildis": "B",
    "status": "Pending",
    "rowid": "868999",
    "final_x": "3674551.1",
    "final_y": "527711.08",
    "longitude": "-90.09014296684732",
    "latitude": "29.94523157094953",
    "geocoded_column": {
      "latitude": "29.94523157094953",
      "longitude": "-90.09014296684732"
    }
  },
  {
    "service_request": "2022-868998",
    "request_type": "Trash/Recycling",
    "request_reason": "Order Trash Cart",
    "date_created": "2022-03-22T17:45:07.000",
    "date_modified": "2022-03-22T17:45:08.000",
    "request_status": "Pending",
    "responsible_agency": "Department of Sanitation",
    "final_address": "2820 Dublin St",
    "address_councildis": "A",
    "status": "Assigned to Contractor",
    "contractor": "Richards Disposal",
    "rowid": "868998",
    "final_x": "3665657.85952",
    "final_y": "533015.067972",
    "longitude": "-90.11804422910977",
    "latitude": "29.960078127798642",
    "geocoded_column": {
      "latitude": "29.960078127798642",
      "longitude": "-90.11804422910977"
    }
  },
  {
    "service_request": "2022-868997",
    "request_type": "Trash/Recycling",
    "request_reason": "Replace Trash Cart",
    "date_created": "2022-03-22T17:44:01.000",
    "date_modified": "2022-03-22T17:44:02.000",
    "request_status": "Pending",
    "responsible_agency": "Department of Sanitation",
    "final_address": "2822 Dublin St",
    "address_councildis": "A",
    "status": "Assigned to Contractor",
    "contractor": "Richards Disposal",
    "rowid": "868997",
    "final_x": "3665657.85952",
    "final_y": "533015.067972",
    "longitude": "-90.11804422910977",
    "latitude": "29.960078127798642",
    "geocoded_column": {
      "latitude": "29.960078127798642",
      "longitude": "-90.11804422910977"
    }
  },
  {
    "service_request": "2022-868996",
    "request_type": "Traffic Signals/Signs/Striping/Streetlights",
    "request_reason": "Street Light Outage/Malfunction",
    "date_created": "2022-03-22T17:43:55.000",
    "date_modified": "2022-03-22T17:43:56.000",
    "request_status": "Pending",
    "responsible_agency": "Department of Public Works",
    "final_address": "3520 Hyman Ct",
    "address_councildis": "C",
    "status": "Pending",
    "contractor": "Royal Engineering",
    "rowid": "868996",
    "final_x": "3701009.60804",
    "final_y": "518030.339062",
    "longitude": "-90.00695948159908",
    "latitude": "29.91779704014496",
    "geocoded_column": {
      "latitude": "29.91779704014496",
      "longitude": "-90.00695948159908"
    }
  },
  {
    "service_request": "2022-868994",
    "request_type": "Traffic Signals/Signs/Striping/Streetlights",
    "request_reason": "Street Light Outage/Malfunction",
    "date_created": "2022-03-22T17:34:12.000",
    "date_modified": "2022-03-22T17:34:12.000",
    "request_status": "Pending",
    "responsible_agency": "Department of Public Works",
    "final_address": "6725 Tara Ln",
    "address_councildis": "E",
    "status": "Pending",
    "contractor": "Royal Engineering",
    "rowid": "868994",
    "final_x": "3707621.37265",
    "final_y": "558798.922268",
    "longitude": "-89.98457526091174",
    "latitude": "30.029683491476074",
    "geocoded_column": {
      "latitude": "30.029683491476074",
      "longitude": "-89.98457526091174"
    }
  },
  {
    "service_request": "2022-868993",
    "request_type": "Traffic Signals/Signs/Striping/Streetlights",
    "request_reason": "Street Light Outage/Malfunction",
    "date_created": "2022-03-22T17:33:24.000",
    "date_modified": "2022-03-22T17:33:24.000",
    "request_status": "Pending",
    "responsible_agency": "Department of Public Works",
    "final_address": "6725 Tara Ln",
    "address_councildis": "E",
    "status": "Pending",
    "contractor": "Royal Engineering",
    "rowid": "868993",
    "final_x": "3707621.37265",
    "final_y": "558798.922268",
    "longitude": "-89.98457526091174",
    "latitude": "30.029683491476074",
    "geocoded_column": {
      "latitude": "30.029683491476074",
      "longitude": "-89.98457526091174"
    }
  },
  {
    "service_request": "2022-868992",
    "request_type": "Traffic Signals/Signs/Striping/Streetlights",
    "request_reason": "Traffic Sign Missing/Damaged",
    "date_created": "2022-03-22T17:33:04.000",
    "date_modified": "2022-03-22T17:33:04.000",
    "request_status": "Pending",
    "responsible_agency": "Department of Public Works",
    "final_address": "ANDREW HIGGINS ST & S PETERS ST",
    "address_councildis": "B",
    "status": "Pending",
    "rowid": "868992",
    "final_x": "3682285.2",
    "final_y": "526557.88",
    "longitude": "-90.06576427635473",
    "latitude": "29.94182766182659",
    "geocoded_column": {
      "latitude": "29.94182766182659",
      "longitude": "-90.06576427635473"
    }
  },
  {
    "service_request": "2022-868991",
    "request_type": "Traffic Signals/Signs/Striping/Streetlights",
    "request_reason": "Street Light Outage/Malfunction",
    "date_created": "2022-03-22T17:32:45.000",
    "date_modified": "2022-03-22T17:32:46.000",
    "request_status": "Pending",
    "responsible_agency": "Department of Public Works",
    "final_address": "6725 Tara Ln",
    "address_councildis": "E",
    "status": "Pending",
    "contractor": "Royal Engineering",
    "rowid": "868991",
    "final_x": "3707621.37265",
    "final_y": "558798.922268",
    "longitude": "-89.98457526091174",
    "latitude": "30.029683491476074",
    "geocoded_column": {
      "latitude": "30.029683491476074",
      "longitude": "-89.98457526091174"
    }
  },
  {
    "service_request": "2022-868990",
    "request_type": "Trash/Recycling",
    "request_reason": "Illegal Dumping",
    "date_created": "2022-03-22T17:20:10.000",
    "date_modified": "2022-03-22T17:20:10.000",
    "request_status": "Pending",
    "responsible_agency": "Department of Sanitation",
    "final_address": "6200 Morrison Rd",
    "address_councildis": "D",
    "status": "Pending",
    "rowid": "868990",
    "final_x": "3696290.34211",
    "final_y": "557667.375131",
    "longitude": "-90.02042197491433",
    "latitude": "30.02693403655978",
    "geocoded_column": {
      "latitude": "30.02693403655978",
      "longitude": "-90.02042197491433"
    }
  },
  {
    "service_request": "2022-868989",
    "request_type": "Trash/Recycling",
    "request_reason": "Request a Large Item Pick Up",
    "date_created": "2022-03-22T17:17:37.000",
    "date_modified": "2022-03-22T17:17:38.000",
    "request_status": "Pending",
    "responsible_agency": "Department of Sanitation",
    "final_address": "305 River Oaks Dr",
    "address_councildis": "C",
    "status": "Assigned to Contractor",
    "contractor": "Richards Disposal",
    "rowid": "868989",
    "final_x": "3701514.0817",
    "final_y": "522687.770682",
    "longitude": "-90.0051967507642",
    "latitude": "29.930587305385398",
    "geocoded_column": {
      "latitude": "29.930587305385398",
      "longitude": "-90.0051967507642"
    }
  },
  {
    "service_request": "2022-868988",
    "request_type": "Trash/Recycling",
    "request_reason": "Missed Trash Pick-Up",
    "date_created": "2022-03-22T17:08:13.000",
    "date_modified": "2022-03-22T17:08:14.000",
    "request_status": "Pending",
    "responsible_agency": "Department of Sanitation",
    "final_address": "5156 Wilton Dr",
    "address_councildis": "D",
    "status": "Assigned to Contractor",
    "contractor": "Metro Disposal",
    "rowid": "868988",
    "final_x": "3681863.15029",
    "final_y": "551446.298325",
    "longitude": "-90.06622783544061",
    "latitude": "30.010274991880664",
    "geocoded_column": {
      "latitude": "30.010274991880664",
      "longitude": "-90.06622783544061"
    }
  },
  {
    "service_request": "2022-868986",
    "request_type": "Trash/Recycling",
    "request_reason": "Repair Trash Cart",
    "date_created": "2022-03-22T17:02:36.000",
    "date_modified": "2022-03-22T17:02:37.000",
    "request_status": "Pending",
    "responsible_agency": "Department of Sanitation",
    "final_address": "238 Hay Pl",
    "address_councildis": "A",
    "status": "Assigned to Contractor",
    "contractor": "Metro Disposal",
    "rowid": "868986",
    "final_x": "3665851.42458",
    "final_y": "554131.319192",
    "longitude": "-90.1167250008151",
    "latitude": "30.018134998905186",
    "geocoded_column": {
      "latitude": "30.018134998905186",
      "longitude": "-90.1167250008151"
    }
  },
  {
    "service_request": "2022-868984",
    "request_type": "Safety & Permits",
    "request_reason": "Licenses & Permits",
    "date_created": "2022-03-22T17:00:05.000",
    "date_modified": "2022-03-22T17:00:05.000",
    "request_status": "Pending",
    "responsible_agency": "Safety and Permits",
    "final_address": "6223 Laurel St",
    "address_councildis": "A",
    "status": "Pending",
    "rowid": "868984",
    "final_x": "3663208.25645",
    "final_y": "518770.401975",
    "longitude": "-90.12625344280751",
    "latitude": "29.920981044934248",
    "geocoded_column": {
      "latitude": "29.920981044934248",
      "longitude": "-90.12625344280751"
    }
  },
  {
    "service_request": "2022-868983",
    "request_type": "Abandoned Vehicles",
    "request_reason": "Abandoned/Junk Vehicles",
    "date_created": "2022-03-22T16:58:29.000",
    "date_modified": "2022-03-22T16:58:29.000",
    "request_status": "Pending",
    "responsible_agency": "Department of Public Works",
    "final_address": "4215 Iberville St",
    "address_councildis": "A",
    "status": "Pending",
    "rowid": "868983",
    "final_x": "3670755.61563",
    "final_y": "539197.00609",
    "longitude": "-90.10173674895422",
    "latitude": "29.976926733686664",
    "geocoded_column": {
      "latitude": "29.976926733686664",
      "longitude": "-90.10173674895422"
    }
  },
  {
    "service_request": "2022-868982",
    "request_type": "Trash/Recycling",
    "request_reason": "Missed Trash Pick-Up",
    "date_created": "2022-03-22T16:58:00.000",
    "date_modified": "2022-03-22T16:58:00.000",
    "request_status": "Pending",
    "responsible_agency": "Department of Sanitation",
    "final_address": "5254 Annunciation St",
    "address_councildis": "B",
    "status": "Assigned to Contractor",
    "contractor": "Richards Disposal",
    "rowid": "868982",
    "final_x": "3667520.43162",
    "final_y": "517534.757814",
    "longitude": "-90.11268335678602",
    "latitude": "29.91745779948858",
    "geocoded_column": {
      "latitude": "29.91745779948858",
      "longitude": "-90.11268335678602"
    }
  },
  {
    "service_request": "2022-868981",
    "request_type": "Traffic Signals/Signs/Striping/Streetlights",
    "request_reason": "Traffic Sign Missing/Damaged",
    "date_created": "2022-03-22T16:56:14.000",
    "date_modified": "2022-03-22T16:56:14.000",
    "request_status": "Pending",
    "responsible_agency": "Department of Public Works",
    "final_address": "1401 Congress St",
    "address_councildis": "D",
    "status": "Pending",
    "rowid": "868981",
    "final_x": "3691053.08796",
    "final_y": "536710.003911",
    "longitude": "-90.03771991735705",
    "latitude": "29.969472865915787",
    "geocoded_column": {
      "latitude": "29.969472865915787",
      "longitude": "-90.03771991735705"
    }
  },
  {
    "service_request": "2022-868980",
    "request_type": "Trash/Recycling",
    "request_reason": "Missed Trash Pick-Up",
    "date_created": "2022-03-22T16:54:42.000",
    "date_modified": "2022-03-22T16:54:42.000",
    "request_status": "Pending",
    "responsible_agency": "Department of Sanitation",
    "final_address": "6319 Brunswick Ct",
    "address_councildis": "C",
    "status": "Assigned to Contractor",
    "contractor": "Richards Disposal",
    "rowid": "868980",
    "final_x": "3707390.49668",
    "final_y": "516982.792757",
    "longitude": "-89.98685757376693",
    "latitude": "29.91471201233464",
    "geocoded_column": {
      "latitude": "29.91471201233464",
      "longitude": "-89.98685757376693"
    }
  },
  {
    "service_request": "2022-868979",
    "request_type": "Trash/Recycling",
    "request_reason": "Missed Trash Pick-Up",
    "date_created": "2022-03-22T16:53:15.000",
    "date_modified": "2022-03-22T16:53:16.000",
    "request_status": "Pending",
    "responsible_agency": "Department of Sanitation",
    "final_address": "801 Jena St",
    "address_councildis": "B",
    "status": "Assigned to Contractor",
    "contractor": "Richards Disposal",
    "rowid": "868979",
    "final_x": "3670728.44955",
    "final_y": "518413.313014",
    "longitude": "-90.10252763792063",
    "latitude": "29.91977918908989",
    "geocoded_column": {
      "latitude": "29.91977918908989",
      "longitude": "-90.10252763792063"
    }
  },
  {
    "service_request": "2022-868978",
    "request_type": "Trash/Recycling",
    "request_reason": "Repair Trash Cart",
    "date_created": "2022-03-22T16:51:12.000",
    "date_modified": "2022-03-22T16:51:13.000",
    "request_status": "Pending",
    "responsible_agency": "Department of Sanitation",
    "final_address": "860 Taft Pl",
    "address_councildis": "A",
    "status": "Assigned to Contractor",
    "contractor": "Richards Disposal",
    "rowid": "868978",
    "final_x": "3673862.46452",
    "final_y": "539858.93569",
    "longitude": "-90.09190166604417",
    "latitude": "29.978654627086406",
    "geocoded_column": {
      "latitude": "29.978654627086406",
      "longitude": "-90.09190166604417"
    }
  },
  {
    "service_request": "2022-868977",
    "request_type": "Trash/Recycling",
    "request_reason": "Repair Recycling Cart",
    "date_created": "2022-03-22T16:44:50.000",
    "date_modified": "2022-03-22T16:44:50.000",
    "request_status": "Pending",
    "responsible_agency": "Department of Sanitation",
    "final_address": "3745 Octavia St",
    "address_councildis": "A",
    "status": "Pending",
    "rowid": "868977",
    "final_x": "3668796.23809",
    "final_y": "529291.579457",
    "longitude": "-90.10825958407526",
    "latitude": "29.949747858777258",
    "geocoded_column": {
      "latitude": "29.949747858777258",
      "longitude": "-90.10825958407526"
    }
  },
  {
    "service_request": "2022-868976",
    "request_type": "Trash/Recycling",
    "request_reason": "Request a Large Item Pick Up",
    "date_created": "2022-03-22T16:41:36.000",
    "date_modified": "2022-03-22T16:41:37.000",
    "request_status": "Pending",
    "responsible_agency": "Department of Sanitation",
    "final_address": "203 Audubon Blvd",
    "address_councildis": "A",
    "status": "Assigned to Contractor",
    "contractor": "Richards Disposal",
    "rowid": "868976",
    "final_x": "3666360.57639",
    "final_y": "528402.465856",
    "longitude": "-90.11597993864528",
    "latitude": "29.947374463402497",
    "geocoded_column": {
      "latitude": "29.947374463402497",
      "longitude": "-90.11597993864528"
    }
  },
  {
    "service_request": "2022-868975",
    "request_type": "Safety & Permits",
    "request_reason": "Licenses & Permits",
    "date_created": "2022-03-22T16:38:07.000",
    "date_modified": "2022-03-22T16:38:07.000",
    "request_status": "Pending",
    "responsible_agency": "Safety and Permits",
    "status": "Pending",
    "rowid": "868975",
    "longitude": "0.0",
    "latitude": "0.0",
    "geocoded_column": {
      "latitude": "0.0",
      "longitude": "0.0"
    }
  },
  {
    "service_request": "2022-868974",
    "request_type": "Abandoned Vehicles",
    "request_reason": "Abandoned/Junk Vehicles",
    "date_created": "2022-03-22T16:37:05.000",
    "date_modified": "2022-03-22T16:40:01.000",
    "request_status": "Pending",
    "responsible_agency": "Department of Public Works",
    "final_address": "8828 Nelson St",
    "address_councildis": "A",
    "status": "Pending",
    "rowid": "868974",
    "final_x": "3663085.86951",
    "final_y": "533641.888389",
    "longitude": "-90.1261452057217",
    "latitude": "29.961876436338333",
    "geocoded_column": {
      "latitude": "29.961876436338333",
      "longitude": "-90.1261452057217"
    }
  },
  {
    "service_request": "2022-868973",
    "request_type": "Property Maintenance",
    "request_reason": "Property Maintenance",
    "date_created": "2022-03-22T16:33:25.000",
    "date_modified": "2022-03-22T16:33:25.000",
    "request_status": "Pending",
    "responsible_agency": "Department of Code Enforcement",
    "final_address": "6541 N Interstate 10 Service Rd",
    "address_councildis": "E",
    "status": "Pending",
    "rowid": "868973",
    "final_x": "3698010.99773",
    "final_y": "557936.147099",
    "longitude": "-90.01497513202354",
    "latitude": "30.027618734344426",
    "geocoded_column": {
      "latitude": "30.027618734344426",
      "longitude": "-90.01497513202354"
    }
  },
  {
    "service_request": "2022-868972",
    "request_type": "Health Related Questions",
    "request_reason": "Request Information on the Health Marketplace",
    "date_created": "2022-03-22T16:32:42.000",
    "date_modified": "2022-03-22T16:32:42.000",
    "request_status": "Pending",
    "responsible_agency": "Health Department",
    "final_address": "6541 N Interstate 10 Service Rd",
    "address_councildis": "E",
    "status": "Pending",
    "rowid": "868972",
    "final_x": "3698010.99773",
    "final_y": "557936.147099",
    "longitude": "-90.01497513202354",
    "latitude": "30.027618734344426",
    "geocoded_column": {
      "latitude": "30.027618734344426",
      "longitude": "-90.01497513202354"
    }
  },
  {
    "service_request": "2022-868971",
    "request_type": "Trash/Recycling",
    "request_reason": "Replace Trash Cart",
    "date_created": "2022-03-22T16:32:11.000",
    "date_modified": "2022-03-22T16:32:12.000",
    "request_status": "Pending",
    "responsible_agency": "Department of Sanitation",
    "final_address": "800 Louisiana Ave",
    "address_councildis": "B",
    "status": "Assigned to Contractor",
    "contractor": "Richards Disposal",
    "rowid": "868971",
    "final_x": "3675386.94216",
    "final_y": "518618.120439",
    "longitude": "-90.08781601441832",
    "latitude": "29.92020393007766",
    "geocoded_column": {
      "latitude": "29.92020393007766",
      "longitude": "-90.08781601441832"
    }
  },
  {
    "service_request": "2022-868970",
    "request_type": "Safety & Permits",
    "request_reason": "Licenses & Permits",
    "date_created": "2022-03-22T16:31:38.000",
    "date_modified": "2022-03-22T16:31:38.000",
    "request_status": "Pending",
    "responsible_agency": "Safety and Permits",
    "final_address": "6541 N Interstate 10 Service Rd",
    "address_councildis": "E",
    "status": "Pending",
    "rowid": "868970",
    "final_x": "3698010.99773",
    "final_y": "557936.147099",
    "longitude": "-90.01497513202354",
    "latitude": "30.027618734344426",
    "geocoded_column": {
      "latitude": "30.027618734344426",
      "longitude": "-90.01497513202354"
    }
  },
  {
    "service_request": "2022-868968",
    "request_type": "Trash/Recycling",
    "request_reason": "Request a Large Item Pick Up",
    "date_created": "2022-03-22T16:26:47.000",
    "date_modified": "2022-03-22T16:49:29.000",
    "request_status": "Pending",
    "responsible_agency": "Department of Sanitation",
    "final_address": "1137 N Villere St",
    "address_councildis": "C",
    "status": "Assigned to Contractor",
    "contractor": "Richards Disposal",
    "rowid": "868968",
    "final_x": "3681374.095",
    "final_y": "535630.777478",
    "longitude": "-90.06832458074307",
    "latitude": "29.96680274060158",
    "geocoded_column": {
      "latitude": "29.96680274060158",
      "longitude": "-90.06832458074307"
    }
  },
  {
    "service_request": "2022-868967",
    "request_type": "Trash/Recycling",
    "request_reason": "Missed Trash Pick-Up",
    "date_created": "2022-03-22T16:25:01.000",
    "date_modified": "2022-03-22T16:25:02.000",
    "request_status": "Pending",
    "responsible_agency": "Department of Sanitation",
    "final_address": "1806 Audubon St",
    "address_councildis": "A",
    "status": "Assigned to Contractor",
    "contractor": "Richards Disposal",
    "rowid": "868967",
    "final_x": "3665617.16928",
    "final_y": "528184.363904",
    "longitude": "-90.11833447102542",
    "latitude": "29.946796449510195",
    "geocoded_column": {
      "latitude": "29.946796449510195",
      "longitude": "-90.11833447102542"
    }
  },
  {
    "service_request": "2022-868966",
    "request_type": "Traffic Signals/Signs/Striping/Streetlights",
    "request_reason": "Request for Stop Sign",
    "date_created": "2022-03-22T16:23:46.000",
    "date_modified": "2022-03-22T16:23:46.000",
    "request_status": "Pending",
    "responsible_agency": "Department of Public Works",
    "final_address": "MARENGO ST & PITT ST",
    "address_councildis": "B",
    "status": "Pending",
    "rowid": "868966",
    "final_x": "3671987.8",
    "final_y": "520685.58",
    "longitude": "-90.09847518032369",
    "latitude": "29.925989942215637",
    "geocoded_column": {
      "latitude": "29.925989942215637",
      "longitude": "-90.09847518032369"
    }
  },
  {
    "service_request": "2022-868965",
    "request_type": "Trash/Recycling",
    "request_reason": "Illegal Dumping",
    "date_created": "2022-03-22T16:22:11.000",
    "date_modified": "2022-03-22T16:22:11.000",
    "request_status": "Pending",
    "responsible_agency": "Department of Sanitation",
    "final_address": "2308 Frenchmen St",
    "address_councildis": "D",
    "status": "Pending",
    "rowid": "868965",
    "final_x": "3684197.17487",
    "final_y": "540763.619147",
    "longitude": "-90.05922907505443",
    "latitude": "29.980830266329182",
    "geocoded_column": {
      "latitude": "29.980830266329182",
      "longitude": "-90.05922907505443"
    }
  },
  {
    "service_request": "2022-868964",
    "request_type": "Abandoned Vehicles",
    "request_reason": "Abandoned/Junk Vehicles",
    "date_created": "2022-03-22T16:21:38.000",
    "date_modified": "2022-03-22T16:21:38.000",
    "request_status": "Pending",
    "responsible_agency": "Department of Public Works",
    "final_address": "4810 N Rampart St",
    "address_councildis": "E",
    "status": "Pending",
    "rowid": "868964",
    "final_x": "3695047.76995",
    "final_y": "533994.010757",
    "longitude": "-90.02520236633715",
    "latitude": "29.961880045894663",
    "geocoded_column": {
      "latitude": "29.961880045894663",
      "longitude": "-90.02520236633715"
    }
  },
  {
    "service_request": "2022-868963",
    "request_type": "Roads/Drainage",
    "request_reason": "Street Flooding / Drainage",
    "date_created": "2022-03-22T16:21:01.000",
    "date_modified": "2022-03-22T16:21:01.000",
    "request_status": "Pending",
    "responsible_agency": "Department of Public Works",
    "final_address": "135 Stafford Pl",
    "address_councildis": "A",
    "status": "Pending",
    "rowid": "868963",
    "final_x": "3666044.13088",
    "final_y": "553989.279192",
    "longitude": "-90.11612088662257",
    "latitude": "30.017738811504117",
    "geocoded_column": {
      "latitude": "30.017738811504117",
      "longitude": "-90.11612088662257"
    }
  },
  {
    "service_request": "2022-868962",
    "request_type": "Traffic Signals/Signs/Striping/Streetlights",
    "request_reason": "Street Name Sign Damaged or Missing",
    "date_created": "2022-03-22T16:16:32.000",
    "date_modified": "2022-03-22T16:42:45.000",
    "request_status": "Pending",
    "responsible_agency": "Department of Public Works",
    "final_address": "New Orleans,LA",
    "address_councildis": "B",
    "rowid": "868962",
    "final_x": "3676487.3",
    "final_y": "518650.58",
    "longitude": "-90.08434158922164",
    "latitude": "29.920260249282492",
    "geocoded_column": {
      "latitude": "29.920260249282492",
      "longitude": "-90.08434158922164"
    }
  },
  {
    "service_request": "2022-868961",
    "request_type": "Trash/Recycling",
    "request_reason": "Missed Trash Pick-Up",
    "date_created": "2022-03-22T16:15:35.000",
    "date_modified": "2022-03-22T16:15:36.000",
    "request_status": "Pending",
    "responsible_agency": "Department of Sanitation",
    "final_address": "1119 Peniston St",
    "address_councildis": "B",
    "status": "Assigned to Contractor",
    "contractor": "Richards Disposal",
    "rowid": "868961",
    "final_x": "3673218.31681",
    "final_y": "519950.63756",
    "longitude": "-90.09461587330053",
    "latitude": "29.923932565207057",
    "geocoded_column": {
      "latitude": "29.923932565207057",
      "longitude": "-90.09461587330053"
    }
  },
  {
    "service_request": "2022-868960",
    "request_type": "Property Maintenance",
    "request_reason": "Property Maintenance",
    "date_created": "2022-03-22T16:14:12.000",
    "date_modified": "2022-03-22T16:14:12.000",
    "request_status": "Pending",
    "responsible_agency": "Department of Code Enforcement",
    "final_address": "501 Elysian Fields Ave",
    "address_councildis": "C",
    "status": "Pending",
    "rowid": "868960",
    "final_x": "3685311.29135",
    "final_y": "534246.794053",
    "longitude": "-90.05593967076524",
    "latitude": "29.962877159039945",
    "geocoded_column": {
      "latitude": "29.962877159039945",
      "longitude": "-90.05593967076524"
    }
  },
  {
    "service_request": "2022-868959",
    "request_type": "Abandoned Vehicles",
    "request_reason": "Abandoned/Junk Vehicles",
    "date_created": "2022-03-22T16:08:25.000",
    "date_modified": "2022-03-22T16:10:11.000",
    "request_status": "Pending",
    "responsible_agency": "Department of Public Works",
    "final_address": "2100 Magnolia St",
    "address_councildis": "B",
    "status": "Pending",
    "rowid": "868959",
    "final_x": "3675504.27067",
    "final_y": "527023.80083",
    "longitude": "-90.08715710297872",
    "latitude": "29.94331330978243",
    "geocoded_column": {
      "latitude": "29.94331330978243",
      "longitude": "-90.08715710297872"
    }
  },
  {
    "service_request": "2022-868958",
    "request_type": "Roads/Drainage",
    "request_reason": "Catch Basin - Clogged",
    "date_created": "2022-03-22T16:08:04.000",
    "date_modified": "2022-03-22T16:08:04.000",
    "request_status": "Pending",
    "responsible_agency": "Department of Public Works",
    "final_address": "600 BLK Frenchmen St",
    "address_councildis": "C",
    "status": "Pending",
    "rowid": "868958",
    "final_x": "3684720.04883",
    "final_y": "534655.774636",
    "longitude": "-90.0577923597253",
    "latitude": "29.964019824977242",
    "geocoded_column": {
      "latitude": "29.964019824977242",
      "longitude": "-90.0577923597253"
    }
  },
  {
    "service_request": "2022-868956",
    "request_type": "Traffic Signals/Signs/Striping/Streetlights",
    "request_reason": "Street Light Outage/Malfunction",
    "date_created": "2022-03-22T16:06:26.000",
    "date_modified": "2022-03-22T16:06:27.000",
    "request_status": "Pending",
    "responsible_agency": "Department of Public Works",
    "final_address": "1818 Short St",
    "address_councildis": "A",
    "status": "Pending",
    "contractor": "Royal Engineering",
    "rowid": "868956",
    "final_x": "3663792.67418",
    "final_y": "529765.502593",
    "longitude": "-90.12404240689021",
    "latitude": "29.95119714097648",
    "geocoded_column": {
      "latitude": "29.95119714097648",
      "longitude": "-90.12404240689021"
    }
  },
  {
    "service_request": "2022-868957",
    "request_type": "Traffic Signals/Signs/Striping/Streetlights",
    "request_reason": "Street Light Outage/Malfunction",
    "date_created": "2022-03-22T16:06:26.000",
    "date_modified": "2022-03-22T16:06:27.000",
    "request_status": "Pending",
    "responsible_agency": "Department of Public Works",
    "final_address": "1818 Short St",
    "address_councildis": "A",
    "status": "Pending",
    "contractor": "Royal Engineering",
    "rowid": "868957",
    "final_x": "3663792.67418",
    "final_y": "529765.502593",
    "longitude": "-90.12404240689021",
    "latitude": "29.95119714097648",
    "geocoded_column": {
      "latitude": "29.95119714097648",
      "longitude": "-90.12404240689021"
    }
  },
  {
    "service_request": "2022-868955",
    "request_type": "Mosquito, Termite & Rodent Control",
    "request_reason": "Non-Rodent Complaint (Mice, Possums, Snakes)",
    "date_created": "2022-03-22T16:04:18.000",
    "date_modified": "2022-03-22T16:04:18.000",
    "request_status": "Pending",
    "responsible_agency": "Mosquito, Termite & Rodent Control Board",
    "final_address": "2626 Jena St",
    "address_councildis": "B",
    "status": "Pending",
    "rowid": "868955",
    "final_x": "3670003.3819",
    "final_y": "524567.483516",
    "longitude": "-90.10460801873725",
    "latitude": "29.936722587246738",
    "geocoded_column": {
      "latitude": "29.936722587246738",
      "longitude": "-90.10460801873725"
    }
  },
  {
    "service_request": "2022-868954",
    "request_type": "Mosquito, Termite & Rodent Control",
    "request_reason": "Mosquito Complaint",
    "date_created": "2022-03-22T16:02:10.000",
    "date_modified": "2022-03-22T16:02:12.000",
    "request_status": "Pending",
    "responsible_agency": "Mosquito, Termite & Rodent Control Board",
    "final_address": "3631 Mansfield Ave",
    "address_councildis": "C",
    "status": "Pending",
    "rowid": "868954",
    "final_x": "3708953.87736",
    "final_y": "517445.390646",
    "longitude": "-89.98190582230932",
    "latitude": "29.915933388026193",
    "geocoded_column": {
      "latitude": "29.915933388026193",
      "longitude": "-89.98190582230932"
    }
  },
  {
    "service_request": "2022-868953",
    "request_type": "Trash/Recycling",
    "request_reason": "Request a Large Item Pick Up",
    "date_created": "2022-03-22T16:00:36.000",
    "date_modified": "2022-03-22T16:00:37.000",
    "request_status": "Pending",
    "responsible_agency": "Department of Sanitation",
    "final_address": "1521 St Andrew St",
    "address_councildis": "B",
    "status": "Assigned to Contractor",
    "contractor": "Richards Disposal",
    "rowid": "868953",
    "final_x": "3678437.75688",
    "final_y": "523925.83622",
    "longitude": "-90.07800249512528",
    "latitude": "29.934706880168793",
    "geocoded_column": {
      "latitude": "29.934706880168793",
      "longitude": "-90.07800249512528"
    }
  },
  {
    "service_request": "2022-868952",
    "request_type": "Roads/Drainage",
    "request_reason": "Catch Basin - Clogged",
    "date_created": "2022-03-22T15:59:44.000",
    "date_modified": "2022-03-22T15:59:44.000",
    "request_status": "Pending",
    "responsible_agency": "Department of Public Works",
    "final_address": "301 St Charles Ave",
    "address_councildis": "B",
    "status": "Pending",
    "rowid": "868952",
    "final_x": "3680854.07381",
    "final_y": "530040.692737",
    "longitude": "-90.07016141715324",
    "latitude": "29.9514476835518",
    "geocoded_column": {
      "latitude": "29.9514476835518",
      "longitude": "-90.07016141715324"
    }
  },
  {
    "service_request": "2022-868951",
    "request_type": "Trash/Recycling",
    "request_reason": "Illegal Dumping",
    "date_created": "2022-03-22T15:59:04.000",
    "date_modified": "2022-03-22T15:59:04.000",
    "request_status": "Pending",
    "responsible_agency": "Department of Sanitation",
    "final_address": "4513 S Robertson St",
    "address_councildis": "B",
    "status": "Pending",
    "rowid": "868951",
    "final_x": "3669970.19303",
    "final_y": "524380.68806",
    "longitude": "-90.10471912104643",
    "latitude": "29.936209938527927",
    "geocoded_column": {
      "latitude": "29.936209938527927",
      "longitude": "-90.10471912104643"
    }
  },
  {
    "service_request": "2022-868950",
    "request_type": "Roads/Drainage",
    "request_reason": "Catch Basin - Clogged",
    "date_created": "2022-03-22T15:56:39.000",
    "date_modified": "2022-03-22T15:56:39.000",
    "request_status": "Pending",
    "responsible_agency": "Department of Public Works",
    "final_address": "700 BLK Carondelet St",
    "address_councildis": "B",
    "status": "Pending",
    "rowid": "868950",
    "final_x": "3680063.49023",
    "final_y": "528387.070638",
    "longitude": "-90.07271513698443",
    "latitude": "29.9469247182206",
    "geocoded_column": {
      "latitude": "29.9469247182206",
      "longitude": "-90.07271513698443"
    }
  },
  {
    "service_request": "2022-868949",
    "request_type": "Abandoned Vehicles",
    "request_reason": "Abandoned/Junk Vehicles",
    "date_created": "2022-03-22T15:52:56.000",
    "date_modified": "2022-03-22T15:52:56.000",
    "request_status": "Pending",
    "responsible_agency": "Department of Public Works",
    "final_address": "402 Florida Blvd",
    "address_councildis": "A",
    "status": "Pending",
    "rowid": "868949",
    "final_x": "3667283.51879",
    "final_y": "545397.899792",
    "longitude": "-90.11249411142286",
    "latitude": "29.994079246478346",
    "geocoded_column": {
      "latitude": "29.994079246478346",
      "longitude": "-90.11249411142286"
    }
  },
  {
    "service_request": "2022-868948",
    "request_type": "Trash/Recycling",
    "request_reason": "Missed Trash Pick-Up",
    "date_created": "2022-03-22T15:52:09.000",
    "date_modified": "2022-03-22T15:52:09.000",
    "request_status": "Pending",
    "responsible_agency": "Department of Sanitation",
    "final_address": "5317 Wildair Dr",
    "address_councildis": "D",
    "status": "Assigned to Contractor",
    "contractor": "Metro Disposal",
    "rowid": "868948",
    "final_x": "3681729.89967",
    "final_y": "552619.81999",
    "longitude": "-90.06660783627281",
    "latitude": "30.01350580237233",
    "geocoded_column": {
      "latitude": "30.01350580237233",
      "longitude": "-90.06660783627281"
    }
  },
  {
    "service_request": "2022-868947",
    "request_type": "Traffic Signals/Signs/Striping/Streetlights",
    "request_reason": "Request for Stop Sign",
    "date_created": "2022-03-22T15:50:33.000",
    "date_modified": "2022-03-22T15:50:33.000",
    "request_status": "Pending",
    "responsible_agency": "Department of Public Works",
    "final_address": "500 Cherokee St",
    "address_councildis": "A",
    "status": "Pending",
    "rowid": "868947",
    "final_x": "3661888.81031",
    "final_y": "525181.419325",
    "longitude": "-90.13020587473639",
    "latitude": "29.93864748619748",
    "geocoded_column": {
      "latitude": "29.93864748619748",
      "longitude": "-90.13020587473639"
    }
  },
  {
    "service_request": "2022-868946",
    "request_type": "Parks & Parkways",
    "request_reason": "Request Tree Service (Right of Way/Public Property)",
    "date_created": "2022-03-22T15:49:56.000",
    "date_modified": "2022-03-22T15:49:56.000",
    "request_status": "Pending",
    "responsible_agency": "Department of Parks & Parkway",
    "final_address": "6109 Pratt Dr",
    "address_councildis": "D",
    "status": "Pending",
    "rowid": "868946",
    "final_x": "3680245.56559",
    "final_y": "555111.889049",
    "longitude": "-90.07121082672992",
    "latitude": "30.020403123320595",
    "geocoded_column": {
      "latitude": "30.020403123320595",
      "longitude": "-90.07121082672992"
    }
  },
  {
    "service_request": "2022-868945",
    "request_type": "Roads/Drainage",
    "request_reason": "Catch Basin - Clogged",
    "date_created": "2022-03-22T15:47:36.000",
    "date_modified": "2022-03-22T15:47:36.000",
    "request_status": "Pending",
    "responsible_agency": "Department of Public Works",
    "final_address": "3631 Mansfield Ave",
    "address_councildis": "C",
    "status": "Inspected",
    "rowid": "868945",
    "final_x": "3708953.87736",
    "final_y": "517445.390646",
    "longitude": "-89.98190582230932",
    "latitude": "29.915933388026193",
    "geocoded_column": {
      "latitude": "29.915933388026193",
      "longitude": "-89.98190582230932"
    }
  },
  {
    "service_request": "2022-868944",
    "request_type": "Property Maintenance",
    "request_reason": "Property Maintenance",
    "date_created": "2022-03-22T15:45:38.000",
    "date_modified": "2022-03-22T15:45:38.000",
    "request_status": "Pending",
    "responsible_agency": "Department of Code Enforcement",
    "final_address": "9201 Palmetto St",
    "address_councildis": "A",
    "status": "Pending",
    "rowid": "868944",
    "final_x": "3665286.63488",
    "final_y": "538014.015433",
    "longitude": "-90.11904919616774",
    "latitude": "29.973834403331583",
    "geocoded_column": {
      "latitude": "29.973834403331583",
      "longitude": "-90.11904919616774"
    }
  },
  {
    "service_request": "2022-868943",
    "request_type": "Trash/Recycling",
    "request_reason": "Replace Trash Cart",
    "date_created": "2022-03-22T15:44:33.000",
    "date_modified": "2022-03-22T15:44:34.000",
    "request_status": "Pending",
    "responsible_agency": "Department of Sanitation",
    "final_address": "2508 Upperline St",
    "address_councildis": "B",
    "status": "Assigned to Contractor",
    "contractor": "Richards Disposal",
    "rowid": "868943",
    "final_x": "3669126.18836",
    "final_y": "524000.173308",
    "longitude": "-90.10739652966717",
    "latitude": "29.935188502131915",
    "geocoded_column": {
      "latitude": "29.935188502131915",
      "longitude": "-90.10739652966717"
    }
  },
  {
    "service_request": "2022-868942",
    "request_type": "Trash/Recycling",
    "request_reason": "Request a Large Item Pick Up",
    "date_created": "2022-03-22T15:40:49.000",
    "date_modified": "2022-03-22T15:40:51.000",
    "request_status": "Pending",
    "responsible_agency": "Department of Sanitation",
    "final_address": "5553 Pasteur Blvd",
    "address_councildis": "D",
    "status": "Assigned to Contractor",
    "contractor": "Metro Disposal",
    "rowid": "868942",
    "final_x": "3682956.75535",
    "final_y": "553637.784215",
    "longitude": "-90.06269595381913",
    "latitude": "30.016267482832973",
    "geocoded_column": {
      "latitude": "30.016267482832973",
      "longitude": "-90.06269595381913"
    }
  },
  {
    "service_request": "2022-868941",
    "request_type": "Trash/Recycling",
    "request_reason": "Missed Trash Pick-Up",
    "date_created": "2022-03-22T15:40:48.000",
    "date_modified": "2022-03-22T15:40:50.000",
    "request_status": "Pending",
    "responsible_agency": "Department of Sanitation",
    "final_address": "4800 BLK Tchoupitoulas St",
    "address_councildis": "B",
    "status": "Assigned to Contractor",
    "contractor": "Richards Disposal",
    "rowid": "868941",
    "final_x": "3669547.3295",
    "final_y": "517286.18536",
    "longitude": "-90.10629396530199",
    "latitude": "29.916714776077537",
    "geocoded_column": {
      "latitude": "29.916714776077537",
      "longitude": "-90.10629396530199"
    }
  },
  {
    "service_request": "2022-868940",
    "request_type": "Roads/Drainage",
    "request_reason": "Damaged Sidewalk",
    "date_created": "2022-03-22T15:39:05.000",
    "date_modified": "2022-03-22T15:39:05.000",
    "request_status": "Pending",
    "responsible_agency": "Department of Public Works",
    "final_address": "1780 N Gayoso St",
    "address_councildis": "D",
    "status": "Pending",
    "rowid": "868940",
    "final_x": "3679166.62677",
    "final_y": "541914.405068",
    "longitude": "-90.07507785543403",
    "latitude": "29.984147374544133",
    "geocoded_column": {
      "latitude": "29.984147374544133",
      "longitude": "-90.07507785543403"
    }
  },
  {
    "service_request": "2022-868939",
    "request_type": "Trash/Recycling",
    "request_reason": "Missed Trash Pick-Up",
    "date_created": "2022-03-22T15:35:24.000",
    "date_modified": "2022-03-22T15:35:25.000",
    "request_status": "Pending",
    "responsible_agency": "Department of Sanitation",
    "final_address": "1549 N Galvez St",
    "address_councildis": "D",
    "status": "Assigned to Contractor",
    "contractor": "Metro Disposal",
    "rowid": "868939",
    "final_x": "3680572.48111",
    "final_y": "538644.526857",
    "longitude": "-90.07075120374877",
    "latitude": "29.975113823280072",
    "geocoded_column": {
      "latitude": "29.975113823280072",
      "longitude": "-90.07075120374877"
    }
  },
  {
    "service_request": "2022-868938",
    "request_type": "Trash/Recycling",
    "request_reason": "Repair Recycling Cart",
    "date_created": "2022-03-22T15:31:56.000",
    "date_modified": "2022-03-22T15:31:56.000",
    "request_status": "Pending",
    "responsible_agency": "Department of Sanitation",
    "final_address": "1504 Sauvage St",
    "address_councildis": "A",
    "status": "Pending",
    "rowid": "868938",
    "final_x": "3677176.98549",
    "final_y": "540340.024587",
    "longitude": "-90.08141656537525",
    "latitude": "29.97987829832666",
    "geocoded_column": {
      "latitude": "29.97987829832666",
      "longitude": "-90.08141656537525"
    }
  },
  {
    "service_request": "2022-868937",
    "request_type": "Trash/Recycling",
    "request_reason": "Illegal Dumping",
    "date_created": "2022-03-22T15:29:02.000",
    "date_modified": "2022-03-22T15:29:02.000",
    "request_status": "Pending",
    "responsible_agency": "Department of Sanitation",
    "final_address": "1239 Tchoupitoulas St",
    "address_councildis": "B",
    "status": "Pending",
    "rowid": "868937",
    "final_x": "3681946.49448",
    "final_y": "525211.652605",
    "longitude": "-90.06688061617892",
    "latitude": "29.938136283935638",
    "geocoded_column": {
      "latitude": "29.938136283935638",
      "longitude": "-90.06688061617892"
    }
  },
  {
    "service_request": "2022-868936",
    "request_type": "Abandoned Vehicles",
    "request_reason": "Abandoned/Junk Vehicles",
    "date_created": "2022-03-22T15:27:03.000",
    "date_modified": "2022-03-22T15:27:53.000",
    "request_status": "Pending",
    "responsible_agency": "Department of Public Works",
    "final_address": "2012 Sixth St",
    "address_councildis": "B",
    "status": "Pending",
    "rowid": "868936",
    "final_x": "3674609.80481",
    "final_y": "523536.206075",
    "longitude": "-90.09010063469391",
    "latitude": "29.933750282823894",
    "geocoded_column": {
      "latitude": "29.933750282823894",
      "longitude": "-90.09010063469391"
    }
  },
  {
    "service_request": "2022-868935",
    "request_type": "Trash/Recycling",
    "request_reason": "Request a Large Item Pick Up",
    "date_created": "2022-03-22T15:21:49.000",
    "date_modified": "2022-03-22T15:21:50.000",
    "request_status": "Pending",
    "responsible_agency": "Department of Sanitation",
    "final_address": "6232 Carlisle Ct",
    "address_councildis": "C",
    "status": "Assigned to Contractor",
    "contractor": "Richards Disposal",
    "rowid": "868935",
    "final_x": "3707194.20728",
    "final_y": "516543.932469",
    "longitude": "-89.987493396082",
    "latitude": "29.91351163935187",
    "geocoded_column": {
      "latitude": "29.91351163935187",
      "longitude": "-89.987493396082"
    }
  },
  {
    "service_request": "2022-868934",
    "request_type": "Trash/Recycling",
    "request_reason": "Illegal Dumping",
    "date_created": "2022-03-22T15:21:00.000",
    "date_modified": "2022-03-22T15:21:00.000",
    "request_status": "Pending",
    "responsible_agency": "Department of Sanitation",
    "final_address": "7321 Poitevent Ave",
    "address_councildis": "E",
    "status": "Pending",
    "rowid": "868934",
    "final_x": "3707542.1036",
    "final_y": "563194.149152",
    "longitude": "-89.98466227446023",
    "latitude": "30.04177119429064",
    "geocoded_column": {
      "latitude": "30.04177119429064",
      "longitude": "-89.98466227446023"
    }
  },
  {
    "service_request": "2022-868933",
    "request_type": "Trash/Recycling",
    "request_reason": "Missed Trash Pick-Up",
    "date_created": "2022-03-22T15:03:13.000",
    "date_modified": "2022-03-22T15:03:14.000",
    "request_status": "Pending",
    "responsible_agency": "Department of Sanitation",
    "final_address": "579 S Carrollton Ave",
    "address_councildis": "A",
    "status": "Assigned to Contractor",
    "contractor": "Richards Disposal",
    "rowid": "868933",
    "final_x": "3660584.3001",
    "final_y": "526619.705918",
    "longitude": "-90.13427685833754",
    "latitude": "29.942639917828412",
    "geocoded_column": {
      "latitude": "29.942639917828412",
      "longitude": "-90.13427685833754"
    }
  },
  {
    "service_request": "2022-868932",
    "request_type": "Property Maintenance",
    "request_reason": "Property Maintenance",
    "date_created": "2022-03-22T15:02:10.000",
    "date_modified": "2022-03-22T15:02:10.000",
    "request_status": "Pending",
    "responsible_agency": "Department of Code Enforcement",
    "final_address": "2837 Milan St",
    "address_councildis": "B",
    "status": "Pending",
    "rowid": "868932",
    "final_x": "3671183.03867",
    "final_y": "525465.503805",
    "longitude": "-90.10085328448618",
    "latitude": "29.93915701639153",
    "geocoded_column": {
      "latitude": "29.93915701639153",
      "longitude": "-90.10085328448618"
    }
  },
  {
    "service_request": "2022-868931",
    "request_type": "Trash/Recycling",
    "request_reason": "Order Trash Cart",
    "date_created": "2022-03-22T14:57:27.000",
    "date_modified": "2022-03-22T14:57:28.000",
    "request_status": "Pending",
    "responsible_agency": "Department of Sanitation",
    "final_address": "579 S Carrollton Ave",
    "address_councildis": "A",
    "status": "Assigned to Contractor",
    "contractor": "Richards Disposal",
    "rowid": "868931",
    "final_x": "3660584.3001",
    "final_y": "526619.705918",
    "longitude": "-90.13427685833754",
    "latitude": "29.942639917828412",
    "geocoded_column": {
      "latitude": "29.942639917828412",
      "longitude": "-90.13427685833754"
    }
  },
  {
    "service_request": "2022-868929",
    "request_type": "Trash/Recycling",
    "request_reason": "Replace Trash Cart",
    "date_created": "2022-03-22T14:54:53.000",
    "date_modified": "2022-03-22T14:54:54.000",
    "request_status": "Pending",
    "responsible_agency": "Department of Sanitation",
    "final_address": "1409 Music St",
    "address_councildis": "C",
    "status": "Assigned to Contractor",
    "contractor": "Metro Disposal",
    "rowid": "868929",
    "final_x": "3686788.62959",
    "final_y": "537656.283656",
    "longitude": "-90.05115395620412",
    "latitude": "29.97220670003207",
    "geocoded_column": {
      "latitude": "29.97220670003207",
      "longitude": "-90.05115395620412"
    }
  },
  {
    "service_request": "2022-868928",
    "request_type": "Trash/Recycling",
    "request_reason": "Illegal Dumping",
    "date_created": "2022-03-22T14:52:49.000",
    "date_modified": "2022-03-22T14:52:50.000",
    "request_status": "Pending",
    "responsible_agency": "Department of Sanitation",
    "final_address": "2000 BLK Florida Ave",
    "address_councildis": "D",
    "status": "Pending",
    "rowid": "868928",
    "final_x": "3683157.19664",
    "final_y": "542890.926473",
    "longitude": "-90.06243925908875",
    "latitude": "29.986711369167367",
    "geocoded_column": {
      "latitude": "29.986711369167367",
      "longitude": "-90.06243925908875"
    }
  },
  {
    "service_request": "2022-868927",
    "request_type": "Trash/Recycling",
    "request_reason": "Missed Trash Pick-Up",
    "date_created": "2022-03-22T14:51:20.000",
    "date_modified": "2022-03-22T14:51:21.000",
    "request_status": "Pending",
    "responsible_agency": "Department of Sanitation",
    "final_address": "5200 BLK Tchoupitoulas St",
    "address_councildis": "B",
    "status": "Assigned to Contractor",
    "contractor": "Richards Disposal",
    "rowid": "868927",
    "final_x": "3667821.6758",
    "final_y": "517193.111727",
    "longitude": "-90.11174399209347",
    "latitude": "29.91650955244125",
    "geocoded_column": {
      "latitude": "29.91650955244125",
      "longitude": "-90.11174399209347"
    }
  },
  {
    "service_request": "2022-868926",
    "request_type": "Trash/Recycling",
    "request_reason": "Missed Trash Pick-Up",
    "date_created": "2022-03-22T14:51:10.000",
    "date_modified": "2022-03-22T14:51:29.000",
    "request_status": "Pending",
    "responsible_agency": "Department of Sanitation",
    "final_address": "1918 Bodenger Blvd",
    "address_councildis": "C",
    "status": "Assigned to Contractor",
    "contractor": "Richards Disposal",
    "rowid": "868926",
    "final_x": "3688504.78927",
    "final_y": "524777.524924",
    "longitude": "-90.04619093923827",
    "latitude": "29.936741637193837",
    "geocoded_column": {
      "latitude": "29.936741637193837",
      "longitude": "-90.04619093923827"
    }
  },
  {
    "service_request": "2022-868925",
    "request_type": "Trash/Recycling",
    "request_reason": "Stop Trash Service",
    "date_created": "2022-03-22T14:50:51.000",
    "date_modified": "2022-03-22T14:50:55.000",
    "request_status": "Pending",
    "responsible_agency": "Department of Sanitation",
    "final_address": "3422 St Claude Ave",
    "address_councildis": "C",
    "status": "Assigned to Contractor",
    "contractor": "Metro Disposal",
    "rowid": "868925",
    "final_x": "3690363.22473",
    "final_y": "535623.993606",
    "longitude": "-90.03993726836704",
    "latitude": "29.966508149486124",
    "geocoded_column": {
      "latitude": "29.966508149486124",
      "longitude": "-90.03993726836704"
    }
  },
  {
    "service_request": "2022-868924",
    "request_type": "Trash/Recycling",
    "request_reason": "Illegal Dumping",
    "date_created": "2022-03-22T14:50:25.000",
    "date_modified": "2022-03-22T14:50:25.000",
    "request_status": "Pending",
    "responsible_agency": "Department of Sanitation",
    "final_address": "N CLAIBORNE AVE & LAHARPE ST",
    "address_councildis": "D",
    "status": "Pending",
    "rowid": "868924",
    "final_x": "3681899.2",
    "final_y": "537517.28",
    "longitude": "-90.0666004404715",
    "latitude": "29.971974021372514",
    "geocoded_column": {
      "latitude": "29.971974021372514",
      "longitude": "-90.0666004404715"
    }
  },
  {
    "service_request": "2022-868923",
    "request_type": "Trash/Recycling",
    "request_reason": "Order Recycling Cart",
    "date_created": "2022-03-22T14:47:37.000",
    "date_modified": "2022-03-22T14:47:37.000",
    "request_status": "Pending",
    "responsible_agency": "Department of Sanitation",
    "final_address": "2520 S Miro St",
    "address_councildis": "B",
    "status": "Pending",
    "rowid": "868923",
    "final_x": "3672695.48116",
    "final_y": "528800.769856",
    "longitude": "-90.09596459859036",
    "latitude": "29.948283087932552",
    "geocoded_column": {
      "latitude": "29.948283087932552",
      "longitude": "-90.09596459859036"
    }
  },
  {
    "service_request": "2022-868922",
    "request_type": "Abandoned Vehicles",
    "request_reason": "Abandoned/Junk Vehicles",
    "date_created": "2022-03-22T14:47:03.000",
    "date_modified": "2022-03-22T14:47:03.000",
    "request_status": "Pending",
    "responsible_agency": "Department of Public Works",
    "final_address": "KENTUCKY ST & N RAMPART ST",
    "address_councildis": "C",
    "status": "Pending",
    "rowid": "868922",
    "final_x": "3693206.2",
    "final_y": "534493.78",
    "longitude": "-90.03099979073637",
    "latitude": "29.96331191577396",
    "geocoded_column": {
      "latitude": "29.96331191577396",
      "longitude": "-90.03099979073637"
    }
  },
  {
    "service_request": "2022-868920",
    "request_type": "Trash/Recycling",
    "request_reason": "Repair Trash Cart",
    "date_created": "2022-03-22T14:42:35.000",
    "date_modified": "2022-03-22T14:42:37.000",
    "request_status": "Pending",
    "responsible_agency": "Department of Sanitation",
    "final_address": "2203 Napoleon Ave",
    "address_councildis": "B",
    "status": "Assigned to Contractor",
    "contractor": "Richards Disposal",
    "rowid": "868920",
    "final_x": "3670765.71387",
    "final_y": "523065.210491",
    "longitude": "-90.10225225122593",
    "latitude": "29.932569320866076",
    "geocoded_column": {
      "latitude": "29.932569320866076",
      "longitude": "-90.10225225122593"
    }
  },
  {
    "service_request": "2022-868919",
    "request_type": "Trash/Recycling",
    "request_reason": "Missed Trash Pick-Up",
    "date_created": "2022-03-22T14:41:37.000",
    "date_modified": "2022-03-22T14:41:37.000",
    "request_status": "Pending",
    "responsible_agency": "Department of Sanitation",
    "final_address": "4007 Magnolia St",
    "address_councildis": "B",
    "status": "Assigned to Contractor",
    "contractor": "Richards Disposal",
    "rowid": "868919",
    "final_x": "3671617.66151",
    "final_y": "524887.450236",
    "longitude": "-90.09950077492587",
    "latitude": "29.937554695164096",
    "geocoded_column": {
      "latitude": "29.937554695164096",
      "longitude": "-90.09950077492587"
    }
  },
  {
    "service_request": "2022-868918",
    "request_type": "Property Maintenance",
    "request_reason": "Property Maintenance",
    "date_created": "2022-03-22T14:41:17.000",
    "date_modified": "2022-03-22T14:41:17.000",
    "request_status": "Pending",
    "responsible_agency": "Department of Code Enforcement",
    "final_address": "517 Huntlee Dr",
    "address_councildis": "C",
    "status": "Pending",
    "rowid": "868918",
    "final_x": "3701786.64919",
    "final_y": "521358.755961",
    "longitude": "-90.00438496100584",
    "latitude": "29.926924285576884",
    "geocoded_column": {
      "latitude": "29.926924285576884",
      "longitude": "-90.00438496100584"
    }
  },
  {
    "service_request": "2022-868917",
    "request_type": "Abandoned Vehicles",
    "request_reason": "Abandoned/Junk Vehicles",
    "date_created": "2022-03-22T14:41:02.000",
    "date_modified": "2022-03-22T14:41:02.000",
    "request_status": "Pending",
    "responsible_agency": "Department of Public Works",
    "final_address": "11331 Lake Forest Blvd",
    "address_councildis": "E",
    "status": "Pending",
    "rowid": "868917",
    "final_x": "3717204.45714",
    "final_y": "562560.991904",
    "longitude": "-89.95415009457436",
    "latitude": "30.039714022198723",
    "geocoded_column": {
      "latitude": "30.039714022198723",
      "longitude": "-89.95415009457436"
    }
  },
  {
    "service_request": "2022-868916",
    "request_type": "Trash/Recycling",
    "request_reason": "Request a Large Item Pick Up",
    "date_created": "2022-03-22T14:40:46.000",
    "date_modified": "2022-03-22T14:40:47.000",
    "request_status": "Pending",
    "responsible_agency": "Department of Sanitation",
    "final_address": "528 Arabella St",
    "address_councildis": "A",
    "status": "Assigned to Contractor",
    "contractor": "Richards Disposal",
    "rowid": "868916",
    "final_x": "3665622.43597",
    "final_y": "518187.566454",
    "longitude": "-90.11865244081021",
    "latitude": "29.919308278963253",
    "geocoded_column": {
      "latitude": "29.919308278963253",
      "longitude": "-90.11865244081021"
    }
  },
  {
    "service_request": "2022-868915",
    "request_type": "Trash/Recycling",
    "request_reason": "Replace Trash Cart",
    "date_created": "2022-03-22T14:40:26.000",
    "date_modified": "2022-03-22T14:40:27.000",
    "request_status": "Pending",
    "responsible_agency": "Department of Sanitation",
    "final_address": "4007 Magnolia St",
    "address_councildis": "B",
    "status": "Assigned to Contractor",
    "contractor": "Richards Disposal",
    "rowid": "868915",
    "final_x": "3671617.66151",
    "final_y": "524887.450236",
    "longitude": "-90.09950077492587",
    "latitude": "29.937554695164096",
    "geocoded_column": {
      "latitude": "29.937554695164096",
      "longitude": "-90.09950077492587"
    }
  },
  {
    "service_request": "2022-868914",
    "request_type": "Roads/Drainage",
    "request_reason": "Debris in Roadway",
    "date_created": "2022-03-22T14:33:36.000",
    "date_modified": "2022-03-22T14:33:36.000",
    "request_status": "Pending",
    "responsible_agency": "Department of Public Works",
    "final_address": "EARHART BLVD & S DUPRE ST",
    "address_councildis": "B",
    "status": "Pending",
    "rowid": "868914",
    "final_x": "3671777.5",
    "final_y": "531740.18",
    "longitude": "-90.09876305330016",
    "latitude": "29.95639272203221",
    "geocoded_column": {
      "latitude": "29.95639272203221",
      "longitude": "-90.09876305330016"
    }
  },
  {
    "service_request": "2022-868913",
    "request_type": "Roads/Drainage",
    "request_reason": "Accessibility Ramps, Curbs and Sidewalk Repair",
    "date_created": "2022-03-22T14:32:32.000",
    "date_modified": "2022-03-22T14:32:32.000",
    "request_status": "Pending",
    "responsible_agency": "Department of Public Works",
    "final_address": "3916 Piedmont Dr",
    "address_councildis": "D",
    "status": "Pending",
    "rowid": "868913",
    "final_x": "3685371.96463",
    "final_y": "547019.521169",
    "longitude": "-90.05529819255621",
    "latitude": "29.997995800050123",
    "geocoded_column": {
      "latitude": "29.997995800050123",
      "longitude": "-90.05529819255621"
    }
  },
  {
    "service_request": "2022-868912",
    "request_type": "Trash/Recycling",
    "request_reason": "Replace Recycling Cart",
    "date_created": "2022-03-22T14:30:46.000",
    "date_modified": "2022-03-22T14:30:46.000",
    "request_status": "Pending",
    "responsible_agency": "Department of Sanitation",
    "final_address": "1221 Patterson St",
    "address_councildis": "C",
    "status": "Pending",
    "rowid": "868912",
    "final_x": "3689521.3142",
    "final_y": "531195.207746",
    "longitude": "-90.04275353084452",
    "latitude": "29.954356632463163",
    "geocoded_column": {
      "latitude": "29.954356632463163",
      "longitude": "-90.04275353084452"
    }
  },
  {
    "service_request": "2022-868910",
    "request_type": "Trash/Recycling",
    "request_reason": "Order Trash Cart",
    "date_created": "2022-03-22T14:29:28.000",
    "date_modified": "2022-03-22T14:29:29.000",
    "request_status": "Pending",
    "responsible_agency": "Department of Sanitation",
    "final_address": "1221 Patterson St",
    "address_councildis": "C",
    "status": "Assigned to Contractor",
    "contractor": "Richards Disposal",
    "rowid": "868910",
    "final_x": "3689521.3142",
    "final_y": "531195.207746",
    "longitude": "-90.04275353084452",
    "latitude": "29.954356632463163",
    "geocoded_column": {
      "latitude": "29.954356632463163",
      "longitude": "-90.04275353084452"
    }
  },
  {
    "service_request": "2022-868909",
    "request_type": "Abandoned Vehicles",
    "request_reason": "Vehicle Blocking Your Driveway",
    "date_created": "2022-03-22T14:28:46.000",
    "date_modified": "2022-03-22T14:28:46.000",
    "request_status": "Pending",
    "responsible_agency": "Department of Public Works",
    "final_address": "2559 N Galvez St",
    "address_councildis": "D",
    "status": "Pending",
    "rowid": "868909",
    "final_x": "3687411.29737",
    "final_y": "540236.695947",
    "longitude": "-90.04909613456684",
    "latitude": "29.9792827524496",
    "geocoded_column": {
      "latitude": "29.9792827524496",
      "longitude": "-90.04909613456684"
    }
  },
  {
    "service_request": "2022-868908",
    "request_type": "Trash/Recycling",
    "request_reason": "Start Trash Service",
    "date_created": "2022-03-22T14:28:08.000",
    "date_modified": "2022-03-22T14:28:09.000",
    "request_status": "Pending",
    "responsible_agency": "Department of Sanitation",
    "final_address": "1221 Patterson St",
    "address_councildis": "C",
    "status": "Assigned to Contractor",
    "contractor": "Richards Disposal",
    "rowid": "868908",
    "final_x": "3689521.3142",
    "final_y": "531195.207746",
    "longitude": "-90.04275353084452",
    "latitude": "29.954356632463163",
    "geocoded_column": {
      "latitude": "29.954356632463163",
      "longitude": "-90.04275353084452"
    }
  },
  {
    "service_request": "2022-868907",
    "request_type": "Trash/Recycling",
    "request_reason": "Missed Trash Pick-Up",
    "date_created": "2022-03-22T14:26:56.000",
    "date_modified": "2022-03-22T14:26:57.000",
    "request_status": "Pending",
    "responsible_agency": "Department of Sanitation",
    "final_address": "6813 Catina St",
    "address_councildis": "A",
    "status": "Assigned to Contractor",
    "contractor": "Metro Disposal",
    "rowid": "868907",
    "final_x": "3667178.52532",
    "final_y": "552938.843095",
    "longitude": "-90.1125719889167",
    "latitude": "30.014817298709175",
    "geocoded_column": {
      "latitude": "30.014817298709175",
      "longitude": "-90.1125719889167"
    }
  },
  {
    "service_request": "2022-868906",
    "request_type": "Trash/Recycling",
    "request_reason": "Order Recycling Cart",
    "date_created": "2022-03-22T14:26:12.000",
    "date_modified": "2022-03-22T14:26:12.000",
    "request_status": "Pending",
    "responsible_agency": "Department of Sanitation",
    "final_address": "6015 Prytania St",
    "address_councildis": "A",
    "status": "Pending",
    "rowid": "868906",
    "final_x": "3665088.1986",
    "final_y": "520953.381945",
    "longitude": "-90.12024633907009",
    "latitude": "29.92692896554448",
    "geocoded_column": {
      "latitude": "29.92692896554448",
      "longitude": "-90.12024633907009"
    }
  },
  {
    "service_request": "2022-868905",
    "request_type": "Tax and Revenue",
    "request_reason": "Business Renewal",
    "date_created": "2022-03-22T14:24:14.000",
    "date_modified": "2022-03-22T14:24:15.000",
    "request_status": "Pending",
    "responsible_agency": "Bureau of Revenue",
    "status": "Pending",
    "rowid": "868905",
    "longitude": "0.0",
    "latitude": "0.0",
    "geocoded_column": {
      "latitude": "0.0",
      "longitude": "0.0"
    }
  },
  {
    "service_request": "2022-868904",
    "request_type": "Trash/Recycling",
    "request_reason": "Order Recycling Cart",
    "date_created": "2022-03-22T14:21:33.000",
    "date_modified": "2022-03-22T14:21:33.000",
    "request_status": "Pending",
    "responsible_agency": "Department of Sanitation",
    "final_address": "3711 Octavia St",
    "address_councildis": "A",
    "status": "Pending",
    "rowid": "868904",
    "final_x": "3668773.90708",
    "final_y": "529149.09664",
    "longitude": "-90.10833490315468",
    "latitude": "29.94935673399731",
    "geocoded_column": {
      "latitude": "29.94935673399731",
      "longitude": "-90.10833490315468"
    }
  },
  {
    "service_request": "2022-868903",
    "request_type": "Property Maintenance",
    "request_reason": "Property Maintenance",
    "date_created": "2022-03-22T14:20:01.000",
    "date_modified": "2022-03-22T14:20:01.000",
    "request_status": "Pending",
    "responsible_agency": "Department of Code Enforcement",
    "final_address": "3601 Danneel St",
    "address_councildis": "B",
    "status": "Pending",
    "rowid": "868903",
    "final_x": "3672939.87508",
    "final_y": "522634.003642",
    "longitude": "-90.0954033038108",
    "latitude": "29.931319232724974",
    "geocoded_column": {
      "latitude": "29.931319232724974",
      "longitude": "-90.0954033038108"
    }
  },
  {
    "service_request": "2022-868902",
    "request_type": "Abandoned Vehicles",
    "request_reason": "Vehicle Blocking Your Driveway",
    "date_created": "2022-03-22T14:13:03.000",
    "date_modified": "2022-03-22T14:13:03.000",
    "request_status": "Pending",
    "responsible_agency": "Department of Public Works",
    "final_address": "2325 Jena St ",
    "address_councildis": "B",
    "status": "Pending",
    "rowid": "868902",
    "final_x": "3670218.48442",
    "final_y": "523540.286203",
    "longitude": "-90.1039637214859",
    "latitude": "29.933891781407453",
    "geocoded_column": {
      "latitude": "29.933891781407453",
      "longitude": "-90.1039637214859"
    }
  },
  {
    "service_request": "2022-868901",
    "request_type": "Trash/Recycling",
    "request_reason": "Repair Trash Cart",
    "date_created": "2022-03-22T14:11:08.000",
    "date_modified": "2022-03-22T14:11:09.000",
    "request_status": "Pending",
    "responsible_agency": "Department of Sanitation",
    "final_address": "1780 N Gayoso St",
    "address_councildis": "D",
    "status": "Assigned to Contractor",
    "contractor": "Metro Disposal",
    "rowid": "868901",
    "final_x": "3679166.62677",
    "final_y": "541914.405068",
    "longitude": "-90.07507785543403",
    "latitude": "29.984147374544133",
    "geocoded_column": {
      "latitude": "29.984147374544133",
      "longitude": "-90.07507785543403"
    }
  },
  {
    "service_request": "2022-868900",
    "request_type": "Trash/Recycling",
    "request_reason": "Order Recycling Cart",
    "date_created": "2022-03-22T14:06:46.000",
    "date_modified": "2022-03-22T14:06:46.000",
    "request_status": "Pending",
    "responsible_agency": "Department of Sanitation",
    "final_address": "2018 Delachaise St",
    "address_councildis": "B",
    "status": "Pending",
    "rowid": "868900",
    "final_x": "3673166.99924",
    "final_y": "522847.205627",
    "longitude": "-90.09467902420118",
    "latitude": "29.93189872021982",
    "geocoded_column": {
      "latitude": "29.93189872021982",
      "longitude": "-90.09467902420118"
    }
  },
  {
    "service_request": "2022-868899",
    "request_type": "Trash/Recycling",
    "request_reason": "Request a Large Item Pick Up",
    "date_created": "2022-03-22T14:04:24.000",
    "date_modified": "2022-03-22T14:04:25.000",
    "request_status": "Pending",
    "responsible_agency": "Department of Sanitation",
    "final_address": "2018 Delachaise St",
    "address_councildis": "B",
    "status": "Assigned to Contractor",
    "contractor": "Richards Disposal",
    "rowid": "868899",
    "final_x": "3673166.99924",
    "final_y": "522847.205627",
    "longitude": "-90.09467902420118",
    "latitude": "29.93189872021982",
    "geocoded_column": {
      "latitude": "29.93189872021982",
      "longitude": "-90.09467902420118"
    }
  },
  {
    "service_request": "2022-868898",
    "request_type": "Trash/Recycling",
    "request_reason": "Missed Trash Pick-Up",
    "date_created": "2022-03-22T14:01:01.000",
    "date_modified": "2022-03-22T14:01:02.000",
    "request_status": "Pending",
    "responsible_agency": "Department of Sanitation",
    "final_address": "9020 Apricot St",
    "address_councildis": "A",
    "status": "Assigned to Contractor",
    "contractor": "Richards Disposal",
    "rowid": "868898",
    "final_x": "3663316.00768",
    "final_y": "534861.097286",
    "longitude": "-90.12537787452466",
    "latitude": "29.965222192898256",
    "geocoded_column": {
      "latitude": "29.965222192898256",
      "longitude": "-90.12537787452466"
    }
  },
  {
    "service_request": "2022-868897",
    "request_type": "Property Maintenance",
    "request_reason": "Property Maintenance",
    "date_created": "2022-03-22T13:55:47.000",
    "date_modified": "2022-03-22T13:55:47.000",
    "request_status": "Pending",
    "responsible_agency": "Department of Code Enforcement",
    "final_address": "3522 S Tonti St",
    "address_councildis": "B",
    "status": "Pending",
    "rowid": "868897",
    "final_x": "3671051.10158",
    "final_y": "528181.675264",
    "longitude": "-90.1011776144792",
    "latitude": "29.94662950474904",
    "geocoded_column": {
      "latitude": "29.94662950474904",
      "longitude": "-90.1011776144792"
    }
  },