[
  {
    "service_request": "2022-930715",
    "request_type": "Traffic Signals/Signs/Striping/Streetlights",
    "request_reason": "Street Light Outage/Malfunction",
    "date_created": "2022-10-23T01:51:32.000",
    "date_modified": "2022-10-23T01:51:33.000",
    "request_status": "Pending",
    "responsible_agency": "Department of Public Works",
    "final_address": "8012 Willow St",
    "address_councildis": "A",
    "status": "Pending",
    "contractor": "Legacy Professional Services",
    "rowid": "930715",
    "final_x": "3662665.59437",
    "final_y": "528632.329024",
    "longitude": "-90.12763883229549",
    "latitude": "29.948113936897634",
    "geocoded_column": {
      "latitude": "29.948113936897634",
      "longitude": "-90.12763883229549"
    }
  },
  {
    "service_request": "2022-930714",
    "request_type": "Abandoned Vehicles",
    "request_reason": "Abandoned/Junk Vehicles",
    "date_created": "2022-10-22T22:59:52.000",
    "date_modified": "2022-10-22T22:59:52.000",
    "request_status": "Pending",
    "responsible_agency": "Department of Public Works",
    "final_address": "4048 Tall Timbers Dr",
    "address_councildis": "C",
    "status": "Pending",
    "rowid": "930714",
    "final_x": "3704212.85335",
    "final_y": "513559.046322",
    "longitude": "-89.9970132796119",
    "latitude": "29.90540017235641",
    "geocoded_column": {
      "latitude": "29.90540017235641",
      "longitude": "-89.9970132796119"
    }
  },
  {
    "service_request": "2022-930711",
    "request_type": "Safety & Permits",
    "request_reason": "Licenses & Permits",
    "date_created": "2022-10-22T22:28:52.000",
    "date_modified": "2022-10-22T22:28:52.000",
    "request_status": "Pending",
    "responsible_agency": "Safety and Permits",
    "final_address": "4523 Magazine St",
    "address_councildis": "B",
    "status": "Pending",
    "rowid": "930711",
    "final_x": "3670459.91399",
    "final_y": "518764.599223",
    "longitude": "-90.10336337284775",
    "latitude": "29.920753043460966",
    "geocoded_column": {
      "latitude": "29.920753043460966",
      "longitude": "-90.10336337284775"
    }
  },
  {
    "service_request": "2022-930710",
    "request_type": "Roads/Drainage",
    "request_reason": "Culvert Issue",
    "date_created": "2022-10-22T22:20:56.000",
    "date_modified": "2022-10-22T22:20:56.000",
    "request_status": "Pending",
    "responsible_agency": "Department of Public Works",
    "final_address": "1449 N Tonti St",
    "address_councildis": "D",
    "status": "Pending",
    "rowid": "930710",
    "final_x": "3679711.03496",
    "final_y": "538672.554697",
    "longitude": "-90.07347090163051",
    "latitude": "29.97521696211973",
    "geocoded_column": {
      "latitude": "29.97521696211973",
      "longitude": "-90.07347090163051"
    }
  },
  {
    "service_request": "2022-930709",
    "request_type": "Safety & Permits",
    "request_reason": "Licenses & Permits",
    "date_created": "2022-10-22T22:09:08.000",
    "date_modified": "2022-10-22T22:09:08.000",
    "request_status": "Pending",
    "responsible_agency": "Safety and Permits",
    "final_address": "2000 Burgundy St",
    "address_councildis": "C",
    "status": "Pending",
    "rowid": "930709",
    "final_x": "3684318.77397",
    "final_y": "535495.166406",
    "longitude": "-90.05903006849091",
    "latitude": "29.966340139100453",
    "geocoded_column": {
      "latitude": "29.966340139100453",
      "longitude": "-90.05903006849091"
    }
  },
  {
    "service_request": "2022-930708",
    "request_type": "Trash/Recycling",
    "request_reason": "Request a Large Item Pick Up",
    "date_created": "2022-10-22T21:55:43.000",
    "date_modified": "2022-10-22T21:55:44.000",
    "request_status": "Pending",
    "responsible_agency": "Department of Sanitation",
    "final_address": "523 Allen Toussaint Blvd",
    "address_councildis": "D",
    "status": "Assigned to Contractor",
    "contractor": "Metro Disposal",
    "rowid": "930708",
    "final_x": "3668302.06273",
    "final_y": "554878.386648",
    "longitude": "-90.10895666020626",
    "latitude": "30.020117396655262",
    "geocoded_column": {
      "latitude": "30.020117396655262",
      "longitude": "-90.10895666020626"
    }
  },
  {
    "service_request": "2022-930707",
    "request_type": "Trash/Recycling",
    "request_reason": "Order Trash Cart",
    "date_created": "2022-10-22T21:54:41.000",
    "date_modified": "2022-10-22T21:54:42.000",
    "request_status": "Pending",
    "responsible_agency": "Department of Sanitation",
    "final_address": "7560 Parry St",
    "address_councildis": "E",
    "status": "Assigned to Contractor",
    "contractor": "Metro Disposal",
    "rowid": "930707",
    "final_x": "3714585.76447",
    "final_y": "568131.472549",
    "longitude": "-89.96221521965573",
    "latitude": "30.055116985179676",
    "geocoded_column": {
      "latitude": "30.055116985179676",
      "longitude": "-89.96221521965573"
    }
  },
  {
    "service_request": "2022-930705",
    "request_type": "Traffic Signals/Signs/Striping/Streetlights",
    "request_reason": "Street Light Outage/Malfunction",
    "date_created": "2022-10-22T21:45:07.000",
    "date_modified": "2022-10-22T21:45:08.000",
    "request_status": "Pending",
    "responsible_agency": "Department of Public Works",
    "final_address": "1238 Gallier St",
    "address_councildis": "C",
    "status": "Pending",
    "contractor": "Legacy Professional Services",
    "rowid": "930705",
    "final_x": "3690594.45718",
    "final_y": "536311.000647",
    "longitude": "-90.03918253781461",
    "latitude": "29.96838999853603",
    "geocoded_column": {
      "latitude": "29.96838999853603",
      "longitude": "-90.03918253781461"
    }
  },
  {
    "service_request": "2022-930704",
    "request_type": "Abandoned Vehicles",
    "request_reason": "Abandoned/Junk Vehicles",
    "date_created": "2022-10-22T21:41:15.000",
    "date_modified": "2022-10-22T21:41:15.000",
    "request_status": "Pending",
    "responsible_agency": "Department of Public Works",
    "final_address": "3400 Urquhart St",
    "address_councildis": "C",
    "status": "Pending",
    "rowid": "930704",
    "final_x": "3690471.7951",
    "final_y": "536367.300871",
    "longitude": "-90.0395679016853",
    "latitude": "29.968548613115413",
    "geocoded_column": {
      "latitude": "29.968548613115413",
      "longitude": "-90.0395679016853"
    }
  },
  {
    "service_request": "2022-930702",
    "request_type": "Abandoned Vehicles",
    "request_reason": "Vehicle Blocking Your Driveway",
    "date_created": "2022-10-22T21:24:13.000",
    "date_modified": "2022-10-22T21:24:13.000",
    "request_status": "Pending",
    "responsible_agency": "Department of Public Works",
    "final_address": "4015 Octavia St, New Orleans, Louisiana, 70125",
    "address_councildis": "B",
    "status": "Pending",
    "rowid": "930702",
    "final_x": "3668966.4418",
    "final_y": "530120.678785",
    "longitude": "-90.10769416974605",
    "latitude": "29.952022606061742",
    "geocoded_column": {
      "latitude": "29.952022606061742",
      "longitude": "-90.10769416974605"
    }
  },
  {
    "service_request": "2022-930701",
    "request_type": "Traffic Signals/Signs/Striping/Streetlights",
    "request_reason": "Street Light Outage/Malfunction",
    "date_created": "2022-10-22T21:13:32.000",
    "date_modified": "2022-10-22T21:13:33.000",
    "request_status": "Pending",
    "responsible_agency": "Department of Public Works",
    "final_address": "5620 Oxford Pl",
    "address_councildis": "C",
    "status": "Pending",
    "contractor": "Legacy Professional Services",
    "rowid": "930701",
    "final_x": "3704387.43223",
    "final_y": "520151.40396",
    "longitude": "-89.99621951459548",
    "latitude": "29.923521290200945",
    "geocoded_column": {
      "latitude": "29.923521290200945",
      "longitude": "-89.99621951459548"
    }
  },
  {
    "service_request": "2022-930700",
    "request_type": "Traffic Signals/Signs/Striping/Streetlights",
    "request_reason": "Street Light Outage/Malfunction",
    "date_created": "2022-10-22T21:06:09.000",
    "date_modified": "2022-10-22T21:06:10.000",
    "request_status": "Pending",
    "responsible_agency": "Department of Public Works",
    "final_address": "5510 Constance St",
    "address_councildis": "A",
    "status": "Pending",
    "contractor": "Legacy Professional Services",
    "rowid": "930700",
    "final_x": "3666257.85588",
    "final_y": "518459.029558",
    "longitude": "-90.11663763452759",
    "latitude": "29.92003618042957",
    "geocoded_column": {
      "latitude": "29.92003618042957",
      "longitude": "-90.11663763452759"
    }
  },
  {
    "service_request": "2022-930699",
    "request_type": "Traffic Signals/Signs/Striping/Streetlights",
    "request_reason": "Street Light Outage/Malfunction",
    "date_created": "2022-10-22T20:44:49.000",
    "date_modified": "2022-10-22T20:44:50.000",
    "request_status": "Pending",
    "responsible_agency": "Department of Public Works",
    "final_address": "5500 Dauphine St",
    "address_councildis": "E",
    "status": "Pending",
    "contractor": "Legacy Professional Services",
    "rowid": "930699",
    "final_x": "3697444.08656",
    "final_y": "532664.357508",
    "longitude": "-90.01768343074488",
    "latitude": "29.958148530327403",
    "geocoded_column": {
      "latitude": "29.958148530327403",
      "longitude": "-90.01768343074488"
    }
  },
  {
    "service_request": "2022-930698",
    "request_type": "Health Related Questions",
    "request_reason": "Noise Ordinance Complaint",
    "date_created": "2022-10-22T19:18:54.000",
    "date_modified": "2022-10-22T19:18:54.000",
    "request_status": "Pending",
    "responsible_agency": "Health Department",
    "final_address": "1500 N Claiborne Ave",
    "address_councildis": "C",
    "status": "Pending",
    "rowid": "930698",
    "final_x": "3681846.67516",
    "final_y": "537148.826504",
    "longitude": "-90.0667791844965",
    "latitude": "29.970962498120493",
    "geocoded_column": {
      "latitude": "29.970962498120493",
      "longitude": "-90.0667791844965"
    }
  },
  {
    "service_request": "2022-930697",
    "request_type": "Trash/Recycling",
    "request_reason": "Request a Large Item Pick Up",
    "date_created": "2022-10-22T19:15:09.000",
    "date_modified": "2022-10-22T19:15:09.000",
    "request_status": "Pending",
    "responsible_agency": "Department of Sanitation",
    "final_address": "2463 N Villere St",
    "address_councildis": "C",
    "status": "Assigned to Contractor",
    "contractor": "Metro Disposal",
    "rowid": "930697",
    "final_x": "3686984.67951",
    "final_y": "537607.952648",
    "longitude": "-90.05053650775932",
    "latitude": "29.97206777311726",
    "geocoded_column": {
      "latitude": "29.97206777311726",
      "longitude": "-90.05053650775932"
    }
  },
  {
    "service_request": "2022-930696",
    "request_type": "Trash/Recycling",
    "request_reason": "Request a Large Item Pick Up",
    "date_created": "2022-10-22T19:08:10.000",
    "date_modified": "2022-10-22T19:08:11.000",
    "request_status": "Pending",
    "responsible_agency": "Department of Sanitation",
    "final_address": "7929 Freret St",
    "address_councildis": "A",
    "status": "Assigned to Contractor",
    "contractor": "Richards Disposal",
    "rowid": "930696",
    "final_x": "3661926.85114",
    "final_y": "527522.518655",
    "longitude": "-90.13000815603785",
    "latitude": "29.9450836666227",
    "geocoded_column": {
      "latitude": "29.9450836666227",
      "longitude": "-90.13000815603785"
    }
  },
  {
    "service_request": "2022-930695",
    "request_type": "Trash/Recycling",
    "request_reason": "Missed Trash Pick-Up",
    "date_created": "2022-10-22T18:10:24.000",
    "date_modified": "2022-10-22T18:10:25.000",
    "request_status": "Pending",
    "responsible_agency": "Department of Sanitation",
    "final_address": "134 N Alexander St",
    "address_councildis": "A",
    "status": "Assigned to Contractor",
    "contractor": "Richards Disposal",
    "rowid": "930695",
    "final_x": "3670253.93831",
    "final_y": "539432.27457",
    "longitude": "-90.10331323336244",
    "latitude": "29.97758845966334",
    "geocoded_column": {
      "latitude": "29.97758845966334",
      "longitude": "-90.10331323336244"
    }
  },
  {
    "service_request": "2022-930693",
    "request_type": "Abandoned Vehicles",
    "request_reason": "Abandoned/Junk Vehicles",
    "date_created": "2022-10-22T17:56:15.000",
    "date_modified": "2022-10-22T17:56:15.000",
    "request_status": "Pending",
    "responsible_agency": "Department of Public Works",
    "final_address": "936 Aline St",
    "address_councildis": "B",
    "status": "Pending",
    "rowid": "930693",
    "final_x": "3674560.40206",
    "final_y": "518971.316535",
    "longitude": "-90.09041291812844",
    "latitude": "29.92119978448902",
    "geocoded_column": {
      "latitude": "29.92119978448902",
      "longitude": "-90.09041291812844"
    }
  },
  {
    "service_request": "2022-930692",
    "request_type": "Trash/Recycling",
    "request_reason": "MIssed Recycling Pick-Up",
    "date_created": "2022-10-22T17:45:43.000",
    "date_modified": "2022-10-22T17:45:44.000",
    "request_status": "Pending",
    "responsible_agency": "Department of Sanitation",
    "final_address": "4400 Elba St",
    "address_councildis": "B",
    "status": "Assigned to Contractor",
    "contractor": "Richards Disposal",
    "rowid": "930692",
    "final_x": "3669750.1467",
    "final_y": "530370.129026",
    "longitude": "-90.10521114893392",
    "latitude": "29.95268543907863",
    "geocoded_column": {
      "latitude": "29.95268543907863",
      "longitude": "-90.10521114893392"
    }
  },
  {
    "service_request": "2022-930691",
    "request_type": "Property Maintenance",
    "request_reason": "Property Maintenance",
    "date_created": "2022-10-22T17:21:56.000",
    "date_modified": "2022-10-22T17:21:56.000",
    "request_status": "Pending",
    "responsible_agency": "Department of Code Enforcement",
    "final_address": "1313 Governor Nicholls St Apt A",
    "address_councildis": "C",
    "status": "Pending",
    "rowid": "930691",
    "final_x": "3681883.95061",
    "final_y": "535404.679814",
    "longitude": "-90.06672235192569",
    "latitude": "29.966165562576023",
    "geocoded_column": {
      "latitude": "29.966165562576023",
      "longitude": "-90.06672235192569"
    }
  },
  {
    "service_request": "2022-930690",
    "request_type": "Abandoned Vehicles",
    "request_reason": "Vehicle Blocking Your Driveway",
    "date_created": "2022-10-22T17:12:15.000",
    "date_modified": "2022-10-22T17:12:15.000",
    "request_status": "Pending",
    "responsible_agency": "Department of Public Works",
    "final_address": "3427 Desaix Blvd",
    "address_councildis": "D",
    "status": "Pending",
    "rowid": "930690",
    "final_x": "3676613.19726",
    "final_y": "543762.366414",
    "longitude": "-90.08307930060919",
    "latitude": "29.989305477712065",
    "geocoded_column": {
      "latitude": "29.989305477712065",
      "longitude": "-90.08307930060919"
    }
  },
  {
    "service_request": "2022-930689",
    "request_type": "Trash/Recycling",
    "request_reason": "Missed Trash Pick-Up",
    "date_created": "2022-10-22T17:10:51.000",
    "date_modified": "2022-10-22T17:10:52.000",
    "request_status": "Pending",
    "responsible_agency": "Department of Sanitation",
    "final_address": "4725 Dauphine St",
    "address_councildis": "E",
    "status": "Assigned to Contractor",
    "contractor": "Metro Disposal",
    "rowid": "930689",
    "final_x": "3694541.97046",
    "final_y": "533447.094212",
    "longitude": "-90.02681928611122",
    "latitude": "29.96039208597154",
    "geocoded_column": {
      "latitude": "29.96039208597154",
      "longitude": "-90.02681928611122"
    }
  },
  {
    "service_request": "2022-930688",
    "request_type": "Trash/Recycling",
    "request_reason": "Missed Trash Pick-Up",
    "date_created": "2022-10-22T17:10:20.000",
    "date_modified": "2022-10-22T17:10:21.000",
    "request_status": "Pending",
    "responsible_agency": "Department of Sanitation",
    "final_address": "4733 Dauphine St",
    "address_councildis": "E",
    "status": "Assigned to Contractor",
    "contractor": "Metro Disposal",
    "rowid": "930688",
    "final_x": "3694606.91702",
    "final_y": "533430.776196",
    "longitude": "-90.02661478680982",
    "latitude": "29.960345180794135",
    "geocoded_column": {
      "latitude": "29.960345180794135",
      "longitude": "-90.02661478680982"
    }
  },
  {
    "service_request": "2022-930687",
    "request_type": "Trash/Recycling",
    "request_reason": "Missed Trash Pick-Up",
    "date_created": "2022-10-22T17:09:47.000",
    "date_modified": "2022-10-22T17:09:48.000",
    "request_status": "Pending",
    "responsible_agency": "Department of Sanitation",
    "final_address": "4731 Dauphine St",
    "address_councildis": "E",
    "status": "Assigned to Contractor",
    "contractor": "Metro Disposal",
    "rowid": "930687",
    "final_x": "3694593.21053",
    "final_y": "533433.713348",
    "longitude": "-90.02665796309971",
    "latitude": "29.960353686717127",
    "geocoded_column": {
      "latitude": "29.960353686717127",
      "longitude": "-90.02665796309971"
    }
  },
  {
    "service_request": "2022-930686",
    "request_type": "Property Maintenance",
    "request_reason": "Property Maintenance",
    "date_created": "2022-10-22T16:59:08.000",
    "date_modified": "2022-10-22T16:59:08.000",
    "request_status": "Pending",
    "responsible_agency": "Department of Code Enforcement",
    "final_address": "4302 S Miro St",
    "address_councildis": "B",
    "status": "Pending",
    "rowid": "930686",
    "final_x": "3670517.29121",
    "final_y": "527808.814847",
    "longitude": "-90.10287569197149",
    "latitude": "29.945620033232718",
    "geocoded_column": {
      "latitude": "29.945620033232718",
      "longitude": "-90.10287569197149"
    }
  },
  {
    "service_request": "2022-930685",
    "request_type": "Abandoned Vehicles",
    "request_reason": "Abandoned/Junk Vehicles",
    "date_created": "2022-10-22T16:16:42.000",
    "date_modified": "2022-10-22T16:16:42.000",
    "request_status": "Pending",
    "responsible_agency": "Department of Public Works",
    "final_address": "3441 Laurel St",
    "address_councildis": "B",
    "status": "Pending",
    "rowid": "930685",
    "final_x": "3674975.52417",
    "final_y": "518863.059639",
    "longitude": "-90.08910627124483",
    "latitude": "29.920889724648255",
    "geocoded_column": {
      "latitude": "29.920889724648255",
      "longitude": "-90.08910627124483"
    }
  },
  {
    "service_request": "2022-930684",
    "request_type": "Abandoned Vehicles",
    "request_reason": "Abandoned/Junk Vehicles",
    "date_created": "2022-10-22T16:15:12.000",
    "date_modified": "2022-10-22T16:15:12.000",
    "request_status": "Pending",
    "responsible_agency": "Department of Public Works",
    "final_address": "3441 Laurel St",
    "address_councildis": "B",
    "status": "Pending",
    "rowid": "930684",
    "final_x": "3674975.52417",
    "final_y": "518863.059639",
    "longitude": "-90.08910627124483",
    "latitude": "29.920889724648255",
    "geocoded_column": {
      "latitude": "29.920889724648255",
      "longitude": "-90.08910627124483"
    }
  },
  {
    "service_request": "2022-930683",
    "request_type": "Roads/Drainage",
    "request_reason": "Debris in Roadway",
    "date_created": "2022-10-22T15:29:16.000",
    "date_modified": "2022-10-22T15:29:16.000",
    "request_status": "Pending",
    "responsible_agency": "Department of Public Works",
    "final_address": "6012 Stratford Pl",
    "address_councildis": "C",
    "status": "Pending",
    "rowid": "930683",
    "final_x": "3706034.12721",
    "final_y": "516248.979828",
    "longitude": "-89.99116584477727",
    "latitude": "29.9127380363502",
    "geocoded_column": {
      "latitude": "29.9127380363502",
      "longitude": "-89.99116584477727"
    }
  },
  {
    "service_request": "2022-930682",
    "request_type": "Traffic Signals/Signs/Striping/Streetlights",
    "request_reason": "Striping/Road Surface Markings",
    "date_created": "2022-10-22T15:00:38.000",
    "date_modified": "2022-10-22T15:00:38.000",
    "request_status": "Pending",
    "responsible_agency": "Department of Public Works",
    "final_address": "3135 Dauphine St Apt A1",
    "address_councildis": "C",
    "status": "Pending",
    "rowid": "930682",
    "final_x": "3689027.75331",
    "final_y": "534981.160518",
    "longitude": "-90.04417749857788",
    "latitude": "29.964781965105",
    "geocoded_column": {
      "latitude": "29.964781965105",
      "longitude": "-90.04417749857788"
    }
  },
  {
    "service_request": "2022-930681",
    "request_type": "Traffic Signals/Signs/Striping/Streetlights",
    "request_reason": "Traffic Sign Missing/Damaged",
    "date_created": "2022-10-22T14:49:23.000",
    "date_modified": "2022-10-22T14:49:23.000",
    "request_status": "Pending",
    "responsible_agency": "Department of Public Works",
    "final_address": "3135 Dauphine St Apt A1",
    "address_councildis": "C",
    "status": "Pending",
    "rowid": "930681",
    "final_x": "3689027.75331",
    "final_y": "534981.160518",
    "longitude": "-90.04417749857788",
    "latitude": "29.964781965105",
    "geocoded_column": {
      "latitude": "29.964781965105",
      "longitude": "-90.04417749857788"
    }
  },
  {
    "service_request": "2022-930680",
    "request_type": "Trash/Recycling",
    "request_reason": "Order Trash Cart",
    "date_created": "2022-10-22T14:34:23.000",
    "date_modified": "2022-10-22T14:34:24.000",
    "request_status": "Pending",
    "responsible_agency": "Department of Sanitation",
    "final_address": "9017 Peach St, New Orleans, Louisiana, 70118",
    "address_councildis": "A",
    "status": "Assigned to Contractor",
    "contractor": "Richards Disposal",
    "rowid": "930680",
    "final_x": "3666197.40097",
    "final_y": "538013.897993",
    "longitude": "-90.11617278904357",
    "latitude": "29.973807510139302",
    "geocoded_column": {
      "latitude": "29.973807510139302",
      "longitude": "-90.11617278904357"
    }
  },
  {
    "service_request": "2022-930679",
    "request_type": "Property Maintenance",
    "request_reason": "Property Maintenance",
    "date_created": "2022-10-22T14:25:39.000",
    "date_modified": "2022-10-22T14:25:39.000",
    "request_status": "Pending",
    "responsible_agency": "Department of Code Enforcement",
    "final_address": "1499 Athis St",
    "address_councildis": "D",
    "status": "Pending",
    "rowid": "930679",
    "final_x": "3678333.34075",
    "final_y": "553765.839191",
    "longitude": "-90.07729949681413",
    "latitude": "30.016759750330863",
    "geocoded_column": {
      "latitude": "30.016759750330863",
      "longitude": "-90.07729949681413"
    }
  },
  {
    "service_request": "2022-930678",
    "request_type": "Abandoned Vehicles",
    "request_reason": "Abandoned/Junk Vehicles",
    "date_created": "2022-10-22T14:14:39.000",
    "date_modified": "2022-10-22T14:14:39.000",
    "request_status": "Pending",
    "responsible_agency": "Department of Public Works",
    "final_address": "1337 State St",
    "address_councildis": "A",
    "status": "Pending",
    "rowid": "930678",
    "final_x": "3665410.92103",
    "final_y": "521082.616825",
    "longitude": "-90.11922326261714",
    "latitude": "29.927274922157512",
    "geocoded_column": {
      "latitude": "29.927274922157512",
      "longitude": "-90.11922326261714"
    }
  },
  {
    "service_request": "2022-930677",
    "request_type": "Trash/Recycling",
    "request_reason": "Illegal Dumping",
    "date_created": "2022-10-22T13:45:26.000",
    "date_modified": "2022-10-22T13:45:26.000",
    "request_status": "Pending",
    "responsible_agency": "Department of Sanitation",
    "final_address": "2320 Dante St",
    "address_councildis": "A",
    "status": "Pending",
    "rowid": "930677",
    "final_x": "3664118.34285",
    "final_y": "531880.121091",
    "longitude": "-90.12294357158558",
    "latitude": "29.957002201341144",
    "geocoded_column": {
      "latitude": "29.957002201341144",
      "longitude": "-90.12294357158558"
    }
  },
  {
    "service_request": "2022-930676",
    "request_type": "Trash/Recycling",
    "request_reason": "Request a Large Item Pick Up",
    "date_created": "2022-10-22T13:43:37.000",
    "date_modified": "2022-10-22T13:43:38.000",
    "request_status": "Pending",
    "responsible_agency": "Department of Sanitation",
    "final_address": "38 Vivian Ct",
    "address_councildis": "C",
    "status": "Assigned to Contractor",
    "contractor": "Richards Disposal",
    "rowid": "930676",
    "final_x": "3702168.44266",
    "final_y": "521008.574969",
    "longitude": "-90.00319258063631",
    "latitude": "29.925949227839972",
    "geocoded_column": {
      "latitude": "29.925949227839972",
      "longitude": "-90.00319258063631"
    }
  },
  {
    "service_request": "2022-930674",
    "request_type": "Traffic Signals/Signs/Striping/Streetlights",
    "request_reason": "Traffic Sign Missing/Damaged",
    "date_created": "2022-10-22T12:53:29.000",
    "date_modified": "2022-10-22T12:53:29.000",
    "request_status": "Pending",
    "responsible_agency": "Department of Public Works",
    "final_address": "6700 Chef Menteur Hwy",
    "address_councildis": "E",
    "status": "Pending",
    "rowid": "930674",
    "final_x": "3699512.73316",
    "final_y": "551797.942934",
    "longitude": "-90.01045372307892",
    "latitude": "30.010693414603885",
    "geocoded_column": {
      "latitude": "30.010693414603885",
      "longitude": "-90.01045372307892"
    }
  },
  {
    "service_request": "2022-930673",
    "request_type": "Traffic Signals/Signs/Striping/Streetlights",
    "request_reason": "Street Name Sign Damaged or Missing",
    "date_created": "2022-10-22T12:51:55.000",
    "date_modified": "2022-10-22T12:51:55.000",
    "request_status": "Pending",
    "responsible_agency": "Department of Public Works",
    "final_address": "6700 Chef Menteur Hwy",
    "address_councildis": "E",
    "status": "Pending",
    "rowid": "930673",
    "final_x": "3699512.73316",
    "final_y": "551797.942934",
    "longitude": "-90.01045372307892",
    "latitude": "30.010693414603885",
    "geocoded_column": {
      "latitude": "30.010693414603885",
      "longitude": "-90.01045372307892"
    }
  },
  {
    "service_request": "2022-930672",
    "request_type": "Trash/Recycling",
    "request_reason": "Missed Trash Pick-Up",
    "date_created": "2022-10-22T12:46:43.000",
    "date_modified": "2022-10-22T12:46:44.000",
    "request_status": "Pending",
    "responsible_agency": "Department of Sanitation",
    "final_address": "4627 Bundy Rd",
    "address_councildis": "E",
    "status": "Assigned to Contractor",
    "contractor": "Metro Disposal",
    "rowid": "930672",
    "final_x": "3709539.86942",
    "final_y": "555044.669977",
    "longitude": "-89.97865314552227",
    "latitude": "30.01929853594247",
    "geocoded_column": {
      "latitude": "30.01929853594247",
      "longitude": "-89.97865314552227"
    }
  },
  {
    "service_request": "2022-930671",
    "request_type": "Trash/Recycling",
    "request_reason": "Order Trash Cart",
    "date_created": "2022-10-22T12:44:48.000",
    "date_modified": "2022-10-22T12:44:49.000",
    "request_status": "Pending",
    "responsible_agency": "Department of Sanitation",
    "final_address": "1509 Upperline St",
    "address_councildis": "B",
    "status": "Assigned to Contractor",
    "contractor": "Richards Disposal",
    "rowid": "930671",
    "final_x": "3669127.65575",
    "final_y": "520479.239608",
    "longitude": "-90.10751081191844",
    "latitude": "29.925507016314405",
    "geocoded_column": {
      "latitude": "29.925507016314405",
      "longitude": "-90.10751081191844"
    }
  },
  {
    "service_request": "2022-930670",
    "request_type": "Trash/Recycling",
    "request_reason": "Illegal Dumping",
    "date_created": "2022-10-22T12:44:29.000",
    "date_modified": "2022-10-22T12:44:29.000",
    "request_status": "Pending",
    "responsible_agency": "Department of Sanitation",
    "final_address": "3014 Pleasure St",
    "address_councildis": "D",
    "status": "Pending",
    "rowid": "930670",
    "final_x": "3690840.03113",
    "final_y": "545091.296655",
    "longitude": "-90.03809356705692",
    "latitude": "29.99252505068975",
    "geocoded_column": {
      "latitude": "29.99252505068975",
      "longitude": "-90.03809356705692"
    }
  },
  {
    "service_request": "2022-930669",
    "request_type": "Trash/Recycling",
    "request_reason": "Request a Large Item Pick Up",
    "date_created": "2022-10-22T12:42:35.000",
    "date_modified": "2022-10-22T12:42:36.000",
    "request_status": "Pending",
    "responsible_agency": "Department of Sanitation",
    "final_address": "2020 Sumpter St",
    "address_councildis": "D",
    "status": "Assigned to Contractor",
    "contractor": "Metro Disposal",
    "rowid": "930669",
    "final_x": "3682678.79663",
    "final_y": "549385.725395",
    "longitude": "-90.06372303939195",
    "latitude": "30.004584334349794",
    "geocoded_column": {
      "latitude": "30.004584334349794",
      "longitude": "-90.06372303939195"
    }
  },
  {
    "service_request": "2022-930668",
    "request_type": "Abandoned Vehicles",
    "request_reason": "Abandoned/Junk Vehicles",
    "date_created": "2022-10-22T12:31:58.000",
    "date_modified": "2022-10-22T12:31:58.000",
    "request_status": "Pending",
    "responsible_agency": "Department of Public Works",
    "final_address": "4168 Bienville Ave",
    "address_councildis": "A",
    "status": "Pending",
    "rowid": "930668",
    "final_x": "3671101.96711",
    "final_y": "539243.38049",
    "longitude": "-90.1006412824638",
    "latitude": "29.977044006798113",
    "geocoded_column": {
      "latitude": "29.977044006798113",
      "longitude": "-90.1006412824638"
    }
  },
  {
    "service_request": "2022-930667",
    "request_type": "Trash/Recycling",
    "request_reason": "Order Recycling Cart",
    "date_created": "2022-10-22T12:18:11.000",
    "date_modified": "2022-10-22T12:18:11.000",
    "request_status": "Pending",
    "responsible_agency": "Department of Sanitation",
    "final_address": "922 Harding Dr",
    "address_councildis": "A",
    "status": "Pending",
    "rowid": "930667",
    "final_x": "3674404.84065",
    "final_y": "539878.610506",
    "longitude": "-90.09018796335373",
    "latitude": "29.978692557325083",
    "geocoded_column": {
      "latitude": "29.978692557325083",
      "longitude": "-90.09018796335373"
    }
  },
  {
    "service_request": "2022-930666",
    "request_type": "Trash/Recycling",
    "request_reason": "Missed Trash Pick-Up",
    "date_created": "2022-10-22T12:10:15.000",
    "date_modified": "2022-10-22T12:10:15.000",
    "request_status": "Pending",
    "responsible_agency": "Department of Sanitation",
    "final_address": "2426 St Andrew St",
    "address_councildis": "B",
    "status": "Assigned to Contractor",
    "contractor": "Richards Disposal",
    "rowid": "930666",
    "final_x": "3676125.24136",
    "final_y": "526552.67603",
    "longitude": "-90.08521274101254",
    "latitude": "29.941999287554722",
    "geocoded_column": {
      "latitude": "29.941999287554722",
      "longitude": "-90.08521274101254"
    }
  },
  {
    "service_request": "2022-930665",
    "request_type": "Trash/Recycling",
    "request_reason": "Request a Large Item Pick Up",
    "date_created": "2022-10-22T12:09:18.000",
    "date_modified": "2022-10-22T12:09:18.000",
    "case_close_date": "2021-03-08T18:00:00.000",
    "request_status": "Pending",
    "responsible_agency": "Department of Sanitation",
    "final_address": "6300 Pandora St",
    "address_councildis": "D",
    "status": "Assigned to Contractor",
    "contractor": "Metro Disposal",
    "rowid": "930665",
    "final_x": "3696763.84675",
    "final_y": "557243.759259",
    "longitude": "-90.01894110968722",
    "latitude": "30.025754328005902",
    "geocoded_column": {
      "latitude": "30.025754328005902",
      "longitude": "-90.01894110968722"
    }
  },
  {
    "service_request": "2022-930663",
    "request_type": "Trash/Recycling",
    "request_reason": "Request a Large Item Pick Up",
    "date_created": "2022-10-22T11:54:12.000",
    "date_modified": "2022-10-22T11:54:13.000",
    "request_status": "Pending",
    "responsible_agency": "Department of Sanitation",
    "final_address": "12 Heritage Ln Unit 47",
    "address_councildis": "C",
    "status": "Assigned to Contractor",
    "contractor": "Richards Disposal",
    "rowid": "930663",
    "final_x": "3695804.59197",
    "final_y": "520219.76044",
    "longitude": "-90.02330974744068",
    "latitude": "29.92398185199321",
    "geocoded_column": {
      "latitude": "29.92398185199321",
      "longitude": "-90.02330974744068"
    }
  },
  {
    "service_request": "2022-930662",
    "request_type": "Trash/Recycling",
    "request_reason": "Repair Trash Cart",
    "date_created": "2022-10-22T11:47:41.000",
    "date_modified": "2022-10-22T11:47:42.000",
    "request_status": "Pending",
    "responsible_agency": "Department of Sanitation",
    "final_address": "6041 Brighton Pl",
    "address_councildis": "C",
    "status": "Assigned to Contractor",
    "contractor": "Richards Disposal",
    "rowid": "930662",
    "final_x": "3706354.83652",
    "final_y": "520048.786424",
    "longitude": "-89.99001300032819",
    "latitude": "29.923175853743984",
    "geocoded_column": {
      "latitude": "29.923175853743984",
      "longitude": "-89.99001300032819"
    }
  },
  {
    "service_request": "2022-930661",
    "request_type": "Trash/Recycling",
    "request_reason": "Missed Trash Pick-Up",
    "date_created": "2022-10-22T11:40:41.000",
    "date_modified": "2022-10-22T11:40:42.000",
    "request_status": "Pending",
    "responsible_agency": "Department of Sanitation",
    "final_address": "2114 Dublin St",
    "address_councildis": "A",
    "status": "Assigned to Contractor",
    "contractor": "Richards Disposal",
    "rowid": "930661",
    "final_x": "3663903.72999",
    "final_y": "531090.060738",
    "longitude": "-90.12364759276392",
    "latitude": "29.95483602384166",
    "geocoded_column": {
      "latitude": "29.95483602384166",
      "longitude": "-90.12364759276392"
    }
  },
  {
    "service_request": "2022-930660",
    "request_type": "Roads/Drainage",
    "request_reason": "Street Subsidence (Sinking)",
    "date_created": "2022-10-22T11:30:05.000",
    "date_modified": "2022-10-22T11:30:05.000",
    "request_status": "Pending",
    "responsible_agency": "Department of Public Works",
    "final_address": "2300 Chartres St",
    "address_councildis": "C",
    "status": "Pending",
    "rowid": "930660",
    "final_x": "3685618.1615",
    "final_y": "534515.477317",
    "longitude": "-90.05496114951698",
    "latitude": "29.963606534979835",
    "geocoded_column": {
      "latitude": "29.963606534979835",
      "longitude": "-90.05496114951698"
    }
  },
  {
    "service_request": "2022-930659",
    "request_type": "Roads/Drainage",
    "request_reason": "Man hole cover issue",
    "date_created": "2022-10-22T11:29:29.000",
    "date_modified": "2022-10-22T11:29:29.000",
    "request_status": "Pending",
    "responsible_agency": "Department of Public Works",
    "final_address": "5500 Camp St",
    "address_councildis": "A",
    "status": "Pending",
    "rowid": "930659",
    "final_x": "3666480.20858",
    "final_y": "519188.756983",
    "longitude": "-90.11591129853882",
    "latitude": "29.92203620774913",
    "geocoded_column": {
      "latitude": "29.92203620774913",
      "longitude": "-90.11591129853882"
    }
  },
  {
    "service_request": "2022-930658",
    "request_type": "Trash/Recycling",
    "request_reason": "Missed Trash Pick-Up",
    "date_created": "2022-10-22T11:26:43.000",
    "date_modified": "2022-10-22T11:26:44.000",
    "request_status": "Pending",
    "responsible_agency": "Department of Sanitation",
    "final_address": "5701 Warrington Dr",
    "address_councildis": "D",
    "status": "Assigned to Contractor",
    "contractor": "Metro Disposal",
    "rowid": "930658",
    "final_x": "3680892.63669",
    "final_y": "553680.934615",
    "longitude": "-90.06921616133165",
    "latitude": "30.016448906451384",
    "geocoded_column": {
      "latitude": "30.016448906451384",
      "longitude": "-90.06921616133165"
    }
  },
  {
    "service_request": "2022-930657",
    "request_type": "Abandoned Vehicles",
    "request_reason": "Abandoned/Junk Vehicles",
    "date_created": "2022-10-22T11:03:18.000",
    "date_modified": "2022-10-22T11:03:19.000",
    "request_status": "Pending",
    "responsible_agency": "Department of Public Works",
    "final_address": "SEINE ST & TEXAS DR",
    "address_councildis": "C",
    "status": "Pending",
    "rowid": "930657",
    "final_x": "3696808.1",
    "final_y": "519416.88",
    "longitude": "-90.02017109287428",
    "latitude": "29.921742618799154",
    "geocoded_column": {
      "latitude": "29.921742618799154",
      "longitude": "-90.02017109287428"
    }
  },
  {
    "service_request": "2022-930656",
    "request_type": "Trash/Recycling",
    "request_reason": "Missed Trash Pick-Up",
    "date_created": "2022-10-22T10:49:03.000",
    "date_modified": "2022-10-22T10:53:56.000",
    "request_status": "Pending",
    "responsible_agency": "Department of Sanitation",
    "final_address": "324 Audubon St",
    "address_councildis": "A",
    "status": "Assigned to Contractor",
    "contractor": "Richards Disposal",
    "rowid": "930656",
    "final_x": "3661668.99853",
    "final_y": "522305.39705",
    "longitude": "-90.13099512390407",
    "latitude": "29.930745675685742",
    "geocoded_column": {
      "latitude": "29.930745675685742",
      "longitude": "-90.13099512390407"
    }
  },
  {
    "service_request": "2022-930654",
    "request_type": "Roads/Drainage",
    "request_reason": "Debris in Roadway",
    "date_created": "2022-10-22T10:48:31.000",
    "date_modified": "2022-10-22T10:48:31.000",
    "request_status": "Pending",
    "responsible_agency": "Department of Public Works",
    "final_address": "4243 Earhart Blvd",
    "address_councildis": "B",
    "status": "Pending",
    "rowid": "930654",
    "final_x": "3671844.63495",
    "final_y": "532021.772803",
    "longitude": "-90.09854148089028",
    "latitude": "29.957165019763515",
    "geocoded_column": {
      "latitude": "29.957165019763515",
      "longitude": "-90.09854148089028"
    }
  },
  {
    "service_request": "2022-930655",
    "request_type": "Roads/Drainage",
    "request_reason": "Debris in Roadway",
    "date_created": "2022-10-22T10:48:31.000",
    "date_modified": "2022-10-22T10:48:31.000",
    "request_status": "Pending",
    "responsible_agency": "Department of Public Works",
    "final_address": "4243 Earhart Blvd",
    "address_councildis": "B",
    "status": "Pending",
    "rowid": "930655",
    "final_x": "3671844.63495",
    "final_y": "532021.772803",
    "longitude": "-90.09854148089028",
    "latitude": "29.957165019763515",
    "geocoded_column": {
      "latitude": "29.957165019763515",
      "longitude": "-90.09854148089028"
    }
  },
  {
    "service_request": "2022-930652",
    "request_type": "Property Maintenance",
    "request_reason": "Property Maintenance",
    "date_created": "2022-10-22T10:36:59.000",
    "date_modified": "2022-10-22T10:36:59.000",
    "request_status": "Pending",
    "responsible_agency": "Department of Code Enforcement",
    "final_address": "1039 Decatur St",
    "address_councildis": "C",
    "status": "Pending",
    "rowid": "930652",
    "final_x": "3684002.66306",
    "final_y": "533151.23514",
    "longitude": "-90.06011058971288",
    "latitude": "29.959904797399734",
    "geocoded_column": {
      "latitude": "29.959904797399734",
      "longitude": "-90.06011058971288"
    }
  },
  {
    "service_request": "2022-930650",
    "request_type": "Property Maintenance",
    "request_reason": "Property Maintenance",
    "date_created": "2022-10-22T10:26:13.000",
    "date_modified": "2022-10-22T10:26:13.000",
    "request_status": "Pending",
    "responsible_agency": "Department of Code Enforcement",
    "final_address": "327 Bourbon St",
    "address_councildis": "C",
    "status": "Pending",
    "rowid": "930650",
    "final_x": "3681493.20015",
    "final_y": "531724.391427",
    "longitude": "-90.06808466649687",
    "latitude": "29.956057896354746",
    "geocoded_column": {
      "latitude": "29.956057896354746",
      "longitude": "-90.06808466649687"
    }
  },
  {
    "service_request": "2022-930649",
    "request_type": "Property Maintenance",
    "request_reason": "Property Maintenance",
    "date_created": "2022-10-22T10:25:45.000",
    "date_modified": "2022-10-22T10:25:45.000",
    "request_status": "Pending",
    "responsible_agency": "Department of Code Enforcement",
    "final_address": "4901 Friar Tuck Dr",
    "address_councildis": "E",
    "status": "Pending",
    "rowid": "930649",
    "final_x": "3717756.92773",
    "final_y": "557699.564571",
    "longitude": "-89.9525892708059",
    "latitude": "30.026328760694202",
    "geocoded_column": {
      "latitude": "30.026328760694202",
      "longitude": "-89.9525892708059"
    }
  },
  {
    "service_request": "2022-930648",
    "request_type": "Taxi Issues",
    "request_reason": "Taxi Complaint",
    "date_created": "2022-10-22T10:22:07.000",
    "date_modified": "2022-10-22T10:22:07.000",
    "request_status": "Pending",
    "responsible_agency": "Ground Transportation Bureau",
    "final_address": "400 Canal St",
    "address_councildis": "B",
    "status": "Pending",
    "rowid": "930648",
    "final_x": "3682054.79522",
    "final_y": "529897.078337",
    "longitude": "-90.06637514234355",
    "latitude": "29.951016341316624",
    "geocoded_column": {
      "latitude": "29.951016341316624",
      "longitude": "-90.06637514234355"
    }
  },
  {
    "service_request": "2022-930647",
    "request_type": "Trash/Recycling",
    "request_reason": "Order Recycling Cart",
    "date_created": "2022-10-22T10:18:25.000",
    "date_modified": "2022-10-22T10:18:25.000",
    "request_status": "Pending",
    "responsible_agency": "Department of Sanitation",
    "final_address": "4911 Elysian Fields Ave",
    "address_councildis": "D",
    "status": "Pending",
    "rowid": "930647",
    "final_x": "3683994.38332",
    "final_y": "550867.850069",
    "longitude": "-90.05951479922668",
    "latitude": "30.00861949397602",
    "geocoded_column": {
      "latitude": "30.00861949397602",
      "longitude": "-90.05951479922668"
    }
  },
  {
    "service_request": "2022-930646",
    "request_type": "Roads/Drainage",
    "request_reason": "Street Subsidence (Sinking)",
    "date_created": "2022-10-22T10:17:04.000",
    "date_modified": "2022-10-22T10:17:04.000",
    "request_status": "Pending",
    "responsible_agency": "Department of Public Works",
    "final_address": "2124 Upperline St",
    "address_councildis": "B",
    "status": "Pending",
    "rowid": "930646",
    "final_x": "3669088.31662",
    "final_y": "522676.421306",
    "longitude": "-90.10756079714189",
    "latitude": "29.931549722592",
    "geocoded_column": {
      "latitude": "29.931549722592",
      "longitude": "-90.10756079714189"
    }
  },
  {
    "service_request": "2022-930645",
    "request_type": "Roads/Drainage",
    "request_reason": "Debris in Roadway",
    "date_created": "2022-10-22T10:12:18.000",
    "date_modified": "2022-10-22T10:12:19.000",
    "request_status": "Pending",
    "responsible_agency": "Department of Public Works",
    "final_address": "10626 Old Gentilly Rd",
    "address_councildis": "E",
    "status": "Pending",
    "rowid": "930645",
    "final_x": "3716018.64997",
    "final_y": "554708.546968",
    "longitude": "-89.95819538608315",
    "latitude": "30.018162128869907",
    "geocoded_column": {
      "latitude": "30.018162128869907",
      "longitude": "-89.95819538608315"
    }
  },
  {
    "service_request": "2022-930644",
    "request_type": "Parks & Parkways",
    "request_reason": "Request Tree Service (Right of Way/Public Property)",
    "date_created": "2022-10-22T10:09:34.000",
    "date_modified": "2022-10-22T10:09:34.000",
    "request_status": "Pending",
    "responsible_agency": "Department of Parks & Parkway",
    "final_address": "1041 Esplanade Ave",
    "address_councildis": "C",
    "status": "Pending",
    "rowid": "930644",
    "final_x": "3682957.61864",
    "final_y": "535340.167046",
    "longitude": "-90.06333399431564",
    "latitude": "29.96595549719378",
    "geocoded_column": {
      "latitude": "29.96595549719378",
      "longitude": "-90.06333399431564"
    }
  },
  {
    "service_request": "2022-930643",
    "request_type": "Traffic Signals/Signs/Striping/Streetlights",
    "request_reason": "Traffic Signal Malfunctioning/Damaged",
    "date_created": "2022-10-22T09:56:15.000",
    "date_modified": "2022-10-22T09:56:15.000",
    "request_status": "Pending",
    "responsible_agency": "Department of Public Works",
    "final_address": "400 Esplanade Ave",
    "address_councildis": "C",
    "status": "Pending",
    "rowid": "930643",
    "final_x": "3684745.33698",
    "final_y": "533733.942021",
    "longitude": "-90.05774490910086",
    "latitude": "29.96148432889126",
    "geocoded_column": {
      "latitude": "29.96148432889126",
      "longitude": "-90.05774490910086"
    }
  },
  {
    "service_request": "2022-930642",
    "request_type": "Property Maintenance",
    "request_reason": "Property Maintenance",
    "date_created": "2022-10-22T09:37:42.000",
    "date_modified": "2022-10-22T09:37:42.000",
    "request_status": "Pending",
    "responsible_agency": "Department of Code Enforcement",
    "final_address": "603 Tricou St",
    "address_councildis": "E",
    "status": "Pending",
    "rowid": "930642",
    "final_x": "3699489.08823",
    "final_y": "531330.516034",
    "longitude": "-90.01127451721908",
    "latitude": "29.954416217344857",
    "geocoded_column": {
      "latitude": "29.954416217344857",
      "longitude": "-90.01127451721908"
    }
  },
  {
    "service_request": "2022-930641",
    "request_type": "Trash/Recycling",
    "request_reason": "Replace Trash Cart",
    "date_created": "2022-10-22T09:24:32.000",
    "date_modified": "2022-10-22T09:24:32.000",
    "request_status": "Pending",
    "responsible_agency": "Department of Sanitation",
    "final_address": "421 Virginia St",
    "address_councildis": "A",
    "status": "Assigned to Contractor",
    "contractor": "Metro Disposal",
    "rowid": "930641",
    "final_x": "3668687.53031",
    "final_y": "541818.068556",
    "longitude": "-90.10817992926114",
    "latitude": "29.98419472751627",
    "geocoded_column": {
      "latitude": "29.98419472751627",
      "longitude": "-90.10817992926114"
    }
  },
  {
    "service_request": "2022-930640",
    "request_type": "Trash/Recycling",
    "request_reason": "Missed Trash Pick-Up",
    "date_created": "2022-10-22T09:23:18.000",
    "date_modified": "2022-10-22T09:23:18.000",
    "request_status": "Pending",
    "responsible_agency": "Department of Sanitation",
    "final_address": "3400 BLK Robert St",
    "address_councildis": "B",
    "status": "Assigned to Contractor",
    "contractor": "Richards Disposal",
    "rowid": "930640",
    "final_x": "3668939.95539",
    "final_y": "527666.498589",
    "longitude": "-90.10786067860397",
    "latitude": "29.945275189897842",
    "geocoded_column": {
      "latitude": "29.945275189897842",
      "longitude": "-90.10786067860397"
    }
  },
  {
    "service_request": "2022-930639",
    "request_type": "Traffic Signals/Signs/Striping/Streetlights",
    "request_reason": "Request for Stop Sign",
    "date_created": "2022-10-22T09:14:46.000",
    "date_modified": "2022-10-22T09:16:52.000",
    "request_status": "Pending",
    "responsible_agency": "Department of Public Works",
    "final_address": "APRICOT ST & HOLLYGROVE ST",
    "address_councildis": "A",
    "status": "Pending",
    "rowid": "930639",
    "final_x": "3663476.3",
    "final_y": "534760.88",
    "longitude": "-90.12487501516607",
    "latitude": "29.964941980838397",
    "geocoded_column": {
      "latitude": "29.964941980838397",
      "longitude": "-90.12487501516607"
    }
  },
  {
    "service_request": "2022-930638",
    "request_type": "Abandoned Vehicles",
    "request_reason": "Abandoned/Junk Vehicles",
    "date_created": "2022-10-22T09:11:51.000",
    "date_modified": "2022-10-22T09:11:51.000",
    "request_status": "Pending",
    "responsible_agency": "Department of Public Works",
    "final_address": "704 Opelousas Ave",
    "address_councildis": "C",
    "status": "Pending",
    "rowid": "930638",
    "final_x": "3687566.98524",
    "final_y": "529193.381824",
    "longitude": "-90.04899536160246",
    "latitude": "29.948912677943543",
    "geocoded_column": {
      "latitude": "29.948912677943543",
      "longitude": "-90.04899536160246"
    }
  },
  {
    "service_request": "2022-930637",
    "request_type": "Trash/Recycling",
    "request_reason": "Missed Trash Pick-Up",
    "date_created": "2022-10-22T09:07:52.000",
    "date_modified": "2022-10-22T09:07:53.000",
    "request_status": "Pending",
    "responsible_agency": "Department of Sanitation",
    "final_address": "1535 Washington Ave",
    "address_councildis": "B",
    "status": "Assigned to Contractor",
    "contractor": "Richards Disposal",
    "rowid": "930637",
    "final_x": "3676098.77",
    "final_y": "522395.988154",
    "longitude": "-90.085439240755",
    "latitude": "29.930570549579887",
    "geocoded_column": {
      "latitude": "29.930570549579887",
      "longitude": "-90.085439240755"
    }
  },
  {
    "service_request": "2022-930636",
    "request_type": "Roads/Drainage",
    "request_reason": "Catch Basin - Clogged",
    "date_created": "2022-10-22T08:59:53.000",
    "date_modified": "2022-10-22T08:59:53.000",
    "request_status": "Pending",
    "responsible_agency": "Department of Public Works",
    "final_address": "547 Belleville St",
    "address_councildis": "C",
    "status": "Pending",
    "rowid": "930636",
    "final_x": "3687790.88118",
    "final_y": "529546.516417",
    "longitude": "-90.04827592266928",
    "latitude": "29.949876774876618",
    "geocoded_column": {
      "latitude": "29.949876774876618",
      "longitude": "-90.04827592266928"
    }
  },
  {
    "service_request": "2022-930635",
    "request_type": "Trash/Recycling",
    "request_reason": "Request a Large Item Pick Up",
    "date_created": "2022-10-22T08:59:27.000",
    "date_modified": "2022-10-22T08:59:28.000",
    "request_status": "Pending",
    "responsible_agency": "Department of Sanitation",
    "final_address": "3017 Annette St",
    "address_councildis": "D",
    "status": "Assigned to Contractor",
    "contractor": "Metro Disposal",
    "rowid": "930635",
    "final_x": "3682584.93148",
    "final_y": "543685.007758",
    "longitude": "-90.06421904944601",
    "latitude": "29.98891225271109",
    "geocoded_column": {
      "latitude": "29.98891225271109",
      "longitude": "-90.06421904944601"
    }
  },
  {
    "service_request": "2022-930634",
    "request_type": "Trash/Recycling",
    "request_reason": "MIssed Recycling Pick-Up",
    "date_created": "2022-10-22T08:56:53.000",
    "date_modified": "2022-10-22T08:56:53.000",
    "request_status": "Pending",
    "responsible_agency": "Department of Sanitation",
    "final_address": "610 Soraparu St",
    "address_councildis": "B",
    "status": "Assigned to Contractor",
    "contractor": "Richards Disposal",
    "rowid": "930634",
    "final_x": "3679276.94274",
    "final_y": "520225.52908",
    "longitude": "-90.07548143784187",
    "latitude": "29.92450694127319",
    "geocoded_column": {
      "latitude": "29.92450694127319",
      "longitude": "-90.07548143784187"
    }
  },
  {
    "service_request": "2022-930633",
    "request_type": "Roads/Drainage",
    "request_reason": "Debris in Roadway",
    "date_created": "2022-10-22T08:50:29.000",
    "date_modified": "2022-10-22T08:50:29.000",
    "request_status": "Pending",
    "responsible_agency": "Department of Public Works",
    "final_address": "829 N Rocheblave St",
    "address_councildis": "D",
    "status": "Pending",
    "rowid": "930633",
    "final_x": "3677838.00046",
    "final_y": "536820.659528",
    "longitude": "-90.07945044421399",
    "latitude": "29.970181379144364",
    "geocoded_column": {
      "latitude": "29.970181379144364",
      "longitude": "-90.07945044421399"
    }
  },
  {
    "service_request": "2022-930632",
    "request_type": "Trash/Recycling",
    "request_reason": "Missed Trash Pick-Up",
    "date_created": "2022-10-22T08:37:55.000",
    "date_modified": "2022-10-22T08:37:56.000",
    "request_status": "Pending",
    "responsible_agency": "Department of Sanitation",
    "final_address": "8502 Edinburgh St",
    "address_councildis": "A",
    "status": "Assigned to Contractor",
    "contractor": "Richards Disposal",
    "rowid": "930632",
    "final_x": "3666365.22727",
    "final_y": "535400.287942",
    "longitude": "-90.11573046797395",
    "latitude": "29.96661604827536",
    "geocoded_column": {
      "latitude": "29.96661604827536",
      "longitude": "-90.11573046797395"
    }
  },
  {
    "service_request": "2022-930631",
    "request_type": "Traffic Signals/Signs/Striping/Streetlights",
    "request_reason": "Street Light Outage/Malfunction",
    "date_created": "2022-10-22T08:37:36.000",
    "date_modified": "2022-10-22T08:37:37.000",
    "request_status": "Pending",
    "responsible_agency": "Department of Public Works",
    "final_address": "2500 St Ann St",
    "address_councildis": "D",
    "status": "Pending",
    "contractor": "Legacy Professional Services",
    "rowid": "930631",
    "final_x": "3677683.43835",
    "final_y": "536601.556423",
    "longitude": "-90.07994613671592",
    "latitude": "29.96958357018357",
    "geocoded_column": {
      "latitude": "29.96958357018357",
      "longitude": "-90.07994613671592"
    }
  },
  {
    "service_request": "2022-930630",
    "request_type": "Abandoned Vehicles",
    "request_reason": "Abandoned/Junk Vehicles",
    "date_created": "2022-10-22T08:02:10.000",
    "date_modified": "2022-10-22T08:02:10.000",
    "request_status": "Pending",
    "responsible_agency": "Department of Public Works",
    "final_address": "800 Taft Pl",
    "address_councildis": "A",
    "status": "Pending",
    "rowid": "930630",
    "final_x": "3673870.30824",
    "final_y": "539374.572938",
    "longitude": "-90.09189346693925",
    "latitude": "29.977322561300728",
    "geocoded_column": {
      "latitude": "29.977322561300728",
      "longitude": "-90.09189346693925"
    }
  },
  {
    "service_request": "2022-930629",
    "request_type": "Trash/Recycling",
    "request_reason": "MIssed Recycling Pick-Up",
    "date_created": "2022-10-22T07:58:27.000",
    "date_modified": "2022-10-22T07:58:28.000",
    "request_status": "Pending",
    "responsible_agency": "Department of Sanitation",
    "final_address": "4133 General Pershing St",
    "address_councildis": "B",
    "status": "Assigned to Contractor",
    "contractor": "Richards Disposal",
    "rowid": "930629",
    "final_x": "3670028.04846",
    "final_y": "529492.805889",
    "longitude": "-90.10436336924452",
    "latitude": "29.95026489527118",
    "geocoded_column": {
      "latitude": "29.95026489527118",
      "longitude": "-90.10436336924452"
    }
  },
  {
    "service_request": "2022-930628",
    "request_type": "Property Maintenance",
    "request_reason": "Property Maintenance",
    "date_created": "2022-10-22T07:54:28.000",
    "date_modified": "2022-10-22T07:54:28.000",
    "request_status": "Pending",
    "responsible_agency": "Department of Code Enforcement",
    "final_address": "2537 Ursulines Ave",
    "address_councildis": "D",
    "status": "Pending",
    "rowid": "930628",
    "final_x": "3678235.65038",
    "final_y": "537765.548744",
    "longitude": "-90.07816193594337",
    "latitude": "29.972767529798624",
    "geocoded_column": {
      "latitude": "29.972767529798624",
      "longitude": "-90.07816193594337"
    }
  },
  {
    "service_request": "2022-930627",
    "request_type": "Property Maintenance",
    "request_reason": "Property Maintenance",
    "date_created": "2022-10-22T07:51:40.000",
    "date_modified": "2022-10-22T07:51:40.000",
    "request_status": "Pending",
    "responsible_agency": "Department of Code Enforcement",
    "final_address": "2934 Florida Ave",
    "address_councildis": "D",
    "status": "Pending",
    "rowid": "930627",
    "final_x": "3689558.58486",
    "final_y": "542357.632205",
    "longitude": "-90.04223869975687",
    "latitude": "29.985048222296058",
    "geocoded_column": {
      "latitude": "29.985048222296058",
      "longitude": "-90.04223869975687"
    }
  },
  {
    "service_request": "2022-930626",
    "request_type": "Trash/Recycling",
    "request_reason": "Illegal Dumping",
    "date_created": "2022-10-22T07:48:57.000",
    "date_modified": "2022-10-22T07:48:57.000",
    "request_status": "Pending",
    "responsible_agency": "Department of Sanitation",
    "final_address": "2537 Ursulines Ave",
    "address_councildis": "D",
    "status": "Pending",
    "rowid": "930626",
    "final_x": "3678235.65038",
    "final_y": "537765.548744",
    "longitude": "-90.07816193594337",
    "latitude": "29.972767529798624",
    "geocoded_column": {
      "latitude": "29.972767529798624",
      "longitude": "-90.07816193594337"
    }
  },
  {
    "service_request": "2022-930625",
    "request_type": "Trash/Recycling",
    "request_reason": "Illegal Dumping",
    "date_created": "2022-10-22T07:34:31.000",
    "date_modified": "2022-10-22T07:34:31.000",
    "request_status": "Pending",
    "responsible_agency": "Department of Sanitation",
    "final_address": "2934 Florida Ave",
    "address_councildis": "D",
    "status": "Pending",
    "rowid": "930625",
    "final_x": "3689558.58486",
    "final_y": "542357.632205",
    "longitude": "-90.04223869975687",
    "latitude": "29.985048222296058",
    "geocoded_column": {
      "latitude": "29.985048222296058",
      "longitude": "-90.04223869975687"
    }
  },
  {
    "service_request": "2022-930624",
    "request_type": "Safety & Permits",
    "request_reason": "Construction permit",
    "date_created": "2022-10-22T05:21:50.000",
    "date_modified": "2022-10-22T05:21:50.000",
    "request_status": "Pending",
    "responsible_agency": "Department of Code Enforcement",
    "final_address": "1600 N Broad St",
    "address_councildis": "D",
    "status": "Pending",
    "rowid": "930624",
    "final_x": "3679179.59093",
    "final_y": "540131.777867",
    "longitude": "-90.07509873554469",
    "latitude": "29.97924537771219",
    "geocoded_column": {
      "latitude": "29.97924537771219",
      "longitude": "-90.07509873554469"
    }
  },
  {
    "service_request": "2022-930623",
    "request_type": "Trash/Recycling",
    "request_reason": "MIssed Recycling Pick-Up",
    "date_created": "2022-10-22T04:03:15.000",
    "date_modified": "2022-10-22T04:03:15.000",
    "request_status": "Pending",
    "responsible_agency": "Department of Sanitation",
    "final_address": "6300 Essex Ct",
    "address_councildis": "C",
    "status": "Assigned to Contractor",
    "contractor": "Richards Disposal",
    "rowid": "930623",
    "final_x": "3707141.50033",
    "final_y": "517562.495926",
    "longitude": "-89.98762199746746",
    "latitude": "29.916314038205243",
    "geocoded_column": {
      "latitude": "29.916314038205243",
      "longitude": "-89.98762199746746"
    }
  },
  {
    "service_request": "2022-930622",
    "request_type": "Trash/Recycling",
    "request_reason": "Illegal Dumping",
    "date_created": "2022-10-22T00:55:17.000",
    "date_modified": "2022-10-22T00:55:17.000",
    "request_status": "Pending",
    "responsible_agency": "Department of Sanitation",
    "final_address": "608 Iberville St",
    "address_councildis": "C",
    "status": "Pending",
    "rowid": "930622",
    "final_x": "3681631.43196",
    "final_y": "530834.448514",
    "longitude": "-90.06767921781152",
    "latitude": "29.95360665725373",
    "geocoded_column": {
      "latitude": "29.95360665725373",
      "longitude": "-90.06767921781152"
    }
  },
  {
    "service_request": "2022-930621",
    "request_type": "Health Related Questions",
    "request_reason": "Noise Ordinance Complaint",
    "date_created": "2022-10-21T23:49:16.000",
    "date_modified": "2022-10-21T23:49:16.000",
    "request_status": "Pending",
    "responsible_agency": "Health Department",
    "final_address": "1775 Joseph Guillaume Pl",
    "address_councildis": "C",
    "status": "Pending",
    "rowid": "930621",
    "final_x": "3683462.43785",
    "final_y": "536121.270855",
    "longitude": "-90.06171241725919",
    "latitude": "29.96808786850646",
    "geocoded_column": {
      "latitude": "29.96808786850646",
      "longitude": "-90.06171241725919"
    }
  },
  {
    "service_request": "2022-930620",
    "request_type": "Health Related Questions",
    "request_reason": "Noise Ordinance Complaint",
    "date_created": "2022-10-21T23:03:13.000",
    "date_modified": "2022-10-21T23:03:13.000",
    "request_status": "Pending",
    "responsible_agency": "Health Department",
    "final_address": "1200 St Bernard Ave",
    "address_councildis": "C",
    "status": "Pending",
    "rowid": "930620",
    "final_x": "3683033.3165",
    "final_y": "536132.891847",
    "longitude": "-90.06306719052876",
    "latitude": "29.96813290984115",
    "geocoded_column": {
      "latitude": "29.96813290984115",
      "longitude": "-90.06306719052876"
    }
  },
  {
    "service_request": "2022-930619",
    "request_type": "Trash/Recycling",
    "request_reason": "Order Recycling Cart",
    "date_created": "2022-10-21T22:22:44.000",
    "date_modified": "2022-10-21T22:22:44.000",
    "request_status": "Pending",
    "responsible_agency": "Department of Sanitation",
    "final_address": "1511 Killdeer St, New Orleans, Louisiana, 70122",
    "address_councildis": "D",
    "status": "Pending",
    "rowid": "930619",
    "final_x": "3678036.69819",
    "final_y": "556609.326554",
    "longitude": "-90.07813834645404",
    "latitude": "30.024587246164995",
    "geocoded_column": {
      "latitude": "30.024587246164995",
      "longitude": "-90.07813834645404"
    }
  },
  {
    "service_request": "2022-930618",
    "request_type": "Roads/Drainage",
    "request_reason": "Catch Basin - Clogged",
    "date_created": "2022-10-21T21:35:03.000",
    "date_modified": "2022-10-21T21:35:03.000",
    "request_status": "Pending",
    "responsible_agency": "Department of Public Works",
    "final_address": "9408 Palm St",
    "address_councildis": "A",
    "status": "Pending",
    "rowid": "930618",
    "final_x": "3664198.11546",
    "final_y": "537835.589001",
    "longitude": "-90.12249295035443",
    "latitude": "29.97337546338181",
    "geocoded_column": {
      "latitude": "29.97337546338181",
      "longitude": "-90.12249295035443"
    }
  },
  {
    "service_request": "2022-930617",
    "request_type": "Roads/Drainage",
    "request_reason": "Pothole",
    "date_created": "2022-10-21T21:31:47.000",
    "date_modified": "2022-10-21T21:31:47.000",
    "request_status": "Pending",
    "responsible_agency": "Department of Public Works",
    "final_address": "9400 Palm St",
    "address_councildis": "A",
    "status": "Pending",
    "rowid": "930617",
    "final_x": "3664247.27514",
    "final_y": "537775.961864",
    "longitude": "-90.12233968350868",
    "latitude": "29.97321008005091",
    "geocoded_column": {
      "latitude": "29.97321008005091",
      "longitude": "-90.12233968350868"
    }
  },
  {
    "service_request": "2022-930616",
    "request_type": "Trash/Recycling",
    "request_reason": "Illegal Dumping",
    "date_created": "2022-10-21T21:07:53.000",
    "date_modified": "2022-10-21T21:07:53.000",
    "request_status": "Pending",
    "responsible_agency": "Department of Sanitation",
    "final_address": "14842 Hayne Blvd",
    "address_councildis": "E",
    "status": "Pending",
    "rowid": "930616",
    "final_x": "3719937.72473",
    "final_y": "575191.234411",
    "longitude": "-89.94502862762106",
    "latitude": "30.07435119094146",
    "geocoded_column": {
      "latitude": "30.07435119094146",
      "longitude": "-89.94502862762106"
    }
  },
  {
    "service_request": "2022-930615",
    "request_type": "Traffic Signals/Signs/Striping/Streetlights",
    "request_reason": "Street Light Knocked Down/Leaning",
    "date_created": "2022-10-21T21:06:22.000",
    "date_modified": "2022-10-21T21:06:23.000",
    "request_status": "Pending",
    "responsible_agency": "Department of Public Works",
    "final_address": "413 S Norman C Francis Prkwy",
    "address_councildis": "B",
    "status": "Pending",
    "contractor": "Legacy Professional Services",
    "rowid": "930615",
    "final_x": "3672287.74043",
    "final_y": "535754.989063",
    "longitude": "-90.09701509516098",
    "latitude": "29.967416980080156",
    "geocoded_column": {
      "latitude": "29.967416980080156",
      "longitude": "-90.09701509516098"
    }
  },
  {
    "service_request": "2022-930614",
    "request_type": "Roads/Drainage",
    "request_reason": "Catch Basin - Clogged",
    "date_created": "2022-10-21T21:04:02.000",
    "date_modified": "2022-10-21T21:04:02.000",
    "request_status": "Pending",
    "responsible_agency": "Department of Public Works",
    "final_address": "2736 Palmyra St",
    "address_councildis": "B",
    "status": "Pending",
    "rowid": "930614",
    "final_x": "3674548.05748",
    "final_y": "534618.990662",
    "longitude": "-90.08991589519147",
    "latitude": "29.964226115469565",
    "geocoded_column": {
      "latitude": "29.964226115469565",
      "longitude": "-90.08991589519147"
    }
  },
  {
    "service_request": "2022-930613",
    "request_type": "Trash/Recycling",
    "request_reason": "Order Trash Cart",
    "date_created": "2022-10-21T21:02:54.000",
    "date_modified": "2022-10-21T21:02:55.000",
    "request_status": "Pending",
    "responsible_agency": "Department of Sanitation",
    "final_address": "2736 Palmyra St",
    "address_councildis": "B",
    "status": "Assigned to Contractor",
    "contractor": "Richards Disposal",
    "rowid": "930613",
    "final_x": "3674548.05748",
    "final_y": "534618.990662",
    "longitude": "-90.08991589519147",
    "latitude": "29.964226115469565",
    "geocoded_column": {
      "latitude": "29.964226115469565",
      "longitude": "-90.08991589519147"
    }
  },
  {
    "service_request": "2022-930612",
    "request_type": "Trash/Recycling",
    "request_reason": "Start Trash Service",
    "date_created": "2022-10-21T19:09:46.000",
    "date_modified": "2022-10-21T19:09:46.000",
    "request_status": "Pending",
    "responsible_agency": "Department of Sanitation",
    "final_address": "817 8th St",
    "status": "Assigned to Contractor",
    "rowid": "930612",
    "longitude": "0.0",
    "latitude": "0.0",
    "geocoded_column": {
      "latitude": "0.0",
      "longitude": "0.0"
    }
  },
  {
    "service_request": "2022-930611",
    "request_type": "Trash/Recycling",
    "request_reason": "Missed Trash Pick-Up",
    "date_created": "2022-10-21T19:07:36.000",
    "date_modified": "2022-10-21T19:07:37.000",
    "request_status": "Pending",
    "responsible_agency": "Department of Sanitation",
    "final_address": "817 Eighth St",
    "address_councildis": "B",
    "status": "Assigned to Contractor",
    "contractor": "Richards Disposal",
    "rowid": "930611",
    "final_x": "3676682.56149",
    "final_y": "519437.537271",
    "longitude": "-90.08369815023748",
    "latitude": "29.922418274163473",
    "geocoded_column": {
      "latitude": "29.922418274163473",
      "longitude": "-90.08369815023748"
    }
  },
  {
    "service_request": "2022-930610",
    "request_type": "Traffic Signals/Signs/Striping/Streetlights",
    "request_reason": "Street Light Outage/Malfunction",
    "date_created": "2022-10-21T19:02:59.000",
    "date_modified": "2022-10-21T19:03:00.000",
    "request_status": "Pending",
    "responsible_agency": "Department of Public Works",
    "final_address": "1029 Esplanade Ave Unit 10",
    "address_councildis": "C",
    "status": "Pending",
    "contractor": "Legacy Professional Services",
    "rowid": "930610",
    "final_x": "3683072.54831",
    "final_y": "535383.101126",
    "longitude": "-90.06296954699891",
    "latitude": "29.966070048026808",
    "geocoded_column": {
      "latitude": "29.966070048026808",
      "longitude": "-90.06296954699891"
    }
  },
  {
    "service_request": "2022-930609",
    "request_type": "Trash/Recycling",
    "request_reason": "Missed Trash Pick-Up",
    "date_created": "2022-10-21T19:01:39.000",
    "date_modified": "2022-10-21T19:01:40.000",
    "request_status": "Pending",
    "responsible_agency": "Department of Sanitation",
    "final_address": "44 Vivian Ct",
    "address_councildis": "C",
    "status": "Assigned to Contractor",
    "contractor": "Richards Disposal",
    "rowid": "930609",
    "final_x": "3702013.69809",
    "final_y": "521036.514553",
    "longitude": "-90.0036800367231",
    "latitude": "29.926030990470117",
    "geocoded_column": {
      "latitude": "29.926030990470117",
      "longitude": "-90.0036800367231"
    }
  },
  {
    "service_request": "2022-930608",
    "request_type": "Abandoned Vehicles",
    "request_reason": "Abandoned/Junk Vehicles",
    "date_created": "2022-10-21T18:27:39.000",
    "date_modified": "2022-10-21T18:27:39.000",
    "request_status": "Pending",
    "responsible_agency": "Department of Public Works",
    "final_address": "4400 Banks St, New Orleans, Louisiana, 70119",
    "address_councildis": "A",
    "status": "Pending",
    "rowid": "930608",
    "final_x": "3669191.07873",
    "final_y": "538196.709513",
    "longitude": "-90.10671188888567",
    "latitude": "29.97422240127446",
    "geocoded_column": {
      "latitude": "29.97422240127446",
      "longitude": "-90.10671188888567"
    }
  },
  {
    "service_request": "2022-930607",
    "request_type": "Abandoned Vehicles",
    "request_reason": "Abandoned/Junk Vehicles",
    "date_created": "2022-10-21T18:26:08.000",
    "date_modified": "2022-10-21T18:26:08.000",
    "request_status": "Pending",
    "responsible_agency": "Department of Public Works",
    "final_address": "409 S Alexander St, New Orleans, Louisiana, 70119",
    "address_councildis": "A",
    "status": "Pending",
    "rowid": "930607",
    "final_x": "3669154.82593",
    "final_y": "538147.293577",
    "longitude": "-90.10682805454235",
    "latitude": "29.974087591118334",
    "geocoded_column": {
      "latitude": "29.974087591118334",
      "longitude": "-90.10682805454235"
    }
  },
  {
    "service_request": "2022-930606",
    "request_type": "Trash/Recycling",
    "request_reason": "Replace Trash Cart",
    "date_created": "2022-10-21T18:22:18.000",
    "date_modified": "2022-10-21T18:22:19.000",
    "request_status": "Pending",
    "responsible_agency": "Department of Sanitation",
    "final_address": "2203 Broadway St",
    "address_councildis": "A",
    "status": "Assigned to Contractor",
    "contractor": "Richards Disposal",
    "rowid": "930606",
    "final_x": "3666230.12749",
    "final_y": "529435.118977",
    "longitude": "-90.11635718834933",
    "latitude": "29.95021773503555",
    "geocoded_column": {
      "latitude": "29.95021773503555",
      "longitude": "-90.11635718834933"
    }
  },
  {
    "service_request": "2022-930605",
    "request_type": "Roads/Drainage",
    "request_reason": "Catch Basin - Clogged",
    "date_created": "2022-10-21T18:11:01.000",
    "date_modified": "2022-10-21T18:11:01.000",
    "request_status": "Pending",
    "responsible_agency": "Department of Public Works",
    "final_address": "10139 Hammond St",
    "address_councildis": "E",
    "status": "Pending",
    "rowid": "930605",
    "final_x": "3713100.21912",
    "final_y": "556502.680474",
    "longitude": "-89.96734885267936",
    "latitude": "30.02319127154468",
    "geocoded_column": {
      "latitude": "30.02319127154468",
      "longitude": "-89.96734885267936"
    }
  },
  {
    "service_request": "2022-930604",
    "request_type": "Trash/Recycling",
    "request_reason": "Request a Large Item Pick Up",
    "date_created": "2022-10-21T18:07:18.000",
    "date_modified": "2022-10-21T18:07:19.000",
    "request_status": "Pending",
    "responsible_agency": "Department of Sanitation",
    "final_address": "6036 Orleans Ave",
    "address_councildis": "A",
    "status": "Assigned to Contractor",
    "contractor": "Metro Disposal",
    "rowid": "930604",
    "final_x": "3670814.32436",
    "final_y": "547361.819089",
    "longitude": "-90.1012740531441",
    "latitude": "29.999375431755897",
    "geocoded_column": {
      "latitude": "29.999375431755897",
      "longitude": "-90.1012740531441"
    }
  },
  {
    "service_request": "2022-930603",
    "request_type": "Trash/Recycling",
    "request_reason": "Missed Trash Pick-Up",
    "date_created": "2022-10-21T17:42:45.000",
    "date_modified": "2022-10-21T17:42:45.000",
    "request_status": "Pending",
    "responsible_agency": "Department of Sanitation",
    "final_address": "2608 LaSalle St",
    "address_councildis": "B",
    "status": "Assigned to Contractor",
    "contractor": "Richards Disposal",
    "rowid": "930603",
    "final_x": "3674809.13288",
    "final_y": "525156.021629",
    "longitude": "-90.08941585089161",
    "latitude": "29.938198298970253",
    "geocoded_column": {
      "latitude": "29.938198298970253",
      "longitude": "-90.08941585089161"
    }
  },
  {
    "service_request": "2022-930602",
    "request_type": "Trash/Recycling",
    "request_reason": "MIssed Recycling Pick-Up",
    "date_created": "2022-10-21T17:40:30.000",
    "date_modified": "2022-10-21T17:40:31.000",
    "request_status": "Pending",
    "responsible_agency": "Department of Sanitation",
    "final_address": "4620 S Prieur St",
    "address_councildis": "B",
    "status": "Assigned to Contractor",
    "contractor": "Richards Disposal",
    "rowid": "930602",
    "final_x": "3669325.15162",
    "final_y": "526745.784254",
    "longitude": "-90.10667560880235",
    "latitude": "29.942732191105442",
    "geocoded_column": {
      "latitude": "29.942732191105442",
      "longitude": "-90.10667560880235"
    }
  },
  {
    "service_request": "2022-930600",
    "request_type": "Roads/Drainage",
    "request_reason": "Street Flooding / Drainage",
    "date_created": "2022-10-21T17:33:17.000",
    "date_modified": "2022-10-21T17:33:17.000",
    "request_status": "Pending",
    "responsible_agency": "Department of Public Works",
    "final_address": "3705 Coliseum St",
    "address_councildis": "B",
    "status": "Pending",
    "rowid": "930600",
    "final_x": "3673321.77467",
    "final_y": "520162.498104",
    "longitude": "-90.09428206164169",
    "latitude": "29.924512038006064",
    "geocoded_column": {
      "latitude": "29.924512038006064",
      "longitude": "-90.09428206164169"
    }
  },
  {
    "service_request": "2022-930599",
    "request_type": "Property Maintenance",
    "request_reason": "Property Maintenance",
    "date_created": "2022-10-21T17:26:53.000",
    "date_modified": "2022-10-21T17:26:53.000",
    "request_status": "Pending",
    "responsible_agency": "Department of Code Enforcement",
    "final_address": "4340 Sybil St",
    "address_councildis": "D",
    "status": "Pending",
    "rowid": "930599",
    "final_x": "3679007.89474",
    "final_y": "548410.599378",
    "longitude": "-90.0753539519635",
    "latitude": "30.00201441397861",
    "geocoded_column": {
      "latitude": "30.00201441397861",
      "longitude": "-90.0753539519635"
    }
  },
  {
    "service_request": "2022-930598",
    "request_type": "Trash/Recycling",
    "request_reason": "MIssed Recycling Pick-Up",
    "date_created": "2022-10-21T17:23:49.000",
    "date_modified": "2022-10-21T17:23:50.000",
    "request_status": "Pending",
    "responsible_agency": "Department of Sanitation",
    "final_address": "615 Marengo St",
    "address_councildis": "B",
    "status": "Assigned to Contractor",
    "contractor": "Richards Disposal",
    "rowid": "930598",
    "final_x": "3672316.57364",
    "final_y": "518007.274358",
    "longitude": "-90.09752852062",
    "latitude": "29.91861571008746",
    "geocoded_column": {
      "latitude": "29.91861571008746",
      "longitude": "-90.09752852062"
    }
  },
  {
    "service_request": "2022-930597",
    "request_type": "Roads/Drainage",
    "request_reason": "Pothole",
    "date_created": "2022-10-21T17:18:26.000",
    "date_modified": "2022-10-21T17:18:26.000",
    "request_status": "Pending",
    "responsible_agency": "Department of Public Works",
    "final_address": "1625 Milton St",
    "address_councildis": "D",
    "status": "Pending",
    "rowid": "930597",
    "final_x": "3679877.70607",
    "final_y": "546312.946704",
    "longitude": "-90.07267902787703",
    "latitude": "29.99622032826536",
    "geocoded_column": {
      "latitude": "29.99622032826536",
      "longitude": "-90.07267902787703"
    }
  },
  {
    "service_request": "2022-930596",
    "request_type": "Roads/Drainage",
    "request_reason": "Catch Basin - Clogged",
    "date_created": "2022-10-21T17:13:39.000",
    "date_modified": "2022-10-21T17:13:39.000",
    "request_status": "Pending",
    "responsible_agency": "Department of Public Works",
    "final_address": "3803 Paris Ave",
    "address_councildis": "D",
    "status": "Pending",
    "rowid": "930596",
    "final_x": "3679688.92783",
    "final_y": "546309.395728",
    "longitude": "-90.07327548820153",
    "latitude": "29.99621627383579",
    "geocoded_column": {
      "latitude": "29.99621627383579",
      "longitude": "-90.07327548820153"
    }
  },
  {
    "service_request": "2022-930594",
    "request_type": "Trash/Recycling",
    "request_reason": "Request a Large Item Pick Up",
    "date_created": "2022-10-21T16:59:05.000",
    "date_modified": "2022-10-21T16:59:06.000",
    "request_status": "Pending",
    "responsible_agency": "Department of Sanitation",
    "final_address": "1117 N Gayoso St",
    "address_councildis": "A",
    "status": "Assigned to Contractor",
    "contractor": "Richards Disposal",
    "rowid": "930594",
    "final_x": "3676546.19425",
    "final_y": "539208.618698",
    "longitude": "-90.08344784457945",
    "latitude": "29.976786256435776",
    "geocoded_column": {
      "latitude": "29.976786256435776",
      "longitude": "-90.08344784457945"
    }
  },
  {
    "service_request": "2022-930593",
    "request_type": "Trash/Recycling",
    "request_reason": "MIssed Recycling Pick-Up",
    "date_created": "2022-10-21T16:56:45.000",
    "date_modified": "2022-10-21T16:56:46.000",
    "request_status": "Pending",
    "responsible_agency": "Department of Sanitation",
    "final_address": "6325 York St",
    "address_councildis": "A",
    "status": "Assigned to Contractor",
    "contractor": "Richards Disposal",
    "rowid": "930593",
    "final_x": "3667418.18778",
    "final_y": "529241.238977",
    "longitude": "-90.11261242875403",
    "latitude": "29.949649878864143",
    "geocoded_column": {
      "latitude": "29.949649878864143",
      "longitude": "-90.11261242875403"
    }
  },
  {
    "service_request": "2022-930592",
    "request_type": "Mosquito, Termite & Rodent Control",
    "request_reason": "Rodent Complaint (Rats)",
    "date_created": "2022-10-21T16:55:09.000",
    "date_modified": "2022-10-21T16:55:09.000",
    "request_status": "Pending",
    "responsible_agency": "Mosquito, Termite & Rodent Control Board",
    "final_address": "528 Governor Nicholls St Apt A",
    "address_councildis": "C",
    "status": "Pending",
    "rowid": "930592",
    "final_x": "3684042.79829",
    "final_y": "533562.384837",
    "longitude": "-90.05996942357035",
    "latitude": "29.961034091659933",
    "geocoded_column": {
      "latitude": "29.961034091659933",
      "longitude": "-90.05996942357035"
    }
  },
  {
    "service_request": "2022-930591",
    "request_type": "Roads/Drainage",
    "request_reason": "Catch Basin - Clogged",
    "date_created": "2022-10-21T16:54:52.000",
    "date_modified": "2022-10-21T16:54:53.000",
    "request_status": "Pending",
    "responsible_agency": "Department of Public Works",
    "final_address": "431 Seattle St",
    "address_councildis": "A",
    "status": "Pending",
    "rowid": "930591",
    "final_x": "3664710.33952",
    "final_y": "552220.081814",
    "longitude": "-90.1203943393425",
    "latitude": "30.012913028911274",
    "geocoded_column": {
      "latitude": "30.012913028911274",
      "longitude": "-90.1203943393425"
    }
  },
  {
    "service_request": "2022-930590",
    "request_type": "Trash/Recycling",
    "request_reason": "Replace Trash Cart",
    "date_created": "2022-10-21T16:47:50.000",
    "date_modified": "2022-10-21T16:47:53.000",
    "request_status": "Pending",
    "responsible_agency": "Department of Sanitation",
    "final_address": "5609 Bancroft Dr",
    "address_councildis": "D",
    "status": "Assigned to Contractor",
    "contractor": "Metro Disposal",
    "rowid": "930590",
    "final_x": "3676626.66702",
    "final_y": "552658.540822",
    "longitude": "-90.08273005718391",
    "latitude": "30.013766407679423",
    "geocoded_column": {
      "latitude": "30.013766407679423",
      "longitude": "-90.08273005718391"
    }
  },
  {
    "service_request": "2022-930589",
    "request_type": "Trash/Recycling",
    "request_reason": "Illegal Dumping",
    "date_created": "2022-10-21T16:46:29.000",
    "date_modified": "2022-10-21T16:46:29.000",
    "request_status": "Pending",
    "responsible_agency": "Department of Sanitation",
    "final_address": "3200 BLK Burdette St",
    "address_councildis": "B",
    "status": "Pending",
    "rowid": "930589",
    "final_x": "3667724.78098",
    "final_y": "533027.745084",
    "longitude": "-90.11151688651913",
    "latitude": "29.960052545771894",
    "geocoded_column": {
      "latitude": "29.960052545771894",
      "longitude": "-90.11151688651913"
    }
  },
  {
    "service_request": "2022-930587",
    "request_type": "Trash/Recycling",
    "request_reason": "Illegal Dumping",
    "date_created": "2022-10-21T16:45:48.000",
    "date_modified": "2022-10-21T16:45:48.000",
    "request_status": "Pending",
    "responsible_agency": "Department of Sanitation",
    "final_address": "EDINBURGH ST & BLOOMINGDALE CT & CLIO ST",
    "address_councildis": "B",
    "status": "Pending",
    "rowid": "930587",
    "final_x": "3669147.7",
    "final_y": "532962.38",
    "longitude": "-90.10702581101043",
    "latitude": "29.959831016944584",
    "geocoded_column": {
      "latitude": "29.959831016944584",
      "longitude": "-90.10702581101043"
    }
  },
  {
    "service_request": "2022-930586",
    "request_type": "Trash/Recycling",
    "request_reason": "Dead Animal Pick Up",
    "date_created": "2022-10-21T16:43:58.000",
    "date_modified": "2022-10-22T09:29:31.000",
    "request_status": "Pending",
    "responsible_agency": "Department of Sanitation",
    "final_address": "3819 N Robertson St, New Orleans, Louisiana, 70117",
    "address_councildis": "D",
    "status": "Assigned to Contractor",
    "contractor": "Metro Disposal",
    "rowid": "930586",
    "final_x": "3691723.20772",
    "final_y": "536904.741923",
    "longitude": "-90.03559666696567",
    "latitude": "29.969987475199098",
    "geocoded_column": {
      "latitude": "29.969987475199098",
      "longitude": "-90.03559666696567"
    }
  },
  {
    "service_request": "2022-930585",
    "request_type": "Trash/Recycling",
    "request_reason": "Dead Animal Pick Up",
    "date_created": "2022-10-21T16:42:55.000",
    "date_modified": "2022-10-21T16:46:45.000",
    "request_status": "Pending",
    "responsible_agency": "Department of Sanitation",
    "final_address": "5444 Elysian Fields Ave",
    "address_councildis": "D",
    "status": "Assigned to Contractor",
    "contractor": "Metro Disposal",
    "rowid": "930585",
    "final_x": "3683504.63893",
    "final_y": "552978.207575",
    "longitude": "-90.06098802338201",
    "latitude": "30.014437171013505",
    "geocoded_column": {
      "latitude": "30.014437171013505",
      "longitude": "-90.06098802338201"
    }
  },
  {
    "service_request": "2022-930584",
    "request_type": "Trash/Recycling",
    "request_reason": "Request a Large Item Pick Up",
    "date_created": "2022-10-21T16:33:18.000",
    "date_modified": "2022-10-21T16:33:18.000",
    "request_status": "Pending",
    "responsible_agency": "Department of Sanitation",
    "final_address": "938 Lizardi St",
    "address_councildis": "E",
    "status": "Assigned to Contractor",
    "contractor": "Metro Disposal",
    "rowid": "930584",
    "final_x": "3696358.43664",
    "final_y": "533644.163205",
    "longitude": "-90.02107616217594",
    "latitude": "29.96087688072732",
    "geocoded_column": {
      "latitude": "29.96087688072732",
      "longitude": "-90.02107616217594"
    }
  },
  {
    "service_request": "2022-930583",
    "request_type": "Trash/Recycling",
    "request_reason": "Order Recycling Cart",
    "date_created": "2022-10-21T16:25:50.000",
    "date_modified": "2022-10-21T16:25:51.000",
    "request_status": "Pending",
    "responsible_agency": "Department of Sanitation",
    "final_address": "7824 Freret St",
    "address_councildis": "A",
    "status": "Pending",
    "rowid": "930583",
    "final_x": "3662150.9337",
    "final_y": "527202.513151",
    "longitude": "-90.12931127085565",
    "latitude": "29.9441972810747",
    "geocoded_column": {
      "latitude": "29.9441972810747",
      "longitude": "-90.12931127085565"
    }
  },
  {
    "service_request": "2022-930582",
    "request_type": "Abandoned Vehicles",
    "request_reason": "Vehicle Blocking Your Driveway",
    "date_created": "2022-10-21T16:19:41.000",
    "date_modified": "2022-10-21T16:19:41.000",
    "request_status": "Pending",
    "responsible_agency": "Department of Public Works",
    "final_address": "3212 Prytania St",
    "address_councildis": "B",
    "status": "Pending",
    "rowid": "930582",
    "final_x": "3675025.34568",
    "final_y": "521262.878137",
    "longitude": "-90.08886673564436",
    "latitude": "29.927486964821558",
    "geocoded_column": {
      "latitude": "29.927486964821558",
      "longitude": "-90.08886673564436"
    }
  },
  {
    "service_request": "2022-930581",
    "request_type": "Trash/Recycling",
    "request_reason": "Missed Trash Pick-Up",
    "date_created": "2022-10-21T16:15:19.000",
    "date_modified": "2022-10-21T16:17:01.000",
    "request_status": "Pending",
    "responsible_agency": "Department of Sanitation",
    "final_address": "2831 Octavia St",
    "address_councildis": "A",
    "status": "Assigned to Contractor",
    "contractor": "Richards Disposal",
    "rowid": "930581",
    "final_x": "3668043.33524",
    "final_y": "525943.196093",
    "longitude": "-90.11074965600237",
    "latitude": "29.940563002133423",
    "geocoded_column": {
      "latitude": "29.940563002133423",
      "longitude": "-90.11074965600237"
    }
  },
  {
    "service_request": "2022-930580",
    "request_type": "Trash/Recycling",
    "request_reason": "Order Trash Cart",
    "date_created": "2022-10-21T16:12:40.000",
    "date_modified": "2022-10-21T16:12:41.000",
    "request_status": "Pending",
    "responsible_agency": "Department of Sanitation",
    "final_address": "3538 Marigny St",
    "address_councildis": "D",
    "status": "Assigned to Contractor",
    "contractor": "Metro Disposal",
    "rowid": "930580",
    "final_x": "3684568.11369",
    "final_y": "545851.835664",
    "longitude": "-90.0578786012079",
    "latitude": "29.99480971155742",
    "geocoded_column": {
      "latitude": "29.99480971155742",
      "longitude": "-90.0578786012079"
    }
  },
  {
    "service_request": "2022-930578",
    "request_type": "Trash/Recycling",
    "request_reason": "Order Trash Cart",
    "date_created": "2022-10-21T16:10:01.000",
    "date_modified": "2022-10-21T16:10:02.000",
    "request_status": "Pending",
    "responsible_agency": "Department of Sanitation",
    "final_address": "3540 Marigny St",
    "address_councildis": "D",
    "status": "Assigned to Contractor",
    "contractor": "Metro Disposal",
    "rowid": "930578",
    "final_x": "3684568.11369",
    "final_y": "545851.835664",
    "longitude": "-90.0578786012079",
    "latitude": "29.99480971155742",
    "geocoded_column": {
      "latitude": "29.99480971155742",
      "longitude": "-90.0578786012079"
    }
  },
  {
    "service_request": "2022-930577",
    "request_type": "Trash/Recycling",
    "request_reason": "Missed Trash Pick-Up",
    "date_created": "2022-10-21T16:01:16.000",
    "date_modified": "2022-10-21T16:01:17.000",
    "request_status": "Pending",
    "responsible_agency": "Department of Sanitation",
    "final_address": "1135 Philip St",
    "address_councildis": "B",
    "status": "Assigned to Contractor",
    "contractor": "Richards Disposal",
    "rowid": "930577",
    "final_x": "3678404.33051",
    "final_y": "522111.522682",
    "longitude": "-90.0781707638938",
    "latitude": "29.92971911958499",
    "geocoded_column": {
      "latitude": "29.92971911958499",
      "longitude": "-90.0781707638938"
    }
  },
  {
    "service_request": "2022-930576",
    "request_type": "Trash/Recycling",
    "request_reason": "Missed Trash Pick-Up",
    "date_created": "2022-10-21T16:01:08.000",
    "date_modified": "2022-10-21T16:01:09.000",
    "request_status": "Pending",
    "responsible_agency": "Department of Sanitation",
    "final_address": "513 S Solomon St",
    "address_councildis": "A",
    "status": "Assigned to Contractor",
    "contractor": "Richards Disposal",
    "rowid": "930576",
    "final_x": "3669513.8162",
    "final_y": "537366.99636",
    "longitude": "-90.1057206802969",
    "latitude": "29.971931465192757",
    "geocoded_column": {
      "latitude": "29.971931465192757",
      "longitude": "-90.1057206802969"
    }
  },
  {
    "service_request": "2022-930574",
    "request_type": "Traffic Signals/Signs/Striping/Streetlights",
    "request_reason": "Street Light Outage/Malfunction",
    "date_created": "2022-10-21T16:00:34.000",
    "date_modified": "2022-10-21T16:00:34.000",
    "request_status": "Pending",
    "responsible_agency": "Department of Public Works",
    "final_address": "2829 Joseph St",
    "address_councildis": "A",
    "status": "Pending",
    "contractor": "Legacy Professional Services",
    "rowid": "930574",
    "final_x": "3667855.82426",
    "final_y": "526363.739774",
    "longitude": "-90.11132750173452",
    "latitude": "29.94172486157745",
    "geocoded_column": {
      "latitude": "29.94172486157745",
      "longitude": "-90.11132750173452"
    }
  },
  {
    "service_request": "2022-930573",
    "request_type": "Property Maintenance",
    "request_reason": "Property Maintenance",
    "date_created": "2022-10-21T15:59:24.000",
    "date_modified": "2022-10-21T15:59:25.000",
    "request_status": "Pending",
    "responsible_agency": "Department of Code Enforcement",
    "final_address": "4666 Ray Ave",
    "address_councildis": "E",
    "status": "Pending",
    "rowid": "930573",
    "final_x": "3698750.78461",
    "final_y": "554036.586328",
    "longitude": "-90.01277948759775",
    "latitude": "30.016873004401955",
    "geocoded_column": {
      "latitude": "30.016873004401955",
      "longitude": "-90.01277948759775"
    }
  },
  {
    "service_request": "2022-930572",
    "request_type": "Trash/Recycling",
    "request_reason": "Order Recycling Cart",
    "date_created": "2022-10-21T15:54:40.000",
    "date_modified": "2022-10-21T15:54:40.000",
    "request_status": "Pending",
    "responsible_agency": "Department of Sanitation",
    "final_address": "8535 Jeannette St",
    "address_councildis": "A",
    "status": "Pending",
    "rowid": "930572",
    "final_x": "3661437.71789",
    "final_y": "530334.68045",
    "longitude": "-90.13145937892675",
    "latitude": "29.95283032624546",
    "geocoded_column": {
      "latitude": "29.95283032624546",
      "longitude": "-90.13145937892675"
    }
  },
  {
    "service_request": "2022-930571",
    "request_type": "Trash/Recycling",
    "request_reason": "Order Trash Cart",
    "date_created": "2022-10-21T15:54:17.000",
    "date_modified": "2022-10-21T15:54:18.000",
    "request_status": "Pending",
    "responsible_agency": "Department of Sanitation",
    "final_address": "8535 Jeannette St",
    "address_councildis": "A",
    "status": "Assigned to Contractor",
    "contractor": "Richards Disposal",
    "rowid": "930571",
    "final_x": "3661437.71789",
    "final_y": "530334.68045",
    "longitude": "-90.13145937892675",
    "latitude": "29.95283032624546",
    "geocoded_column": {
      "latitude": "29.95283032624546",
      "longitude": "-90.13145937892675"
    }
  },
  {
    "service_request": "2022-930570",
    "request_type": "Trash/Recycling",
    "request_reason": "Repair Trash Cart",
    "date_created": "2022-10-21T15:41:42.000",
    "date_modified": "2022-10-21T15:42:22.000",
    "request_status": "Pending",
    "responsible_agency": "Department of Sanitation",
    "final_address": "1843 W Homestead Dr",
    "address_councildis": "C",
    "status": "Assigned to Contractor",
    "contractor": "Richards Disposal",
    "rowid": "930570",
    "final_x": "3696862.07248",
    "final_y": "525056.259197",
    "longitude": "-90.01979666276912",
    "latitude": "29.937247279196416",
    "geocoded_column": {
      "latitude": "29.937247279196416",
      "longitude": "-90.01979666276912"
    }
  },
  {
    "service_request": "2022-930569",
    "request_type": "Roads/Drainage",
    "request_reason": "Catch Basin - Clogged",
    "date_created": "2022-10-21T15:34:11.000",
    "date_modified": "2022-10-21T16:17:52.000",
    "request_status": "Pending",
    "responsible_agency": "Department of Public Works",
    "final_address": "New Orleans,LA",
    "address_councildis": "C",
    "rowid": "930569",
    "final_x": "3684798.71068",
    "final_y": "534076.243205",
    "longitude": "-90.05756432938769",
    "latitude": "29.962423905393205",
    "geocoded_column": {
      "latitude": "29.962423905393205",
      "longitude": "-90.05756432938769"
    }
  },
  {
    "service_request": "2022-930568",
    "request_type": "Property Maintenance",
    "request_reason": "Property Maintenance",
    "date_created": "2022-10-21T15:30:36.000",
    "date_modified": "2022-10-21T15:30:36.000",
    "request_status": "Pending",
    "responsible_agency": "Department of Code Enforcement",
    "final_address": "5019 N Miro St",
    "address_councildis": "E",
    "status": "Pending",
    "rowid": "930568",
    "final_x": "3697306.79037",
    "final_y": "538371.518921",
    "longitude": "-90.01791008397721",
    "latitude": "29.973845522667922",
    "geocoded_column": {
      "latitude": "29.973845522667922",
      "longitude": "-90.01791008397721"
    }
  },
  {
    "service_request": "2022-930567",
    "request_type": "Traffic Signals/Signs/Striping/Streetlights",
    "request_reason": "Street Light Outage/Malfunction",
    "date_created": "2022-10-21T15:28:46.000",
    "date_modified": "2022-10-22T10:04:30.000",
    "request_status": "Pending",
    "responsible_agency": "Department of Public Works",
    "final_address": "2012 Mazant St",
    "address_councildis": "D",
    "status": "Pending",
    "contractor": "Legacy Professional Services",
    "rowid": "930567",
    "final_x": "3692923.43517",
    "final_y": "538717.211209",
    "longitude": "-90.03174122655706",
    "latitude": "29.974933690048648",
    "geocoded_column": {
      "latitude": "29.974933690048648",
      "longitude": "-90.03174122655706"
    }
  },
  {
    "service_request": "2022-930566",
    "request_type": "Trash/Recycling",
    "request_reason": "Repair Trash Cart",
    "date_created": "2022-10-21T15:26:19.000",
    "date_modified": "2022-10-21T15:26:19.000",
    "request_status": "Pending",
    "responsible_agency": "Department of Sanitation",
    "final_address": "851 Josephine St",
    "address_councildis": "B",
    "status": "Assigned to Contractor",
    "contractor": "Richards Disposal",
    "rowid": "930566",
    "final_x": "3679676.79842",
    "final_y": "521709.785849",
    "longitude": "-90.07416774297378",
    "latitude": "29.928576086739298",
    "geocoded_column": {
      "latitude": "29.928576086739298",
      "longitude": "-90.07416774297378"
    }
  },
  {
    "service_request": "2022-930565",
    "request_type": "Trash/Recycling",
    "request_reason": "Request a Large Item Pick Up",
    "date_created": "2022-10-21T15:17:07.000",
    "date_modified": "2022-10-21T15:17:08.000",
    "request_status": "Pending",
    "responsible_agency": "Department of Sanitation",
    "final_address": "5779 E Louis Prima Dr",
    "address_councildis": "E",
    "status": "Assigned to Contractor",
    "contractor": "Metro Disposal",
    "rowid": "930565",
    "final_x": "3715974.67903",
    "final_y": "562631.569952",
    "longitude": "-89.95803384841089",
    "latitude": "30.03994872615379",
    "geocoded_column": {
      "latitude": "30.03994872615379",
      "longitude": "-89.95803384841089"
    }
  },
  {
    "service_request": "2022-930564",
    "request_type": "Traffic Signals/Signs/Striping/Streetlights",
    "request_reason": "Street Light Outage/Malfunction",
    "date_created": "2022-10-21T15:16:17.000",
    "date_modified": "2022-10-21T15:45:14.000",
    "request_status": "Pending",
    "responsible_agency": "Department of Public Works",
    "final_address": "1449 Verna Ct, New Orleans, Louisiana, 70119",
    "address_councildis": "A",
    "status": "Pending",
    "contractor": "Legacy Professional Services",
    "rowid": "930564",
    "final_x": "3675785.46152",
    "final_y": "541294.034956",
    "longitude": "-90.0857787690107",
    "latitude": "29.982543229043316",
    "geocoded_column": {
      "latitude": "29.982543229043316",
      "longitude": "-90.0857787690107"
    }
  },
  {
    "service_request": "2022-930562",
    "request_type": "Traffic Signals/Signs/Striping/Streetlights",
    "request_reason": "Traffic Signal Malfunctioning/Damaged",
    "date_created": "2022-10-21T15:14:16.000",
    "date_modified": "2022-10-21T15:14:16.000",
    "request_status": "Pending",
    "responsible_agency": "Department of Public Works",
    "final_address": "2418 S Carrollton Ave",
    "address_councildis": "A",
    "status": "Pending",
    "rowid": "930562",
    "final_x": "3664932.39469",
    "final_y": "531668.372803",
    "longitude": "-90.12038011728853",
    "latitude": "29.956396292800484",
    "geocoded_column": {
      "latitude": "29.956396292800484",
      "longitude": "-90.12038011728853"
    }
  },