[
  {
    "service_request": "2025-1186449",
    "request_type": "Streetlights",
    "request_reason": "Streetlight Outage/Malfunction",
    "date_created": "2025-04-23T22:56:41.000",
    "date_modified": "2025-04-23T22:56:43.000",
    "request_status": "Pending",
    "responsible_agency": "Department of Public Works",
    "final_address": "826 Cherokee St",
    "address_councildis": "A",
    "status": "Pending",
    "contractor": "Legacy Professional Services",
    "rowid": "1186449",
    "final_x": "3662721.02771",
    "final_y": "526106.689342",
    "longitude": "-90.12754772258246",
    "latitude": "29.94116763107228",
    "geocoded_column": {
      "latitude": "29.94116763107228",
      "longitude": "-90.12754772258246"
    }
  },
  {
    "service_request": "2025-1186448",
    "request_type": "Trash/Recycling",
    "request_reason": "Order Trash Cart",
    "date_created": "2025-04-23T22:18:14.000",
    "date_modified": "2025-04-23T22:18:16.000",
    "request_status": "Pending",
    "responsible_agency": "Department of Sanitation",
    "final_address": "4222 Freret St",
    "address_councildis": "B",
    "status": "Assigned to Contractor",
    "contractor": "IV Waste",
    "rowid": "1186448",
    "final_x": "3671089.07444",
    "final_y": "524065.51238",
    "longitude": "-90.10119747007415",
    "latitude": "29.93531027178285",
    "geocoded_column": {
      "latitude": "29.93531027178285",
      "longitude": "-90.10119747007415"
    }
  },
  {
    "service_request": "2025-1186447",
    "request_type": "Streetlights",
    "request_reason": "Streetlight Outage/Malfunction",
    "date_created": "2025-04-23T21:51:27.000",
    "date_modified": "2025-04-23T21:51:30.000",
    "request_status": "Pending",
    "responsible_agency": "Department of Public Works",
    "final_address": "7554 Tricia Ct",
    "address_councildis": "E",
    "status": "Pending",
    "contractor": "Legacy Professional Services",
    "rowid": "1186447",
    "final_x": "3717840.10713",
    "final_y": "570775.181863",
    "longitude": "-89.9518282873636",
    "latitude": "30.062278612900585",
    "geocoded_column": {
      "latitude": "30.062278612900585",
      "longitude": "-89.9518282873636"
    }
  },
  {
    "service_request": "2025-1186446",
    "request_type": "Trash/Recycling",
    "request_reason": "Order Trash Cart",
    "date_created": "2025-04-23T21:35:36.000",
    "date_modified": "2025-04-23T21:35:38.000",
    "request_status": "Pending",
    "responsible_agency": "Department of Sanitation",
    "final_address": "4811 Brittany Ct",
    "address_councildis": "E",
    "status": "Assigned to Contractor",
    "contractor": "Waste Pro",
    "rowid": "1186446",
    "final_x": "3726960.11001",
    "final_y": "561428.230366",
    "longitude": "-89.92336376019024",
    "latitude": "30.03627291912662",
    "geocoded_column": {
      "latitude": "30.03627291912662",
      "longitude": "-89.92336376019024"
    }
  },
  {
    "service_request": "2025-1186445",
    "request_type": "Trash/Recycling",
    "request_reason": "Request a Large Item Pick Up",
    "date_created": "2025-04-23T21:25:03.000",
    "date_modified": "2025-04-23T21:25:05.000",
    "request_status": "Pending",
    "responsible_agency": "Department of Sanitation",
    "final_address": "6909 Wuerpel St",
    "address_councildis": "A",
    "status": "Assigned to Contractor",
    "contractor": "IV Waste",
    "rowid": "1186445",
    "final_x": "3667416.70977",
    "final_y": "553710.744663",
    "longitude": "-90.11179343859976",
    "latitude": "30.016932776594608",
    "geocoded_column": {
      "latitude": "30.016932776594608",
      "longitude": "-90.11179343859976"
    }
  },
  {
    "service_request": "2025-1186444",
    "request_type": "Streetlights",
    "request_reason": "Streetlight Outage/Malfunction",
    "date_created": "2025-04-23T20:55:26.000",
    "date_modified": "2025-04-23T20:55:28.000",
    "request_status": "Pending",
    "responsible_agency": "Department of Public Works",
    "final_address": "3601 St Bernard Ave",
    "address_councildis": "D",
    "status": "Pending",
    "contractor": "Legacy Professional Services",
    "rowid": "1186444",
    "final_x": "3678356.92942",
    "final_y": "545461.438224",
    "longitude": "-90.07751253492788",
    "latitude": "29.993924898238106",
    "geocoded_column": {
      "latitude": "29.993924898238106",
      "longitude": "-90.07751253492788"
    }
  },
  {
    "service_request": "2025-1186443",
    "request_type": "Roads and Streets",
    "request_reason": "Sidewalk Damaged or Missing",
    "date_created": "2025-04-23T20:12:29.000",
    "date_modified": "2025-04-23T20:12:31.000",
    "request_status": "Pending",
    "responsible_agency": "Department of Public Works",
    "final_address": "913 Burgundy St",
    "address_councildis": "C",
    "status": "Pending",
    "rowid": "1186443",
    "final_x": "3682177.21628",
    "final_y": "533811.790021",
    "longitude": "-90.06585186955662",
    "latitude": "29.961776744909603",
    "geocoded_column": {
      "latitude": "29.961776744909603",
      "longitude": "-90.06585186955662"
    }
  },
  {
    "service_request": "2025-1186442",
    "request_type": "Mosquito, Termite & Rodent Control",
    "request_reason": "Mosquito Complaint",
    "date_created": "2025-04-23T20:00:43.000",
    "date_modified": "2025-04-23T20:00:45.000",
    "request_status": "Pending",
    "responsible_agency": "Mosquito, Termite & Rodent Control Board",
    "final_address": "2732 Danneel St",
    "address_councildis": "B",
    "status": "Pending",
    "rowid": "1186442",
    "final_x": "3675222.71118",
    "final_y": "523756.691195",
    "longitude": "-90.08815815234507",
    "latitude": "29.934338245480106",
    "geocoded_column": {
      "latitude": "29.934338245480106",
      "longitude": "-90.08815815234507"
    }
  },
  {
    "service_request": "2025-1186441",
    "request_type": "Abandoned Vehicles",
    "request_reason": "Abandoned/Junk Vehicles",
    "date_created": "2025-04-23T19:58:33.000",
    "date_modified": "2025-04-23T19:58:35.000",
    "request_status": "Pending",
    "responsible_agency": "Department of Public Works",
    "final_address": "1131 Marengo St",
    "address_councildis": "B",
    "status": "Pending",
    "rowid": "1186441",
    "final_x": "3672128.13531",
    "final_y": "519892.187384",
    "longitude": "-90.09805918186767",
    "latitude": "29.923804207118714",
    "geocoded_column": {
      "latitude": "29.923804207118714",
      "longitude": "-90.09805918186767"
    }
  },
  {
    "service_request": "2025-1186440",
    "request_type": "Drainage",
    "request_reason": "Catch Basin Clogged",
    "date_created": "2025-04-23T19:55:44.000",
    "date_modified": "2025-04-23T19:55:45.000",
    "request_status": "Pending",
    "responsible_agency": "Sewerage & Water Board",
    "final_address": "1548 Leda St",
    "address_councildis": "A",
    "status": "Pending",
    "rowid": "1186440",
    "final_x": "3675766.28078",
    "final_y": "541846.686156",
    "longitude": "-90.08582034703493",
    "latitude": "29.9840634032206",
    "geocoded_column": {
      "latitude": "29.9840634032206",
      "longitude": "-90.08582034703493"
    }
  },
  {
    "service_request": "2025-1186439",
    "request_type": "Trash/Recycling",
    "request_reason": "Replace Trash Cart",
    "date_created": "2025-04-23T19:55:43.000",
    "date_modified": "2025-04-23T19:55:46.000",
    "request_status": "Pending",
    "responsible_agency": "Department of Sanitation",
    "final_address": "1568 N Dorgenois St",
    "address_councildis": "D",
    "status": "Assigned to Contractor",
    "contractor": "IV Waste",
    "rowid": "1186439",
    "final_x": "3679518.55183",
    "final_y": "539675.924106",
    "longitude": "-90.0740439875504",
    "latitude": "29.97798169901041",
    "geocoded_column": {
      "latitude": "29.97798169901041",
      "longitude": "-90.0740439875504"
    }
  },
  {
    "service_request": "2025-1186438",
    "request_type": "Abandoned Vehicles",
    "request_reason": "Abandoned/Junk Vehicles",
    "date_created": "2025-04-23T19:54:48.000",
    "date_modified": "2025-04-23T19:54:49.000",
    "request_status": "Pending",
    "responsible_agency": "Department of Public Works",
    "final_address": "1131 Marengo St",
    "address_councildis": "B",
    "status": "Pending",
    "rowid": "1186438",
    "final_x": "3672128.13531",
    "final_y": "519892.187384",
    "longitude": "-90.09805918186767",
    "latitude": "29.923804207118714",
    "geocoded_column": {
      "latitude": "29.923804207118714",
      "longitude": "-90.09805918186767"
    }
  },
  {
    "service_request": "2025-1186437",
    "request_type": "Streetlights",
    "request_reason": "Streetlight Outage/Malfunction",
    "date_created": "2025-04-23T19:54:32.000",
    "date_modified": "2025-04-23T19:54:34.000",
    "request_status": "Pending",
    "responsible_agency": "Department of Public Works",
    "final_address": "1568 N Dorgenois St",
    "address_councildis": "D",
    "status": "Pending",
    "contractor": "Legacy Professional Services",
    "rowid": "1186437",
    "final_x": "3679518.55183",
    "final_y": "539675.924106",
    "longitude": "-90.0740439875504",
    "latitude": "29.97798169901041",
    "geocoded_column": {
      "latitude": "29.97798169901041",
      "longitude": "-90.0740439875504"
    }
  },
  {
    "service_request": "2025-1186436",
    "request_type": "Drainage",
    "request_reason": "Catch Basin Clogged",
    "date_created": "2025-04-23T19:53:02.000",
    "date_modified": "2025-04-23T19:53:04.000",
    "request_status": "Pending",
    "responsible_agency": "Sewerage & Water Board",
    "final_address": "1549 Verna St",
    "address_councildis": "A",
    "status": "Pending",
    "rowid": "1186436",
    "final_x": "3675937.4436",
    "final_y": "541789.369228",
    "longitude": "-90.08528169306148",
    "latitude": "29.983900676384817",
    "geocoded_column": {
      "latitude": "29.983900676384817",
      "longitude": "-90.08528169306148"
    }
  },
  {
    "service_request": "2025-1186435",
    "request_type": "Abandoned Vehicles",
    "request_reason": "Abandoned/Junk Vehicles",
    "date_created": "2025-04-23T19:52:52.000",
    "date_modified": "2025-04-23T19:52:54.000",
    "request_status": "Pending",
    "responsible_agency": "Department of Public Works",
    "final_address": "1131 Marengo St",
    "address_councildis": "B",
    "status": "Pending",
    "rowid": "1186435",
    "final_x": "3672128.13531",
    "final_y": "519892.187384",
    "longitude": "-90.09805918186767",
    "latitude": "29.923804207118714",
    "geocoded_column": {
      "latitude": "29.923804207118714",
      "longitude": "-90.09805918186767"
    }
  },
  {
    "service_request": "2025-1186434",
    "request_type": "Abandoned Vehicles",
    "request_reason": "Abandoned/Junk Vehicles",
    "date_created": "2025-04-23T19:50:18.000",
    "date_modified": "2025-04-23T19:50:20.000",
    "request_status": "Pending",
    "responsible_agency": "Department of Public Works",
    "final_address": "1131 Marengo St",
    "address_councildis": "B",
    "status": "Pending",
    "rowid": "1186434",
    "final_x": "3672128.13531",
    "final_y": "519892.187384",
    "longitude": "-90.09805918186767",
    "latitude": "29.923804207118714",
    "geocoded_column": {
      "latitude": "29.923804207118714",
      "longitude": "-90.09805918186767"
    }
  },
  {
    "service_request": "2025-1186433",
    "request_type": "Safety & Permits",
    "request_reason": "Construction permit",
    "date_created": "2025-04-23T19:42:53.000",
    "date_modified": "2025-04-23T19:42:54.000",
    "request_status": "Pending",
    "responsible_agency": "Safety and Permits",
    "final_address": "715 Bellecastle St",
    "address_councildis": "B",
    "status": "Pending",
    "rowid": "1186433",
    "final_x": "3667708.31213",
    "final_y": "518027.187062",
    "longitude": "-90.11207375550967",
    "latitude": "29.918806320556385",
    "geocoded_column": {
      "latitude": "29.918806320556385",
      "longitude": "-90.11207375550967"
    }
  },
  {
    "service_request": "2025-1186432",
    "request_type": "Trash/Recycling",
    "request_reason": "Repair Trash Cart",
    "date_created": "2025-04-23T19:06:02.000",
    "date_modified": "2025-04-23T19:06:05.000",
    "request_status": "Pending",
    "responsible_agency": "Department of Sanitation",
    "final_address": "522 S Scott St",
    "address_councildis": "B",
    "status": "Assigned to Contractor",
    "contractor": "IV Waste",
    "rowid": "1186432",
    "final_x": "3670724.14254",
    "final_y": "536373.783431",
    "longitude": "-90.1019319758035",
    "latitude": "29.969164753046392",
    "geocoded_column": {
      "latitude": "29.969164753046392",
      "longitude": "-90.1019319758035"
    }
  },
  {
    "service_request": "2025-1186431",
    "request_type": "Abandoned Vehicles",
    "request_reason": "Abandoned/Junk Vehicles",
    "date_created": "2025-04-23T18:45:39.000",
    "date_modified": "2025-04-23T18:45:40.000",
    "request_status": "Pending",
    "responsible_agency": "Department of Public Works",
    "final_address": "942 Verret St",
    "address_councildis": "C",
    "status": "Pending",
    "rowid": "1186431",
    "final_x": "3687264.73967",
    "final_y": "528006.350527",
    "longitude": "-90.04999165621864",
    "latitude": "29.94565805823499",
    "geocoded_column": {
      "latitude": "29.94565805823499",
      "longitude": "-90.04999165621864"
    }
  },
  {
    "service_request": "2025-1186430",
    "request_type": "Health Related Request",
    "request_reason": "Noise Ordinance Complaint",
    "date_created": "2025-04-23T18:14:26.000",
    "date_modified": "2025-04-23T18:14:28.000",
    "request_status": "Pending",
    "responsible_agency": "Health Department",
    "final_address": "2336 Robert St",
    "address_councildis": "B",
    "status": "Pending",
    "rowid": "1186430",
    "final_x": "3668771.05959",
    "final_y": "524197.766332",
    "longitude": "-90.10851100579977",
    "latitude": "29.935742262187567",
    "geocoded_column": {
      "latitude": "29.935742262187567",
      "longitude": "-90.10851100579977"
    }
  },
  {
    "service_request": "2025-1186429",
    "request_type": "Trash/Recycling",
    "request_reason": "Order Trash Cart",
    "date_created": "2025-04-23T18:05:48.000",
    "date_modified": "2025-04-23T18:05:50.000",
    "request_status": "Pending",
    "responsible_agency": "Department of Sanitation",
    "final_address": "617 David St",
    "address_councildis": "A",
    "status": "Assigned to Contractor",
    "contractor": "IV Waste",
    "rowid": "1186429",
    "final_x": "3672047.77876",
    "final_y": "540096.798859",
    "longitude": "-90.09762503075697",
    "latitude": "29.97936260530238",
    "geocoded_column": {
      "latitude": "29.97936260530238",
      "longitude": "-90.09762503075697"
    }
  },
  {
    "service_request": "2025-1186428",
    "request_type": "Roads and Streets",
    "request_reason": "Pothole",
    "date_created": "2025-04-23T18:04:27.000",
    "date_modified": "2025-04-23T18:04:28.000",
    "request_status": "Pending",
    "responsible_agency": "Department of Public Works",
    "final_address": "2800 DAbadie St",
    "address_councildis": "D",
    "status": "Pending",
    "rowid": "1186428",
    "final_x": "3678914.20635",
    "final_y": "541186.461836",
    "longitude": "-90.07590036884237",
    "latitude": "29.982153403064945",
    "geocoded_column": {
      "latitude": "29.982153403064945",
      "longitude": "-90.07590036884237"
    }
  },
  {
    "service_request": "2025-1186427",
    "request_type": "Trash/Recycling",
    "request_reason": "Order Recycling Cart",
    "date_created": "2025-04-23T18:02:45.000",
    "date_modified": "2025-04-23T18:02:47.000",
    "request_status": "Pending",
    "responsible_agency": "Department of Sanitation",
    "final_address": "1630 Washington Ave, Apt C",
    "status": "Pending",
    "rowid": "1186427",
    "longitude": "0.0",
    "latitude": "0.0",
    "geocoded_column": {
      "latitude": "0.0",
      "longitude": "0.0"
    }
  },
  {
    "service_request": "2025-1186426",
    "request_type": "Trash/Recycling",
    "request_reason": "Order Trash Cart",
    "date_created": "2025-04-23T18:01:09.000",
    "date_modified": "2025-04-23T18:01:11.000",
    "request_status": "Pending",
    "responsible_agency": "Department of Sanitation",
    "final_address": "1630 washington ave",
    "address_councildis": "B",
    "status": "Assigned to Contractor",
    "contractor": "IV Waste",
    "rowid": "1186426",
    "final_x": "3675728.51483",
    "final_y": "522748.708858",
    "longitude": "-90.08659596719141",
    "latitude": "29.931551499180358",
    "geocoded_column": {
      "latitude": "29.931551499180358",
      "longitude": "-90.08659596719141"
    }
  },
  {
    "service_request": "2025-1186425",
    "request_type": "Abandoned Vehicles",
    "request_reason": "Abandoned/Junk Vehicles",
    "date_created": "2025-04-23T17:49:49.000",
    "date_modified": "2025-04-23T17:49:51.000",
    "request_status": "Pending",
    "responsible_agency": "Department of Public Works",
    "final_address": "109 Brunswick Ct",
    "address_councildis": "C",
    "status": "Pending",
    "rowid": "1186425",
    "final_x": "3705877.62679",
    "final_y": "516973.832373",
    "longitude": "-89.99163301199972",
    "latitude": "29.91473617054154",
    "geocoded_column": {
      "latitude": "29.91473617054154",
      "longitude": "-89.99163301199972"
    }
  },
  {
    "service_request": "2025-1186424",
    "request_type": "Trash/Recycling",
    "request_reason": "Return Trash Cart",
    "date_created": "2025-04-23T17:39:13.000",
    "date_modified": "2025-04-23T17:39:15.000",
    "request_status": "Pending",
    "responsible_agency": "Department of Sanitation",
    "final_address": "400 S Norman C Francis Prkwy",
    "address_councildis": "B",
    "status": "Assigned to Contractor",
    "contractor": "IV Waste",
    "rowid": "1186424",
    "final_x": "3672559.88475",
    "final_y": "535592.16871",
    "longitude": "-90.09616120876072",
    "latitude": "29.966961202127123",
    "geocoded_column": {
      "latitude": "29.966961202127123",
      "longitude": "-90.09616120876072"
    }
  },
  {
    "service_request": "2025-1186423",
    "request_type": "Trash/Recycling",
    "request_reason": "Replace Trash Cart",
    "date_created": "2025-04-23T17:14:57.000",
    "date_modified": "2025-04-23T17:14:59.000",
    "request_status": "Pending",
    "responsible_agency": "Department of Sanitation",
    "final_address": "1026 Josephine St",
    "address_councildis": "B",
    "status": "Assigned to Contractor",
    "contractor": "IV Waste",
    "rowid": "1186423",
    "final_x": "3679227.68635",
    "final_y": "522175.190074",
    "longitude": "-90.07556936782437",
    "latitude": "29.92986935879547",
    "geocoded_column": {
      "latitude": "29.92986935879547",
      "longitude": "-90.07556936782437"
    }
  },
  {
    "service_request": "2025-1186422",
    "request_type": "Traffic Signals",
    "request_reason": "Traffic Signal Malfunctioning or Damaged",
    "date_created": "2025-04-23T17:11:14.000",
    "date_modified": "2025-04-23T17:11:17.000",
    "request_status": "Pending",
    "responsible_agency": "Department of Public Works",
    "final_address": "2900 S Claiborne Ave",
    "address_councildis": "B",
    "status": "Pending",
    "rowid": "1186422",
    "final_x": "3672768.75572",
    "final_y": "526286.092734",
    "longitude": "-90.09581899130944",
    "latitude": "29.941366374248226",
    "geocoded_column": {
      "latitude": "29.941366374248226",
      "longitude": "-90.09581899130944"
    }
  },
  {
    "service_request": "2025-1186421",
    "request_type": "Trash/Recycling",
    "request_reason": "Repair Trash Cart",
    "date_created": "2025-04-23T17:09:25.000",
    "date_modified": "2025-04-23T17:09:27.000",
    "request_status": "Pending",
    "responsible_agency": "Department of Sanitation",
    "final_address": "1804 Cambronne St",
    "address_councildis": "A",
    "status": "Assigned to Contractor",
    "contractor": "IV Waste",
    "rowid": "1186421",
    "final_x": "3662597.19226",
    "final_y": "530731.596482",
    "longitude": "-90.12778507023238",
    "latitude": "29.953888225500574",
    "geocoded_column": {
      "latitude": "29.953888225500574",
      "longitude": "-90.12778507023238"
    }
  },
  {
    "service_request": "2025-1186420",
    "request_type": "Trash/Recycling",
    "request_reason": "Repair Recycling Cart",
    "date_created": "2025-04-23T17:06:26.000",
    "date_modified": "2025-04-23T17:06:29.000",
    "request_status": "Pending",
    "responsible_agency": "Department of Sanitation",
    "final_address": "7544 Plum St",
    "address_councildis": "A",
    "status": "Pending",
    "rowid": "1186420",
    "final_x": "3663594.91661",
    "final_y": "527316.303935",
    "longitude": "-90.12474839841894",
    "latitude": "29.944468369454647",
    "geocoded_column": {
      "latitude": "29.944468369454647",
      "longitude": "-90.12474839841894"
    }
  },
  {
    "service_request": "2025-1186419",
    "request_type": "Trash/Recycling",
    "request_reason": "Request a Large Item Pick Up",
    "date_created": "2025-04-23T16:54:30.000",
    "date_modified": "2025-04-23T16:54:32.000",
    "request_status": "Pending",
    "responsible_agency": "Department of Sanitation",
    "final_address": "616 N Alexander St",
    "address_councildis": "A",
    "status": "Assigned to Contractor",
    "contractor": "IV Waste",
    "rowid": "1186419",
    "final_x": "3671201.85761",
    "final_y": "540698.361291",
    "longitude": "-90.10027634459583",
    "latitude": "29.981041754344965",
    "geocoded_column": {
      "latitude": "29.981041754344965",
      "longitude": "-90.10027634459583"
    }
  },
  {
    "service_request": "2025-1186418",
    "request_type": "Trash/Recycling",
    "request_reason": "Request a Large Item Pick Up",
    "date_created": "2025-04-23T16:53:28.000",
    "date_modified": "2025-04-23T16:53:30.000",
    "request_status": "Pending",
    "responsible_agency": "Department of Sanitation",
    "final_address": "7810 Windward Ct",
    "address_councildis": "E",
    "status": "Assigned to Contractor",
    "contractor": "Waste Pro",
    "rowid": "1186418",
    "final_x": "3715320.50802",
    "final_y": "570026.593062",
    "longitude": "-89.95982106980223",
    "latitude": "30.06030359043755",
    "geocoded_column": {
      "latitude": "30.06030359043755",
      "longitude": "-89.95982106980223"
    }
  },
  {
    "service_request": "2025-1186417",
    "request_type": "Trash/Recycling",
    "request_reason": "Request a Large Item Pick Up",
    "date_created": "2025-04-23T16:46:15.000",
    "date_modified": "2025-04-23T16:46:16.000",
    "request_status": "Pending",
    "responsible_agency": "Department of Sanitation",
    "final_address": "1640 Caton St",
    "address_councildis": "D",
    "status": "Assigned to Contractor",
    "contractor": "IV Waste",
    "rowid": "1186417",
    "final_x": "3679847.10031",
    "final_y": "546809.044625",
    "longitude": "-90.0727584687061",
    "latitude": "29.997585347623733",
    "geocoded_column": {
      "latitude": "29.997585347623733",
      "longitude": "-90.0727584687061"
    }
  },
  {
    "service_request": "2025-1186416",
    "request_type": "Trash/Recycling",
    "request_reason": "Missed Trash Pick-Up",
    "date_created": "2025-04-23T16:44:35.000",
    "date_modified": "2025-04-23T16:44:36.000",
    "request_status": "Pending",
    "responsible_agency": "Department of Sanitation",
    "final_address": "366 Walnut St",
    "address_councildis": "A",
    "status": "Assigned to Contractor",
    "contractor": "IV Waste",
    "rowid": "1186416",
    "final_x": "3662138.7001",
    "final_y": "522501.904442",
    "longitude": "-90.12950581833262",
    "latitude": "29.931272448839735",
    "geocoded_column": {
      "latitude": "29.931272448839735",
      "longitude": "-90.12950581833262"
    }
  },
  {
    "service_request": "2025-1186415",
    "request_type": "Roads and Streets",
    "request_reason": "Abandoned Service Cut",
    "date_created": "2025-04-23T16:41:44.000",
    "date_modified": "2025-04-23T16:41:46.000",
    "request_status": "Pending",
    "responsible_agency": "Department of Public Works",
    "final_address": "933 Conti St",
    "address_councildis": "C",
    "status": "Pending",
    "rowid": "1186415",
    "final_x": "3681137.85807",
    "final_y": "532226.248963",
    "longitude": "-90.06918923141319",
    "latitude": "29.957448618445977",
    "geocoded_column": {
      "latitude": "29.957448618445977",
      "longitude": "-90.06918923141319"
    }
  },
  {
    "service_request": "2025-1186414",
    "request_type": "Abandoned Vehicles",
    "request_reason": "Abandoned/Junk Vehicles",
    "date_created": "2025-04-23T16:41:28.000",
    "date_modified": "2025-04-23T16:41:29.000",
    "request_status": "Pending",
    "responsible_agency": "Department of Public Works",
    "final_address": "962 Wilson Dr",
    "address_councildis": "A",
    "status": "Pending",
    "rowid": "1186414",
    "final_x": "3674178.48929",
    "final_y": "540345.403339",
    "longitude": "-90.09088688063285",
    "latitude": "29.979982828265506",
    "geocoded_column": {
      "latitude": "29.979982828265506",
      "longitude": "-90.09088688063285"
    }
  },
  {
    "service_request": "2025-1186413",
    "request_type": "Trash/Recycling",
    "request_reason": "Order Trash Cart",
    "date_created": "2025-04-23T16:40:42.000",
    "date_modified": "2025-04-23T16:40:44.000",
    "request_status": "Pending",
    "responsible_agency": "Department of Sanitation",
    "final_address": "2035 Harmony St",
    "address_councildis": "B",
    "status": "Assigned to Contractor",
    "contractor": "IV Waste",
    "rowid": "1186413",
    "final_x": "3674117.62401",
    "final_y": "523350.211963",
    "longitude": "-90.0916607910629",
    "latitude": "29.933253533884596",
    "geocoded_column": {
      "latitude": "29.933253533884596",
      "longitude": "-90.0916607910629"
    }
  },
  {
    "service_request": "2025-1186412",
    "request_type": "Trash/Recycling",
    "request_reason": "Order Trash Cart",
    "date_created": "2025-04-23T16:40:14.000",
    "date_modified": "2025-04-23T16:40:17.000",
    "request_status": "Pending",
    "responsible_agency": "Department of Sanitation",
    "final_address": "2033 Harmony St",
    "address_councildis": "B",
    "status": "Assigned to Contractor",
    "contractor": "IV Waste",
    "rowid": "1186412",
    "final_x": "3674124.95464",
    "final_y": "523337.202619",
    "longitude": "-90.09163809374925",
    "latitude": "29.93321754398358",
    "geocoded_column": {
      "latitude": "29.93321754398358",
      "longitude": "-90.09163809374925"
    }
  },
  {
    "service_request": "2025-1186411",
    "request_type": "Trash/Recycling",
    "request_reason": "Request a Large Item Pick Up",
    "date_created": "2025-04-23T16:40:12.000",
    "date_modified": "2025-04-23T16:40:15.000",
    "request_status": "Pending",
    "responsible_agency": "Department of Sanitation",
    "final_address": "5118 Cunningham Ct",
    "address_councildis": "D",
    "status": "Assigned to Contractor",
    "contractor": "IV Waste",
    "rowid": "1186411",
    "final_x": "3690807.2527",
    "final_y": "552688.053526",
    "longitude": "-90.03792581760297",
    "latitude": "30.01341436948372",
    "geocoded_column": {
      "latitude": "30.01341436948372",
      "longitude": "-90.03792581760297"
    }
  },
  {
    "service_request": "2025-1186410",
    "request_type": "Trash/Recycling",
    "request_reason": "Repair Recycling Cart",
    "date_created": "2025-04-23T16:35:32.000",
    "date_modified": "2025-04-23T16:35:33.000",
    "request_status": "Pending",
    "responsible_agency": "Department of Sanitation",
    "final_address": "3106 Music St",
    "address_councildis": "D",
    "status": "Pending",
    "rowid": "1186410",
    "final_x": "3686139.78217",
    "final_y": "544260.039311",
    "longitude": "-90.05297007899564",
    "latitude": "29.990384643767914",
    "geocoded_column": {
      "latitude": "29.990384643767914",
      "longitude": "-90.05297007899564"
    }
  },
  {
    "service_request": "2025-1186409",
    "request_type": "Abandoned Vehicles",
    "request_reason": "Abandoned/Junk Vehicles",
    "date_created": "2025-04-23T16:34:48.000",
    "date_modified": "2025-04-23T16:46:14.000",
    "request_status": "Pending",
    "responsible_agency": "Department of Public Works",
    "final_address": "214 Alix St",
    "address_councildis": "C",
    "status": "Pending",
    "rowid": "1186409",
    "final_x": "3686206.4975",
    "final_y": "529845.468801",
    "longitude": "-90.053267998403",
    "latitude": "29.95074755514564",
    "geocoded_column": {
      "latitude": "29.95074755514564",
      "longitude": "-90.053267998403"
    }
  },
  {
    "service_request": "2025-1186408",
    "request_type": "Trash/Recycling",
    "request_reason": "Request a Large Item Pick Up",
    "date_created": "2025-04-23T16:32:40.000",
    "date_modified": "2025-04-23T16:32:42.000",
    "request_status": "Pending",
    "responsible_agency": "Department of Sanitation",
    "final_address": "133 Morrison Ct",
    "address_councildis": "E",
    "status": "Assigned to Contractor",
    "contractor": "Waste Pro",
    "rowid": "1186408",
    "final_x": "3703944.42212",
    "final_y": "561706.131359",
    "longitude": "-89.99608708125612",
    "latitude": "30.03779567374169",
    "geocoded_column": {
      "latitude": "30.03779567374169",
      "longitude": "-89.99608708125612"
    }
  },
  {
    "service_request": "2025-1186407",
    "request_type": "Trash/Recycling",
    "request_reason": "Request a Large Item Pick Up",
    "date_created": "2025-04-23T16:31:23.000",
    "date_modified": "2025-04-23T16:31:25.000",
    "request_status": "Pending",
    "responsible_agency": "Department of Sanitation",
    "final_address": "2902 St Roch Ave",
    "address_councildis": "D",
    "status": "Assigned to Contractor",
    "contractor": "IV Waste",
    "rowid": "1186407",
    "final_x": "3685846.48553",
    "final_y": "543456.544334",
    "longitude": "-90.05392486504691",
    "latitude": "29.988184326920702",
    "geocoded_column": {
      "latitude": "29.988184326920702",
      "longitude": "-90.05392486504691"
    }
  },
  {
    "service_request": "2025-1186406",
    "request_type": "Trash/Recycling",
    "request_reason": "Repair Trash Cart",
    "date_created": "2025-04-23T16:29:54.000",
    "date_modified": "2025-04-23T16:29:56.000",
    "request_status": "Pending",
    "responsible_agency": "Department of Sanitation",
    "final_address": "4810 Prentiss Ave",
    "address_councildis": "D",
    "status": "Assigned to Contractor",
    "contractor": "IV Waste",
    "rowid": "1186406",
    "final_x": "3691164.27177",
    "final_y": "554448.321496",
    "longitude": "-90.0367348970303",
    "latitude": "30.01824334877005",
    "geocoded_column": {
      "latitude": "30.01824334877005",
      "longitude": "-90.0367348970303"
    }
  },
  {
    "service_request": "2025-1186405",
    "request_type": "Trash/Recycling",
    "request_reason": "Order Recycling Cart",
    "date_created": "2025-04-23T16:25:16.000",
    "date_modified": "2025-04-23T16:25:18.000",
    "request_status": "Pending",
    "responsible_agency": "Department of Sanitation",
    "final_address": "1927 N Dorgenois St",
    "address_councildis": "D",
    "status": "Pending",
    "rowid": "1186405",
    "final_x": "3681430.2429",
    "final_y": "541239.510412",
    "longitude": "-90.06795166367166",
    "latitude": "29.982223108346325",
    "geocoded_column": {
      "latitude": "29.982223108346325",
      "longitude": "-90.06795166367166"
    }
  },
  {
    "service_request": "2025-1186404",
    "request_type": "Trash/Recycling",
    "request_reason": "Order Trash Cart",
    "date_created": "2025-04-23T16:23:40.000",
    "date_modified": "2025-04-23T16:25:53.000",
    "request_status": "Pending",
    "responsible_agency": "Department of Sanitation",
    "final_address": "1927 N Dorgenois St",
    "address_councildis": "D",
    "status": "Assigned to Contractor",
    "contractor": "IV Waste",
    "rowid": "1186404",
    "final_x": "3681430.2429",
    "final_y": "541239.510412",
    "longitude": "-90.06795166367166",
    "latitude": "29.982223108346325",
    "geocoded_column": {
      "latitude": "29.982223108346325",
      "longitude": "-90.06795166367166"
    }
  },
  {
    "service_request": "2025-1186403",
    "request_type": "Abandoned Vehicles",
    "request_reason": "Abandoned/Junk Vehicles",
    "date_created": "2025-04-23T16:22:50.000",
    "date_modified": "2025-04-23T16:22:52.000",
    "request_status": "Pending",
    "responsible_agency": "Department of Public Works",
    "final_address": "214 Alix St",
    "address_councildis": "C",
    "status": "Pending",
    "rowid": "1186403",
    "final_x": "3686206.4975",
    "final_y": "529845.468801",
    "longitude": "-90.053267998403",
    "latitude": "29.95074755514564",
    "geocoded_column": {
      "latitude": "29.95074755514564",
      "longitude": "-90.053267998403"
    }
  },
  {
    "service_request": "2025-1186402",
    "request_type": "Trash/Recycling",
    "request_reason": "Request a Large Item Pick Up",
    "date_created": "2025-04-23T16:20:11.000",
    "date_modified": "2025-04-23T16:20:12.000",
    "request_status": "Pending",
    "responsible_agency": "Department of Sanitation",
    "final_address": "3015 Jefferson Ave",
    "address_councildis": "B",
    "status": "Assigned to Contractor",
    "contractor": "IV Waste",
    "rowid": "1186402",
    "final_x": "3668533.51815",
    "final_y": "526451.972862",
    "longitude": "-90.10918490081964",
    "latitude": "29.941947583650443",
    "geocoded_column": {
      "latitude": "29.941947583650443",
      "longitude": "-90.10918490081964"
    }
  },
  {
    "service_request": "2025-1186401",
    "request_type": "Trash/Recycling",
    "request_reason": "Request a Large Item Pick Up",
    "date_created": "2025-04-23T16:20:09.000",
    "date_modified": "2025-04-23T16:20:11.000",
    "request_status": "Pending",
    "responsible_agency": "Department of Sanitation",
    "final_address": "6117 West End Blvd",
    "address_councildis": "A",
    "status": "Assigned to Contractor",
    "contractor": "IV Waste",
    "rowid": "1186401",
    "final_x": "3666596.51988",
    "final_y": "548259.096658",
    "longitude": "-90.11456812026665",
    "latitude": "30.00196666249676",
    "geocoded_column": {
      "latitude": "30.00196666249676",
      "longitude": "-90.11456812026665"
    }
  },
  {
    "service_request": "2025-1186400",
    "request_type": "Trash/Recycling",
    "request_reason": "Replace Trash Cart",
    "date_created": "2025-04-23T16:19:20.000",
    "date_modified": "2025-04-23T16:19:22.000",
    "request_status": "Pending",
    "responsible_agency": "Department of Sanitation",
    "final_address": "2116 Hope St",
    "address_councildis": "D",
    "status": "Assigned to Contractor",
    "contractor": "IV Waste",
    "rowid": "1186400",
    "final_x": "3683587.34223",
    "final_y": "542020.377996",
    "longitude": "-90.06111112125967",
    "latitude": "29.98430454258338",
    "geocoded_column": {
      "latitude": "29.98430454258338",
      "longitude": "-90.06111112125967"
    }
  },
  {
    "service_request": "2025-1186399",
    "request_type": "Trash/Recycling",
    "request_reason": "Request a Large Item Pick Up",
    "date_created": "2025-04-23T16:17:21.000",
    "date_modified": "2025-04-23T19:12:04.000",
    "case_close_date": "2025-04-23T14:12:03.000",
    "request_status": "Closed",
    "responsible_agency": "Department of Sanitation",
    "final_address": "1319 Flood St",
    "address_councildis": "E",
    "status": "Assigned to Contractor",
    "contractor": "Waste Pro",
    "contractor_action": "Completed",
    "rowid": "1186399",
    "final_x": "3697976.61322",
    "final_y": "534716.429446",
    "longitude": "-90.01592736753106",
    "latitude": "29.963774175753223",
    "geocoded_column": {
      "latitude": "29.963774175753223",
      "longitude": "-90.01592736753106"
    }
  },
  {
    "service_request": "2025-1186398",
    "request_type": "Drainage",
    "request_reason": "Street Flooding",
    "date_created": "2025-04-23T16:16:34.000",
    "date_modified": "2025-04-23T16:16:36.000",
    "request_status": "Pending",
    "responsible_agency": "Sewerage & Water Board",
    "final_address": "5172 Wildair Dr",
    "address_councildis": "D",
    "status": "Pending",
    "rowid": "1186398",
    "final_x": "3681584.74108",
    "final_y": "551663.826773",
    "longitude": "-90.06709983903114",
    "latitude": "30.010881578940033",
    "geocoded_column": {
      "latitude": "30.010881578940033",
      "longitude": "-90.06709983903114"
    }
  },
  {
    "service_request": "2025-1186397",
    "request_type": "Abandoned Vehicles",
    "request_reason": "Abandoned/Junk Vehicles",
    "date_created": "2025-04-23T16:14:39.000",
    "date_modified": "2025-04-23T16:14:41.000",
    "request_status": "Pending",
    "responsible_agency": "Department of Public Works",
    "final_address": "1000 BLK Esplanade Ave",
    "address_councildis": "C",
    "status": "Pending",
    "rowid": "1186397",
    "final_x": "3682957.38733",
    "final_y": "535225.512998",
    "longitude": "-90.06333873783967",
    "latitude": "29.96564024508612",
    "geocoded_column": {
      "latitude": "29.96564024508612",
      "longitude": "-90.06333873783967"
    }
  },
  {
    "service_request": "2025-1186396",
    "request_type": "Abandoned Vehicles",
    "request_reason": "Abandoned/Junk Vehicles",
    "date_created": "2025-04-23T16:11:27.000",
    "date_modified": "2025-04-23T16:11:30.000",
    "request_status": "Pending",
    "responsible_agency": "Department of Public Works",
    "final_address": "214 Alix St",
    "address_councildis": "C",
    "status": "Pending",
    "rowid": "1186396",
    "final_x": "3686206.4975",
    "final_y": "529845.468801",
    "longitude": "-90.053267998403",
    "latitude": "29.95074755514564",
    "geocoded_column": {
      "latitude": "29.95074755514564",
      "longitude": "-90.053267998403"
    }
  },
  {
    "service_request": "2025-1186395",
    "request_type": "Roads and Streets",
    "request_reason": "Street Subsidence (Sinking)",
    "date_created": "2025-04-23T16:11:11.000",
    "date_modified": "2025-04-23T16:11:12.000",
    "request_status": "Pending",
    "responsible_agency": "Department of Public Works",
    "final_address": "2545 Bienville Ave",
    "address_councildis": "B",
    "status": "Pending",
    "rowid": "1186395",
    "final_x": "3676341.5988",
    "final_y": "535424.195782",
    "longitude": "-90.08422431780842",
    "latitude": "29.96638651908444",
    "geocoded_column": {
      "latitude": "29.96638651908444",
      "longitude": "-90.08422431780842"
    }
  },
  {
    "service_request": "2025-1186394",
    "request_type": "Trash/Recycling",
    "request_reason": "Illegal Dumping",
    "date_created": "2025-04-23T16:10:17.000",
    "date_modified": "2025-04-23T16:14:57.000",
    "request_status": "Pending",
    "responsible_agency": "Department of Sanitation",
    "final_address": "4111 N Johnson St",
    "address_councildis": "D",
    "status": "Pending",
    "rowid": "1186394",
    "final_x": "3693066.1032",
    "final_y": "538639.382089",
    "longitude": "-90.0312934395675",
    "latitude": "29.974715230839656",
    "geocoded_column": {
      "latitude": "29.974715230839656",
      "longitude": "-90.0312934395675"
    }
  },
  {
    "service_request": "2025-1186393",
    "request_type": "Property Maintenance",
    "request_reason": "Property Maintenance",
    "date_created": "2025-04-23T16:02:02.000",
    "date_modified": "2025-04-23T16:02:04.000",
    "request_status": "Pending",
    "responsible_agency": "Department of Code Enforcement",
    "final_address": "4111 N Johnson St",
    "address_councildis": "D",
    "status": "Pending",
    "rowid": "1186393",
    "final_x": "3693066.1032",
    "final_y": "538639.382089",
    "longitude": "-90.0312934395675",
    "latitude": "29.974715230839656",
    "geocoded_column": {
      "latitude": "29.974715230839656",
      "longitude": "-90.0312934395675"
    }
  },
  {
    "service_request": "2025-1186392",
    "request_type": "Property Maintenance",
    "request_reason": "Property Maintenance",
    "date_created": "2025-04-23T15:58:13.000",
    "date_modified": "2025-04-23T15:58:14.000",
    "request_status": "Pending",
    "responsible_agency": "Department of Code Enforcement",
    "final_address": "4868 Cardenas Dr",
    "address_councildis": "E",
    "status": "Pending",
    "rowid": "1186392",
    "final_x": "3713545.15135",
    "final_y": "557028.860122",
    "longitude": "-89.96592313745604",
    "latitude": "30.024623465716168",
    "geocoded_column": {
      "latitude": "30.024623465716168",
      "longitude": "-89.96592313745604"
    }
  },
  {
    "service_request": "2025-1186391",
    "request_type": "Trash/Recycling",
    "request_reason": "Request a Large Item Pick Up",
    "date_created": "2025-04-23T15:54:26.000",
    "date_modified": "2025-04-23T15:54:27.000",
    "request_status": "Pending",
    "responsible_agency": "Department of Sanitation",
    "final_address": "1313 Mystery St",
    "address_councildis": "A",
    "status": "Assigned to Contractor",
    "contractor": "IV Waste",
    "rowid": "1186391",
    "final_x": "3676060.1076",
    "final_y": "540468.186891",
    "longitude": "-90.08493971860312",
    "latitude": "29.98026420655702",
    "geocoded_column": {
      "latitude": "29.98026420655702",
      "longitude": "-90.08493971860312"
    }
  },
  {
    "service_request": "2025-1186387",
    "request_type": "Roads and Streets",
    "request_reason": "Street Subsidence (Sinking)",
    "date_created": "2025-04-23T15:46:05.000",
    "date_modified": "2025-04-23T15:46:07.000",
    "request_status": "Pending",
    "responsible_agency": "Department of Public Works",
    "final_address": "505 S Dupre St",
    "address_councildis": "B",
    "status": "Pending",
    "rowid": "1186387",
    "final_x": "3673562.57089",
    "final_y": "534350.068549",
    "longitude": "-90.09303717689866",
    "latitude": "29.963516038250294",
    "geocoded_column": {
      "latitude": "29.963516038250294",
      "longitude": "-90.09303717689866"
    }
  },
  {
    "service_request": "2025-1186381",
    "request_type": "Roads and Streets",
    "request_reason": "Street Subsidence (Sinking)",
    "date_created": "2025-04-23T15:46:05.000",
    "date_modified": "2025-04-23T15:46:07.000",
    "request_status": "Pending",
    "responsible_agency": "Department of Public Works",
    "final_address": "505 S Dupre St",
    "address_councildis": "B",
    "status": "Pending",
    "rowid": "1186381",
    "final_x": "3673562.57089",
    "final_y": "534350.068549",
    "longitude": "-90.09303717689866",
    "latitude": "29.963516038250294",
    "geocoded_column": {
      "latitude": "29.963516038250294",
      "longitude": "-90.09303717689866"
    }
  },
  {
    "service_request": "2025-1186377",
    "request_type": "Roads and Streets",
    "request_reason": "Street Subsidence (Sinking)",
    "date_created": "2025-04-23T15:46:05.000",
    "date_modified": "2025-04-23T15:46:06.000",
    "request_status": "Pending",
    "responsible_agency": "Department of Public Works",
    "final_address": "505 S Dupre St",
    "address_councildis": "B",
    "status": "Pending",
    "rowid": "1186377",
    "final_x": "3673562.57089",
    "final_y": "534350.068549",
    "longitude": "-90.09303717689866",
    "latitude": "29.963516038250294",
    "geocoded_column": {
      "latitude": "29.963516038250294",
      "longitude": "-90.09303717689866"
    }
  },
  {
    "service_request": "2025-1186382",
    "request_type": "Roads and Streets",
    "request_reason": "Street Subsidence (Sinking)",
    "date_created": "2025-04-23T15:46:05.000",
    "date_modified": "2025-04-23T15:46:07.000",
    "request_status": "Pending",
    "responsible_agency": "Department of Public Works",
    "final_address": "505 S Dupre St",
    "address_councildis": "B",
    "status": "Pending",
    "rowid": "1186382",
    "final_x": "3673562.57089",
    "final_y": "534350.068549",
    "longitude": "-90.09303717689866",
    "latitude": "29.963516038250294",
    "geocoded_column": {
      "latitude": "29.963516038250294",
      "longitude": "-90.09303717689866"
    }
  },
  {
    "service_request": "2025-1186386",
    "request_type": "Roads and Streets",
    "request_reason": "Street Subsidence (Sinking)",
    "date_created": "2025-04-23T15:46:05.000",
    "date_modified": "2025-04-23T15:46:07.000",
    "request_status": "Pending",
    "responsible_agency": "Department of Public Works",
    "final_address": "505 S Dupre St",
    "address_councildis": "B",
    "status": "Pending",
    "rowid": "1186386",
    "final_x": "3673562.57089",
    "final_y": "534350.068549",
    "longitude": "-90.09303717689866",
    "latitude": "29.963516038250294",
    "geocoded_column": {
      "latitude": "29.963516038250294",
      "longitude": "-90.09303717689866"
    }
  },
  {
    "service_request": "2025-1186383",
    "request_type": "Roads and Streets",
    "request_reason": "Street Subsidence (Sinking)",
    "date_created": "2025-04-23T15:46:05.000",
    "date_modified": "2025-04-23T15:46:07.000",
    "request_status": "Pending",
    "responsible_agency": "Department of Public Works",
    "final_address": "505 S Dupre St",
    "address_councildis": "B",
    "status": "Pending",
    "rowid": "1186383",
    "final_x": "3673562.57089",
    "final_y": "534350.068549",
    "longitude": "-90.09303717689866",
    "latitude": "29.963516038250294",
    "geocoded_column": {
      "latitude": "29.963516038250294",
      "longitude": "-90.09303717689866"
    }
  },
  {
    "service_request": "2025-1186378",
    "request_type": "Roads and Streets",
    "request_reason": "Street Subsidence (Sinking)",
    "date_created": "2025-04-23T15:46:05.000",
    "date_modified": "2025-04-23T15:46:07.000",
    "request_status": "Pending",
    "responsible_agency": "Department of Public Works",
    "final_address": "505 S Dupre St",
    "address_councildis": "B",
    "status": "Pending",
    "rowid": "1186378",
    "final_x": "3673562.57089",
    "final_y": "534350.068549",
    "longitude": "-90.09303717689866",
    "latitude": "29.963516038250294",
    "geocoded_column": {
      "latitude": "29.963516038250294",
      "longitude": "-90.09303717689866"
    }
  },
  {
    "service_request": "2025-1186390",
    "request_type": "Roads and Streets",
    "request_reason": "Street Subsidence (Sinking)",
    "date_created": "2025-04-23T15:46:05.000",
    "date_modified": "2025-04-23T15:46:07.000",
    "request_status": "Pending",
    "responsible_agency": "Department of Public Works",
    "final_address": "505 S Dupre St",
    "address_councildis": "B",
    "status": "Pending",
    "rowid": "1186390",
    "final_x": "3673562.57089",
    "final_y": "534350.068549",
    "longitude": "-90.09303717689866",
    "latitude": "29.963516038250294",
    "geocoded_column": {
      "latitude": "29.963516038250294",
      "longitude": "-90.09303717689866"
    }
  },
  {
    "service_request": "2025-1186385",
    "request_type": "Roads and Streets",
    "request_reason": "Street Subsidence (Sinking)",
    "date_created": "2025-04-23T15:46:05.000",
    "date_modified": "2025-04-23T15:46:07.000",
    "request_status": "Pending",
    "responsible_agency": "Department of Public Works",
    "final_address": "505 S Dupre St",
    "address_councildis": "B",
    "status": "Pending",
    "rowid": "1186385",
    "final_x": "3673562.57089",
    "final_y": "534350.068549",
    "longitude": "-90.09303717689866",
    "latitude": "29.963516038250294",
    "geocoded_column": {
      "latitude": "29.963516038250294",
      "longitude": "-90.09303717689866"
    }
  },
  {
    "service_request": "2025-1186376",
    "request_type": "Roads and Streets",
    "request_reason": "Street Subsidence (Sinking)",
    "date_created": "2025-04-23T15:46:05.000",
    "date_modified": "2025-04-23T15:46:06.000",
    "request_status": "Pending",
    "responsible_agency": "Department of Public Works",
    "final_address": "505 S Dupre St",
    "address_councildis": "B",
    "status": "Pending",
    "rowid": "1186376",
    "final_x": "3673562.57089",
    "final_y": "534350.068549",
    "longitude": "-90.09303717689866",
    "latitude": "29.963516038250294",
    "geocoded_column": {
      "latitude": "29.963516038250294",
      "longitude": "-90.09303717689866"
    }
  },
  {
    "service_request": "2025-1186384",
    "request_type": "Roads and Streets",
    "request_reason": "Street Subsidence (Sinking)",
    "date_created": "2025-04-23T15:46:05.000",
    "date_modified": "2025-04-23T15:46:07.000",
    "request_status": "Pending",
    "responsible_agency": "Department of Public Works",
    "final_address": "505 S Dupre St",
    "address_councildis": "B",
    "status": "Pending",
    "rowid": "1186384",
    "final_x": "3673562.57089",
    "final_y": "534350.068549",
    "longitude": "-90.09303717689866",
    "latitude": "29.963516038250294",
    "geocoded_column": {
      "latitude": "29.963516038250294",
      "longitude": "-90.09303717689866"
    }
  },
  {
    "service_request": "2025-1186379",
    "request_type": "Roads and Streets",
    "request_reason": "Street Subsidence (Sinking)",
    "date_created": "2025-04-23T15:46:05.000",
    "date_modified": "2025-04-23T15:46:07.000",
    "request_status": "Pending",
    "responsible_agency": "Department of Public Works",
    "final_address": "505 S Dupre St",
    "address_councildis": "B",
    "status": "Pending",
    "rowid": "1186379",
    "final_x": "3673562.57089",
    "final_y": "534350.068549",
    "longitude": "-90.09303717689866",
    "latitude": "29.963516038250294",
    "geocoded_column": {
      "latitude": "29.963516038250294",
      "longitude": "-90.09303717689866"
    }
  },
  {
    "service_request": "2025-1186389",
    "request_type": "Roads and Streets",
    "request_reason": "Street Subsidence (Sinking)",
    "date_created": "2025-04-23T15:46:05.000",
    "date_modified": "2025-04-23T15:46:08.000",
    "request_status": "Pending",
    "responsible_agency": "Department of Public Works",
    "final_address": "505 S Dupre St",
    "address_councildis": "B",
    "status": "Pending",
    "rowid": "1186389",
    "final_x": "3673562.57089",
    "final_y": "534350.068549",
    "longitude": "-90.09303717689866",
    "latitude": "29.963516038250294",
    "geocoded_column": {
      "latitude": "29.963516038250294",
      "longitude": "-90.09303717689866"
    }
  },
  {
    "service_request": "2025-1186375",
    "request_type": "Roads and Streets",
    "request_reason": "Street Subsidence (Sinking)",
    "date_created": "2025-04-23T15:46:05.000",
    "date_modified": "2025-04-23T15:46:07.000",
    "request_status": "Pending",
    "responsible_agency": "Department of Public Works",
    "final_address": "505 S Dupre St",
    "address_councildis": "B",
    "status": "Pending",
    "rowid": "1186375",
    "final_x": "3673562.57089",
    "final_y": "534350.068549",
    "longitude": "-90.09303717689866",
    "latitude": "29.963516038250294",
    "geocoded_column": {
      "latitude": "29.963516038250294",
      "longitude": "-90.09303717689866"
    }
  },
  {
    "service_request": "2025-1186388",
    "request_type": "Roads and Streets",
    "request_reason": "Street Subsidence (Sinking)",
    "date_created": "2025-04-23T15:46:05.000",
    "date_modified": "2025-04-23T15:46:07.000",
    "request_status": "Pending",
    "responsible_agency": "Department of Public Works",
    "final_address": "505 S Dupre St",
    "address_councildis": "B",
    "status": "Pending",
    "rowid": "1186388",
    "final_x": "3673562.57089",
    "final_y": "534350.068549",
    "longitude": "-90.09303717689866",
    "latitude": "29.963516038250294",
    "geocoded_column": {
      "latitude": "29.963516038250294",
      "longitude": "-90.09303717689866"
    }
  },
  {
    "service_request": "2025-1186380",
    "request_type": "Roads and Streets",
    "request_reason": "Street Subsidence (Sinking)",
    "date_created": "2025-04-23T15:46:05.000",
    "date_modified": "2025-04-23T15:46:07.000",
    "request_status": "Pending",
    "responsible_agency": "Department of Public Works",
    "final_address": "505 S Dupre St",
    "address_councildis": "B",
    "status": "Pending",
    "rowid": "1186380",
    "final_x": "3673562.57089",
    "final_y": "534350.068549",
    "longitude": "-90.09303717689866",
    "latitude": "29.963516038250294",
    "geocoded_column": {
      "latitude": "29.963516038250294",
      "longitude": "-90.09303717689866"
    }
  },
  {
    "service_request": "2025-1186374",
    "request_type": "Trash/Recycling",
    "request_reason": "Request a Large Item Pick Up",
    "date_created": "2025-04-23T15:45:59.000",
    "date_modified": "2025-04-23T15:46:01.000",
    "request_status": "Pending",
    "responsible_agency": "Department of Sanitation",
    "final_address": "1631 N Robertson St",
    "address_councildis": "C",
    "status": "Assigned to Contractor",
    "contractor": "IV Waste",
    "rowid": "1186374",
    "final_x": "3682597.33596",
    "final_y": "537631.85332",
    "longitude": "-90.0643916095717",
    "latitude": "29.972267818183305",
    "geocoded_column": {
      "latitude": "29.972267818183305",
      "longitude": "-90.0643916095717"
    }
  },
  {
    "service_request": "2025-1186373",
    "request_type": "Trash/Recycling",
    "request_reason": "Request a Large Item Pick Up",
    "date_created": "2025-04-23T15:45:20.000",
    "date_modified": "2025-04-23T15:45:22.000",
    "request_status": "Pending",
    "responsible_agency": "Department of Sanitation",
    "final_address": "7743 Tricia Ct",
    "address_councildis": "E",
    "status": "Assigned to Contractor",
    "contractor": "Waste Pro",
    "rowid": "1186373",
    "final_x": "3717275.87967",
    "final_y": "571690.848936",
    "longitude": "-89.95357694823247",
    "latitude": "30.064815008471452",
    "geocoded_column": {
      "latitude": "30.064815008471452",
      "longitude": "-89.95357694823247"
    }
  },
  {
    "service_request": "2025-1186372",
    "request_type": "Parks & Parkways",
    "request_reason": "Request Tree Service (Right of Way/Public Property)",
    "date_created": "2025-04-23T15:44:58.000",
    "date_modified": "2025-04-23T15:45:00.000",
    "request_status": "Pending",
    "responsible_agency": "Department of Parks & Parkway",
    "final_address": "3138 Constance St",
    "address_councildis": "B",
    "status": "Pending",
    "rowid": "1186372",
    "final_x": "3676045.11893",
    "final_y": "519676.40204",
    "longitude": "-90.08570208947674",
    "latitude": "29.92309417518713",
    "geocoded_column": {
      "latitude": "29.92309417518713",
      "longitude": "-90.08570208947674"
    }
  },
  {
    "service_request": "2025-1186371",
    "request_type": "Trash/Recycling",
    "request_reason": "Request a Large Item Pick Up",
    "date_created": "2025-04-23T15:44:26.000",
    "date_modified": "2025-04-23T15:44:28.000",
    "request_status": "Pending",
    "responsible_agency": "Department of Sanitation",
    "final_address": "2637 Dumaine St",
    "address_councildis": "D",
    "status": "Assigned to Contractor",
    "contractor": "IV Waste",
    "rowid": "1186371",
    "final_x": "3677377.58242",
    "final_y": "537397.881928",
    "longitude": "-90.08088456803009",
    "latitude": "29.971782389118072",
    "geocoded_column": {
      "latitude": "29.971782389118072",
      "longitude": "-90.08088456803009"
    }
  },
  {
    "service_request": "2025-1186370",
    "request_type": "Trash/Recycling",
    "request_reason": "Order Recycling Cart",
    "date_created": "2025-04-23T15:40:34.000",
    "date_modified": "2025-04-23T15:40:37.000",
    "request_status": "Pending",
    "responsible_agency": "Department of Sanitation",
    "final_address": "2001 St Claude Ave",
    "address_councildis": "C",
    "status": "Pending",
    "rowid": "1186370",
    "final_x": "3684256.41276",
    "final_y": "536277.165191",
    "longitude": "-90.05919954345346",
    "latitude": "29.968492271981315",
    "geocoded_column": {
      "latitude": "29.968492271981315",
      "longitude": "-90.05919954345346"
    }
  },
  {
    "service_request": "2025-1186369",
    "request_type": "Trash/Recycling",
    "request_reason": "Request a Large Item Pick Up",
    "date_created": "2025-04-23T15:39:24.000",
    "date_modified": "2025-04-23T15:39:26.000",
    "request_status": "Pending",
    "responsible_agency": "Department of Sanitation",
    "final_address": "1823 Marais St",
    "address_councildis": "C",
    "status": "Assigned to Contractor",
    "contractor": "IV Waste",
    "rowid": "1186369",
    "final_x": "3683681.06345",
    "final_y": "536597.960583",
    "longitude": "-90.06100527433433",
    "latitude": "29.969391927145153",
    "geocoded_column": {
      "latitude": "29.969391927145153",
      "longitude": "-90.06100527433433"
    }
  },
  {
    "service_request": "2025-1186368",
    "request_type": "Drainage",
    "request_reason": "Drainage Manhole Cover Missing or Damaged",
    "date_created": "2025-04-23T15:39:07.000",
    "date_modified": "2025-04-23T15:39:09.000",
    "request_status": "Pending",
    "responsible_agency": "Sewerage & Water Board",
    "final_address": "ABUNDANCE ST & DESIRE PKWY",
    "address_councildis": "D",
    "status": "Pending",
    "rowid": "1186368",
    "final_x": "3692597.92",
    "final_y": "543118.67",
    "longitude": "-90.0326114834982",
    "latitude": "29.987046286714463",
    "geocoded_column": {
      "latitude": "29.987046286714463",
      "longitude": "-90.0326114834982"
    }
  },
  {
    "service_request": "2025-1186367",
    "request_type": "Trash/Recycling",
    "request_reason": "Repair Trash Cart",
    "date_created": "2025-04-23T15:37:38.000",
    "date_modified": "2025-04-23T15:37:40.000",
    "request_status": "Pending",
    "responsible_agency": "Department of Sanitation",
    "final_address": "11405 N Easterlyn Cir",
    "address_councildis": "E",
    "status": "Assigned to Contractor",
    "contractor": "Waste Pro",
    "rowid": "1186367",
    "final_x": "3718201.95596",
    "final_y": "560823.943582",
    "longitude": "-89.95106395406071",
    "latitude": "30.034904793014903",
    "geocoded_column": {
      "latitude": "30.034904793014903",
      "longitude": "-89.95106395406071"
    }
  },
  {
    "service_request": "2025-1186366",
    "request_type": "Trash/Recycling",
    "request_reason": "Repair Recycling Cart",
    "date_created": "2025-04-23T15:33:34.000",
    "date_modified": "2025-04-23T15:33:36.000",
    "request_status": "Pending",
    "responsible_agency": "Department of Sanitation",
    "final_address": "7930 Unity Dr",
    "address_councildis": "E",
    "status": "Pending",
    "rowid": "1186366",
    "final_x": "3711453.87192",
    "final_y": "567858.245028",
    "longitude": "-89.97212464927337",
    "latitude": "30.05446839426302",
    "geocoded_column": {
      "latitude": "30.05446839426302",
      "longitude": "-89.97212464927337"
    }
  },
  {
    "service_request": "2025-1186365",
    "request_type": "Trash/Recycling",
    "request_reason": "Request a Large Item Pick Up",
    "date_created": "2025-04-23T15:32:41.000",
    "date_modified": "2025-04-23T15:32:44.000",
    "request_status": "Pending",
    "responsible_agency": "Department of Sanitation",
    "final_address": "5245 Pratt Dr",
    "address_councildis": "D",
    "status": "Assigned to Contractor",
    "contractor": "Metro Disposal",
    "rowid": "1186365",
    "final_x": "3680518.13",
    "final_y": "551909.082006",
    "longitude": "-90.07046114165612",
    "latitude": "30.011588308625694",
    "geocoded_column": {
      "latitude": "30.011588308625694",
      "longitude": "-90.07046114165612"
    }
  },
  {
    "service_request": "2025-1186364",
    "request_type": "Roads and Streets",
    "request_reason": "Pothole",
    "date_created": "2025-04-23T15:32:03.000",
    "date_modified": "2025-04-23T15:32:05.000",
    "request_status": "Pending",
    "responsible_agency": "Department of Public Works",
    "final_address": "232 Lake Marina Ave",
    "address_councildis": "A",
    "status": "Pending",
    "rowid": "1186364",
    "final_x": "3666001.5442",
    "final_y": "555381.200665",
    "longitude": "-90.1162087291086",
    "latitude": "30.021567348518722",
    "geocoded_column": {
      "latitude": "30.021567348518722",
      "longitude": "-90.1162087291086"
    }
  },
  {
    "service_request": "2025-1186363",
    "request_type": "Drainage",
    "request_reason": "Drainage Manhole Cover Missing or Damaged",
    "date_created": "2025-04-23T15:27:02.000",
    "date_modified": "2025-04-23T15:27:03.000",
    "request_status": "Pending",
    "responsible_agency": "Sewerage & Water Board",
    "final_address": "1600 BLK N Galvez St",
    "address_councildis": "D",
    "status": "Pending",
    "rowid": "1186363",
    "final_x": "3680881.87311",
    "final_y": "539006.108783",
    "longitude": "-90.06976147059726",
    "latitude": "29.976098670730725",
    "geocoded_column": {
      "latitude": "29.976098670730725",
      "longitude": "-90.06976147059726"
    }
  },
  {
    "service_request": "2025-1186362",
    "request_type": "Graffiti Removal",
    "request_reason": "Graffiti Removal",
    "date_created": "2025-04-23T15:24:10.000",
    "date_modified": "2025-04-23T15:24:11.000",
    "request_status": "Pending",
    "responsible_agency": "Department of Code Enforcement",
    "final_address": "522 Montegut St",
    "address_councildis": "C",
    "status": "Pending",
    "rowid": "1186362",
    "final_x": "3687837.23107",
    "final_y": "534109.455429",
    "longitude": "-90.04796795884512",
    "latitude": "29.962421855004674",
    "geocoded_column": {
      "latitude": "29.962421855004674",
      "longitude": "-90.04796795884512"
    }
  },
  {
    "service_request": "2025-1186361",
    "request_type": "Health Related Request",
    "request_reason": "Noise Ordinance Complaint",
    "date_created": "2025-04-23T15:23:04.000",
    "date_modified": "2025-04-23T15:23:06.000",
    "request_status": "Pending",
    "responsible_agency": "Health Department",
    "final_address": "2317 DAbadie St",
    "address_councildis": "D",
    "status": "Pending",
    "rowid": "1186361",
    "final_x": "3680576.11503",
    "final_y": "539995.224971",
    "longitude": "-90.07069271996387",
    "latitude": "29.978827664660447",
    "geocoded_column": {
      "latitude": "29.978827664660447",
      "longitude": "-90.07069271996387"
    }
  },
  {
    "service_request": "2025-1186360",
    "request_type": "Trash/Recycling",
    "request_reason": "Request a Large Item Pick Up",
    "date_created": "2025-04-23T15:22:23.000",
    "date_modified": "2025-04-23T15:22:26.000",
    "request_status": "Pending",
    "responsible_agency": "Department of Sanitation",
    "final_address": "4641 Dale St",
    "address_councildis": "E",
    "status": "Assigned to Contractor",
    "contractor": "Waste Pro",
    "rowid": "1186360",
    "final_x": "3699565.25072",
    "final_y": "554494.995032",
    "longitude": "-90.0101894055368",
    "latitude": "30.01810761952872",
    "geocoded_column": {
      "latitude": "30.01810761952872",
      "longitude": "-90.0101894055368"
    }
  },
  {
    "service_request": "2025-1186359",
    "request_type": "Trash/Recycling",
    "request_reason": "Request a Large Item Pick Up",
    "date_created": "2025-04-23T15:16:20.000",
    "date_modified": "2025-04-23T15:16:22.000",
    "request_status": "Pending",
    "responsible_agency": "Department of Sanitation",
    "final_address": "2215 Milan St",
    "address_councildis": "B",
    "status": "Assigned to Contractor",
    "contractor": "IV Waste",
    "rowid": "1186359",
    "final_x": "3671417.99726",
    "final_y": "523216.438843",
    "longitude": "-90.100187905522",
    "latitude": "29.932965864061114",
    "geocoded_column": {
      "latitude": "29.932965864061114",
      "longitude": "-90.100187905522"
    }
  },
  {
    "service_request": "2025-1186358",
    "request_type": "Trash/Recycling",
    "request_reason": "Missed Trash Pick-Up",
    "date_created": "2025-04-23T15:13:06.000",
    "date_modified": "2025-04-23T15:13:31.000",
    "request_status": "Pending",
    "responsible_agency": "Department of Sanitation",
    "final_address": "7130 Bundy Rd",
    "address_councildis": "E",
    "status": "Assigned to Contractor",
    "contractor": "Waste Pro",
    "rowid": "1186358",
    "final_x": "3706628.67697",
    "final_y": "561357.10883",
    "longitude": "-89.98761720212399",
    "latitude": "30.036749590598124",
    "geocoded_column": {
      "latitude": "30.036749590598124",
      "longitude": "-89.98761720212399"
    }
  },
  {
    "service_request": "2025-1186357",
    "request_type": "Trash/Recycling",
    "request_reason": "Request a Large Item Pick Up",
    "date_created": "2025-04-23T15:09:17.000",
    "date_modified": "2025-04-23T15:09:21.000",
    "request_status": "Pending",
    "responsible_agency": "Department of Sanitation",
    "final_address": "5470 Stillwater Dr",
    "address_councildis": "E",
    "status": "Assigned to Contractor",
    "contractor": "Waste Pro",
    "rowid": "1186357",
    "final_x": "3716601.62776",
    "final_y": "560582.610014",
    "longitude": "-89.956130344825",
    "latitude": "30.034294208137506",
    "geocoded_column": {
      "latitude": "30.034294208137506",
      "longitude": "-89.956130344825"
    }
  },
  {
    "service_request": "2025-1186356",
    "request_type": "Trash/Recycling",
    "request_reason": "Replace Trash Cart",
    "date_created": "2025-04-23T15:09:13.000",
    "date_modified": "2025-04-23T15:09:16.000",
    "request_status": "Pending",
    "responsible_agency": "Department of Sanitation",
    "final_address": "3727 Macarthur Blvd",
    "address_councildis": "C",
    "status": "Assigned to Contractor",
    "contractor": "Richards Disposal",
    "rowid": "1186356",
    "final_x": "3697557.40163",
    "final_y": "520382.433656",
    "longitude": "-90.0177708887605",
    "latitude": "29.924373929111276",
    "geocoded_column": {
      "latitude": "29.924373929111276",
      "longitude": "-90.0177708887605"
    }
  },
  {
    "service_request": "2025-1186355",
    "request_type": "Property Maintenance",
    "request_reason": "Property Maintenance",
    "date_created": "2025-04-23T15:09:10.000",
    "date_modified": "2025-04-23T15:41:50.000",
    "case_close_date": "2025-04-23T10:41:49.000",
    "request_status": "Closed",
    "responsible_agency": "Department of Code Enforcement",
    "final_address": "3130 General Meyer Ave",
    "address_councildis": "C",
    "status": "Referred to Code Enforcement",
    "rowid": "1186355",
    "final_x": "3695642.64208",
    "final_y": "526482.139326",
    "longitude": "-90.02359500653854",
    "latitude": "29.941206338760477",
    "geocoded_column": {
      "latitude": "29.941206338760477",
      "longitude": "-90.02359500653854"
    }
  },
  {
    "service_request": "2025-1186354",
    "request_type": "Trash/Recycling",
    "request_reason": "Request a Large Item Pick Up",
    "date_created": "2025-04-23T15:07:23.000",
    "date_modified": "2025-04-23T15:07:25.000",
    "request_status": "Pending",
    "responsible_agency": "Department of Sanitation",
    "final_address": "4760 Francis Dr",
    "address_councildis": "D",
    "status": "Assigned to Contractor",
    "contractor": "Waste Pro",
    "rowid": "1186354",
    "final_x": "3698179.0072",
    "final_y": "554542.894808",
    "longitude": "-90.01456764379893",
    "latitude": "30.018283267529743",
    "geocoded_column": {
      "latitude": "30.018283267529743",
      "longitude": "-90.01456764379893"
    }
  },
  {
    "service_request": "2025-1186353",
    "request_type": "Trash/Recycling",
    "request_reason": "Order Recycling Cart",
    "date_created": "2025-04-23T15:00:45.000",
    "date_modified": "2025-04-23T15:00:46.000",
    "request_status": "Pending",
    "responsible_agency": "Department of Sanitation",
    "final_address": "6314 General Pershing St",
    "address_councildis": "B",
    "status": "Pending",
    "rowid": "1186353",
    "final_x": "3667985.74247",
    "final_y": "530366.166274",
    "longitude": "-90.11078249739774",
    "latitude": "29.952726423931473",
    "geocoded_column": {
      "latitude": "29.952726423931473",
      "longitude": "-90.11078249739774"
    }
  },
  {
    "service_request": "2025-1186352",
    "request_type": "Safety & Permits",
    "request_reason": "Licenses & Permits",
    "date_created": "2025-04-23T15:00:24.000",
    "date_modified": "2025-04-23T15:00:26.000",
    "request_status": "Pending",
    "responsible_agency": "Safety and Permits",
    "final_address": "0 BLK Architect St",
    "address_councildis": "C",
    "status": "Pending",
    "rowid": "1186352",
    "final_x": "3687142.46885",
    "final_y": "534686.498656",
    "longitude": "-90.05014150821198",
    "latitude": "29.964029935213947",
    "geocoded_column": {
      "latitude": "29.964029935213947",
      "longitude": "-90.05014150821198"
    }
  },
  {
    "service_request": "2025-1186351",
    "request_type": "Drainage",
    "request_reason": "Street Flooding",
    "date_created": "2025-04-23T14:58:39.000",
    "date_modified": "2025-04-23T14:58:41.000",
    "request_status": "Pending",
    "responsible_agency": "Sewerage & Water Board",
    "final_address": "2300 BLK Bristol Pl",
    "address_councildis": "C",
    "status": "Pending",
    "rowid": "1186351",
    "final_x": "3702651.03233",
    "final_y": "522466.175328",
    "longitude": "-90.00161572233291",
    "latitude": "29.92994171029318",
    "geocoded_column": {
      "latitude": "29.92994171029318",
      "longitude": "-90.00161572233291"
    }
  },
  {
    "service_request": "2025-1186350",
    "request_type": "Trash/Recycling",
    "request_reason": "Replace Recycling Cart",
    "date_created": "2025-04-23T14:58:28.000",
    "date_modified": "2025-04-23T14:58:30.000",
    "request_status": "Pending",
    "responsible_agency": "Department of Sanitation",
    "final_address": "6314 General Pershing St",
    "address_councildis": "B",
    "status": "Pending",
    "rowid": "1186350",
    "final_x": "3667985.74247",
    "final_y": "530366.166274",
    "longitude": "-90.11078249739774",
    "latitude": "29.952726423931473",
    "geocoded_column": {
      "latitude": "29.952726423931473",
      "longitude": "-90.11078249739774"
    }
  },
  {
    "service_request": "2025-1186349",
    "request_type": "Streetlights",
    "request_reason": "New Streetlight Request",
    "date_created": "2025-04-23T14:57:30.000",
    "date_modified": "2025-04-23T14:57:33.000",
    "request_status": "Pending",
    "responsible_agency": "Department of Public Works",
    "final_address": "2700 BLK Acacia St",
    "address_councildis": "D",
    "status": "Pending",
    "contractor": "Legacy Professional Services",
    "rowid": "1186349",
    "final_x": "3688092.1766",
    "final_y": "546427.330817",
    "longitude": "-90.04672611185158",
    "latitude": "29.996283784781525",
    "geocoded_column": {
      "latitude": "29.996283784781525",
      "longitude": "-90.04672611185158"
    }
  },
  {
    "service_request": "2025-1186348",
    "request_type": "Trash/Recycling",
    "request_reason": "Replace Trash Cart",
    "date_created": "2025-04-23T14:57:17.000",
    "date_modified": "2025-04-23T14:57:20.000",
    "request_status": "Pending",
    "responsible_agency": "Department of Sanitation",
    "final_address": "2351 Tennessee St",
    "address_councildis": "E",
    "status": "Assigned to Contractor",
    "contractor": "Waste Pro",
    "rowid": "1186348",
    "final_x": "3697095.3864",
    "final_y": "539204.36321",
    "longitude": "-90.0185475594681",
    "latitude": "29.976142216092132",
    "geocoded_column": {
      "latitude": "29.976142216092132",
      "longitude": "-90.0185475594681"
    }
  },
  {
    "service_request": "2025-1186347",
    "request_type": "Streetlights",
    "request_reason": "Streetlight Outage/Malfunction",
    "date_created": "2025-04-23T14:56:21.000",
    "date_modified": "2025-04-23T14:56:23.000",
    "request_status": "Pending",
    "responsible_agency": "Department of Public Works",
    "final_address": "900 BLK Homer St",
    "address_councildis": "C",
    "status": "Pending",
    "contractor": "Legacy Professional Services",
    "rowid": "1186347",
    "final_x": "3688289.43999",
    "final_y": "528323.611448",
    "longitude": "-90.04674510214672",
    "latitude": "29.94649882080669",
    "geocoded_column": {
      "latitude": "29.94649882080669",
      "longitude": "-90.04674510214672"
    }
  },
  {
    "service_request": "2025-1186346",
    "request_type": "Trash/Recycling",
    "request_reason": "Repair Recycling Cart",
    "date_created": "2025-04-23T14:55:19.000",
    "date_modified": "2025-04-23T14:55:21.000",
    "request_status": "Pending",
    "responsible_agency": "Department of Sanitation",
    "final_address": "2736 Acacia St",
    "address_councildis": "D",
    "status": "Pending",
    "rowid": "1186346",
    "final_x": "3688174.7286",
    "final_y": "546393.430608",
    "longitude": "-90.0464665391789",
    "latitude": "29.996188022445246",
    "geocoded_column": {
      "latitude": "29.996188022445246",
      "longitude": "-90.0464665391789"
    }
  },
  {
    "service_request": "2025-1186345",
    "request_type": "General Services",
    "request_reason": "General Service Request",
    "date_created": "2025-04-23T14:50:29.000",
    "date_modified": "2025-04-23T14:50:30.000",
    "request_status": "Pending",
    "responsible_agency": "Orleans Parish Communication District",
    "final_address": "JULIA ST & CAMP ST",
    "address_councildis": "B",
    "status": "Pending",
    "rowid": "1186345",
    "final_x": "3680791.6",
    "final_y": "527933.18",
    "longitude": "-90.07043202214226",
    "latitude": "29.945654624905025",
    "geocoded_column": {
      "latitude": "29.945654624905025",
      "longitude": "-90.07043202214226"
    }
  },
  {
    "service_request": "2025-1186344",
    "request_type": "Streetlights",
    "request_reason": "Streetlight Outage/Malfunction",
    "date_created": "2025-04-23T14:48:39.000",
    "date_modified": "2025-04-23T14:48:41.000",
    "request_status": "Pending",
    "responsible_agency": "Department of Public Works",
    "final_address": "2543 Clover St",
    "address_councildis": "D",
    "status": "Pending",
    "contractor": "Legacy Professional Services",
    "rowid": "1186344",
    "final_x": "3686719.91465",
    "final_y": "546660.593041",
    "longitude": "-90.05105273672761",
    "latitude": "29.99696746830436",
    "geocoded_column": {
      "latitude": "29.99696746830436",
      "longitude": "-90.05105273672761"
    }
  },
  {
    "service_request": "2025-1186343",
    "request_type": "Trash/Recycling",
    "request_reason": "Request a Large Item Pick Up",
    "date_created": "2025-04-23T14:46:43.000",
    "date_modified": "2025-04-23T14:46:45.000",
    "request_status": "Pending",
    "responsible_agency": "Department of Sanitation",
    "final_address": "7759 Alabama St",
    "address_councildis": "D",
    "status": "Assigned to Contractor",
    "contractor": "Waste Pro",
    "rowid": "1186343",
    "final_x": "3694736.23261",
    "final_y": "559207.257372",
    "longitude": "-90.0252772376606",
    "latitude": "30.031216997573104",
    "geocoded_column": {
      "latitude": "30.031216997573104",
      "longitude": "-90.0252772376606"
    }
  },
  {
    "service_request": "2025-1186342",
    "request_type": "Trash/Recycling",
    "request_reason": "Request a Large Item Pick Up",
    "date_created": "2025-04-23T14:44:37.000",
    "date_modified": "2025-04-23T14:44:39.000",
    "request_status": "Pending",
    "responsible_agency": "Department of Sanitation",
    "final_address": "6616 Catina St",
    "address_councildis": "A",
    "status": "Assigned to Contractor",
    "contractor": "IV Waste",
    "rowid": "1186342",
    "final_x": "3666976.47258",
    "final_y": "551911.77967",
    "longitude": "-90.11324493352447",
    "latitude": "30.01199915196621",
    "geocoded_column": {
      "latitude": "30.01199915196621",
      "longitude": "-90.11324493352447"
    }
  },
  {
    "service_request": "2025-1186341",
    "request_type": "Trash/Recycling",
    "request_reason": "Illegal Dumping",
    "date_created": "2025-04-23T14:39:41.000",
    "date_modified": "2025-04-23T14:39:43.000",
    "request_status": "Pending",
    "responsible_agency": "Department of Sanitation",
    "final_address": "1204 Gallier St",
    "address_councildis": "C",
    "status": "Pending",
    "rowid": "1186341",
    "final_x": "3690526.33916",
    "final_y": "536062.707463",
    "longitude": "-90.03940651163276",
    "latitude": "29.967709394844814",
    "geocoded_column": {
      "latitude": "29.967709394844814",
      "longitude": "-90.03940651163276"
    }
  },
  {
    "service_request": "2025-1186340",
    "request_type": "Trash/Recycling",
    "request_reason": "Missed Trash Pick-Up",
    "date_created": "2025-04-23T14:36:28.000",
    "date_modified": "2025-04-23T14:36:30.000",
    "request_status": "Pending",
    "responsible_agency": "Department of Sanitation",
    "final_address": "3226 Jack Wyman Rd",
    "address_councildis": "C",
    "status": "Assigned to Contractor",
    "contractor": "Richards Disposal",
    "rowid": "1186340",
    "final_x": "3717118.44229",
    "final_y": "517880.35615",
    "longitude": "-89.9561190904642",
    "latitude": "29.91686208593003",
    "geocoded_column": {
      "latitude": "29.91686208593003",
      "longitude": "-89.9561190904642"
    }
  },
  {
    "service_request": "2025-1186339",
    "request_type": "Trash/Recycling",
    "request_reason": "Illegal Dumping",
    "date_created": "2025-04-23T14:34:41.000",
    "date_modified": "2025-04-23T14:34:42.000",
    "request_status": "Pending",
    "responsible_agency": "Department of Sanitation",
    "final_address": "5788 Tullis Dr",
    "address_councildis": "C",
    "status": "Pending",
    "rowid": "1186339",
    "final_x": "3705389.38929",
    "final_y": "513002.046961",
    "longitude": "-89.99332065518455",
    "latitude": "29.903830832989346",
    "geocoded_column": {
      "latitude": "29.903830832989346",
      "longitude": "-89.99332065518455"
    }
  },
  {
    "service_request": "2025-1186338",
    "request_type": "Abandoned Vehicles",
    "request_reason": "Abandoned/Junk Vehicles",
    "date_created": "2025-04-23T14:33:55.000",
    "date_modified": "2025-04-23T14:36:30.000",
    "request_status": "Pending",
    "responsible_agency": "Department of Public Works",
    "final_address": "49 Allard Blvd",
    "address_councildis": "A",
    "status": "Pending",
    "rowid": "1186338",
    "final_x": "3672788.2882",
    "final_y": "540763.790155",
    "longitude": "-90.09526344288044",
    "latitude": "29.981174624332734",
    "geocoded_column": {
      "latitude": "29.981174624332734",
      "longitude": "-90.09526344288044"
    }
  },
  {
    "service_request": "2025-1186337",
    "request_type": "Drainage",
    "request_reason": "Ditch and Culvert Maintenance",
    "date_created": "2025-04-23T14:33:30.000",
    "date_modified": "2025-04-23T14:33:32.000",
    "request_status": "Pending",
    "responsible_agency": "Department of Public Works",
    "final_address": "746 S Norman C Francis Prkwy",
    "address_councildis": "B",
    "status": "Pending",
    "rowid": "1186337",
    "final_x": "3671780.89889",
    "final_y": "534591.030982",
    "longitude": "-90.09865532089559",
    "latitude": "29.964231512476776",
    "geocoded_column": {
      "latitude": "29.964231512476776",
      "longitude": "-90.09865532089559"
    }
  },
  {
    "service_request": "2025-1186336",
    "request_type": "Abandoned Vehicles",
    "request_reason": "Abandoned/Junk Vehicles",
    "date_created": "2025-04-23T14:30:16.000",
    "date_modified": "2025-04-23T14:34:26.000",
    "request_status": "Pending",
    "responsible_agency": "Department of Public Works",
    "final_address": "5700 BLK Mandeville St",
    "address_councildis": "D",
    "status": "Inspected",
    "rowid": "1186336",
    "final_x": "3684351.73789",
    "final_y": "554092.858793",
    "longitude": "-90.05827242430603",
    "latitude": "30.017476162806588",
    "geocoded_column": {
      "latitude": "30.017476162806588",
      "longitude": "-90.05827242430603"
    }
  },
  {
    "service_request": "2025-1186335",
    "request_type": "Street and Traffic Signs",
    "request_reason": "One Way Sign Missing or Damaged",
    "date_created": "2025-04-23T14:29:04.000",
    "date_modified": "2025-04-23T14:29:06.000",
    "request_status": "Pending",
    "responsible_agency": "Department of Public Works",
    "final_address": "MAGAZINE ST & JENA ST",
    "address_councildis": "B",
    "status": "Pending",
    "rowid": "1186335",
    "final_x": "3670661.7",
    "final_y": "518754.08",
    "longitude": "-90.10272678201564",
    "latitude": "29.92071816155079",
    "geocoded_column": {
      "latitude": "29.92071816155079",
      "longitude": "-90.10272678201564"
    }
  },
  {
    "service_request": "2025-1186334",
    "request_type": "Drainage",
    "request_reason": "Catch Basin Clogged",
    "date_created": "2025-04-23T14:28:24.000",
    "date_modified": "2025-04-23T14:28:26.000",
    "request_status": "Pending",
    "responsible_agency": "Sewerage & Water Board",
    "final_address": "746 S Norman C Francis Prkwy",
    "address_councildis": "B",
    "status": "Pending",
    "rowid": "1186334",
    "final_x": "3671780.89889",
    "final_y": "534591.030982",
    "longitude": "-90.09865532089559",
    "latitude": "29.964231512476776",
    "geocoded_column": {
      "latitude": "29.964231512476776",
      "longitude": "-90.09865532089559"
    }
  },
  {
    "service_request": "2025-1186333",
    "request_type": "Drainage",
    "request_reason": "Catch Basin Clogged",
    "date_created": "2025-04-23T14:26:50.000",
    "date_modified": "2025-04-23T14:26:52.000",
    "request_status": "Pending",
    "responsible_agency": "Sewerage & Water Board",
    "final_address": "746 S Norman C Francis Prkwy",
    "address_councildis": "B",
    "status": "Pending",
    "rowid": "1186333",
    "final_x": "3671780.89889",
    "final_y": "534591.030982",
    "longitude": "-90.09865532089559",
    "latitude": "29.964231512476776",
    "geocoded_column": {
      "latitude": "29.964231512476776",
      "longitude": "-90.09865532089559"
    }
  },
  {
    "service_request": "2025-1186332",
    "request_type": "Trash/Recycling",
    "request_reason": "Repair Trash Cart",
    "date_created": "2025-04-23T14:25:45.000",
    "date_modified": "2025-04-23T14:26:45.000",
    "request_status": "Pending",
    "responsible_agency": "Department of Sanitation",
    "final_address": "3040 De Soto St",
    "address_councildis": "A",
    "status": "Assigned to Contractor",
    "contractor": "IV Waste",
    "rowid": "1186332",
    "final_x": "3676470.28091",
    "final_y": "539753.42881",
    "longitude": "-90.08366883700036",
    "latitude": "29.978286573748345",
    "geocoded_column": {
      "latitude": "29.978286573748345",
      "longitude": "-90.08366883700036"
    }
  },
  {
    "service_request": "2025-1186331",
    "request_type": "Trash/Recycling",
    "request_reason": "Repair Trash Cart",
    "date_created": "2025-04-23T14:25:18.000",
    "date_modified": "2025-04-23T14:25:20.000",
    "request_status": "Pending",
    "responsible_agency": "Department of Sanitation",
    "final_address": "2565 Jasmine St",
    "address_councildis": "D",
    "status": "Assigned to Contractor",
    "contractor": "IV Waste",
    "rowid": "1186331",
    "final_x": "3686807.91158",
    "final_y": "548117.28181",
    "longitude": "-90.05072325060144",
    "latitude": "30.000970128528426",
    "geocoded_column": {
      "latitude": "30.000970128528426",
      "longitude": "-90.05072325060144"
    }
  },
  {
    "service_request": "2025-1186330",
    "request_type": "Roads and Streets",
    "request_reason": "Sidewalk Damaged or Missing",
    "date_created": "2025-04-23T14:24:06.000",
    "date_modified": "2025-04-23T14:24:07.000",
    "request_status": "Pending",
    "responsible_agency": "Department of Public Works",
    "final_address": "1111 Bourbon St",
    "address_councildis": "C",
    "status": "Pending",
    "rowid": "1186330",
    "final_x": "3683193.66152",
    "final_y": "533939.863877",
    "longitude": "-90.06263761832889",
    "latitude": "29.962097949150508",
    "geocoded_column": {
      "latitude": "29.962097949150508",
      "longitude": "-90.06263761832889"
    }
  },
  {
    "service_request": "2025-1186329",
    "request_type": "Trash/Recycling",
    "request_reason": "Repair Trash Cart",
    "date_created": "2025-04-23T14:23:48.000",
    "date_modified": "2025-04-23T14:26:12.000",
    "request_status": "Pending",
    "responsible_agency": "Department of Sanitation",
    "final_address": "2563 Jasmine St",
    "address_councildis": "D",
    "status": "Assigned to Contractor",
    "contractor": "IV Waste",
    "rowid": "1186329",
    "final_x": "3686790.13378",
    "final_y": "548116.726226",
    "longitude": "-90.05077943159881",
    "latitude": "30.00096914803456",
    "geocoded_column": {
      "latitude": "30.00096914803456",
      "longitude": "-90.05077943159881"
    }
  },
  {
    "service_request": "2025-1186328",
    "request_type": "Drainage",
    "request_reason": "Catch Basin Clogged",
    "date_created": "2025-04-23T14:19:09.000",
    "date_modified": "2025-04-23T14:19:11.000",
    "request_status": "Pending",
    "responsible_agency": "Sewerage & Water Board",
    "final_address": "1111 Bourbon St",
    "address_councildis": "C",
    "status": "Pending",
    "rowid": "1186328",
    "final_x": "3683193.66152",
    "final_y": "533939.863877",
    "longitude": "-90.06263761832889",
    "latitude": "29.962097949150508",
    "geocoded_column": {
      "latitude": "29.962097949150508",
      "longitude": "-90.06263761832889"
    }
  },
  {
    "service_request": "2025-1186327",
    "request_type": "Abandoned Vehicles",
    "request_reason": "Abandoned/Junk Vehicles",
    "date_created": "2025-04-23T14:12:00.000",
    "date_modified": "2025-04-23T14:17:26.000",
    "request_status": "Pending",
    "responsible_agency": "Department of Public Works",
    "final_address": "FLORIDA AVE & ELYSIAN FIELDS AV OVER",
    "address_councildis": "D",
    "status": "Inspected",
    "rowid": "1186327",
    "final_x": "3684559.81",
    "final_y": "542199.2",
    "longitude": "-90.05803325020847",
    "latitude": "29.984766515387342",
    "geocoded_column": {
      "latitude": "29.984766515387342",
      "longitude": "-90.05803325020847"
    }
  },
  {
    "service_request": "2025-1186326",
    "request_type": "Trash/Recycling",
    "request_reason": "Request a Large Item Pick Up",
    "date_created": "2025-04-23T14:11:31.000",
    "date_modified": "2025-04-23T14:11:33.000",
    "request_status": "Pending",
    "responsible_agency": "Department of Sanitation",
    "final_address": "1309 Fats Domino Ave",
    "address_councildis": "E",
    "status": "Assigned to Contractor",
    "contractor": "Waste Pro",
    "rowid": "1186326",
    "final_x": "3698296.74775",
    "final_y": "534573.730757",
    "longitude": "-90.01492160503342",
    "latitude": "29.963371680759348",
    "geocoded_column": {
      "latitude": "29.963371680759348",
      "longitude": "-90.01492160503342"
    }
  },
  {
    "service_request": "2025-1186325",
    "request_type": "Trash/Recycling",
    "request_reason": "Repair Trash Cart",
    "date_created": "2025-04-23T14:07:45.000",
    "date_modified": "2025-04-23T14:24:48.000",
    "request_status": "Pending",
    "responsible_agency": "Department of Sanitation",
    "final_address": "2131 Delachaise St",
    "address_councildis": "B",
    "status": "Assigned to Contractor",
    "contractor": "IV Waste",
    "rowid": "1186325",
    "final_x": "3673051.54516",
    "final_y": "523273.593659",
    "longitude": "-90.09502895426952",
    "latitude": "29.93307458062401",
    "geocoded_column": {
      "latitude": "29.93307458062401",
      "longitude": "-90.09502895426952"
    }
  },
  {
    "service_request": "2025-1186324",
    "request_type": "Safety & Permits",
    "request_reason": "Zoning Enforcement",
    "date_created": "2025-04-23T14:05:43.000",
    "date_modified": "2025-04-23T14:06:33.000",
    "request_status": "Pending",
    "responsible_agency": "Safety and Permits",
    "final_address": "5954 Airway St",
    "address_councildis": "D",
    "status": "Pending",
    "rowid": "1186324",
    "final_x": "3696541.77168",
    "final_y": "552807.857238",
    "longitude": "-90.01980351440908",
    "latitude": "30.013564277920036",
    "geocoded_column": {
      "latitude": "30.013564277920036",
      "longitude": "-90.01980351440908"
    }
  },
  {
    "service_request": "2025-1186323",
    "request_type": "Drainage",
    "request_reason": "Street Flooding",
    "date_created": "2025-04-23T14:00:19.000",
    "date_modified": "2025-04-23T14:00:21.000",
    "request_status": "Pending",
    "responsible_agency": "Sewerage & Water Board",
    "final_address": "700 BLK S Broad St",
    "address_councildis": "B",
    "status": "Pending",
    "rowid": "1186323",
    "final_x": "3673780.50903",
    "final_y": "533091.167201",
    "longitude": "-90.09239200459584",
    "latitude": "29.960047993063217",
    "geocoded_column": {
      "latitude": "29.960047993063217",
      "longitude": "-90.09239200459584"
    }
  },
  {
    "service_request": "2025-1186322",
    "request_type": "Trash/Recycling",
    "request_reason": "Request a Large Item Pick Up",
    "date_created": "2025-04-23T13:55:58.000",
    "date_modified": "2025-04-23T13:56:00.000",
    "request_status": "Pending",
    "responsible_agency": "Department of Sanitation",
    "final_address": "3307 Spain St",
    "address_councildis": "D",
    "status": "Assigned to Contractor",
    "contractor": "IV Waste",
    "rowid": "1186322",
    "final_x": "3685496.55548",
    "final_y": "544921.786191",
    "longitude": "-90.05497854341903",
    "latitude": "29.99222395882699",
    "geocoded_column": {
      "latitude": "29.99222395882699",
      "longitude": "-90.05497854341903"
    }
  },
  {
    "service_request": "2025-1186321",
    "request_type": "Trash/Recycling",
    "request_reason": "Repair Trash Cart",
    "date_created": "2025-04-23T13:54:22.000",
    "date_modified": "2025-04-23T13:54:24.000",
    "request_status": "Pending",
    "responsible_agency": "Department of Sanitation",
    "final_address": "3716 Post Oak Ave",
    "address_councildis": "C",
    "status": "Assigned to Contractor",
    "contractor": "Richards Disposal",
    "rowid": "1186321",
    "final_x": "3704267.02935",
    "final_y": "514355.621555",
    "longitude": "-89.9968129745796",
    "latitude": "29.90758874529686",
    "geocoded_column": {
      "latitude": "29.90758874529686",
      "longitude": "-89.9968129745796"
    }
  },
  {
    "service_request": "2025-1186320",
    "request_type": "Trash/Recycling",
    "request_reason": "Change Size of Trash Cart",
    "date_created": "2025-04-23T13:53:27.000",
    "date_modified": "2025-04-23T13:53:35.000",
    "request_status": "Pending",
    "responsible_agency": "Department of Sanitation",
    "final_address": "7311 Camberley Dr",
    "address_councildis": "E",
    "status": "Assigned to Contractor",
    "contractor": "Waste Pro",
    "rowid": "1186320",
    "final_x": "3712995.56696",
    "final_y": "565308.13725",
    "longitude": "-89.96734783941376",
    "latitude": "30.04740618722115",
    "geocoded_column": {
      "latitude": "30.04740618722115",
      "longitude": "-89.96734783941376"
    }
  },
  {
    "service_request": "2025-1186319",
    "request_type": "Trash/Recycling",
    "request_reason": "Request a Large Item Pick Up",
    "date_created": "2025-04-23T13:52:32.000",
    "date_modified": "2025-04-23T13:52:35.000",
    "request_status": "Pending",
    "responsible_agency": "Department of Sanitation",
    "final_address": "5629 Marshal Foch St",
    "address_councildis": "A",
    "status": "Assigned to Contractor",
    "contractor": "IV Waste",
    "rowid": "1186319",
    "final_x": "3669645.75674",
    "final_y": "544568.408911",
    "longitude": "-90.10506019576123",
    "latitude": "29.99172901590333",
    "geocoded_column": {
      "latitude": "29.99172901590333",
      "longitude": "-90.10506019576123"
    }
  },
  {
    "service_request": "2025-1186318",
    "request_type": "Trash/Recycling",
    "request_reason": "Request a Large Item Pick Up",
    "date_created": "2025-04-23T13:51:32.000",
    "date_modified": "2025-04-23T13:53:51.000",
    "request_status": "Pending",
    "responsible_agency": "Department of Sanitation",
    "final_address": "6040 Erin Dr",
    "address_councildis": "E",
    "status": "Assigned to Contractor",
    "contractor": "Waste Pro",
    "rowid": "1186318",
    "final_x": "3695621.37706",
    "final_y": "558423.533276",
    "longitude": "-90.02250849394503",
    "latitude": "30.029034242330926",
    "geocoded_column": {
      "latitude": "30.029034242330926",
      "longitude": "-90.02250849394503"
    }
  },
  {
    "service_request": "2025-1186317",
    "request_type": "Roads and Streets",
    "request_reason": "Pothole",
    "date_created": "2025-04-23T13:50:32.000",
    "date_modified": "2025-04-23T13:50:33.000",
    "request_status": "Pending",
    "responsible_agency": "Department of Public Works",
    "final_address": "9600 Lake Forest Blvd",
    "address_councildis": "E",
    "status": "Pending",
    "rowid": "1186317",
    "final_x": "3708616.80081",
    "final_y": "558345.998684",
    "longitude": "-89.98144663383816",
    "latitude": "30.028405874469446",
    "geocoded_column": {
      "latitude": "30.028405874469446",
      "longitude": "-89.98144663383816"
    }
  },
  {
    "service_request": "2025-1186316",
    "request_type": "Abandoned Vehicles",
    "request_reason": "Abandoned/Junk Vehicles",
    "date_created": "2025-04-23T13:49:32.000",
    "date_modified": "2025-04-23T13:52:46.000",
    "request_status": "Pending",
    "responsible_agency": "Department of Public Works",
    "final_address": "3907 St Claude Ave",
    "address_councildis": "C",
    "status": "Pending",
    "rowid": "1186316",
    "final_x": "3691615.82064",
    "final_y": "535462.256582",
    "longitude": "-90.03598738308743",
    "latitude": "29.96602449277593",
    "geocoded_column": {
      "latitude": "29.96602449277593",
      "longitude": "-90.03598738308743"
    }
  },
  {
    "service_request": "2025-1186315",
    "request_type": "Traffic Signals",
    "request_reason": "Traffic Signal Malfunctioning or Damaged",
    "date_created": "2025-04-23T13:48:04.000",
    "date_modified": "2025-04-23T13:48:06.000",
    "request_status": "Pending",
    "responsible_agency": "Department of Public Works",
    "final_address": "7301 Crowder Blvd",
    "address_councildis": "E",
    "status": "Pending",
    "rowid": "1186315",
    "final_x": "3703781.6154",
    "final_y": "561158.039902",
    "longitude": "-89.99662179289489",
    "latitude": "30.036293860614613",
    "geocoded_column": {
      "latitude": "30.036293860614613",
      "longitude": "-89.99662179289489"
    }
  },
  {
    "service_request": "2025-1186314",
    "request_type": "Roads and Streets",
    "request_reason": "Abandoned Service Cut",
    "date_created": "2025-04-23T13:45:55.000",
    "date_modified": "2025-04-23T13:45:57.000",
    "request_status": "Pending",
    "responsible_agency": "Department of Public Works",
    "final_address": "5000 Congress Dr",
    "address_councildis": "D",
    "status": "Pending",
    "rowid": "1186314",
    "final_x": "3691933.85149",
    "final_y": "552713.046102",
    "longitude": "-90.03436547727122",
    "latitude": "30.013448020813893",
    "geocoded_column": {
      "latitude": "30.013448020813893",
      "longitude": "-90.03436547727122"
    }
  },
  {
    "service_request": "2025-1186313",
    "request_type": "Trash/Recycling",
    "request_reason": "Request a Large Item Pick Up",
    "date_created": "2025-04-23T13:45:40.000",
    "date_modified": "2025-04-23T13:45:42.000",
    "request_status": "Pending",
    "responsible_agency": "Department of Sanitation",
    "final_address": "3905 Fourth St",
    "address_councildis": "B",
    "status": "Assigned to Contractor",
    "contractor": "IV Waste",
    "rowid": "1186313",
    "final_x": "3671742.63246",
    "final_y": "529485.257473",
    "longitude": "-90.09894985880014",
    "latitude": "29.950193462539612",
    "geocoded_column": {
      "latitude": "29.950193462539612",
      "longitude": "-90.09894985880014"
    }
  },
  {
    "service_request": "2025-1186312",
    "request_type": "Trash/Recycling",
    "request_reason": "Repair Trash Cart",
    "date_created": "2025-04-23T13:44:13.000",
    "date_modified": "2025-04-23T13:44:14.000",
    "request_status": "Pending",
    "responsible_agency": "Department of Sanitation",
    "final_address": "7026 Camberley Dr",
    "address_councildis": "E",
    "status": "Assigned to Contractor",
    "contractor": "Waste Pro",
    "rowid": "1186312",
    "final_x": "3713436.1196",
    "final_y": "564539.854177",
    "longitude": "-89.96598444145071",
    "latitude": "30.04527927191483",
    "geocoded_column": {
      "latitude": "30.04527927191483",
      "longitude": "-89.96598444145071"
    }
  },
  {
    "service_request": "2025-1186311",
    "request_type": "Property Maintenance",
    "request_reason": "Property Maintenance",
    "date_created": "2025-04-23T13:44:02.000",
    "date_modified": "2025-04-23T14:15:54.000",
    "case_close_date": "2025-04-23T09:15:51.000",
    "request_status": "Closed",
    "responsible_agency": "Department of Code Enforcement",
    "final_address": "5623 Mandeville St",
    "address_councildis": "D",
    "status": "Referred to Code Enforcement",
    "rowid": "1186311",
    "final_x": "3684422.75228",
    "final_y": "553677.634327",
    "longitude": "-90.0580626487973",
    "latitude": "30.016332274736953",
    "geocoded_column": {
      "latitude": "30.016332274736953",
      "longitude": "-90.0580626487973"
    }
  },
  {
    "service_request": "2025-1186310",
    "request_type": "Roads and Streets",
    "request_reason": "Road Shoulder Damage",
    "date_created": "2025-04-23T13:43:36.000",
    "date_modified": "2025-04-23T13:43:39.000",
    "request_status": "Pending",
    "responsible_agency": "Department of Public Works",
    "final_address": "18 Dove St",
    "address_councildis": "D",
    "status": "Pending",
    "rowid": "1186310",
    "final_x": "3673661.23752",
    "final_y": "554745.597016",
    "longitude": "-90.0920278679654",
    "latitude": "30.019593726098645",
    "geocoded_column": {
      "latitude": "30.019593726098645",
      "longitude": "-90.0920278679654"
    }
  },