[
  {
    "service_request": "2024-1111304",
    "request_type": "Roads/Drainage",
    "request_reason": "Street Flooding / Drainage",
    "date_created": "2024-07-10T22:32:37.000",
    "date_modified": "2024-07-10T22:32:37.000",
    "request_status": "Pending",
    "responsible_agency": "Department of Public Works",
    "final_address": "1928 Burdette St",
    "address_councildis": "A",
    "status": "Pending",
    "rowid": "1111304",
    "final_x": "3664566.11751",
    "final_y": "529625.166145",
    "longitude": "-90.12160493187663",
    "latitude": "29.950788793691714",
    "geocoded_column": {
      "latitude": "29.950788793691714",
      "longitude": "-90.12160493187663"
    }
  },
  {
    "service_request": "2024-1111303",
    "request_type": "Trash/Recycling",
    "request_reason": "Request a Large Item Pick Up",
    "date_created": "2024-07-10T22:32:11.000",
    "date_modified": "2024-07-10T22:32:12.000",
    "request_status": "Pending",
    "responsible_agency": "Department of Sanitation",
    "final_address": "10911 Guildford Rd",
    "address_councildis": "E",
    "status": "Assigned to Contractor",
    "contractor": "Waste Pro",
    "rowid": "1111303",
    "final_x": "3711385.91768",
    "final_y": "564035.096545",
    "longitude": "-89.97248295085919",
    "latitude": "30.043958502612004",
    "geocoded_column": {
      "latitude": "30.043958502612004",
      "longitude": "-89.97248295085919"
    }
  },
  {
    "service_request": "2024-1111302",
    "request_type": "Trash/Recycling",
    "request_reason": "Request a Large Item Pick Up",
    "date_created": "2024-07-10T22:30:27.000",
    "date_modified": "2024-07-10T22:30:27.000",
    "request_status": "Pending",
    "responsible_agency": "Department of Sanitation",
    "final_address": "10911 Guildford Rd",
    "address_councildis": "E",
    "status": "Assigned to Contractor",
    "contractor": "Waste Pro",
    "rowid": "1111302",
    "final_x": "3711385.91768",
    "final_y": "564035.096545",
    "longitude": "-89.97248295085919",
    "latitude": "30.043958502612004",
    "geocoded_column": {
      "latitude": "30.043958502612004",
      "longitude": "-89.97248295085919"
    }
  },
  {
    "service_request": "2024-1111300",
    "request_type": "Abandoned Vehicles",
    "request_reason": "Abandoned/Junk Vehicles",
    "date_created": "2024-07-10T22:02:24.000",
    "date_modified": "2024-07-10T22:02:24.000",
    "request_status": "Pending",
    "responsible_agency": "Department of Public Works",
    "final_address": "1557 N Rocheblave St",
    "address_councildis": "D",
    "status": "Pending",
    "rowid": "1111300",
    "final_x": "3679779.66581",
    "final_y": "539348.023562",
    "longitude": "-90.07323068691825",
    "latitude": "29.97707219288842",
    "geocoded_column": {
      "latitude": "29.97707219288842",
      "longitude": "-90.07323068691825"
    }
  },
  {
    "service_request": "2024-1111299",
    "request_type": "Trash/Recycling",
    "request_reason": "Request a Large Item Pick Up",
    "date_created": "2024-07-10T21:59:44.000",
    "date_modified": "2024-07-10T21:59:45.000",
    "request_status": "Pending",
    "responsible_agency": "Department of Sanitation",
    "final_address": "4127 Orleans Ave",
    "address_councildis": "A",
    "status": "Assigned to Contractor",
    "contractor": "IV Waste",
    "rowid": "1111299",
    "final_x": "3672476.12916",
    "final_y": "540436.942859",
    "longitude": "-90.09626052968329",
    "latitude": "29.980285176381592",
    "geocoded_column": {
      "latitude": "29.980285176381592",
      "longitude": "-90.09626052968329"
    }
  },
  {
    "service_request": "2024-1111298",
    "request_type": "Traffic Signals/Signs/Striping/Streetlights",
    "request_reason": "Street Light Outage/Malfunction",
    "date_created": "2024-07-10T21:50:18.000",
    "date_modified": "2024-07-10T21:50:19.000",
    "request_status": "Pending",
    "responsible_agency": "Department of Public Works",
    "final_address": "2113 First St",
    "address_councildis": "B",
    "status": "Assigned to Contractor",
    "contractor": "Legacy Professional Services",
    "rowid": "1111298",
    "final_x": "3675920.33672",
    "final_y": "524829.473148",
    "longitude": "-90.08591889722783",
    "latitude": "29.93726718118712",
    "geocoded_column": {
      "latitude": "29.93726718118712",
      "longitude": "-90.08591889722783"
    }
  },
  {
    "service_request": "2024-1111297",
    "request_type": "Traffic Signals/Signs/Striping/Streetlights",
    "request_reason": "Street Light Outage/Malfunction",
    "date_created": "2024-07-10T21:26:50.000",
    "date_modified": "2024-07-10T21:26:51.000",
    "request_status": "Pending",
    "responsible_agency": "Department of Public Works",
    "final_address": "TCHOUPITOULAS ST & ELEONORE ST",
    "address_councildis": "A",
    "status": "Assigned to Contractor",
    "contractor": "Legacy Professional Services",
    "rowid": "1111297",
    "final_x": "3664846.6",
    "final_y": "517331.08",
    "longitude": "-90.1211299746173",
    "latitude": "29.91697580006458",
    "geocoded_column": {
      "latitude": "29.91697580006458",
      "longitude": "-90.1211299746173"
    }
  },
  {
    "service_request": "2024-1111296",
    "request_type": "Property Maintenance",
    "request_reason": "Property Maintenance",
    "date_created": "2024-07-10T21:24:43.000",
    "date_modified": "2024-07-10T21:24:43.000",
    "request_status": "Pending",
    "responsible_agency": "Department of Code Enforcement",
    "final_address": "1694 N Claiborne Ave",
    "address_councildis": "C",
    "status": "Pending",
    "rowid": "1111296",
    "final_x": "3682972.7076",
    "final_y": "537771.833352",
    "longitude": "-90.06320122288228",
    "latitude": "29.97264127907846",
    "geocoded_column": {
      "latitude": "29.97264127907846",
      "longitude": "-90.06320122288228"
    }
  },
  {
    "service_request": "2024-1111295",
    "request_type": "Traffic Signals/Signs/Striping/Streetlights",
    "request_reason": "Request for Traffic Calming due to Speeding",
    "date_created": "2024-07-10T21:16:57.000",
    "date_modified": "2024-07-10T21:16:57.000",
    "request_status": "Pending",
    "responsible_agency": "Department of Public Works",
    "final_address": "1688 N Claiborne Ave",
    "address_councildis": "C",
    "status": "Pending",
    "rowid": "1111295",
    "final_x": "3682940.70389",
    "final_y": "537792.227464",
    "longitude": "-90.06330158243273",
    "latitude": "29.972698331217124",
    "geocoded_column": {
      "latitude": "29.972698331217124",
      "longitude": "-90.06330158243273"
    }
  },
  {
    "service_request": "2024-1111294",
    "request_type": "Mosquito, Termite & Rodent Control",
    "request_reason": "Mosquito Complaint",
    "date_created": "2024-07-10T21:14:34.000",
    "date_modified": "2024-07-10T21:14:34.000",
    "request_status": "Pending",
    "responsible_agency": "Mosquito, Termite & Rodent Control Board",
    "final_address": "1688 N Claiborne Ave",
    "address_councildis": "C",
    "status": "Pending",
    "rowid": "1111294",
    "final_x": "3682940.70389",
    "final_y": "537792.227464",
    "longitude": "-90.06330158243273",
    "latitude": "29.972698331217124",
    "geocoded_column": {
      "latitude": "29.972698331217124",
      "longitude": "-90.06330158243273"
    }
  },
  {
    "service_request": "2024-1111293",
    "request_type": "Trash/Recycling",
    "request_reason": "MIssed Recycling Pick-Up",
    "date_created": "2024-07-10T20:37:27.000",
    "date_modified": "2024-07-10T20:37:28.000",
    "request_status": "Pending",
    "responsible_agency": "Department of Sanitation",
    "final_address": "4911 Longfellow Dr",
    "address_councildis": "E",
    "status": "Assigned to Contractor",
    "contractor": "Waste Pro",
    "rowid": "1111293",
    "final_x": "3709597.21432",
    "final_y": "556739.428698",
    "longitude": "-89.97840863731196",
    "latitude": "30.02395659611743",
    "geocoded_column": {
      "latitude": "30.02395659611743",
      "longitude": "-89.97840863731196"
    }
  },
  {
    "service_request": "2024-1111292",
    "request_type": "Trash/Recycling",
    "request_reason": "MIssed Recycling Pick-Up",
    "date_created": "2024-07-10T20:35:37.000",
    "date_modified": "2024-07-10T20:35:38.000",
    "request_status": "Pending",
    "responsible_agency": "Department of Sanitation",
    "final_address": "4911 Longfellow Dr",
    "address_councildis": "E",
    "status": "Assigned to Contractor",
    "contractor": "Waste Pro",
    "rowid": "1111292",
    "final_x": "3709597.21432",
    "final_y": "556739.428698",
    "longitude": "-89.97840863731196",
    "latitude": "30.02395659611743",
    "geocoded_column": {
      "latitude": "30.02395659611743",
      "longitude": "-89.97840863731196"
    }
  },
  {
    "service_request": "2024-1111291",
    "request_type": "Trash/Recycling",
    "request_reason": "MIssed Recycling Pick-Up",
    "date_created": "2024-07-10T20:35:22.000",
    "date_modified": "2024-07-10T20:35:23.000",
    "request_status": "Pending",
    "responsible_agency": "Department of Sanitation",
    "final_address": "4911 Longfellow Dr",
    "address_councildis": "E",
    "status": "Assigned to Contractor",
    "contractor": "Waste Pro",
    "rowid": "1111291",
    "final_x": "3709597.21432",
    "final_y": "556739.428698",
    "longitude": "-89.97840863731196",
    "latitude": "30.02395659611743",
    "geocoded_column": {
      "latitude": "30.02395659611743",
      "longitude": "-89.97840863731196"
    }
  },
  {
    "service_request": "2024-1111290",
    "request_type": "Trash/Recycling",
    "request_reason": "Missed Trash Pick-Up",
    "date_created": "2024-07-10T20:19:51.000",
    "date_modified": "2024-07-10T20:19:52.000",
    "request_status": "Pending",
    "responsible_agency": "Department of Sanitation",
    "final_address": "5430 Norgate Dr",
    "address_councildis": "E",
    "status": "Assigned to Contractor",
    "contractor": "Waste Pro",
    "rowid": "1111290",
    "final_x": "3707138.88017",
    "final_y": "557812.371547",
    "longitude": "-89.9861365716032",
    "latitude": "30.026986470451586",
    "geocoded_column": {
      "latitude": "30.026986470451586",
      "longitude": "-89.9861365716032"
    }
  },
  {
    "service_request": "2024-1111289",
    "request_type": "Trash/Recycling",
    "request_reason": "Request a Large Item Pick Up",
    "date_created": "2024-07-10T20:12:22.000",
    "date_modified": "2024-07-10T20:12:23.000",
    "request_status": "Pending",
    "responsible_agency": "Department of Sanitation",
    "final_address": "4780 Francisco Verrett Dr",
    "address_councildis": "E",
    "status": "Assigned to Contractor",
    "contractor": "Waste Pro",
    "rowid": "1111289",
    "final_x": "3704139.31268",
    "final_y": "555514.400409",
    "longitude": "-89.99569960959138",
    "latitude": "30.020764567902997",
    "geocoded_column": {
      "latitude": "30.020764567902997",
      "longitude": "-89.99569960959138"
    }
  },
  {
    "service_request": "2024-1111288",
    "request_type": "Roads/Drainage",
    "request_reason": "Damaged Sidewalk",
    "date_created": "2024-07-10T20:12:10.000",
    "date_modified": "2024-07-10T20:12:10.000",
    "request_status": "Pending",
    "responsible_agency": "Department of Public Works",
    "final_address": "1725 Dufossat St",
    "address_councildis": "B",
    "status": "Pending",
    "rowid": "1111288",
    "final_x": "3668192.68743",
    "final_y": "522036.060218",
    "longitude": "-90.11040977787289",
    "latitude": "29.92981524824353",
    "geocoded_column": {
      "latitude": "29.92981524824353",
      "longitude": "-90.11040977787289"
    }
  },
  {
    "service_request": "2024-1111287",
    "request_type": "Trash/Recycling",
    "request_reason": "Repair Trash Cart",
    "date_created": "2024-07-10T19:59:44.000",
    "date_modified": "2024-07-10T19:59:45.000",
    "request_status": "Pending",
    "responsible_agency": "Department of Sanitation",
    "final_address": "3003 Pine St",
    "address_councildis": "B",
    "status": "Assigned to Contractor",
    "contractor": "IV Waste",
    "rowid": "1111287",
    "final_x": "3667555.245",
    "final_y": "532077.748611",
    "longitude": "-90.11208421952237",
    "latitude": "29.95744533757146",
    "geocoded_column": {
      "latitude": "29.95744533757146",
      "longitude": "-90.11208421952237"
    }
  },
  {
    "service_request": "2024-1111286",
    "request_type": "Parks & Parkways",
    "request_reason": "Request Grass Cutting Service (City Owned Property)",
    "date_created": "2024-07-10T19:46:37.000",
    "date_modified": "2024-07-10T19:46:37.000",
    "request_status": "Pending",
    "responsible_agency": "Department of Parks & Parkway",
    "final_address": "7400 BLK W Renaissance Ct",
    "address_councildis": "E",
    "status": "Pending",
    "rowid": "1111286",
    "final_x": "3716074.16755",
    "final_y": "568281.599773",
    "longitude": "-89.95750503973201",
    "latitude": "30.055480717830203",
    "geocoded_column": {
      "latitude": "30.055480717830203",
      "longitude": "-89.95750503973201"
    }
  },
  {
    "service_request": "2024-1111285",
    "request_type": "Traffic Signals/Signs/Striping/Streetlights",
    "request_reason": "Street Light Outage/Malfunction",
    "date_created": "2024-07-10T19:43:44.000",
    "date_modified": "2024-07-10T19:43:45.000",
    "request_status": "Pending",
    "responsible_agency": "Department of Public Works",
    "final_address": "420 S St Patrick St",
    "address_councildis": "A",
    "status": "Assigned to Contractor",
    "contractor": "Legacy Professional Services",
    "rowid": "1111285",
    "final_x": "3668308.85441",
    "final_y": "538711.515273",
    "longitude": "-90.10948080178234",
    "latitude": "29.975663883068",
    "geocoded_column": {
      "latitude": "29.975663883068",
      "longitude": "-90.10948080178234"
    }
  },
  {
    "service_request": "2024-1111283",
    "request_type": "Utility Poles",
    "request_reason": "Utility Pole Leaning",
    "date_created": "2024-07-10T19:31:31.000",
    "date_modified": "2024-07-10T19:31:35.000",
    "request_status": "Pending",
    "responsible_agency": "Utility Company Collective",
    "final_address": "2500 Painters St",
    "address_councildis": "D",
    "status": "Pending",
    "rowid": "1111283",
    "final_x": "3687112.11158",
    "final_y": "541711.796684",
    "longitude": "-90.04998889820563",
    "latitude": "29.983347974097754",
    "geocoded_column": {
      "latitude": "29.983347974097754",
      "longitude": "-90.04998889820563"
    }
  },
  {
    "service_request": "2024-1111281",
    "request_type": "Trash/Recycling",
    "request_reason": "Replace Trash Cart",
    "date_created": "2024-07-10T19:26:02.000",
    "date_modified": "2024-07-10T19:26:03.000",
    "request_status": "Pending",
    "responsible_agency": "Department of Sanitation",
    "final_address": "3285 Potomac St",
    "address_councildis": "C",
    "status": "Assigned to Contractor",
    "contractor": "Richards Disposal",
    "rowid": "1111281",
    "final_x": "3694882.31549",
    "final_y": "517536.244342",
    "longitude": "-90.02631765520378",
    "latitude": "29.916632049428795",
    "geocoded_column": {
      "latitude": "29.916632049428795",
      "longitude": "-90.02631765520378"
    }
  },
  {
    "service_request": "2024-1111280",
    "request_type": "Roads/Drainage",
    "request_reason": "Pothole",
    "date_created": "2024-07-10T19:25:55.000",
    "date_modified": "2024-07-10T19:25:55.000",
    "request_status": "Pending",
    "responsible_agency": "Department of Public Works",
    "final_address": "1400 BLK Valence St",
    "address_councildis": "B",
    "status": "Pending",
    "rowid": "1111280",
    "final_x": "3669784.65285",
    "final_y": "520336.257015",
    "longitude": "-90.1054417057675",
    "latitude": "29.925094517046503",
    "geocoded_column": {
      "latitude": "29.925094517046503",
      "longitude": "-90.1054417057675"
    }
  },
  {
    "service_request": "2024-1111279",
    "request_type": "Mosquito, Termite & Rodent Control",
    "request_reason": "Mosquito Complaint",
    "date_created": "2024-07-10T19:25:14.000",
    "date_modified": "2024-07-10T19:25:14.000",
    "request_status": "Pending",
    "responsible_agency": "Mosquito, Termite & Rodent Control Board",
    "final_address": "6119 Marigny St",
    "address_councildis": "D",
    "status": "Pending",
    "rowid": "1111279",
    "final_x": "3683976.6102",
    "final_y": "555526.977497",
    "longitude": "-90.05940729928459",
    "latitude": "30.021430934880307",
    "geocoded_column": {
      "latitude": "30.021430934880307",
      "longitude": "-90.05940729928459"
    }
  },
  {
    "service_request": "2024-1111278",
    "request_type": "Abandoned Vehicles",
    "request_reason": "Abandoned/Junk Vehicles",
    "date_created": "2024-07-10T19:24:06.000",
    "date_modified": "2024-07-10T19:24:06.000",
    "request_status": "Pending",
    "responsible_agency": "Department of Public Works",
    "final_address": "420 S St Patrick St",
    "address_councildis": "A",
    "status": "Pending",
    "rowid": "1111278",
    "final_x": "3668308.85441",
    "final_y": "538711.515273",
    "longitude": "-90.10948080178234",
    "latitude": "29.975663883068",
    "geocoded_column": {
      "latitude": "29.975663883068",
      "longitude": "-90.10948080178234"
    }
  },
  {
    "service_request": "2024-1111277",
    "request_type": "Mosquito, Termite & Rodent Control",
    "request_reason": "Mosquito Complaint",
    "date_created": "2024-07-10T19:20:55.000",
    "date_modified": "2024-07-10T19:20:55.000",
    "request_status": "Pending",
    "responsible_agency": "Mosquito, Termite & Rodent Control Board",
    "final_address": "6119 Marigny St",
    "address_councildis": "D",
    "status": "Pending",
    "rowid": "1111277",
    "final_x": "3683976.6102",
    "final_y": "555526.977497",
    "longitude": "-90.05940729928459",
    "latitude": "30.021430934880307",
    "geocoded_column": {
      "latitude": "30.021430934880307",
      "longitude": "-90.05940729928459"
    }
  },
  {
    "service_request": "2024-1111276",
    "request_type": "Mosquito, Termite & Rodent Control",
    "request_reason": "Mosquito Complaint",
    "date_created": "2024-07-10T19:19:40.000",
    "date_modified": "2024-07-10T19:19:40.000",
    "request_status": "Pending",
    "responsible_agency": "Mosquito, Termite & Rodent Control Board",
    "final_address": "6119 Marigny St",
    "address_councildis": "D",
    "status": "Pending",
    "rowid": "1111276",
    "final_x": "3683976.6102",
    "final_y": "555526.977497",
    "longitude": "-90.05940729928459",
    "latitude": "30.021430934880307",
    "geocoded_column": {
      "latitude": "30.021430934880307",
      "longitude": "-90.05940729928459"
    }
  },
  {
    "service_request": "2024-1111275",
    "request_type": "Trash/Recycling",
    "request_reason": "Order Recycling Cart",
    "date_created": "2024-07-10T19:16:37.000",
    "date_modified": "2024-07-10T19:16:37.000",
    "request_status": "Pending",
    "responsible_agency": "Department of Sanitation",
    "final_address": "7130 E Renaissance Ct",
    "address_councildis": "E",
    "status": "Pending",
    "rowid": "1111275",
    "final_x": "3717210.9212",
    "final_y": "567832.51306",
    "longitude": "-89.95392911261018",
    "latitude": "30.054208335740903",
    "geocoded_column": {
      "latitude": "30.054208335740903",
      "longitude": "-89.95392911261018"
    }
  },
  {
    "service_request": "2024-1111274",
    "request_type": "Trash/Recycling",
    "request_reason": "Repair Trash Cart",
    "date_created": "2024-07-10T19:15:06.000",
    "date_modified": "2024-07-10T19:15:07.000",
    "request_status": "Pending",
    "responsible_agency": "Department of Sanitation",
    "final_address": "422 State St",
    "address_councildis": "A",
    "status": "Assigned to Contractor",
    "contractor": "IV Waste",
    "rowid": "1111274",
    "final_x": "3664261.60199",
    "final_y": "518046.46175",
    "longitude": "-90.12295263077425",
    "latitude": "29.918959881492093",
    "geocoded_column": {
      "latitude": "29.918959881492093",
      "longitude": "-90.12295263077425"
    }
  },
  {
    "service_request": "2024-1111273",
    "request_type": "Trash/Recycling",
    "request_reason": "Return Trash Cart",
    "date_created": "2024-07-10T19:06:28.000",
    "date_modified": "2024-07-10T19:06:29.000",
    "request_status": "Pending",
    "responsible_agency": "Department of Sanitation",
    "final_address": "424 Calhoun St",
    "address_councildis": "A",
    "status": "Assigned to Contractor",
    "contractor": "IV Waste",
    "rowid": "1111273",
    "final_x": "3662940.67219",
    "final_y": "518620.994807",
    "longitude": "-90.1271030541637",
    "latitude": "29.920577969937938",
    "geocoded_column": {
      "latitude": "29.920577969937938",
      "longitude": "-90.1271030541637"
    }
  },
  {
    "service_request": "2024-1111272",
    "request_type": "Roads/Drainage",
    "request_reason": "Pothole",
    "date_created": "2024-07-10T18:56:33.000",
    "date_modified": "2024-07-10T18:56:33.000",
    "request_status": "Pending",
    "responsible_agency": "Department of Public Works",
    "final_address": "507 Seguin St",
    "address_councildis": "C",
    "status": "Pending",
    "rowid": "1111272",
    "final_x": "3686439.49366",
    "final_y": "529877.952769",
    "longitude": "-90.05253117057342",
    "latitude": "29.950829715824838",
    "geocoded_column": {
      "latitude": "29.950829715824838",
      "longitude": "-90.05253117057342"
    }
  },
  {
    "service_request": "2024-1111271",
    "request_type": "Roads/Drainage",
    "request_reason": "Pothole",
    "date_created": "2024-07-10T18:53:28.000",
    "date_modified": "2024-07-10T18:53:28.000",
    "request_status": "Pending",
    "responsible_agency": "Department of Public Works",
    "final_address": "317 Alix St",
    "address_councildis": "C",
    "status": "Pending",
    "rowid": "1111271",
    "final_x": "3686543.03471",
    "final_y": "530006.907137",
    "longitude": "-90.05219968875812",
    "latitude": "29.95118111351393",
    "geocoded_column": {
      "latitude": "29.95118111351393",
      "longitude": "-90.05219968875812"
    }
  },
  {
    "service_request": "2024-1111270",
    "request_type": "Roads/Drainage",
    "request_reason": "Pothole",
    "date_created": "2024-07-10T18:47:21.000",
    "date_modified": "2024-07-10T18:47:21.000",
    "request_status": "Pending",
    "responsible_agency": "Department of Public Works",
    "final_address": "234 Alix St",
    "address_councildis": "C",
    "status": "Pending",
    "rowid": "1111270",
    "final_x": "3686326.14543",
    "final_y": "529930.167489",
    "longitude": "-90.0528872236059",
    "latitude": "29.950976771782926",
    "geocoded_column": {
      "latitude": "29.950976771782926",
      "longitude": "-90.0528872236059"
    }
  },
  {
    "service_request": "2024-1111269",
    "request_type": "Abandoned Vehicles",
    "request_reason": "Abandoned/Junk Vehicles",
    "date_created": "2024-07-10T18:43:06.000",
    "date_modified": "2024-07-10T18:43:06.000",
    "request_status": "Pending",
    "responsible_agency": "Department of Public Works",
    "final_address": "1101 Dante St",
    "address_councildis": "A",
    "status": "Pending",
    "rowid": "1111269",
    "final_x": "3661250.9392",
    "final_y": "528609.11136",
    "longitude": "-90.13210626574336",
    "latitude": "29.948090950174095",
    "geocoded_column": {
      "latitude": "29.948090950174095",
      "longitude": "-90.13210626574336"
    }
  },
  {
    "service_request": "2024-1111268",
    "request_type": "Roads/Drainage",
    "request_reason": "Road Shoulder Repair",
    "date_created": "2024-07-10T18:41:25.000",
    "date_modified": "2024-07-10T18:41:25.000",
    "request_status": "Pending",
    "responsible_agency": "Department of Public Works",
    "final_address": "2222 Delachaise St",
    "address_councildis": "B",
    "status": "Pending",
    "rowid": "1111268",
    "final_x": "3672870.04008",
    "final_y": "523518.347131",
    "longitude": "-90.0955936079025",
    "latitude": "29.93375296573086",
    "geocoded_column": {
      "latitude": "29.93375296573086",
      "longitude": "-90.0955936079025"
    }
  },
  {
    "service_request": "2024-1111267",
    "request_type": "Trash/Recycling",
    "request_reason": "Order Recycling Cart",
    "date_created": "2024-07-10T18:34:56.000",
    "date_modified": "2024-07-10T18:34:56.000",
    "request_status": "Pending",
    "responsible_agency": "Department of Sanitation",
    "final_address": "724 Adams St",
    "address_councildis": "A",
    "status": "Pending",
    "rowid": "1111267",
    "final_x": "3662000.77856",
    "final_y": "526270.183166",
    "longitude": "-90.12981627349617",
    "latitude": "29.941638008045324",
    "geocoded_column": {
      "latitude": "29.941638008045324",
      "longitude": "-90.12981627349617"
    }
  },
  {
    "service_request": "2024-1111266",
    "request_type": "Trash/Recycling",
    "request_reason": "Order Trash Cart",
    "date_created": "2024-07-10T18:33:19.000",
    "date_modified": "2024-07-10T18:33:19.000",
    "request_status": "Pending",
    "responsible_agency": "Department of Sanitation",
    "final_address": "724 Adams St",
    "address_councildis": "A",
    "status": "Assigned to Contractor",
    "contractor": "IV Waste",
    "rowid": "1111266",
    "final_x": "3662000.77856",
    "final_y": "526270.183166",
    "longitude": "-90.12981627349617",
    "latitude": "29.941638008045324",
    "geocoded_column": {
      "latitude": "29.941638008045324",
      "longitude": "-90.12981627349617"
    }
  },
  {
    "service_request": "2024-1111265",
    "request_type": "Trash/Recycling",
    "request_reason": "Replace Trash Cart",
    "date_created": "2024-07-10T18:27:25.000",
    "date_modified": "2024-07-10T18:27:26.000",
    "request_status": "Pending",
    "responsible_agency": "Department of Sanitation",
    "final_address": "11030 S Hardy St",
    "address_councildis": "E",
    "status": "Assigned to Contractor",
    "contractor": "Waste Pro",
    "rowid": "1111265",
    "final_x": "3713515.58002",
    "final_y": "561928.062559",
    "longitude": "-89.96583182397627",
    "latitude": "30.038095290446815",
    "geocoded_column": {
      "latitude": "30.038095290446815",
      "longitude": "-89.96583182397627"
    }
  },
  {
    "service_request": "2024-1111264",
    "request_type": "Trash/Recycling",
    "request_reason": "Replace Trash Cart",
    "date_created": "2024-07-10T18:18:54.000",
    "date_modified": "2024-07-10T18:18:55.000",
    "request_status": "Pending",
    "responsible_agency": "Department of Sanitation",
    "final_address": "1005 Lamanche St",
    "address_councildis": "E",
    "status": "Assigned to Contractor",
    "contractor": "Waste Pro",
    "rowid": "1111264",
    "final_x": "3698304.22602",
    "final_y": "533278.052548",
    "longitude": "-90.0149450670127",
    "latitude": "29.959808790077883",
    "geocoded_column": {
      "latitude": "29.959808790077883",
      "longitude": "-90.0149450670127"
    }
  },
  {
    "service_request": "2024-1111263",
    "request_type": "Traffic Signals/Signs/Striping/Streetlights",
    "request_reason": "Street Light Outage/Malfunction",
    "date_created": "2024-07-10T18:18:44.000",
    "date_modified": "2024-07-10T18:18:45.000",
    "request_status": "Pending",
    "responsible_agency": "Department of Public Works",
    "final_address": "8311 Aberdeen Rd",
    "address_councildis": "E",
    "status": "Assigned to Contractor",
    "contractor": "Legacy Professional Services",
    "rowid": "1111263",
    "final_x": "3703196.85226",
    "final_y": "561613.285407",
    "longitude": "-89.99845298654589",
    "latitude": "30.03756435157793",
    "geocoded_column": {
      "latitude": "30.03756435157793",
      "longitude": "-89.99845298654589"
    }
  },
  {
    "service_request": "2024-1111262",
    "request_type": "Trash/Recycling",
    "request_reason": "Request a Large Item Pick Up",
    "date_created": "2024-07-10T18:16:37.000",
    "date_modified": "2024-07-10T18:16:38.000",
    "request_status": "Pending",
    "responsible_agency": "Department of Sanitation",
    "final_address": "1000 Lamanche St",
    "address_councildis": "E",
    "status": "Assigned to Contractor",
    "contractor": "Waste Pro",
    "rowid": "1111262",
    "final_x": "3698210.12874",
    "final_y": "533288.559876",
    "longitude": "-90.01524182175577",
    "latitude": "29.959840658134823",
    "geocoded_column": {
      "latitude": "29.959840658134823",
      "longitude": "-90.01524182175577"
    }
  },
  {
    "service_request": "2024-1111261",
    "request_type": "Trash/Recycling",
    "request_reason": "Missed Trash Pick-Up",
    "date_created": "2024-07-10T18:06:29.000",
    "date_modified": "2024-07-10T18:06:30.000",
    "request_status": "Pending",
    "responsible_agency": "Department of Sanitation",
    "final_address": "1914 Adams St",
    "address_councildis": "A",
    "status": "Assigned to Contractor",
    "contractor": "IV Waste",
    "rowid": "1111261",
    "final_x": "3664770.9088",
    "final_y": "529319.459777",
    "longitude": "-90.12096851552486",
    "latitude": "29.94994224358321",
    "geocoded_column": {
      "latitude": "29.94994224358321",
      "longitude": "-90.12096851552486"
    }
  },
  {
    "service_request": "2024-1111260",
    "request_type": "Trash/Recycling",
    "request_reason": "Replace Recycling Cart",
    "date_created": "2024-07-10T18:04:54.000",
    "date_modified": "2024-07-10T18:04:54.000",
    "request_status": "Pending",
    "responsible_agency": "Department of Sanitation",
    "final_address": "2033 Burgundy St",
    "address_councildis": "C",
    "status": "Pending",
    "rowid": "1111260",
    "final_x": "3684568.19157",
    "final_y": "535573.097158",
    "longitude": "-90.05823967457117",
    "latitude": "29.966546792345277",
    "geocoded_column": {
      "latitude": "29.966546792345277",
      "longitude": "-90.05823967457117"
    }
  },
  {
    "service_request": "2024-1111259",
    "request_type": "Trash/Recycling",
    "request_reason": "Replace Trash Cart",
    "date_created": "2024-07-10T17:59:38.000",
    "date_modified": "2024-07-10T17:59:39.000",
    "request_status": "Pending",
    "responsible_agency": "Department of Sanitation",
    "final_address": "2031 Burgundy St",
    "address_councildis": "C",
    "status": "Assigned to Contractor",
    "contractor": "IV Waste",
    "rowid": "1111259",
    "final_x": "3684542.99605",
    "final_y": "535573.207494",
    "longitude": "-90.05831923775494",
    "latitude": "29.966547866645648",
    "geocoded_column": {
      "latitude": "29.966547866645648",
      "longitude": "-90.05831923775494"
    }
  },
  {
    "service_request": "2024-1111257",
    "request_type": "Trash/Recycling",
    "request_reason": "Request a Large Item Pick Up",
    "date_created": "2024-07-10T17:45:48.000",
    "date_modified": "2024-07-10T17:45:49.000",
    "request_status": "Pending",
    "responsible_agency": "Department of Sanitation",
    "final_address": "8140 Aberdeen Rd",
    "address_councildis": "E",
    "status": "Assigned to Contractor",
    "contractor": "Waste Pro",
    "rowid": "1111257",
    "final_x": "3702882.73751",
    "final_y": "561294.199774",
    "longitude": "-89.99945739546129",
    "latitude": "30.03669704917998",
    "geocoded_column": {
      "latitude": "30.03669704917998",
      "longitude": "-89.99945739546129"
    }
  },
  {
    "service_request": "2024-1111256",
    "request_type": "Trash/Recycling",
    "request_reason": "Replace Trash Cart",
    "date_created": "2024-07-10T17:43:55.000",
    "date_modified": "2024-07-10T17:43:56.000",
    "request_status": "Pending",
    "responsible_agency": "Department of Sanitation",
    "final_address": "5406 Constance St",
    "address_councildis": "A",
    "status": "Assigned to Contractor",
    "contractor": "IV Waste",
    "rowid": "1111256",
    "final_x": "3666581.76557",
    "final_y": "518341.991158",
    "longitude": "-90.1156191298883",
    "latitude": "29.91970490034633",
    "geocoded_column": {
      "latitude": "29.91970490034633",
      "longitude": "-90.1156191298883"
    }
  },
  {
    "service_request": "2024-1111255",
    "request_type": "Trash/Recycling",
    "request_reason": "Request a Large Item Pick Up",
    "date_created": "2024-07-10T17:28:47.000",
    "date_modified": "2024-07-10T17:28:48.000",
    "request_status": "Pending",
    "responsible_agency": "Department of Sanitation",
    "final_address": "1738 France St",
    "address_councildis": "D",
    "status": "Assigned to Contractor",
    "contractor": "IV Waste",
    "rowid": "1111255",
    "final_x": "3692992.50397",
    "final_y": "537726.025224",
    "longitude": "-90.03155865482503",
    "latitude": "29.972206123876944",
    "geocoded_column": {
      "latitude": "29.972206123876944",
      "longitude": "-90.03155865482503"
    }
  },
  {
    "service_request": "2024-1111254",
    "request_type": "Mosquito, Termite & Rodent Control",
    "request_reason": "Mosquito Complaint",
    "date_created": "2024-07-10T17:22:41.000",
    "date_modified": "2024-07-10T17:22:41.000",
    "request_status": "Pending",
    "responsible_agency": "Mosquito, Termite & Rodent Control Board",
    "final_address": "2116 Philip St",
    "address_councildis": "B",
    "status": "Pending",
    "rowid": "1111254",
    "final_x": "3676044.26792",
    "final_y": "524942.370364",
    "longitude": "-90.08552375679847",
    "latitude": "29.937573901168292",
    "geocoded_column": {
      "latitude": "29.937573901168292",
      "longitude": "-90.08552375679847"
    }
  },
  {
    "service_request": "2024-1111253",
    "request_type": "Roads/Drainage",
    "request_reason": "WaterMain Break",
    "date_created": "2024-07-10T17:18:32.000",
    "date_modified": "2024-07-10T17:18:32.000",
    "request_status": "Pending",
    "responsible_agency": "Department of Public Works",
    "final_address": "2622 S Carrollton Ave",
    "address_councildis": "A",
    "status": "Pending",
    "rowid": "1111253",
    "final_x": "3665495.05639",
    "final_y": "532282.801923",
    "longitude": "-90.11858284251693",
    "latitude": "29.958069382715017",
    "geocoded_column": {
      "latitude": "29.958069382715017",
      "longitude": "-90.11858284251693"
    }
  },
  {
    "service_request": "2024-1111251",
    "request_type": "Trash/Recycling",
    "request_reason": "Illegal Dumping",
    "date_created": "2024-07-10T17:15:17.000",
    "date_modified": "2024-07-10T17:15:17.000",
    "request_status": "Pending",
    "responsible_agency": "Department of Sanitation",
    "final_address": "11839 Chef Menteur Hwy",
    "address_councildis": "E",
    "status": "Pending",
    "rowid": "1111251",
    "final_x": "3719481.49817",
    "final_y": "557127.943386",
    "longitude": "-89.94716175123486",
    "latitude": "30.024699778706303",
    "geocoded_column": {
      "latitude": "30.024699778706303",
      "longitude": "-89.94716175123486"
    }
  },
  {
    "service_request": "2024-1111250",
    "request_type": "Roads/Drainage",
    "request_reason": "WaterMain Break",
    "date_created": "2024-07-10T17:13:22.000",
    "date_modified": "2024-07-10T17:13:22.000",
    "request_status": "Pending",
    "responsible_agency": "Department of Public Works",
    "final_address": "4023 Danneel St",
    "address_councildis": "B",
    "status": "Pending",
    "rowid": "1111250",
    "final_x": "3671980.75905",
    "final_y": "522464.924538",
    "longitude": "-90.0984368723641",
    "latitude": "29.930882776894574",
    "geocoded_column": {
      "latitude": "29.930882776894574",
      "longitude": "-90.0984368723641"
    }
  },
  {
    "service_request": "2024-1111249",
    "request_type": "Abandoned Vehicles",
    "request_reason": "Vehicle Blocking Your Driveway",
    "date_created": "2024-07-10T17:07:01.000",
    "date_modified": "2024-07-10T17:07:01.000",
    "request_status": "Pending",
    "responsible_agency": "Department of Public Works",
    "final_address": "2047 Lafayette St",
    "address_councildis": "B",
    "status": "Pending",
    "rowid": "1111249",
    "final_x": "3675554.81518",
    "final_y": "531191.580354",
    "longitude": "-90.08685437622476",
    "latitude": "29.954771809449046",
    "geocoded_column": {
      "latitude": "29.954771809449046",
      "longitude": "-90.08685437622476"
    }
  },
  {
    "service_request": "2024-1111248",
    "request_type": "Parks & Parkways",
    "request_reason": "Request Tree Service (Right of Way/Public Property)",
    "date_created": "2024-07-10T17:06:53.000",
    "date_modified": "2024-07-10T17:06:53.000",
    "request_status": "Pending",
    "responsible_agency": "Department of Parks & Parkway",
    "final_address": "8606 Pear St",
    "address_councildis": "A",
    "status": "Pending",
    "rowid": "1111248",
    "final_x": "3667694.85594",
    "final_y": "537478.855752",
    "longitude": "-90.11146150050556",
    "latitude": "29.97229250027616",
    "geocoded_column": {
      "latitude": "29.97229250027616",
      "longitude": "-90.11146150050556"
    }
  },
  {
    "service_request": "2024-1111247",
    "request_type": "Abandoned Vehicles",
    "request_reason": "Abandoned/Junk Vehicles",
    "date_created": "2024-07-10T17:06:11.000",
    "date_modified": "2024-07-10T17:06:11.000",
    "request_status": "Pending",
    "responsible_agency": "Department of Public Works",
    "final_address": "4489 Woodland Dr",
    "address_councildis": "C",
    "status": "Pending",
    "rowid": "1111247",
    "final_x": "3705600.29489",
    "final_y": "513468.85029",
    "longitude": "-89.99263780373855",
    "latitude": "29.905107599164392",
    "geocoded_column": {
      "latitude": "29.905107599164392",
      "longitude": "-89.99263780373855"
    }
  },
  {
    "service_request": "2024-1111246",
    "request_type": "Trash/Recycling",
    "request_reason": "Order Recycling Cart",
    "date_created": "2024-07-10T17:02:50.000",
    "date_modified": "2024-07-10T17:02:50.000",
    "request_status": "Pending",
    "responsible_agency": "Department of Sanitation",
    "final_address": "18 Arbor Ln",
    "address_councildis": "C",
    "status": "Pending",
    "rowid": "1111246",
    "final_x": "3716466.74412",
    "final_y": "518045.242422",
    "longitude": "-89.95816985193927",
    "latitude": "29.917336986397657",
    "geocoded_column": {
      "latitude": "29.917336986397657",
      "longitude": "-89.95816985193927"
    }
  },
  {
    "service_request": "2024-1111245",
    "request_type": "Trash/Recycling",
    "request_reason": "Order Trash Cart",
    "date_created": "2024-07-10T17:00:18.000",
    "date_modified": "2024-07-10T17:00:19.000",
    "request_status": "Pending",
    "responsible_agency": "Department of Sanitation",
    "final_address": "18 Arbor Ln",
    "address_councildis": "C",
    "status": "Assigned to Contractor",
    "contractor": "Richards Disposal",
    "rowid": "1111245",
    "final_x": "3716466.74412",
    "final_y": "518045.242422",
    "longitude": "-89.95816985193927",
    "latitude": "29.917336986397657",
    "geocoded_column": {
      "latitude": "29.917336986397657",
      "longitude": "-89.95816985193927"
    }
  },
  {
    "service_request": "2024-1111244",
    "request_type": "Trash/Recycling",
    "request_reason": "Order Trash Cart",
    "date_created": "2024-07-10T16:59:24.000",
    "date_modified": "2024-07-10T16:59:25.000",
    "request_status": "Pending",
    "responsible_agency": "Department of Sanitation",
    "final_address": "18 Arbor Ln",
    "address_councildis": "C",
    "status": "Assigned to Contractor",
    "contractor": "Richards Disposal",
    "rowid": "1111244",
    "final_x": "3716466.74412",
    "final_y": "518045.242422",
    "longitude": "-89.95816985193927",
    "latitude": "29.917336986397657",
    "geocoded_column": {
      "latitude": "29.917336986397657",
      "longitude": "-89.95816985193927"
    }
  },
  {
    "service_request": "2024-1111243",
    "request_type": "Trash/Recycling",
    "request_reason": "Missed Trash Pick-Up",
    "date_created": "2024-07-10T16:51:14.000",
    "date_modified": "2024-07-10T16:51:15.000",
    "request_status": "Pending",
    "responsible_agency": "Department of Sanitation",
    "final_address": "6318 S Rocheblave St",
    "address_councildis": "A",
    "status": "Assigned to Contractor",
    "contractor": "IV Waste",
    "rowid": "1111243",
    "final_x": "3667244.31181",
    "final_y": "528735.12736",
    "longitude": "-90.11317845293115",
    "latitude": "29.94826332864773",
    "geocoded_column": {
      "latitude": "29.94826332864773",
      "longitude": "-90.11317845293115"
    }
  },
  {
    "service_request": "2024-1111242",
    "request_type": "Trash/Recycling",
    "request_reason": "Start Trash Service",
    "date_created": "2024-07-10T16:49:20.000",
    "date_modified": "2024-07-10T16:49:21.000",
    "request_status": "Pending",
    "responsible_agency": "Department of Sanitation",
    "final_address": "6927 Bellaire Dr",
    "address_councildis": "A",
    "status": "Assigned to Contractor",
    "contractor": "IV Waste",
    "rowid": "1111242",
    "final_x": "3664738.18247",
    "final_y": "553920.978007",
    "longitude": "-90.12024947749516",
    "latitude": "30.017589088134084",
    "geocoded_column": {
      "latitude": "30.017589088134084",
      "longitude": "-90.12024947749516"
    }
  },
  {
    "service_request": "2024-1111241",
    "request_type": "Property Maintenance",
    "request_reason": "Property Maintenance",
    "date_created": "2024-07-10T16:48:34.000",
    "date_modified": "2024-07-10T16:48:34.000",
    "request_status": "Pending",
    "responsible_agency": "Department of Code Enforcement",
    "final_address": "2526 Gladiolus St",
    "address_councildis": "D",
    "status": "Pending",
    "rowid": "1111241",
    "final_x": "3686535.96258",
    "final_y": "547428.844177",
    "longitude": "-90.05160668459132",
    "latitude": "29.999085541086178",
    "geocoded_column": {
      "latitude": "29.999085541086178",
      "longitude": "-90.05160668459132"
    }
  },
  {
    "service_request": "2024-1111240",
    "request_type": "Property Maintenance",
    "request_reason": "Property Maintenance",
    "date_created": "2024-07-10T16:45:47.000",
    "date_modified": "2024-07-10T16:45:47.000",
    "request_status": "Pending",
    "responsible_agency": "Department of Code Enforcement",
    "final_address": "91 Camellia Trce",
    "address_councildis": "C",
    "status": "Pending",
    "rowid": "1111240",
    "final_x": "3697103.95639",
    "final_y": "523370.172155",
    "longitude": "-90.01909407813771",
    "latitude": "29.932603494393366",
    "geocoded_column": {
      "latitude": "29.932603494393366",
      "longitude": "-90.01909407813771"
    }
  },
  {
    "service_request": "2024-1111239",
    "request_type": "Trash/Recycling",
    "request_reason": "Request a Large Item Pick Up",
    "date_created": "2024-07-10T16:43:36.000",
    "date_modified": "2024-07-10T16:43:37.000",
    "request_status": "Pending",
    "responsible_agency": "Department of Sanitation",
    "final_address": "417 39Th St",
    "address_councildis": "A",
    "status": "Assigned to Contractor",
    "contractor": "IV Waste",
    "rowid": "1111239",
    "final_x": "3664893.80397",
    "final_y": "553098.250007",
    "longitude": "-90.1197853038416",
    "latitude": "30.015322343338134",
    "geocoded_column": {
      "latitude": "30.015322343338134",
      "longitude": "-90.1197853038416"
    }
  },
  {
    "service_request": "2024-1111238",
    "request_type": "Trash/Recycling",
    "request_reason": "Order Recycling Cart",
    "date_created": "2024-07-10T16:41:51.000",
    "date_modified": "2024-07-10T16:41:52.000",
    "request_status": "Pending",
    "responsible_agency": "Department of Sanitation",
    "final_address": "9019 Apple St",
    "address_councildis": "A",
    "status": "Pending",
    "rowid": "1111238",
    "final_x": "3662919.05267",
    "final_y": "534372.065733",
    "longitude": "-90.1266477071785",
    "latitude": "29.963889016881165",
    "geocoded_column": {
      "latitude": "29.963889016881165",
      "longitude": "-90.1266477071785"
    }
  },
  {
    "service_request": "2024-1111237",
    "request_type": "Trash/Recycling",
    "request_reason": "Order Trash Cart",
    "date_created": "2024-07-10T16:41:42.000",
    "date_modified": "2024-07-10T16:41:43.000",
    "request_status": "Pending",
    "responsible_agency": "Department of Sanitation",
    "final_address": "9019 Apple St",
    "address_councildis": "A",
    "status": "Assigned to Contractor",
    "contractor": "IV Waste",
    "rowid": "1111237",
    "final_x": "3662919.05267",
    "final_y": "534372.065733",
    "longitude": "-90.1266477071785",
    "latitude": "29.963889016881165",
    "geocoded_column": {
      "latitude": "29.963889016881165",
      "longitude": "-90.1266477071785"
    }
  },
  {
    "service_request": "2024-1111236",
    "request_type": "Trash/Recycling",
    "request_reason": "Request a Large Item Pick Up",
    "date_created": "2024-07-10T16:38:44.000",
    "date_modified": "2024-07-10T16:38:45.000",
    "request_status": "Pending",
    "responsible_agency": "Department of Sanitation",
    "final_address": "4541 Reynes St",
    "address_councildis": "E",
    "status": "Assigned to Contractor",
    "contractor": "Waste Pro",
    "rowid": "1111236",
    "final_x": "3699329.35799",
    "final_y": "553953.799832",
    "longitude": "-90.01095446702121",
    "latitude": "30.016627025928464",
    "geocoded_column": {
      "latitude": "30.016627025928464",
      "longitude": "-90.01095446702121"
    }
  },
  {
    "service_request": "2024-1111235",
    "request_type": "Property Maintenance",
    "request_reason": "Property Maintenance",
    "date_created": "2024-07-10T16:37:06.000",
    "date_modified": "2024-07-10T16:37:07.000",
    "request_status": "Pending",
    "responsible_agency": "Department of Code Enforcement",
    "final_address": "6235 Providence Pl",
    "address_councildis": "D",
    "status": "Pending",
    "rowid": "1111235",
    "final_x": "3688178.81103",
    "final_y": "556386.516826",
    "longitude": "-90.04609901560237",
    "latitude": "30.023665217451143",
    "geocoded_column": {
      "latitude": "30.023665217451143",
      "longitude": "-90.04609901560237"
    }
  },
  {
    "service_request": "2024-1111234",
    "request_type": "Roads/Drainage",
    "request_reason": "Street Flooding / Drainage",
    "date_created": "2024-07-10T16:36:18.000",
    "date_modified": "2024-07-10T16:36:19.000",
    "request_status": "Pending",
    "responsible_agency": "Department of Public Works",
    "final_address": "HEWES ST & CALHOUN ST",
    "address_councildis": "A",
    "status": "Pending",
    "rowid": "1111234",
    "final_x": "3667843.5",
    "final_y": "529721.18",
    "longitude": "-90.11125335781455",
    "latitude": "29.95095709450703",
    "geocoded_column": {
      "latitude": "29.95095709450703",
      "longitude": "-90.11125335781455"
    }
  },
  {
    "service_request": "2024-1111233",
    "request_type": "Roads/Drainage",
    "request_reason": "Catch Basin - Clogged",
    "date_created": "2024-07-10T16:34:48.000",
    "date_modified": "2024-07-10T16:34:49.000",
    "request_status": "Pending",
    "responsible_agency": "Department of Public Works",
    "final_address": "HEWES ST & CALHOUN ST",
    "address_councildis": "A",
    "status": "Pending",
    "rowid": "1111233",
    "final_x": "3667843.5",
    "final_y": "529721.18",
    "longitude": "-90.11125335781455",
    "latitude": "29.95095709450703",
    "geocoded_column": {
      "latitude": "29.95095709450703",
      "longitude": "-90.11125335781455"
    }
  },
  {
    "service_request": "2024-1111232",
    "request_type": "Traffic Signals/Signs/Striping/Streetlights",
    "request_reason": "Street Light Outage/Malfunction",
    "date_created": "2024-07-10T16:34:26.000",
    "date_modified": "2024-07-10T16:34:26.000",
    "request_status": "Pending",
    "responsible_agency": "Department of Public Works",
    "final_address": "1331 New York St",
    "address_councildis": "D",
    "status": "Assigned to Contractor",
    "contractor": "Legacy Professional Services",
    "rowid": "1111232",
    "final_x": "3677449.11221",
    "final_y": "555642.875353",
    "longitude": "-90.0800284200911",
    "latitude": "30.021947542067206",
    "geocoded_column": {
      "latitude": "30.021947542067206",
      "longitude": "-90.0800284200911"
    }
  },
  {
    "service_request": "2024-1111231",
    "request_type": "Trash/Recycling",
    "request_reason": "Repair Recycling Cart",
    "date_created": "2024-07-10T16:32:20.000",
    "date_modified": "2024-07-10T16:32:20.000",
    "request_status": "Pending",
    "responsible_agency": "Department of Sanitation",
    "final_address": "6316 Story St, New Orleans, Louisiana, 70118",
    "address_councildis": "A",
    "status": "Pending",
    "rowid": "1111231",
    "final_x": "3666276.49396",
    "final_y": "526644.957054",
    "longitude": "-90.11630435900773",
    "latitude": "29.942544337178976",
    "geocoded_column": {
      "latitude": "29.942544337178976",
      "longitude": "-90.11630435900773"
    }
  },
  {
    "service_request": "2024-1111230",
    "request_type": "Trash/Recycling",
    "request_reason": "Replace Recycling Cart",
    "date_created": "2024-07-10T16:26:12.000",
    "date_modified": "2024-07-10T16:26:12.000",
    "request_status": "Pending",
    "responsible_agency": "Department of Sanitation",
    "final_address": "6226 Louis Xiv St",
    "address_councildis": "A",
    "status": "Pending",
    "rowid": "1111230",
    "final_x": "3668131.73537",
    "final_y": "548943.433427",
    "longitude": "-90.10969510129681",
    "latitude": "30.003803362117694",
    "geocoded_column": {
      "latitude": "30.003803362117694",
      "longitude": "-90.10969510129681"
    }
  },
  {
    "service_request": "2024-1111229",
    "request_type": "Trash/Recycling",
    "request_reason": "Illegal Dumping",
    "date_created": "2024-07-10T16:26:01.000",
    "date_modified": "2024-07-10T16:26:01.000",
    "request_status": "Pending",
    "responsible_agency": "Department of Sanitation",
    "final_address": "603 Washington Ave",
    "address_councildis": "B",
    "status": "Pending",
    "rowid": "1111229",
    "final_x": "3678078.81934",
    "final_y": "519358.178039",
    "longitude": "-90.07929347167631",
    "latitude": "29.922158117839224",
    "geocoded_column": {
      "latitude": "29.922158117839224",
      "longitude": "-90.07929347167631"
    }
  },
  {
    "service_request": "2024-1111228",
    "request_type": "Trash/Recycling",
    "request_reason": "Request a Large Item Pick Up",
    "date_created": "2024-07-10T16:20:35.000",
    "date_modified": "2024-07-10T16:20:36.000",
    "request_status": "Pending",
    "responsible_agency": "Department of Sanitation",
    "final_address": "6021 Craigie Rd",
    "address_councildis": "E",
    "status": "Assigned to Contractor",
    "contractor": "Waste Pro",
    "rowid": "1111228",
    "final_x": "3695410.4177",
    "final_y": "558727.274972",
    "longitude": "-90.02316414090564",
    "latitude": "30.02987605020238",
    "geocoded_column": {
      "latitude": "30.02987605020238",
      "longitude": "-90.02316414090564"
    }
  },
  {
    "service_request": "2024-1111226",
    "request_type": "Trash/Recycling",
    "request_reason": "Request a Large Item Pick Up",
    "date_created": "2024-07-10T16:14:01.000",
    "date_modified": "2024-07-10T16:14:02.000",
    "request_status": "Pending",
    "responsible_agency": "Department of Sanitation",
    "final_address": "6323 Dauphine St",
    "address_councildis": "E",
    "status": "Assigned to Contractor",
    "contractor": "Waste Pro",
    "rowid": "1111226",
    "final_x": "3699874.26749",
    "final_y": "531919.388099",
    "longitude": "-90.01003680687974",
    "latitude": "29.956023181116528",
    "geocoded_column": {
      "latitude": "29.956023181116528",
      "longitude": "-90.01003680687974"
    }
  },
  {
    "service_request": "2024-1111225",
    "request_type": "Trash/Recycling",
    "request_reason": "Request a Large Item Pick Up",
    "date_created": "2024-07-10T16:13:52.000",
    "date_modified": "2024-07-10T16:13:53.000",
    "request_status": "Pending",
    "responsible_agency": "Department of Sanitation",
    "final_address": "7001 Lake Willow Dr",
    "address_councildis": "E",
    "status": "Assigned to Contractor",
    "contractor": "Waste Pro",
    "rowid": "1111225",
    "final_x": "3702652.32292",
    "final_y": "558864.199708",
    "longitude": "-90.00027488903017",
    "latitude": "30.030022869097547",
    "geocoded_column": {
      "latitude": "30.030022869097547",
      "longitude": "-90.00027488903017"
    }
  },
  {
    "service_request": "2024-1111224",
    "request_type": "Property Maintenance",
    "request_reason": "Property Maintenance",
    "date_created": "2024-07-10T16:11:45.000",
    "date_modified": "2024-07-10T16:11:45.000",
    "request_status": "Pending",
    "responsible_agency": "Department of Code Enforcement",
    "final_address": "400 BLK Verret St",
    "address_councildis": "C",
    "status": "Pending",
    "rowid": "1111224",
    "final_x": "3686942.49058",
    "final_y": "530112.502227",
    "longitude": "-90.05093467695349",
    "latitude": "29.951459177277286",
    "geocoded_column": {
      "latitude": "29.951459177277286",
      "longitude": "-90.05093467695349"
    }
  },
  {
    "service_request": "2024-1111223",
    "request_type": "Trash/Recycling",
    "request_reason": "Order Trash Cart",
    "date_created": "2024-07-10T16:11:29.000",
    "date_modified": "2024-07-10T16:11:30.000",
    "request_status": "Pending",
    "responsible_agency": "Department of Sanitation",
    "final_address": " & FOREST ISLE DR",
    "address_councildis": "C",
    "status": "Assigned to Contractor",
    "contractor": "Richards Disposal",
    "rowid": "1111223",
    "final_x": "3705689.64",
    "final_y": "512607.2",
    "longitude": "-89.9923876531597",
    "latitude": "29.90273548014554",
    "geocoded_column": {
      "latitude": "29.90273548014554",
      "longitude": "-89.9923876531597"
    }
  },
  {
    "service_request": "2024-1111222",
    "request_type": "Abandoned Vehicles",
    "request_reason": "Abandoned/Junk Vehicles",
    "date_created": "2024-07-10T16:11:07.000",
    "date_modified": "2024-07-10T16:11:07.000",
    "request_status": "Pending",
    "responsible_agency": "Department of Public Works",
    "final_address": "2444 N Robertson St",
    "address_councildis": "C",
    "status": "Pending",
    "rowid": "1111222",
    "final_x": "3686842.58031",
    "final_y": "537889.842633",
    "longitude": "-90.05097531613141",
    "latitude": "29.972847245339775",
    "geocoded_column": {
      "latitude": "29.972847245339775",
      "longitude": "-90.05097531613141"
    }
  },
  {
    "service_request": "2024-1111221",
    "request_type": "Traffic Signals/Signs/Striping/Streetlights",
    "request_reason": "Street Light Outage/Malfunction",
    "date_created": "2024-07-10T16:10:42.000",
    "date_modified": "2024-07-10T16:10:43.000",
    "request_status": "Pending",
    "responsible_agency": "Department of Public Works",
    "final_address": "467 Aurora Oaks Dr",
    "address_councildis": "C",
    "status": "Assigned to Contractor",
    "contractor": "Legacy Professional Services",
    "rowid": "1111221",
    "final_x": "3701267.6833",
    "final_y": "521698.028153",
    "longitude": "-90.00601078197307",
    "latitude": "29.927873706841073",
    "geocoded_column": {
      "latitude": "29.927873706841073",
      "longitude": "-90.00601078197307"
    }
  },
  {
    "service_request": "2024-1111220",
    "request_type": "Trash/Recycling",
    "request_reason": "Repair Trash Cart",
    "date_created": "2024-07-10T16:09:22.000",
    "date_modified": "2024-07-10T16:09:22.000",
    "request_status": "Pending",
    "responsible_agency": "Department of Sanitation",
    "final_address": "2801 Sabine St",
    "address_councildis": "C",
    "status": "Assigned to Contractor",
    "contractor": "Richards Disposal",
    "rowid": "1111220",
    "final_x": "3692784.65609",
    "final_y": "519814.758456",
    "longitude": "-90.03285707712871",
    "latitude": "29.922962824047577",
    "geocoded_column": {
      "latitude": "29.922962824047577",
      "longitude": "-90.03285707712871"
    }
  },
  {
    "service_request": "2024-1111219",
    "request_type": "Trash/Recycling",
    "request_reason": "Request a Large Item Pick Up",
    "date_created": "2024-07-10T16:06:56.000",
    "date_modified": "2024-07-10T16:06:57.000",
    "request_status": "Pending",
    "responsible_agency": "Department of Sanitation",
    "final_address": "6205 Pasteur Blvd",
    "address_councildis": "D",
    "status": "Assigned to Contractor",
    "contractor": "IV Waste",
    "rowid": "1111219",
    "final_x": "3682813.84181",
    "final_y": "555810.080921",
    "longitude": "-90.06307140994726",
    "latitude": "30.022244859805564",
    "geocoded_column": {
      "latitude": "30.022244859805564",
      "longitude": "-90.06307140994726"
    }
  },
  {
    "service_request": "2024-1111218",
    "request_type": "Roads/Drainage",
    "request_reason": "Street Flooding / Drainage",
    "date_created": "2024-07-10T16:02:51.000",
    "date_modified": "2024-07-10T16:02:51.000",
    "request_status": "Pending",
    "responsible_agency": "Department of Public Works",
    "final_address": "3108 Mistletoe St",
    "address_councildis": "A",
    "status": "Pending",
    "rowid": "1111218",
    "final_x": "3663711.56583",
    "final_y": "536109.371527",
    "longitude": "-90.12408711560872",
    "latitude": "29.968643064376522",
    "geocoded_column": {
      "latitude": "29.968643064376522",
      "longitude": "-90.12408711560872"
    }
  },
  {
    "service_request": "2024-1111217",
    "request_type": "Roads/Drainage",
    "request_reason": "Debris in Roadway",
    "date_created": "2024-07-10T15:59:20.000",
    "date_modified": "2024-07-10T15:59:20.000",
    "request_status": "Pending",
    "responsible_agency": "Department of Public Works",
    "final_address": "1638 Sauvage St",
    "address_councildis": "A",
    "status": "Pending",
    "rowid": "1111217",
    "final_x": "3677187.32302",
    "final_y": "540903.832907",
    "longitude": "-90.08136445845884",
    "latitude": "29.98142826590397",
    "geocoded_column": {
      "latitude": "29.98142826590397",
      "longitude": "-90.08136445845884"
    }
  },
  {
    "service_request": "2024-1111216",
    "request_type": "Property Maintenance",
    "request_reason": "Property Maintenance",
    "date_created": "2024-07-10T15:59:06.000",
    "date_modified": "2024-07-10T15:59:06.000",
    "request_status": "Pending",
    "responsible_agency": "Department of Code Enforcement",
    "final_address": "5526 Congress Dr",
    "address_councildis": "D",
    "status": "Pending",
    "rowid": "1111216",
    "final_x": "3691472.14678",
    "final_y": "554224.601496",
    "longitude": "-90.03577013532778",
    "latitude": "30.01761861941713",
    "geocoded_column": {
      "latitude": "30.01761861941713",
      "longitude": "-90.03577013532778"
    }
  },
  {
    "service_request": "2024-1111215",
    "request_type": "Roads/Drainage",
    "request_reason": "Catch Basin - Clogged",
    "date_created": "2024-07-10T15:54:32.000",
    "date_modified": "2024-07-10T15:54:32.000",
    "request_status": "Pending",
    "responsible_agency": "Department of Public Works",
    "final_address": "3108 Mistletoe St",
    "address_councildis": "A",
    "status": "Pending",
    "rowid": "1111215",
    "final_x": "3663711.56583",
    "final_y": "536109.371527",
    "longitude": "-90.12408711560872",
    "latitude": "29.968643064376522",
    "geocoded_column": {
      "latitude": "29.968643064376522",
      "longitude": "-90.12408711560872"
    }
  },
  {
    "service_request": "2024-1111214",
    "request_type": "Trash/Recycling",
    "request_reason": "Request a Large Item Pick Up",
    "date_created": "2024-07-10T15:49:18.000",
    "date_modified": "2024-07-10T15:49:19.000",
    "request_status": "Pending",
    "responsible_agency": "Department of Sanitation",
    "final_address": "5000 N Prieur St",
    "address_councildis": "E",
    "status": "Assigned to Contractor",
    "contractor": "Waste Pro",
    "rowid": "1111214",
    "final_x": "3696820.63101",
    "final_y": "537159.73076",
    "longitude": "-90.01948935629362",
    "latitude": "29.97052887698136",
    "geocoded_column": {
      "latitude": "29.97052887698136",
      "longitude": "-90.01948935629362"
    }
  },
  {
    "service_request": "2024-1111213",
    "request_type": "Trash/Recycling",
    "request_reason": "Request a Large Item Pick Up",
    "date_created": "2024-07-10T15:40:46.000",
    "date_modified": "2024-07-10T15:40:47.000",
    "request_status": "Pending",
    "responsible_agency": "Department of Sanitation",
    "final_address": "2229 Valence St",
    "address_councildis": "B",
    "status": "Assigned to Contractor",
    "contractor": "IV Waste",
    "rowid": "1111213",
    "final_x": "3669595.98734",
    "final_y": "523147.127163",
    "longitude": "-90.10594221855766",
    "latitude": "29.932829069973195",
    "geocoded_column": {
      "latitude": "29.932829069973195",
      "longitude": "-90.10594221855766"
    }
  },
  {
    "service_request": "2024-1111212",
    "request_type": "Safety & Permits",
    "request_reason": "Licenses & Permits",
    "date_created": "2024-07-10T15:40:44.000",
    "date_modified": "2024-07-10T15:40:45.000",
    "request_status": "Pending",
    "responsible_agency": "Safety and Permits",
    "final_address": "6134 Bellaire Dr",
    "address_councildis": "A",
    "status": "Pending",
    "rowid": "1111212",
    "final_x": "3664255.47488",
    "final_y": "548492.670354",
    "longitude": "-90.12195597319682",
    "latitude": "30.002677169344555",
    "geocoded_column": {
      "latitude": "30.002677169344555",
      "longitude": "-90.12195597319682"
    }
  },
  {
    "service_request": "2024-1111211",
    "request_type": "Trash/Recycling",
    "request_reason": "Request a Large Item Pick Up",
    "date_created": "2024-07-10T15:40:02.000",
    "date_modified": "2024-07-10T15:40:03.000",
    "request_status": "Pending",
    "responsible_agency": "Department of Sanitation",
    "final_address": "4818 Gabriel Dr",
    "address_councildis": "E",
    "status": "Assigned to Contractor",
    "contractor": "Waste Pro",
    "rowid": "1111211",
    "final_x": "3708777.14584",
    "final_y": "556203.580058",
    "longitude": "-89.98101985455888",
    "latitude": "30.02250985952335",
    "geocoded_column": {
      "latitude": "30.02250985952335",
      "longitude": "-89.98101985455888"
    }
  },
  {
    "service_request": "2024-1111210",
    "request_type": "Abandoned Vehicles",
    "request_reason": "Abandoned/Junk Vehicles",
    "date_created": "2024-07-10T15:37:35.000",
    "date_modified": "2024-07-10T15:37:36.000",
    "request_status": "Pending",
    "responsible_agency": "Department of Public Works",
    "final_address": "8042 Hayne Blvd",
    "address_councildis": "E",
    "status": "Pending",
    "rowid": "1111210",
    "final_x": "3701881.32055",
    "final_y": "562754.418336",
    "longitude": "-90.00256846902161",
    "latitude": "30.040744094430075",
    "geocoded_column": {
      "latitude": "30.040744094430075",
      "longitude": "-90.00256846902161"
    }
  },
  {
    "service_request": "2024-1111209",
    "request_type": "Traffic Signals/Signs/Striping/Streetlights",
    "request_reason": "Street Light Outage/Malfunction",
    "date_created": "2024-07-10T15:34:29.000",
    "date_modified": "2024-07-10T15:34:30.000",
    "request_status": "Pending",
    "responsible_agency": "Department of Public Works",
    "final_address": "6239 Louisville St",
    "address_councildis": "A",
    "status": "Assigned to Contractor",
    "contractor": "Legacy Professional Services",
    "rowid": "1111209",
    "final_x": "3667943.76455",
    "final_y": "548996.037843",
    "longitude": "-90.11028716107087",
    "latitude": "30.00395352409994",
    "geocoded_column": {
      "latitude": "30.00395352409994",
      "longitude": "-90.11028716107087"
    }
  },
  {
    "service_request": "2024-1111208",
    "request_type": "Trash/Recycling",
    "request_reason": "Order Recycling Cart",
    "date_created": "2024-07-10T15:31:36.000",
    "date_modified": "2024-07-10T15:31:37.000",
    "request_status": "Pending",
    "responsible_agency": "Department of Sanitation",
    "final_address": "6941 Louisville St",
    "address_councildis": "A",
    "status": "Pending",
    "rowid": "1111208",
    "final_x": "3668419.91354",
    "final_y": "553697.348567",
    "longitude": "-90.10862417314803",
    "latitude": "30.0168664970528",
    "geocoded_column": {
      "latitude": "30.0168664970528",
      "longitude": "-90.10862417314803"
    }
  },
  {
    "service_request": "2024-1111207",
    "request_type": "Trash/Recycling",
    "request_reason": "Illegal Dumping",
    "date_created": "2024-07-10T15:30:37.000",
    "date_modified": "2024-07-10T15:30:38.000",
    "request_status": "Pending",
    "responsible_agency": "Department of Sanitation",
    "final_address": "6860 Tara Ln Apt B",
    "address_councildis": "E",
    "status": "Pending",
    "rowid": "1111207",
    "final_x": "3707058.43774",
    "final_y": "559646.967261",
    "longitude": "-89.98632261064526",
    "latitude": "30.032033490076365",
    "geocoded_column": {
      "latitude": "30.032033490076365",
      "longitude": "-89.98632261064526"
    }
  },
  {
    "service_request": "2024-1111206",
    "request_type": "Trash/Recycling",
    "request_reason": "Request a Large Item Pick Up",
    "date_created": "2024-07-10T15:27:31.000",
    "date_modified": "2024-07-10T15:27:31.000",
    "request_status": "Pending",
    "responsible_agency": "Department of Sanitation",
    "final_address": "13075 Deauville Ct",
    "address_councildis": "E",
    "status": "Assigned to Contractor",
    "contractor": "Waste Pro",
    "rowid": "1111206",
    "final_x": "3724331.42489",
    "final_y": "560887.95139",
    "longitude": "-89.93169169069743",
    "latitude": "30.034876051419705",
    "geocoded_column": {
      "latitude": "30.034876051419705",
      "longitude": "-89.93169169069743"
    }
  },
  {
    "service_request": "2024-1111205",
    "request_type": "Trash/Recycling",
    "request_reason": "Order Recycling Cart",
    "date_created": "2024-07-10T15:21:30.000",
    "date_modified": "2024-07-10T15:24:07.000",
    "request_status": "Pending",
    "responsible_agency": "Department of Sanitation",
    "final_address": "3127 Industrial Ct",
    "address_councildis": "D",
    "rowid": "1111205",
    "final_x": "3689854.97347",
    "final_y": "538398.060553",
    "longitude": "-90.04144354394646",
    "latitude": "29.974151622333746",
    "geocoded_column": {
      "latitude": "29.974151622333746",
      "longitude": "-90.04144354394646"
    }
  },
  {
    "service_request": "2024-1111204",
    "request_type": "Parks & Parkways",
    "request_reason": "Request Tree Service (Right of Way/Public Property)",
    "date_created": "2024-07-10T15:21:16.000",
    "date_modified": "2024-07-10T15:21:17.000",
    "request_status": "Pending",
    "responsible_agency": "Department of Parks & Parkway",
    "final_address": "1113 General Pershing St",
    "address_councildis": "B",
    "status": "Pending",
    "rowid": "1111204",
    "final_x": "3671406.72731",
    "final_y": "519693.343864",
    "longitude": "-90.1003431648784",
    "latitude": "29.923278815776253",
    "geocoded_column": {
      "latitude": "29.923278815776253",
      "longitude": "-90.1003431648784"
    }
  },
  {
    "service_request": "2024-1111202",
    "request_type": "Safety & Permits",
    "request_reason": "Licenses & Permits",
    "date_created": "2024-07-10T15:14:42.000",
    "date_modified": "2024-07-10T15:14:42.000",
    "request_status": "Pending",
    "responsible_agency": "Safety and Permits",
    "final_address": "7140 Bunker Hill Rd",
    "address_councildis": "E",
    "status": "Pending",
    "rowid": "1111202",
    "final_x": "3705677.6691",
    "final_y": "560813.586654",
    "longitude": "-89.99064269186913",
    "latitude": "30.03528579468438",
    "geocoded_column": {
      "latitude": "30.03528579468438",
      "longitude": "-89.99064269186913"
    }
  },
  {
    "service_request": "2024-1111201",
    "request_type": "Safety & Permits",
    "request_reason": "Licenses & Permits",
    "date_created": "2024-07-10T15:14:17.000",
    "date_modified": "2024-07-10T15:14:17.000",
    "request_status": "Pending",
    "responsible_agency": "Safety and Permits",
    "final_address": "7030 Boston Dr",
    "address_councildis": "E",
    "status": "Pending",
    "rowid": "1111201",
    "final_x": "3706367.73963",
    "final_y": "560652.00067",
    "longitude": "-89.98846796591668",
    "latitude": "30.034819244756914",
    "geocoded_column": {
      "latitude": "30.034819244756914",
      "longitude": "-89.98846796591668"
    }
  },
  {
    "service_request": "2024-1111200",
    "request_type": "Trash/Recycling",
    "request_reason": "Request a Large Item Pick Up",
    "date_created": "2024-07-10T15:11:54.000",
    "date_modified": "2024-07-10T15:11:55.000",
    "request_status": "Pending",
    "responsible_agency": "Department of Sanitation",
    "final_address": "1423 Music St",
    "address_councildis": "C",
    "status": "Assigned to Contractor",
    "contractor": "IV Waste",
    "rowid": "1111200",
    "final_x": "3686780.69654",
    "final_y": "537755.769544",
    "longitude": "-90.05117549434043",
    "latitude": "29.972480495477",
    "geocoded_column": {
      "latitude": "29.972480495477",
      "longitude": "-90.05117549434043"
    }
  },
  {
    "service_request": "2024-1111199",
    "request_type": "Trash/Recycling",
    "request_reason": "Illegal Dumping",
    "date_created": "2024-07-10T15:11:03.000",
    "date_modified": "2024-07-10T15:11:03.000",
    "request_status": "Pending",
    "responsible_agency": "Department of Sanitation",
    "final_address": "14000 BLK Dwyer Blvd",
    "address_councildis": "E",
    "status": "Pending",
    "rowid": "1111199",
    "final_x": "3728546.31879",
    "final_y": "562961.991646",
    "longitude": "-89.91829124921237",
    "latitude": "30.040436361729697",
    "geocoded_column": {
      "latitude": "30.040436361729697",
      "longitude": "-89.91829124921237"
    }
  },
  {
    "service_request": "2024-1111198",
    "request_type": "Roads/Drainage",
    "request_reason": "Pothole",
    "date_created": "2024-07-10T15:10:48.000",
    "date_modified": "2024-07-10T15:10:48.000",
    "request_status": "Pending",
    "responsible_agency": "Department of Public Works",
    "final_address": "4216 Chestnut St",
    "address_councildis": "B",
    "status": "Pending",
    "rowid": "1111198",
    "final_x": "3671574.31393",
    "final_y": "519539.203703",
    "longitude": "-90.09981939416457",
    "latitude": "29.922850019854593",
    "geocoded_column": {
      "latitude": "29.922850019854593",
      "longitude": "-90.09981939416457"
    }
  },
  {
    "service_request": "2024-1111197",
    "request_type": "Roads/Drainage",
    "request_reason": "Pothole",
    "date_created": "2024-07-10T15:10:09.000",
    "date_modified": "2024-07-10T15:10:09.000",
    "request_status": "Pending",
    "responsible_agency": "Department of Public Works",
    "final_address": "1112 Constantinople St",
    "address_councildis": "B",
    "status": "Pending",
    "rowid": "1111197",
    "final_x": "3672348.95259",
    "final_y": "519796.384952",
    "longitude": "-90.09736540233975",
    "latitude": "29.923534233550217",
    "geocoded_column": {
      "latitude": "29.923534233550217",
      "longitude": "-90.09736540233975"
    }
  },
  {
    "service_request": "2024-1111196",
    "request_type": "Trash/Recycling",
    "request_reason": "Missed Trash Pick-Up",
    "date_created": "2024-07-10T15:02:07.000",
    "date_modified": "2024-07-10T15:02:08.000",
    "request_status": "Pending",
    "responsible_agency": "Department of Sanitation",
    "final_address": "9619 Morrison Rd",
    "address_councildis": "E",
    "status": "Assigned to Contractor",
    "contractor": "Waste Pro",
    "rowid": "1111196",
    "final_x": "3707724.85412",
    "final_y": "563130.870048",
    "longitude": "-89.98408707483648",
    "latitude": "30.041591286238415",
    "geocoded_column": {
      "latitude": "30.041591286238415",
      "longitude": "-89.98408707483648"
    }
  },
  {
    "service_request": "2024-1111195",
    "request_type": "Tax and Revenue",
    "request_reason": "Personal Property Tax Question",
    "date_created": "2024-07-10T15:01:29.000",
    "date_modified": "2024-07-10T15:01:30.000",
    "request_status": "Pending",
    "responsible_agency": "Bureau of Treasury",
    "final_address": "7567 Horizon Ct",
    "address_councildis": "E",
    "status": "Pending",
    "rowid": "1111195",
    "final_x": "3725688.6007",
    "final_y": "569648.311206",
    "longitude": "-89.9270631104813",
    "latitude": "30.058917672510685",
    "geocoded_column": {
      "latitude": "30.058917672510685",
      "longitude": "-89.9270631104813"
    }
  },
  {
    "service_request": "2024-1111194",
    "request_type": "Trash/Recycling",
    "request_reason": "Replace Trash Cart",
    "date_created": "2024-07-10T15:00:13.000",
    "date_modified": "2024-07-10T15:00:14.000",
    "request_status": "Pending",
    "responsible_agency": "Department of Sanitation",
    "final_address": "3981 Peach Tree Ct",
    "address_councildis": "C",
    "status": "Assigned to Contractor",
    "contractor": "Richards Disposal",
    "rowid": "1111194",
    "final_x": "3703926.3722",
    "final_y": "512989.617521",
    "longitude": "-89.99793836752139",
    "latitude": "29.903843620406008",
    "geocoded_column": {
      "latitude": "29.903843620406008",
      "longitude": "-89.99793836752139"
    }
  },
  {
    "service_request": "2024-1111193",
    "request_type": "Roads/Drainage",
    "request_reason": "Street Subsidence (Sinking)",
    "date_created": "2024-07-10T14:56:40.000",
    "date_modified": "2024-07-10T14:56:41.000",
    "request_status": "Pending",
    "responsible_agency": "Department of Public Works",
    "final_address": "227 S Bernadotte St",
    "address_councildis": "A",
    "status": "Pending",
    "rowid": "1111193",
    "final_x": "3668395.29786",
    "final_y": "539580.51041",
    "longitude": "-90.10917846733045",
    "latitude": "29.978050788122893",
    "geocoded_column": {
      "latitude": "29.978050788122893",
      "longitude": "-90.10917846733045"
    }
  },
  {
    "service_request": "2024-1111192",
    "request_type": "Roads/Drainage",
    "request_reason": "Catch Basin - Clogged",
    "date_created": "2024-07-10T14:53:39.000",
    "date_modified": "2024-07-10T14:53:39.000",
    "request_status": "Pending",
    "responsible_agency": "Department of Public Works",
    "final_address": "2957 Grand-Route St John St",
    "address_councildis": "A",
    "status": "Pending",
    "rowid": "1111192",
    "final_x": "3677259.11995",
    "final_y": "540339.192907",
    "longitude": "-90.08115717949843",
    "latitude": "29.97987354375189",
    "geocoded_column": {
      "latitude": "29.97987354375189",
      "longitude": "-90.08115717949843"
    }
  },
  {
    "service_request": "2024-1111191",
    "request_type": "Trash/Recycling",
    "request_reason": "Request a Large Item Pick Up",
    "date_created": "2024-07-10T14:52:25.000",
    "date_modified": "2024-07-10T14:52:49.000",
    "request_status": "Pending",
    "responsible_agency": "Department of Sanitation",
    "final_address": "2422 Hyman Pl",
    "address_councildis": "C",
    "status": "Assigned to Contractor",
    "contractor": "Richards Disposal",
    "rowid": "1111191",
    "final_x": "3701131.4881",
    "final_y": "522189.424378",
    "longitude": "-90.00642275195021",
    "latitude": "29.929229213838386",
    "geocoded_column": {
      "latitude": "29.929229213838386",
      "longitude": "-90.00642275195021"
    }
  },
  {
    "service_request": "2024-1111190",
    "request_type": "Trash/Recycling",
    "request_reason": "Replace Trash Cart",
    "date_created": "2024-07-10T14:51:06.000",
    "date_modified": "2024-07-10T14:51:07.000",
    "request_status": "Pending",
    "responsible_agency": "Department of Sanitation",
    "final_address": "1626 Piety St",
    "address_councildis": "D",
    "status": "Assigned to Contractor",
    "contractor": "IV Waste",
    "rowid": "1111190",
    "final_x": "3690316.27273",
    "final_y": "537887.779785",
    "longitude": "-90.04000484979665",
    "latitude": "29.972734221718568",
    "geocoded_column": {
      "latitude": "29.972734221718568",
      "longitude": "-90.04000484979665"
    }
  },
  {
    "service_request": "2024-1111189",
    "request_type": "Roads/Drainage",
    "request_reason": "Pothole",
    "date_created": "2024-07-10T14:50:12.000",
    "date_modified": "2024-07-10T14:50:12.000",
    "request_status": "Pending",
    "responsible_agency": "Department of Public Works",
    "final_address": "1657 Valmont St",
    "address_councildis": "B",
    "status": "Pending",
    "rowid": "1111189",
    "final_x": "3667973.22317",
    "final_y": "521710.997305",
    "longitude": "-90.11111353672626",
    "latitude": "29.92892786736696",
    "geocoded_column": {
      "latitude": "29.92892786736696",
      "longitude": "-90.11111353672626"
    }
  },
  {
    "service_request": "2024-1111188",
    "request_type": "Abandoned Vehicles",
    "request_reason": "Abandoned/Junk Vehicles",
    "date_created": "2024-07-10T14:46:05.000",
    "date_modified": "2024-07-10T14:46:05.000",
    "request_status": "Pending",
    "responsible_agency": "Department of Public Works",
    "final_address": "1728 Abundance St",
    "address_councildis": "D",
    "status": "Pending",
    "rowid": "1111188",
    "final_x": "3680927.32047",
    "final_y": "543346.548494",
    "longitude": "-90.06946673073774",
    "latitude": "29.988031986626247",
    "geocoded_column": {
      "latitude": "29.988031986626247",
      "longitude": "-90.06946673073774"
    }
  },
  {
    "service_request": "2024-1111187",
    "request_type": "Parks & Parkways",
    "request_reason": "Request Tree Service (Right of Way/Public Property)",
    "date_created": "2024-07-10T14:45:58.000",
    "date_modified": "2024-07-10T14:45:58.000",
    "request_status": "Pending",
    "responsible_agency": "Department of Parks & Parkway",
    "final_address": "2900 Orleans Ave, New Orleans, LA 70119",
    "address_councildis": "A",
    "status": "Pending",
    "rowid": "1111187",
    "final_x": "3675976.70907",
    "final_y": "537542.218888",
    "longitude": "-90.08530378303546",
    "latitude": "29.97222129520431",
    "geocoded_column": {
      "latitude": "29.97222129520431",
      "longitude": "-90.08530378303546"
    }
  },
  {
    "service_request": "2024-1111186",
    "request_type": "Abandoned Vehicles",
    "request_reason": "Vehicle Blocking Your Driveway",
    "date_created": "2024-07-10T14:44:05.000",
    "date_modified": "2024-07-10T14:44:05.000",
    "request_status": "Pending",
    "responsible_agency": "Department of Public Works",
    "final_address": "1728 Abundance St",
    "address_councildis": "D",
    "status": "Pending",
    "rowid": "1111186",
    "final_x": "3680927.32047",
    "final_y": "543346.548494",
    "longitude": "-90.06946673073774",
    "latitude": "29.988031986626247",
    "geocoded_column": {
      "latitude": "29.988031986626247",
      "longitude": "-90.06946673073774"
    }
  },
  {
    "service_request": "2024-1111185",
    "request_type": "Trash/Recycling",
    "request_reason": "Repair Recycling Cart",
    "date_created": "2024-07-10T14:43:32.000",
    "date_modified": "2024-07-10T14:43:32.000",
    "request_status": "Pending",
    "responsible_agency": "Department of Sanitation",
    "final_address": "5118 Cunningham Ct",
    "address_councildis": "D",
    "status": "Pending",
    "rowid": "1111185",
    "final_x": "3690807.2527",
    "final_y": "552688.053526",
    "longitude": "-90.03792581760297",
    "latitude": "30.01341436948372",
    "geocoded_column": {
      "latitude": "30.01341436948372",
      "longitude": "-90.03792581760297"
    }
  },
  {
    "service_request": "2024-1111184",
    "request_type": "Property Maintenance",
    "request_reason": "Property Maintenance",
    "date_created": "2024-07-10T14:43:20.000",
    "date_modified": "2024-07-10T14:43:20.000",
    "request_status": "Pending",
    "responsible_agency": "Department of Code Enforcement",
    "final_address": "7936 W Laverne St",
    "address_councildis": "D",
    "status": "Pending",
    "rowid": "1111184",
    "final_x": "3694768.72669",
    "final_y": "559627.083677",
    "longitude": "-90.0251594094778",
    "latitude": "30.032370339513168",
    "geocoded_column": {
      "latitude": "30.032370339513168",
      "longitude": "-90.0251594094778"
    }
  },
  {
    "service_request": "2024-1111183",
    "request_type": "Trash/Recycling",
    "request_reason": "Repair Trash Cart",
    "date_created": "2024-07-10T14:40:59.000",
    "date_modified": "2024-07-10T14:41:00.000",
    "request_status": "Pending",
    "responsible_agency": "Department of Sanitation",
    "final_address": "5118 Cunningham Ct",
    "address_councildis": "D",
    "status": "Assigned to Contractor",
    "contractor": "IV Waste",
    "rowid": "1111183",
    "final_x": "3690807.2527",
    "final_y": "552688.053526",
    "longitude": "-90.03792581760297",
    "latitude": "30.01341436948372",
    "geocoded_column": {
      "latitude": "30.01341436948372",
      "longitude": "-90.03792581760297"
    }
  },
  {
    "service_request": "2024-1111181",
    "request_type": "Trash/Recycling",
    "request_reason": "Replace Trash Cart",
    "date_created": "2024-07-10T14:39:44.000",
    "date_modified": "2024-07-10T14:39:45.000",
    "request_status": "Pending",
    "responsible_agency": "Department of Sanitation",
    "final_address": "4250 Mithra St",
    "address_councildis": "D",
    "status": "Assigned to Contractor",
    "contractor": "IV Waste",
    "rowid": "1111181",
    "final_x": "3689739.15529",
    "final_y": "553068.810647",
    "longitude": "-90.04128686735059",
    "latitude": "30.01449446979042",
    "geocoded_column": {
      "latitude": "30.01449446979042",
      "longitude": "-90.04128686735059"
    }
  },
  {
    "service_request": "2024-1111180",
    "request_type": "Abandoned Vehicles",
    "request_reason": "Abandoned/Junk Vehicles",
    "date_created": "2024-07-10T14:38:40.000",
    "date_modified": "2024-07-10T14:38:41.000",
    "request_status": "Pending",
    "responsible_agency": "Department of Public Works",
    "final_address": "1716 Columbus St",
    "address_councildis": "D",
    "status": "Pending",
    "rowid": "1111180",
    "final_x": "3681297.10287",
    "final_y": "537474.13844",
    "longitude": "-90.06850346313433",
    "latitude": "29.97187368554783",
    "geocoded_column": {
      "latitude": "29.97187368554783",
      "longitude": "-90.06850346313433"
    }
  },
  {
    "service_request": "2024-1111179",
    "request_type": "Property Maintenance",
    "request_reason": "Property Maintenance",
    "date_created": "2024-07-10T14:38:27.000",
    "date_modified": "2024-07-10T14:38:28.000",
    "request_status": "Pending",
    "responsible_agency": "Department of Code Enforcement",
    "final_address": "BACCHUS DR & TULLIS DR",
    "address_councildis": "C",
    "status": "Pending",
    "rowid": "1111179",
    "final_x": "3710174.3",
    "final_y": "517322.78",
    "longitude": "-89.97805830907903",
    "latitude": "29.915556616687564",
    "geocoded_column": {
      "latitude": "29.915556616687564",
      "longitude": "-89.97805830907903"
    }
  },
  {
    "service_request": "2024-1111178",
    "request_type": "Trash/Recycling",
    "request_reason": "Order Trash Cart",
    "date_created": "2024-07-10T14:33:59.000",
    "date_modified": "2024-07-10T14:33:59.000",
    "request_status": "Pending",
    "responsible_agency": "Department of Sanitation",
    "final_address": "3519 S Liberty St",
    "address_councildis": "B",
    "status": "Assigned to Contractor",
    "contractor": "IV Waste",
    "rowid": "1111178",
    "final_x": "3672668.09876",
    "final_y": "523669.650747",
    "longitude": "-90.09622597118054",
    "latitude": "29.934174998217863",
    "geocoded_column": {
      "latitude": "29.934174998217863",
      "longitude": "-90.09622597118054"
    }
  },
  {
    "service_request": "2024-1111176",
    "request_type": "Trash/Recycling",
    "request_reason": "Replace Trash Cart",
    "date_created": "2024-07-10T14:32:35.000",
    "date_modified": "2024-07-10T14:32:36.000",
    "request_status": "Pending",
    "responsible_agency": "Department of Sanitation",
    "final_address": "2415 Urquhart St",
    "address_councildis": "C",
    "status": "Assigned to Contractor",
    "contractor": "IV Waste",
    "rowid": "1111176",
    "final_x": "3686594.04265",
    "final_y": "537213.463816",
    "longitude": "-90.05178413452317",
    "latitude": "29.97099508596997",
    "geocoded_column": {
      "latitude": "29.97099508596997",
      "longitude": "-90.05178413452317"
    }
  },
  {
    "service_request": "2024-1111175",
    "request_type": "Trash/Recycling",
    "request_reason": "Request a Large Item Pick Up",
    "date_created": "2024-07-10T14:31:04.000",
    "date_modified": "2024-07-10T14:31:58.000",
    "request_status": "Pending",
    "responsible_agency": "Department of Sanitation",
    "final_address": "902 Jefferson Ave",
    "address_councildis": "A",
    "status": "Assigned to Contractor",
    "contractor": "IV Waste",
    "rowid": "1111175",
    "final_x": "3666725.34567",
    "final_y": "518826.003831",
    "longitude": "-90.11514967399783",
    "latitude": "29.921031586797824",
    "geocoded_column": {
      "latitude": "29.921031586797824",
      "longitude": "-90.11514967399783"
    }
  },
  {
    "service_request": "2024-1111174",
    "request_type": "Traffic Signals/Signs/Striping/Streetlights",
    "request_reason": "Additional signage",
    "date_created": "2024-07-10T14:27:59.000",
    "date_modified": "2024-07-10T14:28:00.000",
    "request_status": "Pending",
    "responsible_agency": "Department of Public Works",
    "final_address": "6900 BLK Mayo Rd",
    "address_councildis": "E",
    "status": "Pending",
    "rowid": "1111174",
    "final_x": "3701868.35377",
    "final_y": "558183.411964",
    "longitude": "-90.00277719472443",
    "latitude": "30.028176021285688",
    "geocoded_column": {
      "latitude": "30.028176021285688",
      "longitude": "-90.00277719472443"
    }
  },
  {
    "service_request": "2024-1111173",
    "request_type": "Traffic Signals/Signs/Striping/Streetlights",
    "request_reason": "Street Light Outage/Malfunction",
    "date_created": "2024-07-10T14:27:46.000",
    "date_modified": "2024-07-10T14:27:47.000",
    "request_status": "Pending",
    "responsible_agency": "Department of Public Works",
    "final_address": "2600 Annette St",
    "address_councildis": "D",
    "status": "Assigned to Contractor",
    "contractor": "Legacy Professional Services",
    "rowid": "1111173",
    "final_x": "3682666.15631",
    "final_y": "541706.477964",
    "longitude": "-90.0640317145369",
    "latitude": "29.983469518730207",
    "geocoded_column": {
      "latitude": "29.983469518730207",
      "longitude": "-90.0640317145369"
    }
  },
  {
    "service_request": "2024-1111172",
    "request_type": "Traffic Signals/Signs/Striping/Streetlights",
    "request_reason": "Traffic Sign Missing/Damaged",
    "date_created": "2024-07-10T14:24:51.000",
    "date_modified": "2024-07-10T14:24:52.000",
    "request_status": "Pending",
    "responsible_agency": "Department of Public Works",
    "final_address": "6900 BLK Mayo Rd",
    "address_councildis": "E",
    "status": "Pending",
    "rowid": "1111172",
    "final_x": "3701868.35377",
    "final_y": "558183.411964",
    "longitude": "-90.00277719472443",
    "latitude": "30.028176021285688",
    "geocoded_column": {
      "latitude": "30.028176021285688",
      "longitude": "-90.00277719472443"
    }
  },
  {
    "service_request": "2024-1111171",
    "request_type": "Trash/Recycling",
    "request_reason": "Missed Trash Pick-Up",
    "date_created": "2024-07-10T14:22:52.000",
    "date_modified": "2024-07-10T15:07:02.000",
    "case_close_date": "2024-07-10T10:07:02.000",
    "request_status": "Closed",
    "responsible_agency": "Department of Sanitation",
    "final_address": "4668 Nottingham Dr",
    "address_councildis": "E",
    "status": "Invalid Request",
    "contractor": "Waste Pro",
    "contractor_action": "Invalid Pick-Up",
    "rowid": "1111171",
    "final_x": "3716354.88408",
    "final_y": "556511.874202",
    "longitude": "-89.9570645888135",
    "latitude": "30.02310946454923",
    "geocoded_column": {
      "latitude": "30.02310946454923",
      "longitude": "-89.9570645888135"
    }
  },
  {
    "service_request": "2024-1111170",
    "request_type": "Parks & Parkways",
    "request_reason": "Request Tree Service (Right of Way/Public Property)",
    "date_created": "2024-07-10T14:20:26.000",
    "date_modified": "2024-07-10T14:20:27.000",
    "request_status": "Pending",
    "responsible_agency": "Department of Parks & Parkway",
    "final_address": "4711 Gawain Dr",
    "address_councildis": "E",
    "status": "Pending",
    "rowid": "1111170",
    "final_x": "3707067.90385",
    "final_y": "555214.793881",
    "longitude": "-89.98645732959478",
    "latitude": "30.01984643708927",
    "geocoded_column": {
      "latitude": "30.01984643708927",
      "longitude": "-89.98645732959478"
    }
  },
  {
    "service_request": "2024-1111169",
    "request_type": "Trash/Recycling",
    "request_reason": "Request a Large Item Pick Up",
    "date_created": "2024-07-10T14:20:10.000",
    "date_modified": "2024-07-10T14:20:11.000",
    "request_status": "Pending",
    "responsible_agency": "Department of Sanitation",
    "final_address": "2446 N Rampart St",
    "address_councildis": "C",
    "status": "Assigned to Contractor",
    "contractor": "IV Waste",
    "rowid": "1111169",
    "final_x": "3686231.10332",
    "final_y": "536010.718727",
    "longitude": "-90.05297278532667",
    "latitude": "29.9676991126079",
    "geocoded_column": {
      "latitude": "29.9676991126079",
      "longitude": "-90.05297278532667"
    }
  },
  {
    "service_request": "2024-1111168",
    "request_type": "Trash/Recycling",
    "request_reason": "Repair Trash Cart",
    "date_created": "2024-07-10T14:19:23.000",
    "date_modified": "2024-07-10T14:19:24.000",
    "request_status": "Pending",
    "responsible_agency": "Department of Sanitation",
    "final_address": "1500 Webster St",
    "address_councildis": "A",
    "status": "Assigned to Contractor",
    "contractor": "IV Waste",
    "rowid": "1111168",
    "final_x": "3665049.45255",
    "final_y": "522062.770426",
    "longitude": "-90.12033157746701",
    "latitude": "29.929980561658496",
    "geocoded_column": {
      "latitude": "29.929980561658496",
      "longitude": "-90.12033157746701"
    }
  },
  {
    "service_request": "2024-1111167",
    "request_type": "Trash/Recycling",
    "request_reason": "Request a Large Item Pick Up",
    "date_created": "2024-07-10T14:18:30.000",
    "date_modified": "2024-07-10T14:18:31.000",
    "request_status": "Pending",
    "responsible_agency": "Department of Sanitation",
    "final_address": "4122 Freret St",
    "address_councildis": "B",
    "status": "Assigned to Contractor",
    "contractor": "IV Waste",
    "rowid": "1111167",
    "final_x": "3671450.05307",
    "final_y": "524099.037948",
    "longitude": "-90.10005671824025",
    "latitude": "29.93539177806693",
    "geocoded_column": {
      "latitude": "29.93539177806693",
      "longitude": "-90.10005671824025"
    }
  },
  {
    "service_request": "2024-1111166",
    "request_type": "Traffic Signals/Signs/Striping/Streetlights",
    "request_reason": "Street Light Outage/Malfunction",
    "date_created": "2024-07-10T14:18:19.000",
    "date_modified": "2024-07-10T14:18:20.000",
    "request_status": "Pending",
    "responsible_agency": "Department of Public Works",
    "final_address": "2026 Mazant St",
    "address_councildis": "D",
    "status": "Assigned to Contractor",
    "contractor": "Legacy Professional Services",
    "rowid": "1111166",
    "final_x": "3692962.93193",
    "final_y": "538839.846153",
    "longitude": "-90.03161208622318",
    "latitude": "29.975269658723448",
    "geocoded_column": {
      "latitude": "29.975269658723448",
      "longitude": "-90.03161208622318"
    }
  },
  {
    "service_request": "2024-1111165",
    "request_type": "Trash/Recycling",
    "request_reason": "Request a Large Item Pick Up",
    "date_created": "2024-07-10T14:12:42.000",
    "date_modified": "2024-07-10T14:12:43.000",
    "request_status": "Pending",
    "responsible_agency": "Department of Sanitation",
    "final_address": "7018 Dreux Ave",
    "address_councildis": "E",
    "status": "Assigned to Contractor",
    "contractor": "Waste Pro",
    "rowid": "1111165",
    "final_x": "3701060.46097",
    "final_y": "554330.343128",
    "longitude": "-90.00547116685846",
    "latitude": "30.017607330417324",
    "geocoded_column": {
      "latitude": "30.017607330417324",
      "longitude": "-90.00547116685846"
    }
  },
  {
    "service_request": "2024-1111164",
    "request_type": "Utility Poles",
    "request_reason": "Utility Pole Leaning",
    "date_created": "2024-07-10T14:12:16.000",
    "date_modified": "2024-07-10T14:12:21.000",
    "request_status": "Pending",
    "responsible_agency": "Utility Company Collective",
    "final_address": "4711 Gawain Dr",
    "address_councildis": "E",
    "status": "Pending",
    "rowid": "1111164",
    "final_x": "3707067.90385",
    "final_y": "555214.793881",
    "longitude": "-89.98645732959478",
    "latitude": "30.01984643708927",
    "geocoded_column": {
      "latitude": "30.01984643708927",
      "longitude": "-89.98645732959478"
    }
  },
  {
    "service_request": "2024-1111163",
    "request_type": "Trash/Recycling",
    "request_reason": "Return Trash Cart",
    "date_created": "2024-07-10T14:06:48.000",
    "date_modified": "2024-07-10T14:06:49.000",
    "request_status": "Pending",
    "responsible_agency": "Department of Sanitation",
    "final_address": "4945 Montegut Dr",
    "address_councildis": "D",
    "status": "Assigned to Contractor",
    "contractor": "IV Waste",
    "rowid": "1111163",
    "final_x": "3689829.69603",
    "final_y": "551709.708181",
    "longitude": "-90.04104923305476",
    "latitude": "30.010754632550746",
    "geocoded_column": {
      "latitude": "30.010754632550746",
      "longitude": "-90.04104923305476"
    }
  },
  {
    "service_request": "2024-1111162",
    "request_type": "Trash/Recycling",
    "request_reason": "Request a Large Item Pick Up",
    "date_created": "2024-07-10T14:04:45.000",
    "date_modified": "2024-07-10T14:04:45.000",
    "request_status": "Pending",
    "responsible_agency": "Department of Sanitation",
    "final_address": "7548 Plum St",
    "address_councildis": "A",
    "status": "Assigned to Contractor",
    "contractor": "IV Waste",
    "rowid": "1111162",
    "final_x": "3663571.3225",
    "final_y": "527339.277567",
    "longitude": "-90.12482212721837",
    "latitude": "29.94453222384973",
    "geocoded_column": {
      "latitude": "29.94453222384973",
      "longitude": "-90.12482212721837"
    }
  },
  {
    "service_request": "2024-1111161",
    "request_type": "Roads/Drainage",
    "request_reason": "Catch Basin - Clogged",
    "date_created": "2024-07-10T14:00:54.000",
    "date_modified": "2024-07-10T14:00:55.000",
    "request_status": "Pending",
    "responsible_agency": "Department of Public Works",
    "final_address": "2114 Lowerline St",
    "address_councildis": "A",
    "status": "Pending",
    "rowid": "1111161",
    "final_x": "3665477.70938",
    "final_y": "529657.266689",
    "longitude": "-90.11872550262122",
    "latitude": "29.950850521218268",
    "geocoded_column": {
      "latitude": "29.950850521218268",
      "longitude": "-90.11872550262122"
    }
  },
  {
    "service_request": "2024-1111160",
    "request_type": "Abandoned Vehicles",
    "request_reason": "Abandoned/Junk Vehicles",
    "date_created": "2024-07-10T13:58:55.000",
    "date_modified": "2024-07-10T13:58:55.000",
    "request_status": "Pending",
    "responsible_agency": "Department of Public Works",
    "final_address": "LOWERLINE ST & ST CHARLES AVE",
    "address_councildis": "A",
    "status": "Pending",
    "rowid": "1111160",
    "final_x": "3662518.3",
    "final_y": "525096.88",
    "longitude": "-90.12822130573575",
    "latitude": "29.938396840576125",
    "geocoded_column": {
      "latitude": "29.938396840576125",
      "longitude": "-90.12822130573575"
    }
  },
  {
    "service_request": "2024-1111159",
    "request_type": "Traffic Signals/Signs/Striping/Streetlights",
    "request_reason": "Street Light Outage/Malfunction",
    "date_created": "2024-07-10T13:58:43.000",
    "date_modified": "2024-07-10T13:58:44.000",
    "request_status": "Pending",
    "responsible_agency": "Department of Public Works",
    "final_address": "1582 Maura Pl",
    "address_councildis": "C",
    "status": "Assigned to Contractor",
    "contractor": "Legacy Professional Services",
    "rowid": "1111159",
    "final_x": "3699299.71607",
    "final_y": "525094.149181",
    "longitude": "-90.01209953797773",
    "latitude": "29.937274401840494",
    "geocoded_column": {
      "latitude": "29.937274401840494",
      "longitude": "-90.01209953797773"
    }
  },
  {
    "service_request": "2024-1111158",
    "request_type": "Trash/Recycling",
    "request_reason": "Start Trash Service",
    "date_created": "2024-07-10T13:57:40.000",
    "date_modified": "2024-07-10T13:57:40.000",
    "request_status": "Pending",
    "responsible_agency": "Department of Sanitation",
    "final_address": "335 Delaronde St",
    "address_councildis": "C",
    "status": "Assigned to Contractor",
    "contractor": "Richards Disposal",
    "rowid": "1111158",
    "final_x": "3686531.54767",
    "final_y": "530928.588354",
    "longitude": "-90.0522034208651",
    "latitude": "29.953715774647492",
    "geocoded_column": {
      "latitude": "29.953715774647492",
      "longitude": "-90.0522034208651"
    }
  },