[
  {
    "service_request": "2026-1302829",
    "request_type": "Drainage",
    "request_reason": "Catch Basin Not Draining",
    "date_created": "2026-07-22T22:54:08.000",
    "date_modified": "2026-07-22T22:54:10.000",
    "request_status": "Pending",
    "responsible_agency": "Sewerage & Water Board",
    "final_address": "892 Homedale St",
    "address_councildis": "A",
    "status": "Pending",
    "rowid": "1302829",
    "final_x": "3669525.12244",
    "final_y": "544572.980431",
    "longitude": "-90.10544110015176",
    "latitude": "29.99174514111238",
    "geocoded_column": {
      "latitude": "29.99174514111238",
      "longitude": "-90.10544110015176"
    }
  },
  {
    "service_request": "2026-1302828",
    "request_type": "Drainage",
    "request_reason": "Catch Basin Not Draining",
    "date_created": "2026-07-22T22:48:52.000",
    "date_modified": "2026-07-22T22:48:54.000",
    "request_status": "Pending",
    "responsible_agency": "Sewerage & Water Board",
    "final_address": "892 Homedale St",
    "address_councildis": "A",
    "status": "Pending",
    "rowid": "1302828",
    "final_x": "3669525.12244",
    "final_y": "544572.980431",
    "longitude": "-90.10544110015176",
    "latitude": "29.99174514111238",
    "geocoded_column": {
      "latitude": "29.99174514111238",
      "longitude": "-90.10544110015176"
    }
  },
  {
    "service_request": "2026-1302827",
    "request_type": "Streetlights",
    "request_reason": "Streetlight Outage/Malfunction",
    "date_created": "2026-07-22T22:20:46.000",
    "date_modified": "2026-07-22T22:20:50.000",
    "request_status": "Pending",
    "responsible_agency": "Department of Public Works",
    "final_address": "7600 Malvern Dr",
    "address_councildis": "E",
    "status": "Pending",
    "rowid": "1302827",
    "final_x": "3702375.83805",
    "final_y": "561523.909407",
    "longitude": "-90.00105085282357",
    "latitude": "30.03734487614827",
    "geocoded_column": {
      "latitude": "30.03734487614827",
      "longitude": "-90.00105085282357"
    }
  },
  {
    "service_request": "2026-1302826",
    "request_type": "Health Related Request",
    "request_reason": "Noise Ordinance Complaint",
    "date_created": "2026-07-22T22:09:50.000",
    "date_modified": "2026-07-22T22:09:52.000",
    "request_status": "Pending",
    "responsible_agency": "Health Department",
    "final_address": "801 Bourbon St, New Orleans, Louisiana, 70116",
    "address_councildis": "C",
    "status": "Pending",
    "rowid": "1302826",
    "final_x": "3682490.98735",
    "final_y": "533018.672772",
    "longitude": "-90.06488875731978",
    "latitude": "29.959586396383013",
    "geocoded_column": {
      "latitude": "29.959586396383013",
      "longitude": "-90.06488875731978"
    }
  },
  {
    "service_request": "2026-1302825",
    "request_type": "Health Related Request",
    "request_reason": "Noise Ordinance Complaint",
    "date_created": "2026-07-22T22:09:29.000",
    "date_modified": "2026-07-22T22:09:30.000",
    "request_status": "Pending",
    "responsible_agency": "Health Department",
    "final_address": "711 Bourbon St, New Orleans, Louisiana, 70116",
    "address_councildis": "C",
    "status": "Pending",
    "rowid": "1302825",
    "final_x": "3682299.38447",
    "final_y": "532765.705988",
    "longitude": "-90.06550263299877",
    "latitude": "29.95889665479323",
    "geocoded_column": {
      "latitude": "29.95889665479323",
      "longitude": "-90.06550263299877"
    }
  },
  {
    "service_request": "2026-1302824",
    "request_type": "Health Related Request",
    "request_reason": "Noise Ordinance Complaint",
    "date_created": "2026-07-22T22:09:05.000",
    "date_modified": "2026-07-22T22:09:07.000",
    "request_status": "Pending",
    "responsible_agency": "Health Department",
    "final_address": "711 Bourbon St, New Orleans, Louisiana, 70116",
    "address_councildis": "C",
    "status": "Pending",
    "rowid": "1302824",
    "final_x": "3682299.38447",
    "final_y": "532765.705988",
    "longitude": "-90.06550263299877",
    "latitude": "29.95889665479323",
    "geocoded_column": {
      "latitude": "29.95889665479323",
      "longitude": "-90.06550263299877"
    }
  },
  {
    "service_request": "2026-1302823",
    "request_type": "Health Related Request",
    "request_reason": "Noise Ordinance Complaint",
    "date_created": "2026-07-22T22:08:19.000",
    "date_modified": "2026-07-22T22:08:23.000",
    "request_status": "Pending",
    "responsible_agency": "Health Department",
    "final_address": "727 Saint Peter St, New Orleans, Louisiana, 70116",
    "address_councildis": "C",
    "status": "Pending",
    "rowid": "1302823",
    "final_x": "3682374.3492",
    "final_y": "532606.069444",
    "longitude": "-90.06527149214479",
    "latitude": "29.958455427799798",
    "geocoded_column": {
      "latitude": "29.958455427799798",
      "longitude": "-90.06527149214479"
    }
  },
  {
    "service_request": "2026-1302822",
    "request_type": "Health Related Request",
    "request_reason": "Noise Ordinance Complaint",
    "date_created": "2026-07-22T22:07:17.000",
    "date_modified": "2026-07-22T22:07:19.000",
    "request_status": "Pending",
    "responsible_agency": "Health Department",
    "final_address": "800 Bourbon St, New Orleans, Louisiana, 70116",
    "address_councildis": "C",
    "status": "Pending",
    "rowid": "1302822",
    "final_x": "3682553.51528",
    "final_y": "533013.631428",
    "longitude": "-90.06469148499534",
    "latitude": "29.95957063099051",
    "geocoded_column": {
      "latitude": "29.95957063099051",
      "longitude": "-90.06469148499534"
    }
  },
  {
    "service_request": "2026-1302821",
    "request_type": "Health Related Request",
    "request_reason": "Noise Ordinance Complaint",
    "date_created": "2026-07-22T22:06:57.000",
    "date_modified": "2026-07-22T22:06:59.000",
    "request_status": "Pending",
    "responsible_agency": "Health Department",
    "final_address": "800 Bourbon St, New Orleans, Louisiana, 70116",
    "address_councildis": "C",
    "status": "Pending",
    "rowid": "1302821",
    "final_x": "3682553.51528",
    "final_y": "533013.631428",
    "longitude": "-90.06469148499534",
    "latitude": "29.95957063099051",
    "geocoded_column": {
      "latitude": "29.95957063099051",
      "longitude": "-90.06469148499534"
    }
  },
  {
    "service_request": "2026-1302820",
    "request_type": "Trash/Recycling",
    "request_reason": "Request a Large Item Pick Up",
    "date_created": "2026-07-22T21:33:35.000",
    "date_modified": "2026-07-22T21:33:37.000",
    "request_status": "Pending",
    "responsible_agency": "Department of Sanitation",
    "final_address": "3323 Jefferson Ave",
    "address_councildis": "B",
    "status": "Assigned to Contractor",
    "contractor": "IV Waste",
    "rowid": "1302820",
    "final_x": "3668744.55041",
    "final_y": "527476.585087",
    "longitude": "-90.10848404553705",
    "latitude": "29.94475873436549",
    "geocoded_column": {
      "latitude": "29.94475873436549",
      "longitude": "-90.10848404553705"
    }
  },
  {
    "service_request": "2026-1302819",
    "request_type": "Trash/Recycling",
    "request_reason": "Order Trash Cart",
    "date_created": "2026-07-22T21:30:12.000",
    "date_modified": "2026-07-22T21:30:15.000",
    "request_status": "Pending",
    "responsible_agency": "Department of Sanitation",
    "final_address": "2125 Delery St",
    "address_councildis": "E",
    "status": "Assigned to Contractor",
    "contractor": "Waste Pro",
    "rowid": "1302819",
    "final_x": "3701979.30282",
    "final_y": "536636.657351",
    "longitude": "-90.00321696545728",
    "latitude": "29.96892696324854",
    "geocoded_column": {
      "latitude": "29.96892696324854",
      "longitude": "-90.00321696545728"
    }
  },
  {
    "service_request": "2026-1302817",
    "request_type": "Streetlights",
    "request_reason": "Streetlight Outage/Malfunction",
    "date_created": "2026-07-22T20:06:18.000",
    "date_modified": "2026-07-22T20:06:21.000",
    "request_status": "Pending",
    "responsible_agency": "Department of Public Works",
    "final_address": "2322 Lapeyrouse St",
    "address_councildis": "D",
    "status": "Pending",
    "rowid": "1302817",
    "final_x": "3680025.12309",
    "final_y": "539394.467018",
    "longitude": "-90.0724538396982",
    "latitude": "29.977192471770998",
    "geocoded_column": {
      "latitude": "29.977192471770998",
      "longitude": "-90.0724538396982"
    }
  },
  {
    "service_request": "2026-1302816",
    "request_type": "General Services",
    "request_reason": "General Service Request",
    "date_created": "2026-07-22T19:49:36.000",
    "date_modified": "2026-07-22T19:49:38.000",
    "request_status": "Pending",
    "responsible_agency": "Orleans Parish Communication District",
    "final_address": "334 Bermuda St",
    "address_councildis": "C",
    "status": "Pending",
    "rowid": "1302816",
    "final_x": "3686477.92655",
    "final_y": "530565.750722",
    "longitude": "-90.05238554144559",
    "latitude": "29.952719743768533",
    "geocoded_column": {
      "latitude": "29.952719743768533",
      "longitude": "-90.05238554144559"
    }
  },
  {
    "service_request": "2026-1302815",
    "request_type": "Abandoned Vehicles",
    "request_reason": "Abandoned/Junk Vehicles",
    "date_created": "2026-07-22T19:29:02.000",
    "date_modified": "2026-07-22T19:29:04.000",
    "request_status": "Pending",
    "responsible_agency": "Department of Public Works",
    "final_address": "2309 Industry St",
    "address_councildis": "D",
    "status": "Pending",
    "rowid": "1302815",
    "final_x": "3685345.46236",
    "final_y": "543053.768653",
    "longitude": "-90.05552161887258",
    "latitude": "29.987092209553804",
    "geocoded_column": {
      "latitude": "29.987092209553804",
      "longitude": "-90.05552161887258"
    }
  },
  {
    "service_request": "2026-1302814",
    "request_type": "Trash/Recycling",
    "request_reason": "Repair Trash Cart",
    "date_created": "2026-07-22T19:21:00.000",
    "date_modified": "2026-07-22T19:21:02.000",
    "request_status": "Pending",
    "responsible_agency": "Department of Sanitation",
    "final_address": "6710 Manchester St",
    "address_councildis": "E",
    "status": "Assigned to Contractor",
    "contractor": "Waste Pro",
    "rowid": "1302814",
    "final_x": "3697955.68778",
    "final_y": "559648.972189",
    "longitude": "-90.0150876387867",
    "latitude": "30.032330095235405",
    "geocoded_column": {
      "latitude": "30.032330095235405",
      "longitude": "-90.0150876387867"
    }
  },
  {
    "service_request": "2026-1302813",
    "request_type": "Trash/Recycling",
    "request_reason": "Repair Trash Cart",
    "date_created": "2026-07-22T19:17:04.000",
    "date_modified": "2026-07-22T19:17:07.000",
    "request_status": "Pending",
    "responsible_agency": "Department of Sanitation",
    "final_address": "3114 Nashville Ave",
    "address_councildis": "B",
    "status": "Assigned to Contractor",
    "contractor": "IV Waste",
    "rowid": "1302813",
    "final_x": "3667726.03713",
    "final_y": "527299.566847",
    "longitude": "-90.11170576740327",
    "latitude": "29.944301889017364",
    "geocoded_column": {
      "latitude": "29.944301889017364",
      "longitude": "-90.11170576740327"
    }
  },
  {
    "service_request": "2026-1302812",
    "request_type": "Trash/Recycling",
    "request_reason": "Order Second Trash Cart",
    "date_created": "2026-07-22T19:14:51.000",
    "date_modified": "2026-07-22T19:14:54.000",
    "request_status": "Pending",
    "responsible_agency": "Department of Sanitation",
    "final_address": "7812 W Cavelier Dr",
    "address_councildis": "E",
    "status": "Assigned to Contractor",
    "contractor": "Waste Pro",
    "rowid": "1302812",
    "final_x": "3724121.42246",
    "final_y": "569425.400742",
    "longitude": "-89.93202537443022",
    "latitude": "30.058357554485543",
    "geocoded_column": {
      "latitude": "30.058357554485543",
      "longitude": "-89.93202537443022"
    }
  },
  {
    "service_request": "2026-1302811",
    "request_type": "Property Maintenance",
    "request_reason": "Property Maintenance",
    "date_created": "2026-07-22T19:03:53.000",
    "date_modified": "2026-07-22T19:03:55.000",
    "request_status": "Pending",
    "responsible_agency": "Department of Code Enforcement",
    "final_address": "1820 Mazant St",
    "address_councildis": "D",
    "status": "Pending",
    "rowid": "1302811",
    "final_x": "3692757.57033",
    "final_y": "538039.541193",
    "longitude": "-90.03228936932149",
    "latitude": "29.97307551826037",
    "geocoded_column": {
      "latitude": "29.97307551826037",
      "longitude": "-90.03228936932149"
    }
  },
  {
    "service_request": "2026-1302810",
    "request_type": "Trash/Recycling",
    "request_reason": "Replace Trash Cart",
    "date_created": "2026-07-22T18:45:22.000",
    "date_modified": "2026-07-22T18:45:23.000",
    "request_status": "Pending",
    "responsible_agency": "Department of Sanitation",
    "final_address": "7427 Spruce St",
    "address_councildis": "A",
    "status": "Assigned to Contractor",
    "contractor": "IV Waste",
    "rowid": "1302810",
    "final_x": "3665111.80992",
    "final_y": "529355.609217",
    "longitude": "-90.11989091918886",
    "latitude": "29.950031720584068",
    "geocoded_column": {
      "latitude": "29.950031720584068",
      "longitude": "-90.11989091918886"
    }
  },
  {
    "service_request": "2026-1302808",
    "request_type": "Property Maintenance",
    "request_reason": "Property Maintenance",
    "date_created": "2026-07-22T18:36:46.000",
    "date_modified": "2026-07-22T18:36:55.000",
    "request_status": "Pending",
    "responsible_agency": "Department of Code Enforcement",
    "final_address": "3701 Annunciation St",
    "address_councildis": "B",
    "status": "Pending",
    "rowid": "1302808",
    "final_x": "3673864.67176",
    "final_y": "518134.170486",
    "longitude": "-90.09263764520404",
    "latitude": "29.918918633293746",
    "geocoded_column": {
      "latitude": "29.918918633293746",
      "longitude": "-90.09263764520404"
    }
  },
  {
    "service_request": "2026-1302807",
    "request_type": "Abandoned Vehicles",
    "request_reason": "Abandoned/Junk Vehicles",
    "date_created": "2026-07-22T18:35:51.000",
    "date_modified": "2026-07-22T18:35:54.000",
    "request_status": "Pending",
    "responsible_agency": "Department of Public Works",
    "final_address": "36 Morrison Ct",
    "address_councildis": "E",
    "status": "Pending",
    "rowid": "1302807",
    "final_x": "3704064.21194",
    "final_y": "561323.284382",
    "longitude": "-89.99572264265079",
    "latitude": "30.036739150375602",
    "geocoded_column": {
      "latitude": "30.036739150375602",
      "longitude": "-89.99572264265079"
    }
  },
  {
    "service_request": "2026-1302806",
    "request_type": "Trash/Recycling",
    "request_reason": "Order Second Trash Cart",
    "date_created": "2026-07-22T18:32:39.000",
    "date_modified": "2026-07-22T18:32:41.000",
    "request_status": "Pending",
    "responsible_agency": "Department of Sanitation",
    "final_address": "7620 Mackenzie St",
    "address_councildis": "E",
    "status": "Assigned to Contractor",
    "contractor": "Waste Pro",
    "rowid": "1302806",
    "final_x": "3711091.82245",
    "final_y": "565928.422179",
    "longitude": "-89.97334139175359",
    "latitude": "30.049173985308297",
    "geocoded_column": {
      "latitude": "30.049173985308297",
      "longitude": "-89.97334139175359"
    }
  },
  {
    "service_request": "2026-1302805",
    "request_type": "Trash/Recycling",
    "request_reason": "Request a Large Item Pick Up",
    "date_created": "2026-07-22T18:30:27.000",
    "date_modified": "2026-07-22T18:30:31.000",
    "request_status": "Pending",
    "responsible_agency": "Department of Sanitation",
    "final_address": "7301 Ebbtide Dr",
    "address_councildis": "E",
    "status": "Assigned to Contractor",
    "contractor": "Waste Pro",
    "rowid": "1302805",
    "final_x": "3702663.11153",
    "final_y": "560476.154782",
    "longitude": "-90.00018153280496",
    "latitude": "30.034454773097114",
    "geocoded_column": {
      "latitude": "30.034454773097114",
      "longitude": "-90.00018153280496"
    }
  },
  {
    "service_request": "2026-1302804",
    "request_type": "Property Maintenance",
    "request_reason": "Property Maintenance",
    "date_created": "2026-07-22T18:30:00.000",
    "date_modified": "2026-07-22T18:30:01.000",
    "request_status": "Pending",
    "responsible_agency": "Department of Code Enforcement",
    "final_address": "6238 Marshal Foch St",
    "address_councildis": "A",
    "status": "Pending",
    "rowid": "1302804",
    "final_x": "3669881.15322",
    "final_y": "548784.542611",
    "longitude": "-90.10417376358896",
    "latitude": "30.00331498301849",
    "geocoded_column": {
      "latitude": "30.00331498301849",
      "longitude": "-90.10417376358896"
    }
  },
  {
    "service_request": "2026-1302803",
    "request_type": "Street and Traffic Signs",
    "request_reason": "Stop Sign Missing or Damaged",
    "date_created": "2026-07-22T18:08:20.000",
    "date_modified": "2026-07-22T18:08:22.000",
    "request_status": "Pending",
    "responsible_agency": "Department of Public Works",
    "final_address": "4601 Mandeville St",
    "address_councildis": "D",
    "status": "Pending",
    "rowid": "1302803",
    "final_x": "3684852.14978",
    "final_y": "549541.966867",
    "longitude": "-90.05685150848736",
    "latitude": "30.004947548387968",
    "geocoded_column": {
      "latitude": "30.004947548387968",
      "longitude": "-90.05685150848736"
    }
  },
  {
    "service_request": "2026-1302802",
    "request_type": "Roads and Streets",
    "request_reason": "Debris in Driving Lanes",
    "date_created": "2026-07-22T18:04:23.000",
    "date_modified": "2026-07-22T18:04:25.000",
    "request_status": "Pending",
    "responsible_agency": "Department of Public Works",
    "final_address": "3800 BLK Earhart Blvd",
    "address_councildis": "B",
    "status": "Pending",
    "rowid": "1302802",
    "final_x": "3672867.83599",
    "final_y": "531108.064868",
    "longitude": "-90.09534169271808",
    "latitude": "29.954622268028434",
    "geocoded_column": {
      "latitude": "29.954622268028434",
      "longitude": "-90.09534169271808"
    }
  },
  {
    "service_request": "2026-1302801",
    "request_type": "Trash/Recycling",
    "request_reason": "Replace Trash Cart",
    "date_created": "2026-07-22T17:59:50.000",
    "date_modified": "2026-07-22T17:59:52.000",
    "request_status": "Pending",
    "responsible_agency": "Department of Sanitation",
    "final_address": "4026 Clematis St",
    "address_councildis": "D",
    "status": "Assigned to Contractor",
    "contractor": "IV Waste",
    "rowid": "1302801",
    "final_x": "3685445.11285",
    "final_y": "547580.668306",
    "longitude": "-90.05504734332813",
    "latitude": "29.99953650922936",
    "geocoded_column": {
      "latitude": "29.99953650922936",
      "longitude": "-90.05504734332813"
    }
  },
  {
    "service_request": "2026-1302800",
    "request_type": "Abandoned Vehicles",
    "request_reason": "Abandoned/Junk Vehicles",
    "date_created": "2026-07-22T17:52:48.000",
    "date_modified": "2026-07-22T17:52:50.000",
    "request_status": "Pending",
    "responsible_agency": "Department of Public Works",
    "final_address": "223 S Dupre St",
    "address_councildis": "B",
    "status": "Pending",
    "rowid": "1302800",
    "final_x": "3674125.43201",
    "final_y": "535166.92551",
    "longitude": "-90.09123175606108",
    "latitude": "29.965745355438234",
    "geocoded_column": {
      "latitude": "29.965745355438234",
      "longitude": "-90.09123175606108"
    }
  },
  {
    "service_request": "2026-1302799",
    "request_type": "Roads and Streets",
    "request_reason": "Pothole",
    "date_created": "2026-07-22T17:49:13.000",
    "date_modified": "2026-07-22T17:49:16.000",
    "request_status": "Pending",
    "responsible_agency": "Department of Public Works",
    "final_address": "6500 Argonne Blvd",
    "address_councildis": "A",
    "status": "Pending",
    "rowid": "1302799",
    "final_x": "3670406.68858",
    "final_y": "550615.8189",
    "longitude": "-90.10245136566657",
    "latitude": "30.008334839791388",
    "geocoded_column": {
      "latitude": "30.008334839791388",
      "longitude": "-90.10245136566657"
    }
  },
  {
    "service_request": "2026-1302798",
    "request_type": "Property Maintenance",
    "request_reason": "Property Maintenance",
    "date_created": "2026-07-22T17:43:31.000",
    "date_modified": "2026-07-22T17:43:33.000",
    "request_status": "Pending",
    "responsible_agency": "Department of Code Enforcement",
    "final_address": "725 Amelia St",
    "address_councildis": "B",
    "status": "Pending",
    "rowid": "1302798",
    "final_x": "3673977.19656",
    "final_y": "517965.066038",
    "longitude": "-90.09228824328368",
    "latitude": "29.91845029937607",
    "geocoded_column": {
      "latitude": "29.91845029937607",
      "longitude": "-90.09228824328368"
    }
  },
  {
    "service_request": "2026-1302797",
    "request_type": "Trash/Recycling",
    "request_reason": "Request a Large Item Pick Up",
    "date_created": "2026-07-22T17:40:40.000",
    "date_modified": "2026-07-22T17:40:42.000",
    "request_status": "Pending",
    "responsible_agency": "Department of Sanitation",
    "final_address": "7814 Sun St",
    "address_councildis": "E",
    "status": "Assigned to Contractor",
    "contractor": "Waste Pro",
    "rowid": "1302797",
    "final_x": "3720454.05362",
    "final_y": "574255.23153",
    "longitude": "-89.94343221773862",
    "latitude": "30.071760368855518",
    "geocoded_column": {
      "latitude": "30.071760368855518",
      "longitude": "-89.94343221773862"
    }
  },
  {
    "service_request": "2026-1302796",
    "request_type": "Tree Service",
    "request_reason": "Tree Trim",
    "date_created": "2026-07-22T17:32:14.000",
    "date_modified": "2026-07-22T17:32:15.000",
    "request_status": "Pending",
    "responsible_agency": "Department of Parks & Parkways",
    "final_address": "1117 Cadiz St",
    "address_councildis": "B",
    "status": "Pending",
    "rowid": "1302796",
    "final_x": "3670258.46906",
    "final_y": "519592.205688",
    "longitude": "-90.10397121577466",
    "latitude": "29.92303464278675",
    "geocoded_column": {
      "latitude": "29.92303464278675",
      "longitude": "-90.10397121577466"
    }
  },
  {
    "service_request": "2026-1302795",
    "request_type": "Trash/Recycling",
    "request_reason": "Missed Trash Pick-Up",
    "date_created": "2026-07-22T17:31:40.000",
    "date_modified": "2026-07-22T17:31:43.000",
    "request_status": "Pending",
    "responsible_agency": "Department of Sanitation",
    "final_address": "1504 N Broad St",
    "address_councildis": "D",
    "status": "Assigned to Contractor",
    "contractor": "IV Waste",
    "rowid": "1302795",
    "final_x": "3678764.16821",
    "final_y": "539545.852938",
    "longitude": "-90.0764311028288",
    "latitude": "29.977646823364715",
    "geocoded_column": {
      "latitude": "29.977646823364715",
      "longitude": "-90.0764311028288"
    }
  },
  {
    "service_request": "2026-1302794",
    "request_type": "Trash/Recycling",
    "request_reason": "Replace Trash Cart",
    "date_created": "2026-07-22T17:28:25.000",
    "date_modified": "2026-07-22T17:28:26.000",
    "request_status": "Pending",
    "responsible_agency": "Department of Sanitation",
    "final_address": "1117 Cadiz St",
    "address_councildis": "B",
    "status": "Assigned to Contractor",
    "contractor": "IV Waste",
    "rowid": "1302794",
    "final_x": "3670258.46906",
    "final_y": "519592.205688",
    "longitude": "-90.10397121577466",
    "latitude": "29.92303464278675",
    "geocoded_column": {
      "latitude": "29.92303464278675",
      "longitude": "-90.10397121577466"
    }
  },
  {
    "service_request": "2026-1302793",
    "request_type": "Trash/Recycling",
    "request_reason": "Order Recycling Cart",
    "date_created": "2026-07-22T17:26:41.000",
    "date_modified": "2026-07-22T17:26:45.000",
    "request_status": "Pending",
    "responsible_agency": "Department of Sanitation",
    "final_address": "4006 N Miro St",
    "address_councildis": "D",
    "status": "Pending",
    "rowid": "1302793",
    "final_x": "3692918.05149",
    "final_y": "539368.220426",
    "longitude": "-90.0317348741579",
    "latitude": "29.976723901305903",
    "geocoded_column": {
      "latitude": "29.976723901305903",
      "longitude": "-90.0317348741579"
    }
  },
  {
    "service_request": "2026-1302792",
    "request_type": "Property Maintenance",
    "request_reason": "Property Maintenance",
    "date_created": "2026-07-22T17:21:21.000",
    "date_modified": "2026-07-22T17:21:23.000",
    "request_status": "Pending",
    "responsible_agency": "Department of Code Enforcement",
    "final_address": "6136 Louis Xiv St",
    "address_councildis": "A",
    "status": "Pending",
    "rowid": "1302792",
    "final_x": "3668099.89697",
    "final_y": "548279.92341",
    "longitude": "-90.10981806689321",
    "latitude": "30.00197987475591",
    "geocoded_column": {
      "latitude": "30.00197987475591",
      "longitude": "-90.10981806689321"
    }
  },
  {
    "service_request": "2026-1302791",
    "request_type": "Traffic Signals",
    "request_reason": "Traffic Signal Malfunctioning or Damaged",
    "date_created": "2026-07-22T17:10:36.000",
    "date_modified": "2026-07-22T17:10:42.000",
    "request_status": "Pending",
    "responsible_agency": "Department of Public Works",
    "final_address": "N GALVEZ ST & ALMONASTER AVE",
    "address_councildis": "D",
    "status": "Pending",
    "rowid": "1302791",
    "final_x": "3688081.7",
    "final_y": "540222.18",
    "longitude": "-90.04697926021795",
    "latitude": "29.979222161507888",
    "geocoded_column": {
      "latitude": "29.979222161507888",
      "longitude": "-90.04697926021795"
    }
  },
  {
    "service_request": "2026-1302790",
    "request_type": "Trash/Recycling",
    "request_reason": "Order Trash Cart",
    "date_created": "2026-07-22T16:44:26.000",
    "date_modified": "2026-07-22T16:44:27.000",
    "request_status": "Pending",
    "responsible_agency": "Department of Sanitation",
    "final_address": "131 Turnberry Dr",
    "address_councildis": "E",
    "status": "Assigned to Contractor",
    "contractor": "Waste Pro",
    "rowid": "1302790",
    "final_x": "3720043.84326",
    "final_y": "563877.243361",
    "longitude": "-89.94512648371385",
    "latitude": "30.043238898570927",
    "geocoded_column": {
      "latitude": "30.043238898570927",
      "longitude": "-89.94512648371385"
    }
  },
  {
    "service_request": "2026-1302789",
    "request_type": "Utility Poles",
    "request_reason": "Utility Pole Leaning",
    "date_created": "2026-07-22T16:38:56.000",
    "date_modified": "2026-07-22T16:38:59.000",
    "request_status": "Pending",
    "responsible_agency": "Utility Company Collective",
    "final_address": "4610 Gabriel Dr",
    "address_councildis": "E",
    "status": "Pending",
    "rowid": "1302789",
    "final_x": "3708902.67256",
    "final_y": "554848.884184",
    "longitude": "-89.98067375488039",
    "latitude": "30.01878089957786",
    "geocoded_column": {
      "latitude": "30.01878089957786",
      "longitude": "-89.98067375488039"
    }
  },
  {
    "service_request": "2026-1302788",
    "request_type": "Trash/Recycling",
    "request_reason": "Missed Trash Pick-Up",
    "date_created": "2026-07-22T16:37:21.000",
    "date_modified": "2026-07-22T16:39:19.000",
    "case_close_date": "2026-07-22T11:39:17.000",
    "request_status": "Closed",
    "responsible_agency": "Department of Sanitation",
    "final_address": "5729 Franklin Ave",
    "address_councildis": "D",
    "status": "Invalid Request",
    "contractor": "IV Waste",
    "contractor_action": "Invalid Request",
    "rowid": "1302788",
    "final_x": "3686582.95586",
    "final_y": "554306.216728",
    "longitude": "-90.05121513585532",
    "latitude": "30.01799436064056",
    "geocoded_column": {
      "latitude": "30.01799436064056",
      "longitude": "-90.05121513585532"
    }
  },
  {
    "service_request": "2026-1302787",
    "request_type": "Trash/Recycling",
    "request_reason": "Order Recycling Cart",
    "date_created": "2026-07-22T16:30:39.000",
    "date_modified": "2026-07-22T16:30:42.000",
    "request_status": "Pending",
    "responsible_agency": "Department of Sanitation",
    "final_address": "75 N Park Pl",
    "address_councildis": "A",
    "status": "Pending",
    "rowid": "1302787",
    "final_x": "3670016.88417",
    "final_y": "544961.501135",
    "longitude": "-90.10387455702683",
    "latitude": "29.992798940128633",
    "geocoded_column": {
      "latitude": "29.992798940128633",
      "longitude": "-90.10387455702683"
    }
  },
  {
    "service_request": "2026-1302786",
    "request_type": "Trash/Recycling",
    "request_reason": "Dead Animal Pick Up",
    "date_created": "2026-07-22T16:29:23.000",
    "date_modified": "2026-07-22T16:46:57.000",
    "request_status": "Pending",
    "responsible_agency": "Department of Sanitation",
    "final_address": "N CLAIBORNE AVE & ORLEANS AVE",
    "address_councildis": "C",
    "status": "Assigned to Contractor",
    "contractor": "IV Waste",
    "rowid": "1302786",
    "final_x": "3679822.0",
    "final_y": "534774.88",
    "longitude": "-90.07325581625649",
    "latitude": "29.96449633943059",
    "geocoded_column": {
      "latitude": "29.96449633943059",
      "longitude": "-90.07325581625649"
    }
  },
  {
    "service_request": "2026-1302785",
    "request_type": "Utility Poles",
    "request_reason": "Wires Sagging/Hanging Low",
    "date_created": "2026-07-22T16:28:07.000",
    "date_modified": "2026-07-22T16:28:09.000",
    "request_status": "Pending",
    "responsible_agency": "Utility Company Collective",
    "final_address": "809 Jena St",
    "address_councildis": "B",
    "status": "Pending",
    "rowid": "1302785",
    "final_x": "3670721.58011",
    "final_y": "518485.139126",
    "longitude": "-90.10254688615557",
    "latitude": "29.91997689101563",
    "geocoded_column": {
      "latitude": "29.91997689101563",
      "longitude": "-90.10254688615557"
    }
  },
  {
    "service_request": "2026-1302784",
    "request_type": "Tree Service",
    "request_reason": "Tree Trim",
    "date_created": "2026-07-22T16:21:48.000",
    "date_modified": "2026-07-22T16:21:51.000",
    "request_status": "Pending",
    "responsible_agency": "Department of Parks & Parkways",
    "final_address": "6801 Franklin Ave",
    "address_councildis": "D",
    "status": "Pending",
    "rowid": "1302784",
    "final_x": "3686785.95247",
    "final_y": "558538.472732",
    "longitude": "-90.05042402606901",
    "latitude": "30.029625244502746",
    "geocoded_column": {
      "latitude": "30.029625244502746",
      "longitude": "-90.05042402606901"
    }
  },
  {
    "service_request": "2026-1302783",
    "request_type": "Trash/Recycling",
    "request_reason": "Request a Large Item Pick Up",
    "date_created": "2026-07-22T16:19:33.000",
    "date_modified": "2026-07-22T16:19:35.000",
    "request_status": "Pending",
    "responsible_agency": "Department of Sanitation",
    "final_address": "7049 Queensway Dr",
    "address_councildis": "E",
    "status": "Assigned to Contractor",
    "contractor": "Waste Pro",
    "rowid": "1302783",
    "final_x": "3719183.80313",
    "final_y": "569527.041318",
    "longitude": "-89.9476286013204",
    "latitude": "30.058802133387523",
    "geocoded_column": {
      "latitude": "30.058802133387523",
      "longitude": "-89.9476286013204"
    }
  },
  {
    "service_request": "2026-1302782",
    "request_type": "Utility Poles",
    "request_reason": "Utility Pole Leaning",
    "date_created": "2026-07-22T16:11:17.000",
    "date_modified": "2026-07-22T16:11:20.000",
    "request_status": "Pending",
    "responsible_agency": "Utility Company Collective",
    "final_address": "2512 Cleveland Ave",
    "address_councildis": "B",
    "status": "Pending",
    "rowid": "1302782",
    "final_x": "3675736.6427",
    "final_y": "534186.958661",
    "longitude": "-90.08617728833175",
    "latitude": "29.96300265453283",
    "geocoded_column": {
      "latitude": "29.96300265453283",
      "longitude": "-90.08617728833175"
    }
  },
  {
    "service_request": "2026-1302781",
    "request_type": "Roads and Streets",
    "request_reason": "Pothole",
    "date_created": "2026-07-22T16:05:20.000",
    "date_modified": "2026-07-22T16:05:23.000",
    "request_status": "Pending",
    "responsible_agency": "Department of Public Works",
    "final_address": "5501 Tullis Dr",
    "address_councildis": "C",
    "status": "Pending",
    "rowid": "1302781",
    "final_x": "3704383.85655",
    "final_y": "511938.894576",
    "longitude": "-89.99653324249972",
    "latitude": "29.900939820888475",
    "geocoded_column": {
      "latitude": "29.900939820888475",
      "longitude": "-89.99653324249972"
    }
  },
  {
    "service_request": "2026-1302780",
    "request_type": "Roads and Streets",
    "request_reason": "Street Subsidence (Sinking)",
    "date_created": "2026-07-22T16:02:27.000",
    "date_modified": "2026-07-22T16:02:28.000",
    "request_status": "Pending",
    "responsible_agency": "Sewerage & Water Board",
    "final_address": "1413 Moss St",
    "address_councildis": "A",
    "status": "Pending",
    "rowid": "1302780",
    "final_x": "3674339.2267",
    "final_y": "540786.984843",
    "longitude": "-90.09036407524184",
    "latitude": "29.981192232599877",
    "geocoded_column": {
      "latitude": "29.981192232599877",
      "longitude": "-90.09036407524184"
    }
  },
  {
    "service_request": "2026-1302779",
    "request_type": "Trash/Recycling",
    "request_reason": "Request a Large Item Pick Up",
    "date_created": "2026-07-22T15:57:16.000",
    "date_modified": "2026-07-22T15:57:20.000",
    "request_status": "Pending",
    "responsible_agency": "Department of Sanitation",
    "final_address": "4911 Lancelot Dr",
    "address_councildis": "E",
    "status": "Assigned to Contractor",
    "contractor": "Waste Pro",
    "rowid": "1302779",
    "final_x": "3707417.126",
    "final_y": "556533.79881",
    "longitude": "-89.98530487994448",
    "latitude": "30.02346189631238",
    "geocoded_column": {
      "latitude": "30.02346189631238",
      "longitude": "-89.98530487994448"
    }
  },
  {
    "service_request": "2026-1302778",
    "request_type": "Trash/Recycling",
    "request_reason": "Replace Trash Cart",
    "date_created": "2026-07-22T15:55:53.000",
    "date_modified": "2026-07-22T15:55:55.000",
    "request_status": "Pending",
    "responsible_agency": "Department of Sanitation",
    "final_address": "2427 Soniat St",
    "address_councildis": "B",
    "status": "Assigned to Contractor",
    "contractor": "IV Waste",
    "rowid": "1302778",
    "final_x": "3668575.94292",
    "final_y": "524560.856252",
    "longitude": "-90.10911474710998",
    "latitude": "29.93674637627265",
    "geocoded_column": {
      "latitude": "29.93674637627265",
      "longitude": "-90.10911474710998"
    }
  },
  {
    "service_request": "2026-1302777",
    "request_type": "Trash/Recycling",
    "request_reason": "Request a Large Item Pick Up",
    "date_created": "2026-07-22T15:43:31.000",
    "date_modified": "2026-07-22T15:43:33.000",
    "request_status": "Pending",
    "responsible_agency": "Department of Sanitation",
    "final_address": "920 Jena St",
    "address_councildis": "B",
    "status": "Assigned to Contractor",
    "contractor": "IV Waste",
    "rowid": "1302777",
    "final_x": "3670575.67124",
    "final_y": "518927.914359",
    "longitude": "-90.10299244412109",
    "latitude": "29.92119869110157",
    "geocoded_column": {
      "latitude": "29.92119869110157",
      "longitude": "-90.10299244412109"
    }
  },
  {
    "service_request": "2026-1302776",
    "request_type": "Trash/Recycling",
    "request_reason": "Request a Large Item Pick Up",
    "date_created": "2026-07-22T15:43:10.000",
    "date_modified": "2026-07-22T15:43:12.000",
    "request_status": "Pending",
    "responsible_agency": "Department of Sanitation",
    "final_address": "4856 Tchoupitoulas St",
    "address_councildis": "B",
    "status": "Assigned to Contractor",
    "contractor": "IV Waste",
    "rowid": "1302776",
    "final_x": "3669223.33018",
    "final_y": "517212.147509",
    "longitude": "-90.1073191445732",
    "latitude": "29.916520731579396",
    "geocoded_column": {
      "latitude": "29.916520731579396",
      "longitude": "-90.1073191445732"
    }
  },
  {
    "service_request": "2026-1302775",
    "request_type": "Trash/Recycling",
    "request_reason": "Request a Large Item Pick Up",
    "date_created": "2026-07-22T15:41:48.000",
    "date_modified": "2026-07-22T15:41:50.000",
    "request_status": "Pending",
    "responsible_agency": "Department of Sanitation",
    "final_address": "2326 Jackson Ave Apt A",
    "address_councildis": "B",
    "status": "Assigned to Contractor",
    "contractor": "IV Waste",
    "rowid": "1302775",
    "final_x": "3675633.49857",
    "final_y": "526204.218046",
    "longitude": "-90.08677724793903",
    "latitude": "29.941055861798294",
    "geocoded_column": {
      "latitude": "29.941055861798294",
      "longitude": "-90.08677724793903"
    }
  },
  {
    "service_request": "2026-1302774",
    "request_type": "Trash/Recycling",
    "request_reason": "Request a Large Item Pick Up",
    "date_created": "2026-07-22T15:39:26.000",
    "date_modified": "2026-07-22T15:39:28.000",
    "request_status": "Pending",
    "responsible_agency": "Department of Sanitation",
    "final_address": "195 Pinewood Ct",
    "address_councildis": "C",
    "status": "Assigned to Contractor",
    "contractor": "Richards Disposal",
    "rowid": "1302774",
    "final_x": "3696079.84266",
    "final_y": "523630.312251",
    "longitude": "-90.02231770581209",
    "latitude": "29.933351048891375",
    "geocoded_column": {
      "latitude": "29.933351048891375",
      "longitude": "-90.02231770581209"
    }
  },
  {
    "service_request": "2026-1302773",
    "request_type": "Streetlights",
    "request_reason": "Streetlight Outage/Malfunction",
    "date_created": "2026-07-22T15:38:27.000",
    "date_modified": "2026-07-22T15:38:29.000",
    "request_status": "Pending",
    "responsible_agency": "Department of Public Works",
    "final_address": "4615 Annunciation St",
    "address_councildis": "B",
    "status": "Pending",
    "rowid": "1302773",
    "final_x": "3670261.20078",
    "final_y": "517699.88671",
    "longitude": "-90.10402667714384",
    "latitude": "29.917831284676726",
    "geocoded_column": {
      "latitude": "29.917831284676726",
      "longitude": "-90.10402667714384"
    }
  },
  {
    "service_request": "2026-1302772",
    "request_type": "Roads and Streets",
    "request_reason": "Sidewalk Damaged or Missing",
    "date_created": "2026-07-22T15:36:40.000",
    "date_modified": "2026-07-22T15:36:42.000",
    "request_status": "Pending",
    "responsible_agency": "Department of Public Works",
    "final_address": "6801 Franklin Ave",
    "address_councildis": "D",
    "status": "Pending",
    "rowid": "1302772",
    "final_x": "3686785.95247",
    "final_y": "558538.472732",
    "longitude": "-90.05042402606901",
    "latitude": "30.029625244502746",
    "geocoded_column": {
      "latitude": "30.029625244502746",
      "longitude": "-90.05042402606901"
    }
  },
  {
    "service_request": "2026-1302771",
    "request_type": "Tree Service",
    "request_reason": "Tree Trim",
    "date_created": "2026-07-22T15:33:59.000",
    "date_modified": "2026-07-22T15:36:14.000",
    "request_status": "Pending",
    "responsible_agency": "Department of Parks & Parkways",
    "final_address": "7833 Mayo Rd",
    "address_councildis": "E",
    "status": "Pending",
    "rowid": "1302771",
    "final_x": "3700619.91108",
    "final_y": "561525.972639",
    "longitude": "-90.00659987666924",
    "latitude": "30.03740656964313",
    "geocoded_column": {
      "latitude": "30.03740656964313",
      "longitude": "-90.00659987666924"
    }
  },
  {
    "service_request": "2026-1302770",
    "request_type": "Streetlights",
    "request_reason": "Streetlight Outage/Malfunction",
    "date_created": "2026-07-22T15:33:30.000",
    "date_modified": "2026-07-22T15:33:32.000",
    "request_status": "Pending",
    "responsible_agency": "Department of Public Works",
    "final_address": "2119 S Saratoga St",
    "address_councildis": "B",
    "status": "Pending",
    "rowid": "1302770",
    "final_x": "3676611.16769",
    "final_y": "525362.561917",
    "longitude": "-90.08371954430478",
    "latitude": "29.938712302686408",
    "geocoded_column": {
      "latitude": "29.938712302686408",
      "longitude": "-90.08371954430478"
    }
  },
  {
    "service_request": "2026-1302769",
    "request_type": "Property Maintenance",
    "request_reason": "Property Maintenance",
    "date_created": "2026-07-22T15:30:48.000",
    "date_modified": "2026-07-22T15:30:51.000",
    "request_status": "Pending",
    "responsible_agency": "Department of Code Enforcement",
    "final_address": "6801 Franklin Ave",
    "address_councildis": "D",
    "status": "Pending",
    "rowid": "1302769",
    "final_x": "3686785.95247",
    "final_y": "558538.472732",
    "longitude": "-90.05042402606901",
    "latitude": "30.029625244502746",
    "geocoded_column": {
      "latitude": "30.029625244502746",
      "longitude": "-90.05042402606901"
    }
  },
  {
    "service_request": "2026-1302768",
    "request_type": "Trash/Recycling",
    "request_reason": "Request a Large Item Pick Up",
    "date_created": "2026-07-22T15:20:49.000",
    "date_modified": "2026-07-22T15:20:51.000",
    "request_status": "Pending",
    "responsible_agency": "Department of Sanitation",
    "final_address": "627 Fats Domino Ave",
    "address_councildis": "E",
    "status": "Assigned to Contractor",
    "contractor": "Waste Pro",
    "rowid": "1302768",
    "final_x": "3697648.60957",
    "final_y": "532128.963267",
    "longitude": "-90.01705702817178",
    "latitude": "29.956669926805915",
    "geocoded_column": {
      "latitude": "29.956669926805915",
      "longitude": "-90.01705702817178"
    }
  },
  {
    "service_request": "2026-1302767",
    "request_type": "Road Striping",
    "request_reason": "Parking Lane",
    "date_created": "2026-07-22T15:17:02.000",
    "date_modified": "2026-07-22T15:17:04.000",
    "request_status": "Pending",
    "responsible_agency": "Department of Public Works",
    "final_address": "500 N Rampart St",
    "address_councildis": "C",
    "status": "Pending",
    "rowid": "1302767",
    "final_x": "3681024.66728",
    "final_y": "532743.246788",
    "longitude": "-90.06952864803553",
    "latitude": "29.95887362005373",
    "geocoded_column": {
      "latitude": "29.95887362005373",
      "longitude": "-90.06952864803553"
    }
  },
  {
    "service_request": "2026-1302766",
    "request_type": "Trash/Recycling",
    "request_reason": "Repair Trash Cart",
    "date_created": "2026-07-22T15:13:03.000",
    "date_modified": "2026-07-22T15:13:06.000",
    "request_status": "Pending",
    "responsible_agency": "Department of Sanitation",
    "final_address": "2308 Amelia St",
    "address_councildis": "B",
    "status": "Assigned to Contractor",
    "contractor": "IV Waste",
    "rowid": "1302766",
    "final_x": "3672475.05473",
    "final_y": "523680.994875",
    "longitude": "-90.09683501927552",
    "latitude": "29.934211920357267",
    "geocoded_column": {
      "latitude": "29.934211920357267",
      "longitude": "-90.09683501927552"
    }
  },
  {
    "service_request": "2026-1302765",
    "request_type": "Trash/Recycling",
    "request_reason": "Request a Large Item Pick Up",
    "date_created": "2026-07-22T15:12:46.000",
    "date_modified": "2026-07-22T15:12:49.000",
    "request_status": "Pending",
    "responsible_agency": "Department of Sanitation",
    "final_address": "4564 Feliciana Dr",
    "address_councildis": "D",
    "status": "Assigned to Contractor",
    "contractor": "IV Waste",
    "rowid": "1302765",
    "final_x": "3690143.03696",
    "final_y": "550512.63586",
    "longitude": "-90.0401019553704",
    "latitude": "30.00745340378043",
    "geocoded_column": {
      "latitude": "30.00745340378043",
      "longitude": "-90.0401019553704"
    }
  },
  {
    "service_request": "2026-1302764",
    "request_type": "Trash/Recycling",
    "request_reason": "Order Trash Cart",
    "date_created": "2026-07-22T15:11:28.000",
    "date_modified": "2026-07-22T15:11:30.000",
    "request_status": "Pending",
    "responsible_agency": "Department of Sanitation",
    "final_address": "400 Harrison Ave",
    "address_councildis": "A",
    "status": "Assigned to Contractor",
    "contractor": "IV Waste",
    "rowid": "1302764",
    "final_x": "3667636.16551",
    "final_y": "549245.662547",
    "longitude": "-90.11125051247275",
    "latitude": "30.00464892950619",
    "geocoded_column": {
      "latitude": "30.00464892950619",
      "longitude": "-90.11125051247275"
    }
  },
  {
    "service_request": "2026-1302763",
    "request_type": "Trash/Recycling",
    "request_reason": "Replace Trash Cart",
    "date_created": "2026-07-22T15:11:04.000",
    "date_modified": "2026-07-22T15:11:06.000",
    "request_status": "Pending",
    "responsible_agency": "Department of Sanitation",
    "final_address": "3005 Jefferson Ave",
    "address_councildis": "B",
    "status": "Assigned to Contractor",
    "contractor": "IV Waste",
    "rowid": "1302763",
    "final_x": "3668523.71297",
    "final_y": "526386.35251",
    "longitude": "-90.10921807124596",
    "latitude": "29.941767436926444",
    "geocoded_column": {
      "latitude": "29.941767436926444",
      "longitude": "-90.10921807124596"
    }
  },
  {
    "service_request": "2026-1302762",
    "request_type": "Trash/Recycling",
    "request_reason": "Request a Large Item Pick Up",
    "date_created": "2026-07-22T15:10:40.000",
    "date_modified": "2026-07-22T15:10:42.000",
    "request_status": "Pending",
    "responsible_agency": "Department of Sanitation",
    "final_address": "2120 Jena St Apt 1B",
    "address_councildis": "B",
    "status": "Assigned to Contractor",
    "contractor": "IV Waste",
    "rowid": "1302762",
    "final_x": "3670200.72404",
    "final_y": "522789.147066",
    "longitude": "-90.10404523048811",
    "latitude": "29.931826914065375",
    "geocoded_column": {
      "latitude": "29.931826914065375",
      "longitude": "-90.10404523048811"
    }
  },
  {
    "service_request": "2026-1302761",
    "request_type": "Trash/Recycling",
    "request_reason": "Request a Large Item Pick Up",
    "date_created": "2026-07-22T15:09:07.000",
    "date_modified": "2026-07-22T15:09:11.000",
    "request_status": "Pending",
    "responsible_agency": "Department of Sanitation",
    "final_address": "4808 St Claude Ave",
    "address_councildis": "E",
    "status": "Assigned to Contractor",
    "contractor": "Waste Pro",
    "rowid": "1302761",
    "final_x": "3695140.33008",
    "final_y": "534421.409861",
    "longitude": "-90.0248946657472",
    "latitude": "29.963052336513883",
    "geocoded_column": {
      "latitude": "29.963052336513883",
      "longitude": "-90.0248946657472"
    }
  },
  {
    "service_request": "2026-1302760",
    "request_type": "Tree Service",
    "request_reason": "Street or Sidewalk Blocked",
    "date_created": "2026-07-22T15:06:14.000",
    "date_modified": "2026-07-22T15:06:16.000",
    "request_status": "Pending",
    "responsible_agency": "Department of Parks & Parkways",
    "final_address": "7500 Scottwood Dr",
    "address_councildis": "E",
    "status": "Pending",
    "rowid": "1302760",
    "final_x": "3717688.27673",
    "final_y": "570038.038503",
    "longitude": "-89.95233630395649",
    "latitude": "30.060256807824853",
    "geocoded_column": {
      "latitude": "30.060256807824853",
      "longitude": "-89.95233630395649"
    }
  },
  {
    "service_request": "2026-1302759",
    "request_type": "Utility Poles",
    "request_reason": "Wires Sagging/Hanging Low",
    "date_created": "2026-07-22T15:03:18.000",
    "date_modified": "2026-07-22T15:03:21.000",
    "request_status": "Pending",
    "responsible_agency": "Utility Company Collective",
    "final_address": "2908 S Saratoga St",
    "address_councildis": "B",
    "status": "Pending",
    "rowid": "1302759",
    "final_x": "3674458.33115",
    "final_y": "523672.571835",
    "longitude": "-90.09057416131658",
    "latitude": "29.934129762492873",
    "geocoded_column": {
      "latitude": "29.934129762492873",
      "longitude": "-90.09057416131658"
    }
  },
  {
    "service_request": "2026-1302758",
    "request_type": "Safety & Permits",
    "request_reason": "Licenses & Permits",
    "date_created": "2026-07-22T15:01:06.000",
    "date_modified": "2026-07-22T15:04:03.000",
    "request_status": "Pending",
    "responsible_agency": "Safety and Permits",
    "final_address": "412 S Hennessey St",
    "address_councildis": "A",
    "status": "Pending",
    "rowid": "1302758",
    "final_x": "3669493.19796",
    "final_y": "537854.090441",
    "longitude": "-90.10576931580049",
    "latitude": "29.973271417693788",
    "geocoded_column": {
      "latitude": "29.973271417693788",
      "longitude": "-90.10576931580049"
    }
  },
  {
    "service_request": "2026-1302757",
    "request_type": "Property Maintenance",
    "request_reason": "Property Maintenance",
    "date_created": "2026-07-22T14:56:01.000",
    "date_modified": "2026-07-22T14:56:02.000",
    "request_status": "Pending",
    "responsible_agency": "Department of Code Enforcement",
    "final_address": "13019 Deauville Ct",
    "address_councildis": "E",
    "status": "Pending",
    "rowid": "1302757",
    "final_x": "3723936.93587",
    "final_y": "560745.190878",
    "longitude": "-89.93294383239217",
    "latitude": "30.034496781016543",
    "geocoded_column": {
      "latitude": "30.034496781016543",
      "longitude": "-89.93294383239217"
    }
  },
  {
    "service_request": "2026-1302756",
    "request_type": "Trash/Recycling",
    "request_reason": "Request a Large Item Pick Up",
    "date_created": "2026-07-22T14:55:45.000",
    "date_modified": "2026-07-22T14:55:48.000",
    "request_status": "Pending",
    "responsible_agency": "Department of Sanitation",
    "final_address": "6617 Lake Willow Dr",
    "address_councildis": "E",
    "status": "Assigned to Contractor",
    "contractor": "Waste Pro",
    "rowid": "1302756",
    "final_x": "3704116.51742",
    "final_y": "559710.645725",
    "longitude": "-89.99561684410428",
    "latitude": "30.03230334638636",
    "geocoded_column": {
      "latitude": "30.03230334638636",
      "longitude": "-89.99561684410428"
    }
  },
  {
    "service_request": "2026-1302755",
    "request_type": "Streetlights",
    "request_reason": "Streetlight Outage/Malfunction",
    "date_created": "2026-07-22T14:55:33.000",
    "date_modified": "2026-07-22T14:55:36.000",
    "request_status": "Pending",
    "responsible_agency": "Department of Public Works",
    "final_address": "8910 Tilford Rd",
    "address_councildis": "E",
    "status": "Pending",
    "rowid": "1302755",
    "final_x": "3707928.6899",
    "final_y": "557209.386331",
    "longitude": "-89.98366331459664",
    "latitude": "30.02530294024195",
    "geocoded_column": {
      "latitude": "30.02530294024195",
      "longitude": "-89.98366331459664"
    }
  },
  {
    "service_request": "2026-1302754",
    "request_type": "Trash/Recycling",
    "request_reason": "Replace Trash Cart",
    "date_created": "2026-07-22T14:55:32.000",
    "date_modified": "2026-07-22T14:55:35.000",
    "request_status": "Pending",
    "responsible_agency": "Department of Sanitation",
    "final_address": "11 Glacier Ct",
    "address_councildis": "C",
    "status": "Assigned to Contractor",
    "contractor": "Richards Disposal",
    "rowid": "1302754",
    "final_x": "3700040.25508",
    "final_y": "516221.236276",
    "longitude": "-90.01008511801129",
    "latitude": "29.91285344090819",
    "geocoded_column": {
      "latitude": "29.91285344090819",
      "longitude": "-90.01008511801129"
    }
  },
  {
    "service_request": "2026-1302753",
    "request_type": "Trash/Recycling",
    "request_reason": "Request a Large Item Pick Up",
    "date_created": "2026-07-22T14:54:23.000",
    "date_modified": "2026-07-22T14:54:25.000",
    "request_status": "Pending",
    "responsible_agency": "Department of Sanitation",
    "final_address": "6564 Memphis St",
    "address_councildis": "A",
    "status": "Assigned to Contractor",
    "contractor": "IV Waste",
    "rowid": "1302753",
    "final_x": "3669452.39713",
    "final_y": "551150.233877",
    "longitude": "-90.10544818676222",
    "latitude": "30.00983244599412",
    "geocoded_column": {
      "latitude": "30.00983244599412",
      "longitude": "-90.10544818676222"
    }
  },
  {
    "service_request": "2026-1302752",
    "request_type": "Trash/Recycling",
    "request_reason": "Damaged Caused By Contractor",
    "date_created": "2026-07-22T14:50:06.000",
    "date_modified": "2026-07-22T14:50:09.000",
    "request_status": "Pending",
    "responsible_agency": "Department of Sanitation",
    "final_address": "1431 Moss St",
    "address_councildis": "A",
    "status": "Assigned to Contractor",
    "contractor": "IV Waste",
    "rowid": "1302752",
    "final_x": "3674312.16795",
    "final_y": "540956.401675",
    "longitude": "-90.09044373499935",
    "latitude": "29.981658877782987",
    "geocoded_column": {
      "latitude": "29.981658877782987",
      "longitude": "-90.09044373499935"
    }
  },
  {
    "service_request": "2026-1302751",
    "request_type": "Trash/Recycling",
    "request_reason": "Request a Large Item Pick Up",
    "date_created": "2026-07-22T14:49:05.000",
    "date_modified": "2026-07-22T14:49:07.000",
    "request_status": "Pending",
    "responsible_agency": "Department of Sanitation",
    "final_address": "5732 St Anthony Ave",
    "address_councildis": "D",
    "status": "Assigned to Contractor",
    "contractor": "IV Waste",
    "rowid": "1302751",
    "final_x": "3681997.06965",
    "final_y": "554151.167",
    "longitude": "-90.06571019497623",
    "latitude": "30.01770832522333",
    "geocoded_column": {
      "latitude": "30.01770832522333",
      "longitude": "-90.06571019497623"
    }
  },
  {
    "service_request": "2026-1302750",
    "request_type": "Trash/Recycling",
    "request_reason": "Repair Recycling Cart",
    "date_created": "2026-07-22T14:41:43.000",
    "date_modified": "2026-07-22T14:41:44.000",
    "request_status": "Pending",
    "responsible_agency": "Department of Sanitation",
    "final_address": "219 Atlantic Ave",
    "address_councildis": "C",
    "status": "Pending",
    "rowid": "1302750",
    "final_x": "3688801.06415",
    "final_y": "530971.792834",
    "longitude": "-90.04503572011366",
    "latitude": "29.95376460488339",
    "geocoded_column": {
      "latitude": "29.95376460488339",
      "longitude": "-90.04503572011366"
    }
  },
  {
    "service_request": "2026-1302749",
    "request_type": "Trash/Recycling",
    "request_reason": "Repair Trash Cart",
    "date_created": "2026-07-22T14:34:27.000",
    "date_modified": "2026-07-22T14:34:28.000",
    "request_status": "Pending",
    "responsible_agency": "Department of Sanitation",
    "final_address": "5557 Berkley Dr",
    "address_councildis": "C",
    "status": "Assigned to Contractor",
    "contractor": "Richards Disposal",
    "rowid": "1302749",
    "final_x": "3704519.11671",
    "final_y": "518076.378998",
    "longitude": "-89.99588029285822",
    "latitude": "29.917811463638035",
    "geocoded_column": {
      "latitude": "29.917811463638035",
      "longitude": "-89.99588029285822"
    }
  },
  {
    "service_request": "2026-1302748",
    "request_type": "Streetlights",
    "request_reason": "Streetlight Outage/Malfunction",
    "date_created": "2026-07-22T14:33:27.000",
    "date_modified": "2026-07-22T14:33:30.000",
    "request_status": "Pending",
    "responsible_agency": "Department of Public Works",
    "final_address": "0 BLK Napoleon Ave",
    "address_councildis": "B",
    "status": "Pending",
    "rowid": "1302748",
    "final_x": "3671264.72928",
    "final_y": "517124.731942",
    "longitude": "-90.10087861024765",
    "latitude": "29.916220149143637",
    "geocoded_column": {
      "latitude": "29.916220149143637",
      "longitude": "-90.10087861024765"
    }
  },
  {
    "service_request": "2026-1302747",
    "request_type": "Trash/Recycling",
    "request_reason": "Replace Trash Cart",
    "date_created": "2026-07-22T14:33:22.000",
    "date_modified": "2026-07-22T14:33:23.000",
    "request_status": "Pending",
    "responsible_agency": "Department of Sanitation",
    "final_address": "5301 Magnolia St",
    "address_councildis": "B",
    "status": "Assigned to Contractor",
    "contractor": "IV Waste",
    "rowid": "1302747",
    "final_x": "3668261.54362",
    "final_y": "524701.516348",
    "longitude": "-90.11010258300655",
    "latitude": "29.93714237889493",
    "geocoded_column": {
      "latitude": "29.93714237889493",
      "longitude": "-90.11010258300655"
    }
  },
  {
    "service_request": "2026-1302746",
    "request_type": "Trash/Recycling",
    "request_reason": "Repair Trash Cart",
    "date_created": "2026-07-22T14:32:59.000",
    "date_modified": "2026-07-22T14:33:01.000",
    "request_status": "Pending",
    "responsible_agency": "Department of Sanitation",
    "final_address": "5557 Berkley Dr",
    "address_councildis": "C",
    "status": "Assigned to Contractor",
    "contractor": "Richards Disposal",
    "rowid": "1302746",
    "final_x": "3704519.11671",
    "final_y": "518076.378998",
    "longitude": "-89.99588029285822",
    "latitude": "29.917811463638035",
    "geocoded_column": {
      "latitude": "29.917811463638035",
      "longitude": "-89.99588029285822"
    }
  },
  {
    "service_request": "2026-1302745",
    "request_type": "Parks & Grass Service",
    "request_reason": "Request Grass Cutting Service (City Owned Property)",
    "date_created": "2026-07-22T14:26:26.000",
    "date_modified": "2026-07-22T14:26:29.000",
    "request_status": "Pending",
    "responsible_agency": "Department of Parks & Parkways",
    "final_address": "6801 Franklin Ave",
    "address_councildis": "D",
    "status": "Pending",
    "rowid": "1302745",
    "final_x": "3686785.95247",
    "final_y": "558538.472732",
    "longitude": "-90.05042402606901",
    "latitude": "30.029625244502746",
    "geocoded_column": {
      "latitude": "30.029625244502746",
      "longitude": "-90.05042402606901"
    }
  },
  {
    "service_request": "2026-1302744",
    "request_type": "Trash/Recycling",
    "request_reason": "Request a Large Item Pick Up",
    "date_created": "2026-07-22T14:21:05.000",
    "date_modified": "2026-07-22T14:21:06.000",
    "request_status": "Pending",
    "responsible_agency": "Department of Sanitation",
    "final_address": "1209 Marigny St",
    "address_councildis": "C",
    "status": "Assigned to Contractor",
    "contractor": "IV Waste",
    "rowid": "1302744",
    "final_x": "3685412.70165",
    "final_y": "536800.03188",
    "longitude": "-90.05552951680313",
    "latitude": "29.969894569155546",
    "geocoded_column": {
      "latitude": "29.969894569155546",
      "longitude": "-90.05552951680313"
    }
  },
  {
    "service_request": "2026-1302743",
    "request_type": "Trash/Recycling",
    "request_reason": "Missed Trash Pick-Up",
    "date_created": "2026-07-22T14:19:04.000",
    "date_modified": "2026-07-22T14:25:28.000",
    "case_close_date": "2026-07-22T09:25:27.000",
    "request_status": "Closed",
    "responsible_agency": "Department of Sanitation",
    "final_address": "7300 BLK Heather Ct",
    "address_councildis": "E",
    "status": "Invalid Request",
    "contractor": "Waste Pro",
    "contractor_action": "Invalid",
    "rowid": "1302743",
    "final_x": "3705592.54088",
    "final_y": "562143.256078",
    "longitude": "-89.99086247862023",
    "latitude": "30.038944604307652",
    "geocoded_column": {
      "latitude": "30.038944604307652",
      "longitude": "-89.99086247862023"
    }
  },
  {
    "service_request": "2026-1302742",
    "request_type": "Trash/Recycling",
    "request_reason": "Request a Large Item Pick Up",
    "date_created": "2026-07-22T14:17:25.000",
    "date_modified": "2026-07-22T14:17:27.000",
    "request_status": "Pending",
    "responsible_agency": "Department of Sanitation",
    "final_address": "2723 Milan St",
    "address_councildis": "B",
    "status": "Assigned to Contractor",
    "contractor": "IV Waste",
    "rowid": "1302742",
    "final_x": "3671241.87815",
    "final_y": "525017.211517",
    "longitude": "-90.10068274597461",
    "latitude": "29.937922617594776",
    "geocoded_column": {
      "latitude": "29.937922617594776",
      "longitude": "-90.10068274597461"
    }
  },
  {
    "service_request": "2026-1302741",
    "request_type": "Trash/Recycling",
    "request_reason": "Repair Recycling Cart",
    "date_created": "2026-07-22T14:17:01.000",
    "date_modified": "2026-07-22T14:17:03.000",
    "request_status": "Pending",
    "responsible_agency": "Department of Sanitation",
    "final_address": "4330 San Remo St",
    "address_councildis": "E",
    "status": "Pending",
    "rowid": "1302741",
    "final_x": "3760635.28432",
    "final_y": "573423.847594",
    "longitude": "-89.81644459449376",
    "latitude": "30.06807306384643",
    "geocoded_column": {
      "latitude": "30.06807306384643",
      "longitude": "-89.81644459449376"
    }
  },
  {
    "service_request": "2026-1302740",
    "request_type": "Trash/Recycling",
    "request_reason": "Repair Recycling Cart",
    "date_created": "2026-07-22T14:13:36.000",
    "date_modified": "2026-07-22T14:13:38.000",
    "request_status": "Pending",
    "responsible_agency": "Department of Sanitation",
    "final_address": "9 Stilt St",
    "address_councildis": "D",
    "status": "Pending",
    "rowid": "1302740",
    "final_x": "3672705.67067",
    "final_y": "557221.275291",
    "longitude": "-90.09496260904191",
    "latitude": "30.02642938018504",
    "geocoded_column": {
      "latitude": "30.02642938018504",
      "longitude": "-90.09496260904191"
    }
  },
  {
    "service_request": "2026-1302739",
    "request_type": "Abandoned Vehicles",
    "request_reason": "Abandoned/Junk Vehicles",
    "date_created": "2026-07-22T14:13:26.000",
    "date_modified": "2026-07-22T14:13:28.000",
    "request_status": "Pending",
    "responsible_agency": "Department of Public Works",
    "final_address": "4485 St Roch Ave",
    "address_councildis": "D",
    "status": "Pending",
    "rowid": "1302739",
    "final_x": "3685503.20738",
    "final_y": "549491.848083",
    "longitude": "-90.05479645447701",
    "latitude": "30.004789781036852",
    "geocoded_column": {
      "latitude": "30.004789781036852",
      "longitude": "-90.05479645447701"
    }
  },
  {
    "service_request": "2026-1302738",
    "request_type": "Trash/Recycling",
    "request_reason": "Request a Large Item Pick Up",
    "date_created": "2026-07-22T14:09:24.000",
    "date_modified": "2026-07-22T14:09:26.000",
    "request_status": "Pending",
    "responsible_agency": "Department of Sanitation",
    "final_address": "4430 Lancelot Dr",
    "address_councildis": "E",
    "status": "Assigned to Contractor",
    "contractor": "Waste Pro",
    "rowid": "1302738",
    "final_x": "3707544.13688",
    "final_y": "553760.070743",
    "longitude": "-89.98500668723098",
    "latitude": "30.01583111096896",
    "geocoded_column": {
      "latitude": "30.01583111096896",
      "longitude": "-89.98500668723098"
    }
  },
  {
    "service_request": "2026-1302737",
    "request_type": "Property Maintenance",
    "request_reason": "Property Maintenance",
    "date_created": "2026-07-22T14:09:19.000",
    "date_modified": "2026-07-22T14:09:22.000",
    "request_status": "Pending",
    "responsible_agency": "Department of Code Enforcement",
    "final_address": "4123 Willow St",
    "address_councildis": "B",
    "status": "Pending",
    "rowid": "1302737",
    "final_x": "3671327.48929",
    "final_y": "525563.021437",
    "longitude": "-90.10039392225399",
    "latitude": "29.939420885194362",
    "geocoded_column": {
      "latitude": "29.939420885194362",
      "longitude": "-90.10039392225399"
    }
  },
  {
    "service_request": "2026-1302736",
    "request_type": "Trash/Recycling",
    "request_reason": "Request a Large Item Pick Up",
    "date_created": "2026-07-22T14:07:22.000",
    "date_modified": "2026-07-22T14:07:24.000",
    "request_status": "Pending",
    "responsible_agency": "Department of Sanitation",
    "final_address": "313 Atlantic Ave",
    "address_councildis": "C",
    "status": "Assigned to Contractor",
    "contractor": "Richards Disposal",
    "rowid": "1302736",
    "final_x": "3688792.22147",
    "final_y": "530598.50125",
    "longitude": "-90.04507689353375",
    "latitude": "29.95273845495151",
    "geocoded_column": {
      "latitude": "29.95273845495151",
      "longitude": "-90.04507689353375"
    }
  },
  {
    "service_request": "2026-1302735",
    "request_type": "Trash/Recycling",
    "request_reason": "Request a Large Item Pick Up",
    "date_created": "2026-07-22T14:06:20.000",
    "date_modified": "2026-07-22T14:06:22.000",
    "request_status": "Pending",
    "responsible_agency": "Department of Sanitation",
    "final_address": "13220 Willowbrook Dr",
    "address_councildis": "E",
    "status": "Assigned to Contractor",
    "contractor": "Waste Pro",
    "rowid": "1302735",
    "final_x": "3726713.56582",
    "final_y": "564108.952993",
    "longitude": "-89.92403868297997",
    "latitude": "30.043652134556407",
    "geocoded_column": {
      "latitude": "30.043652134556407",
      "longitude": "-89.92403868297997"
    }
  },
  {
    "service_request": "2026-1302734",
    "request_type": "Safety & Permits",
    "request_reason": "Zoning Enforcement",
    "date_created": "2026-07-22T14:02:19.000",
    "date_modified": "2026-07-22T14:02:21.000",
    "request_status": "Pending",
    "responsible_agency": "Safety and Permits",
    "final_address": "7536 Avon Park Blvd",
    "address_councildis": "E",
    "status": "Pending",
    "rowid": "1302734",
    "final_x": "3720042.19468",
    "final_y": "572349.401193",
    "longitude": "-89.94480722972182",
    "latitude": "30.06653386973118",
    "geocoded_column": {
      "latitude": "30.06653386973118",
      "longitude": "-89.94480722972182"
    }
  },
  {
    "service_request": "2026-1302733",
    "request_type": "Graffiti Removal",
    "request_reason": "Graffiti Removal",
    "date_created": "2026-07-22T13:59:39.000",
    "date_modified": "2026-07-22T13:59:41.000",
    "request_status": "Pending",
    "responsible_agency": "Department of Code Enforcement",
    "final_address": "603 S Clark St",
    "address_councildis": "B",
    "status": "Pending",
    "rowid": "1302733",
    "final_x": "3671544.33563",
    "final_y": "535321.205446",
    "longitude": "-90.09937753808777",
    "latitude": "29.96624625479609",
    "geocoded_column": {
      "latitude": "29.96624625479609",
      "longitude": "-90.09937753808777"
    }
  },
  {
    "service_request": "2026-1302732",
    "request_type": "Trash/Recycling",
    "request_reason": "Illegal Dumping",
    "date_created": "2026-07-22T13:58:41.000",
    "date_modified": "2026-07-22T13:58:43.000",
    "request_status": "Pending",
    "responsible_agency": "Department of Sanitation",
    "final_address": "1200 N Prieur St",
    "address_councildis": "C",
    "status": "Pending",
    "rowid": "1302732",
    "final_x": "3680113.57167",
    "final_y": "536768.944968",
    "longitude": "-90.07226575162032",
    "latitude": "29.969970515424865",
    "geocoded_column": {
      "latitude": "29.969970515424865",
      "longitude": "-90.07226575162032"
    }
  },
  {
    "service_request": "2026-1302731",
    "request_type": "Property Maintenance",
    "request_reason": "Property Maintenance",
    "date_created": "2026-07-22T13:58:14.000",
    "date_modified": "2026-07-22T14:17:09.000",
    "case_close_date": "2026-07-22T09:17:07.000",
    "request_status": "Closed",
    "responsible_agency": "Department of Code Enforcement",
    "final_address": "7649 Marquis St",
    "address_councildis": "E",
    "status": "Referred to Code Enforcement",
    "rowid": "1302731",
    "final_x": "3711246.01406",
    "final_y": "566340.620451",
    "longitude": "-89.97283858913848",
    "latitude": "30.05030233075018",
    "geocoded_column": {
      "latitude": "30.05030233075018",
      "longitude": "-89.97283858913848"
    }
  },
  {
    "service_request": "2026-1302730",
    "request_type": "Trash/Recycling",
    "request_reason": "Request a Large Item Pick Up",
    "date_created": "2026-07-22T13:57:34.000",
    "date_modified": "2026-07-22T13:57:38.000",
    "request_status": "Pending",
    "responsible_agency": "Department of Sanitation",
    "final_address": "4836 Shalimar Dr",
    "address_councildis": "D",
    "status": "Assigned to Contractor",
    "contractor": "Waste Pro",
    "rowid": "1302730",
    "final_x": "3697066.28976",
    "final_y": "554750.117592",
    "longitude": "-90.01807588181234",
    "latitude": "30.01888821786228",
    "geocoded_column": {
      "latitude": "30.01888821786228",
      "longitude": "-90.01807588181234"
    }
  },
  {
    "service_request": "2026-1302729",
    "request_type": "Street and Traffic Signs",
    "request_reason": "Traffic or Parking Sign Damaged or Missing",
    "date_created": "2026-07-22T13:54:59.000",
    "date_modified": "2026-07-22T13:55:01.000",
    "request_status": "Pending",
    "responsible_agency": "Department of Public Works",
    "final_address": "TULANE AVE & S CARROLLTON AVE",
    "address_councildis": "A",
    "status": "Pending",
    "rowid": "1302729",
    "final_x": "3669243.6",
    "final_y": "536304.18",
    "longitude": "-90.1066100036471",
    "latitude": "29.96901703354732",
    "geocoded_column": {
      "latitude": "29.96901703354732",
      "longitude": "-90.1066100036471"
    }
  },
  {
    "service_request": "2026-1302728",
    "request_type": "Trash/Recycling",
    "request_reason": "Illegal Dumping",
    "date_created": "2026-07-22T13:50:16.000",
    "date_modified": "2026-07-22T13:50:18.000",
    "request_status": "Pending",
    "responsible_agency": "Department of Sanitation",
    "final_address": "2124 Charbonnet St",
    "address_councildis": "E",
    "status": "Pending",
    "rowid": "1302728",
    "final_x": "3699645.81732",
    "final_y": "537569.899272",
    "longitude": "-90.01055219398123",
    "latitude": "29.9715673173598",
    "geocoded_column": {
      "latitude": "29.9715673173598",
      "longitude": "-90.01055219398123"
    }
  },
  {
    "service_request": "2026-1302727",
    "request_type": "Trash/Recycling",
    "request_reason": "Request a Large Item Pick Up",
    "date_created": "2026-07-22T13:49:45.000",
    "date_modified": "2026-07-22T13:49:48.000",
    "request_status": "Pending",
    "responsible_agency": "Department of Sanitation",
    "final_address": "5707 N Galvez St",
    "address_councildis": "E",
    "status": "Assigned to Contractor",
    "contractor": "Waste Pro",
    "rowid": "1302727",
    "final_x": "3699453.67204",
    "final_y": "537431.034312",
    "longitude": "-90.01116407392497",
    "latitude": "29.971191586576275",
    "geocoded_column": {
      "latitude": "29.971191586576275",
      "longitude": "-90.01116407392497"
    }
  },
  {
    "service_request": "2026-1302726",
    "request_type": "Abandoned Vehicles",
    "request_reason": "Abandoned/Junk Vehicles",
    "date_created": "2026-07-22T13:49:24.000",
    "date_modified": "2026-07-22T13:49:26.000",
    "request_status": "Pending",
    "responsible_agency": "Department of Public Works",
    "final_address": "2704 Lavender St",
    "address_councildis": "D",
    "status": "Pending",
    "rowid": "1302726",
    "final_x": "3687891.67049",
    "final_y": "546959.058001",
    "longitude": "-90.04734064376291",
    "latitude": "29.997752031501022",
    "geocoded_column": {
      "latitude": "29.997752031501022",
      "longitude": "-90.04734064376291"
    }
  },
  {
    "service_request": "2026-1302725",
    "request_type": "Trash/Recycling",
    "request_reason": "Repair Trash Cart",
    "date_created": "2026-07-22T13:48:44.000",
    "date_modified": "2026-07-22T13:48:46.000",
    "request_status": "Pending",
    "responsible_agency": "Department of Sanitation",
    "final_address": "5302 Wilton Dr",
    "address_councildis": "D",
    "status": "Assigned to Contractor",
    "contractor": "IV Waste",
    "rowid": "1302725",
    "final_x": "3681898.975",
    "final_y": "552197.835734",
    "longitude": "-90.06608839227944",
    "latitude": "30.012340358263998",
    "geocoded_column": {
      "latitude": "30.012340358263998",
      "longitude": "-90.06608839227944"
    }
  },
  {
    "service_request": "2026-1302724",
    "request_type": "Parks & Grass Service",
    "request_reason": "Request Grass Cutting Service (City Owned Property)",
    "date_created": "2026-07-22T13:43:22.000",
    "date_modified": "2026-07-22T13:43:23.000",
    "request_status": "Pending",
    "responsible_agency": "Department of Parks & Parkways",
    "final_address": "2124 Charbonnet St",
    "address_councildis": "E",
    "status": "Pending",
    "rowid": "1302724",
    "final_x": "3699645.81732",
    "final_y": "537569.899272",
    "longitude": "-90.01055219398123",
    "latitude": "29.9715673173598",
    "geocoded_column": {
      "latitude": "29.9715673173598",
      "longitude": "-90.01055219398123"
    }
  },
  {
    "service_request": "2026-1302723",
    "request_type": "Trash/Recycling",
    "request_reason": "Repair Trash Cart",
    "date_created": "2026-07-22T13:43:15.000",
    "date_modified": "2026-07-22T13:43:17.000",
    "request_status": "Pending",
    "responsible_agency": "Department of Sanitation",
    "final_address": "40 Westpark Ct",
    "address_councildis": "C",
    "status": "Assigned to Contractor",
    "contractor": "Richards Disposal",
    "rowid": "1302723",
    "final_x": "3695885.69398",
    "final_y": "521714.389946",
    "longitude": "-90.02299978561423",
    "latitude": "29.928089024538547",
    "geocoded_column": {
      "latitude": "29.928089024538547",
      "longitude": "-90.02299978561423"
    }
  },
  {
    "service_request": "2026-1302722",
    "request_type": "Roads and Streets",
    "request_reason": "Pothole",
    "date_created": "2026-07-22T13:39:33.000",
    "date_modified": "2026-07-22T13:39:35.000",
    "request_status": "Pending",
    "responsible_agency": "Department of Public Works",
    "final_address": "8210 Curran Rd",
    "address_councildis": "E",
    "status": "Pending",
    "rowid": "1302722",
    "final_x": "3702794.18737",
    "final_y": "561827.933151",
    "longitude": "-89.99971759939316",
    "latitude": "30.038167440993618",
    "geocoded_column": {
      "latitude": "30.038167440993618",
      "longitude": "-89.99971759939316"
    }
  },
  {
    "service_request": "2026-1302721",
    "request_type": "Trash/Recycling",
    "request_reason": "Request a Large Item Pick Up",
    "date_created": "2026-07-22T13:37:31.000",
    "date_modified": "2026-07-22T13:37:35.000",
    "request_status": "Pending",
    "responsible_agency": "Department of Sanitation",
    "final_address": "847 Behrman Ave",
    "address_councildis": "C",
    "status": "Assigned to Contractor",
    "contractor": "Richards Disposal",
    "rowid": "1302721",
    "final_x": "3691399.20937",
    "final_y": "528158.693951",
    "longitude": "-90.036932383419",
    "latitude": "29.945948976585704",
    "geocoded_column": {
      "latitude": "29.945948976585704",
      "longitude": "-90.036932383419"
    }
  },
  {
    "service_request": "2026-1302720",
    "request_type": "Abandoned Vehicles",
    "request_reason": "Abandoned/Junk Vehicles",
    "date_created": "2026-07-22T13:36:23.000",
    "date_modified": "2026-07-22T13:36:26.000",
    "request_status": "Pending",
    "responsible_agency": "Department of Public Works",
    "final_address": "3445 River Oaks Dr",
    "address_councildis": "C",
    "status": "Pending",
    "rowid": "1302720",
    "final_x": "3701346.94372",
    "final_y": "518335.53855",
    "longitude": "-90.00588354626782",
    "latitude": "29.91862549288933",
    "geocoded_column": {
      "latitude": "29.91862549288933",
      "longitude": "-90.00588354626782"
    }
  },
  {
    "service_request": "2026-1302719",
    "request_type": "Abandoned Vehicles",
    "request_reason": "Abandoned/Junk Vehicles",
    "date_created": "2026-07-22T13:34:01.000",
    "date_modified": "2026-07-22T13:34:03.000",
    "request_status": "Pending",
    "responsible_agency": "Department of Public Works",
    "final_address": "7816 Cohn St",
    "address_councildis": "A",
    "status": "Pending",
    "rowid": "1302719",
    "final_x": "3664307.34426",
    "final_y": "529505.967361",
    "longitude": "-90.12242598711182",
    "latitude": "29.950468557573856",
    "geocoded_column": {
      "latitude": "29.950468557573856",
      "longitude": "-90.12242598711182"
    }
  },
  {
    "service_request": "2026-1302718",
    "request_type": "Street and Traffic Signs",
    "request_reason": "Additional Signage Request",
    "date_created": "2026-07-22T13:33:44.000",
    "date_modified": "2026-07-22T13:33:45.000",
    "request_status": "Pending",
    "responsible_agency": "Department of Public Works",
    "final_address": "226 Carondelet St",
    "address_councildis": "B",
    "status": "Pending",
    "rowid": "1302718",
    "final_x": "3680577.63528",
    "final_y": "530289.810113",
    "longitude": "-90.07102560928817",
    "latitude": "29.95214104898222",
    "geocoded_column": {
      "latitude": "29.95214104898222",
      "longitude": "-90.07102560928817"
    }
  },
  {
    "service_request": "2026-1302717",
    "request_type": "Parks & Grass Service",
    "request_reason": "Request Grass Cutting Service (City Owned Property)",
    "date_created": "2026-07-22T13:32:55.000",
    "date_modified": "2026-07-22T13:32:58.000",
    "request_status": "Pending",
    "responsible_agency": "Department of Parks & Parkways",
    "final_address": "4671 Lennox Blvd",
    "address_councildis": "C",
    "status": "Pending",
    "rowid": "1302717",
    "final_x": "3700666.20074",
    "final_y": "513549.022578",
    "longitude": "-90.00820700382864",
    "latitude": "29.905485867042838",
    "geocoded_column": {
      "latitude": "29.905485867042838",
      "longitude": "-90.00820700382864"
    }
  },
  {
    "service_request": "2026-1302716",
    "request_type": "Property Maintenance",
    "request_reason": "Property Maintenance",
    "date_created": "2026-07-22T13:30:02.000",
    "date_modified": "2026-07-22T14:04:39.000",
    "case_close_date": "2026-07-22T09:04:38.000",
    "request_status": "Closed",
    "responsible_agency": "Department of Code Enforcement",
    "final_address": "6240 Marigny St",
    "address_councildis": "D",
    "status": "Referred to Code Enforcement",
    "rowid": "1302716",
    "final_x": "3683739.40674",
    "final_y": "556115.736538",
    "longitude": "-90.06013612569528",
    "latitude": "30.023057054502207",
    "geocoded_column": {
      "latitude": "30.023057054502207",
      "longitude": "-90.06013612569528"
    }
  },
  {
    "service_request": "2026-1302715",
    "request_type": "Property Maintenance",
    "request_reason": "Property Maintenance",
    "date_created": "2026-07-22T13:28:10.000",
    "date_modified": "2026-07-22T14:01:37.000",
    "case_close_date": "2026-07-22T09:01:35.000",
    "request_status": "Closed",
    "responsible_agency": "Department of Code Enforcement",
    "final_address": "3445 River Oaks Dr",
    "address_councildis": "C",
    "status": "Referred to Code Enforcement",
    "rowid": "1302715",
    "final_x": "3701346.94372",
    "final_y": "518335.53855",
    "longitude": "-90.00588354626782",
    "latitude": "29.91862549288933",
    "geocoded_column": {
      "latitude": "29.91862549288933",
      "longitude": "-90.00588354626782"
    }
  },
  {
    "service_request": "2026-1302714",
    "request_type": "Property Maintenance",
    "request_reason": "Property Maintenance",
    "date_created": "2026-07-22T13:27:01.000",
    "date_modified": "2026-07-22T13:27:02.000",
    "request_status": "Pending",
    "responsible_agency": "Department of Code Enforcement",
    "final_address": "6300 Marigny St",
    "address_councildis": "D",
    "status": "Pending",
    "rowid": "1302714",
    "final_x": "3683733.60585",
    "final_y": "556202.54825",
    "longitude": "-90.06015140729761",
    "latitude": "30.02329593192223",
    "geocoded_column": {
      "latitude": "30.02329593192223",
      "longitude": "-90.06015140729761"
    }
  },
  {
    "service_request": "2026-1302713",
    "request_type": "Trash/Recycling",
    "request_reason": "Request a Large Item Pick Up",
    "date_created": "2026-07-22T13:26:56.000",
    "date_modified": "2026-07-22T13:26:58.000",
    "request_status": "Pending",
    "responsible_agency": "Department of Sanitation",
    "final_address": "10900 Willowbrae Dr",
    "address_councildis": "E",
    "status": "Assigned to Contractor",
    "contractor": "Waste Pro",
    "rowid": "1302713",
    "final_x": "3711167.10725",
    "final_y": "564351.342241",
    "longitude": "-89.97316261719803",
    "latitude": "30.044835194641752",
    "geocoded_column": {
      "latitude": "30.044835194641752",
      "longitude": "-89.97316261719803"
    }
  },
  {
    "service_request": "2026-1302712",
    "request_type": "Abandoned Vehicles",
    "request_reason": "Abandoned/Junk Vehicles",
    "date_created": "2026-07-22T13:23:30.000",
    "date_modified": "2026-07-22T13:23:32.000",
    "request_status": "Pending",
    "responsible_agency": "Department of Public Works",
    "final_address": "3450 Hyman Pl",
    "address_councildis": "C",
    "status": "Pending",
    "rowid": "1302712",
    "final_x": "3700988.38762",
    "final_y": "518344.161846",
    "longitude": "-90.00701499645355",
    "latitude": "29.91866062085677",
    "geocoded_column": {
      "latitude": "29.91866062085677",
      "longitude": "-90.00701499645355"
    }
  },
  {
    "service_request": "2026-1302711",
    "request_type": "Trash/Recycling",
    "request_reason": "Repair Recycling Cart",
    "date_created": "2026-07-22T13:22:58.000",
    "date_modified": "2026-07-22T13:23:01.000",
    "request_status": "Pending",
    "responsible_agency": "Department of Sanitation",
    "final_address": "7046 Camp St",
    "address_councildis": "A",
    "status": "Pending",
    "rowid": "1302711",
    "final_x": "3661167.12211",
    "final_y": "521337.579385",
    "longitude": "-90.13261150046407",
    "latitude": "29.928098950716247",
    "geocoded_column": {
      "latitude": "29.928098950716247",
      "longitude": "-90.13261150046407"
    }
  },
  {
    "service_request": "2026-1302710",
    "request_type": "Property Maintenance",
    "request_reason": "Property Maintenance",
    "date_created": "2026-07-22T13:22:48.000",
    "date_modified": "2026-07-22T14:07:51.000",
    "case_close_date": "2026-07-22T09:07:50.000",
    "request_status": "Closed",
    "responsible_agency": "Department of Code Enforcement",
    "final_address": "2313 Monticello St",
    "address_councildis": "E",
    "status": "Referred to Code Enforcement",
    "rowid": "1302710",
    "final_x": "3700789.81911",
    "final_y": "537903.767817",
    "longitude": "-90.00692708507154",
    "latitude": "29.972448971893712",
    "geocoded_column": {
      "latitude": "29.972448971893712",
      "longitude": "-90.00692708507154"
    }
  },
  {
    "service_request": "2026-1302709",
    "request_type": "Safety & Permits",
    "request_reason": "Licenses & Permits",
    "date_created": "2026-07-22T13:19:25.000",
    "date_modified": "2026-07-22T13:19:27.000",
    "request_status": "Pending",
    "responsible_agency": "Safety and Permits",
    "final_address": "6000 BLK Dover Pl",
    "address_councildis": "C",
    "status": "Pending",
    "rowid": "1302709",
    "final_x": "3706476.80683",
    "final_y": "519081.162741",
    "longitude": "-89.98966380750461",
    "latitude": "29.920511293192494",
    "geocoded_column": {
      "latitude": "29.920511293192494",
      "longitude": "-89.98966380750461"
    }
  },
  {
    "service_request": "2026-1302708",
    "request_type": "Tree Service",
    "request_reason": "Tree Trim",
    "date_created": "2026-07-22T13:17:26.000",
    "date_modified": "2026-07-22T13:17:28.000",
    "request_status": "Pending",
    "responsible_agency": "Department of Parks & Parkways",
    "final_address": "1817 St Ann St",
    "address_councildis": "C",
    "status": "Pending",
    "rowid": "1302708",
    "final_x": "3679638.24866",
    "final_y": "535252.503622",
    "longitude": "-90.07381950977249",
    "latitude": "29.96581519637262",
    "geocoded_column": {
      "latitude": "29.96581519637262",
      "longitude": "-90.07381950977249"
    }
  },
  {
    "service_request": "2026-1302707",
    "request_type": "Trash/Recycling",
    "request_reason": "Request a Large Item Pick Up",
    "date_created": "2026-07-22T13:17:02.000",
    "date_modified": "2026-07-22T13:17:04.000",
    "request_status": "Pending",
    "responsible_agency": "Department of Sanitation",
    "final_address": "1834 St Roch Ave",
    "address_councildis": "D",
    "status": "Assigned to Contractor",
    "contractor": "IV Waste",
    "rowid": "1302707",
    "final_x": "3686049.73609",
    "final_y": "539280.564106",
    "longitude": "-90.05343020241577",
    "latitude": "29.976695615999745",
    "geocoded_column": {
      "latitude": "29.976695615999745",
      "longitude": "-90.05343020241577"
    }
  },
  {
    "service_request": "2026-1302706",
    "request_type": "Trash/Recycling",
    "request_reason": "Request a Large Item Pick Up",
    "date_created": "2026-07-22T13:16:27.000",
    "date_modified": "2026-07-22T13:16:30.000",
    "request_status": "Pending",
    "responsible_agency": "Department of Sanitation",
    "final_address": "1222 N Prieur St",
    "address_councildis": "C",
    "status": "Assigned to Contractor",
    "contractor": "IV Waste",
    "rowid": "1302706",
    "final_x": "3680215.38165",
    "final_y": "536826.495688",
    "longitude": "-90.07194222503591",
    "latitude": "29.970125678794645",
    "geocoded_column": {
      "latitude": "29.970125678794645",
      "longitude": "-90.07194222503591"
    }
  },
  {
    "service_request": "2026-1302705",
    "request_type": "Trash/Recycling",
    "request_reason": "Repair Trash Cart",
    "date_created": "2026-07-22T13:14:17.000",
    "date_modified": "2026-07-22T13:14:55.000",
    "request_status": "Pending",
    "responsible_agency": "Department of Sanitation",
    "final_address": "2513 N Galvez St",
    "address_councildis": "D",
    "status": "Assigned to Contractor",
    "contractor": "IV Waste",
    "rowid": "1302705",
    "final_x": "3687052.8639",
    "final_y": "540204.557963",
    "longitude": "-90.05022934215529",
    "latitude": "29.97920542552958",
    "geocoded_column": {
      "latitude": "29.97920542552958",
      "longitude": "-90.05022934215529"
    }
  },
  {
    "service_request": "2026-1302704",
    "request_type": "Trash/Recycling",
    "request_reason": "Request a Large Item Pick Up",
    "date_created": "2026-07-22T13:11:50.000",
    "date_modified": "2026-07-22T13:11:53.000",
    "request_status": "Pending",
    "responsible_agency": "Department of Sanitation",
    "final_address": "3527 Camp St Apt 1A",
    "address_councildis": "B",
    "status": "Assigned to Contractor",
    "contractor": "IV Waste",
    "rowid": "1302704",
    "final_x": "3674084.29467",
    "final_y": "519735.238456",
    "longitude": "-90.0918896541056",
    "latitude": "29.92331451679067",
    "geocoded_column": {
      "latitude": "29.92331451679067",
      "longitude": "-90.0918896541056"
    }
  },
  {
    "service_request": "2026-1302703",
    "request_type": "Trash/Recycling",
    "request_reason": "Request a Large Item Pick Up",
    "date_created": "2026-07-22T13:11:18.000",
    "date_modified": "2026-07-22T13:11:22.000",
    "request_status": "Pending",
    "responsible_agency": "Department of Sanitation",
    "final_address": "5631 Holley Ln",
    "address_councildis": "E",
    "status": "Assigned to Contractor",
    "contractor": "Waste Pro",
    "rowid": "1302703",
    "final_x": "3703380.6618",
    "final_y": "556672.768538",
    "longitude": "-89.9980540534838",
    "latitude": "30.023973963657713",
    "geocoded_column": {
      "latitude": "30.023973963657713",
      "longitude": "-89.9980540534838"
    }
  },
  {
    "service_request": "2026-1302702",
    "request_type": "Tree Service",
    "request_reason": "Dead or Dying Tree",
    "date_created": "2026-07-22T13:09:59.000",
    "date_modified": "2026-07-22T13:10:01.000",
    "request_status": "Pending",
    "responsible_agency": "Department of Parks & Parkways",
    "final_address": "3401 Garden Oaks Dr",
    "address_councildis": "C",
    "status": "Pending",
    "rowid": "1302702",
    "final_x": "3695929.3864",
    "final_y": "519258.341559",
    "longitude": "-90.02295052454501",
    "latitude": "29.921334352514187",
    "geocoded_column": {
      "latitude": "29.921334352514187",
      "longitude": "-90.02295052454501"
    }
  },
  {
    "service_request": "2026-1302701",
    "request_type": "Trash/Recycling",
    "request_reason": "Repair Trash Cart",
    "date_created": "2026-07-22T13:07:20.000",
    "date_modified": "2026-07-22T13:07:22.000",
    "request_status": "Pending",
    "responsible_agency": "Department of Sanitation",
    "final_address": "5946 Annunciation St",
    "address_councildis": "A",
    "status": "Assigned to Contractor",
    "contractor": "IV Waste",
    "rowid": "1302701",
    "final_x": "3664506.48122",
    "final_y": "517727.67871",
    "longitude": "-90.12219030577236",
    "latitude": "29.918076212527357",
    "geocoded_column": {
      "latitude": "29.918076212527357",
      "longitude": "-90.12219030577236"
    }
  },
  {
    "service_request": "2026-1302700",
    "request_type": "Drainage",
    "request_reason": "Catch Basin Not Draining",
    "date_created": "2026-07-22T13:04:19.000",
    "date_modified": "2026-07-22T13:17:38.000",
    "request_status": "Pending",
    "responsible_agency": "Sewerage & Water Board",
    "final_address": "1817 St Ann St",
    "address_councildis": "C",
    "status": "Pending",
    "rowid": "1302700",
    "final_x": "3679638.24866",
    "final_y": "535252.503622",
    "longitude": "-90.07381950977249",
    "latitude": "29.96581519637262",
    "geocoded_column": {
      "latitude": "29.96581519637262",
      "longitude": "-90.07381950977249"
    }
  },
  {
    "service_request": "2026-1302699",
    "request_type": "Traffic Signals",
    "request_reason": "Traffic Signal Malfunctioning or Damaged",
    "date_created": "2026-07-22T13:02:17.000",
    "date_modified": "2026-07-22T15:34:04.000",
    "case_close_date": "2026-07-22T10:34:02.000",
    "request_status": "Closed",
    "responsible_agency": "Department of Public Works",
    "final_address": "ESPLANADE AVE & N BROAD ST",
    "address_councildis": "A",
    "status": "Resolved",
    "rowid": "1302699",
    "final_x": "3678149.22",
    "final_y": "538964.74",
    "longitude": "-90.07839342059656",
    "latitude": "29.976067496615002",
    "geocoded_column": {
      "latitude": "29.976067496615002",
      "longitude": "-90.07839342059656"
    }
  },
  {
    "service_request": "2026-1302698",
    "request_type": "Property Maintenance",
    "request_reason": "Property Maintenance",
    "date_created": "2026-07-22T12:58:48.000",
    "date_modified": "2026-07-22T14:13:19.000",
    "case_close_date": "2026-07-22T09:13:18.000",
    "request_status": "Closed",
    "responsible_agency": "Department of Code Enforcement",
    "final_address": "1015 N Gayoso St",
    "address_councildis": "A",
    "status": "Referred to Code Enforcement",
    "rowid": "1302698",
    "final_x": "3676422.30734",
    "final_y": "538814.971849",
    "longitude": "-90.08385267575748",
    "latitude": "29.975707577815086",
    "geocoded_column": {
      "latitude": "29.975707577815086",
      "longitude": "-90.08385267575748"
    }
  },
  {
    "service_request": "2026-1302697",
    "request_type": "Trash/Recycling",
    "request_reason": "Request a Large Item Pick Up",
    "date_created": "2026-07-22T12:57:28.000",
    "date_modified": "2026-07-22T12:57:30.000",
    "request_status": "Pending",
    "responsible_agency": "Department of Sanitation",
    "final_address": "3931 Annunciation St",
    "address_councildis": "B",
    "status": "Assigned to Contractor",
    "contractor": "IV Waste",
    "rowid": "1302697",
    "final_x": "3673078.34414",
    "final_y": "517973.81759",
    "longitude": "-90.09512514905492",
    "latitude": "29.91850110184861",
    "geocoded_column": {
      "latitude": "29.91850110184861",
      "longitude": "-90.09512514905492"
    }
  },
  {
    "service_request": "2026-1302696",
    "request_type": "Tree Service",
    "request_reason": "Street or Sidewalk Blocked",
    "date_created": "2026-07-22T12:52:19.000",
    "date_modified": "2026-07-22T12:58:26.000",
    "request_status": "Pending",
    "responsible_agency": "Department of Parks & Parkways",
    "final_address": "LAUREL ST & DUFOSSAT ST",
    "address_councildis": "B",
    "status": "Pending",
    "rowid": "1302696",
    "final_x": "3668024.2",
    "final_y": "517869.18",
    "longitude": "-90.11108197867638",
    "latitude": "29.91836258942979",
    "geocoded_column": {
      "latitude": "29.91836258942979",
      "longitude": "-90.11108197867638"
    }
  },
  {
    "service_request": "2026-1302695",
    "request_type": "Trash/Recycling",
    "request_reason": "Request a Large Item Pick Up",
    "date_created": "2026-07-22T12:50:52.000",
    "date_modified": "2026-07-22T14:38:23.000",
    "request_status": "Pending",
    "responsible_agency": "Department of Sanitation",
    "final_address": "1118 Melpomene St",
    "address_councildis": "B",
    "status": "Assigned to Contractor",
    "contractor": "IV Waste",
    "rowid": "1302695",
    "final_x": "3680271.22312",
    "final_y": "524899.19878",
    "longitude": "-90.07218045531863",
    "latitude": "29.937327946345647",
    "geocoded_column": {
      "latitude": "29.937327946345647",
      "longitude": "-90.07218045531863"
    }
  },
  {
    "service_request": "2026-1302694",
    "request_type": "Trash/Recycling",
    "request_reason": "Request a Large Item Pick Up",
    "date_created": "2026-07-22T12:47:36.000",
    "date_modified": "2026-07-22T12:47:38.000",
    "request_status": "Pending",
    "responsible_agency": "Department of Sanitation",
    "final_address": "7900 Wave Dr",
    "address_councildis": "E",
    "status": "Assigned to Contractor",
    "contractor": "Waste Pro",
    "rowid": "1302694",
    "final_x": "3714276.82559",
    "final_y": "569578.098918",
    "longitude": "-89.96313702369538",
    "latitude": "30.059104774237635",
    "geocoded_column": {
      "latitude": "30.059104774237635",
      "longitude": "-89.96313702369538"
    }
  },
  {
    "service_request": "2026-1302693",
    "request_type": "Trash/Recycling",
    "request_reason": "Request a Large Item Pick Up",
    "date_created": "2026-07-22T12:44:52.000",
    "date_modified": "2026-07-22T12:44:54.000",
    "request_status": "Pending",
    "responsible_agency": "Department of Sanitation",
    "final_address": "700 River Oaks Dr",
    "address_councildis": "C",
    "status": "Assigned to Contractor",
    "contractor": "Richards Disposal",
    "rowid": "1302693",
    "final_x": "3701524.74602",
    "final_y": "520109.764024",
    "longitude": "-90.00525741230996",
    "latitude": "29.92349833836411",
    "geocoded_column": {
      "latitude": "29.92349833836411",
      "longitude": "-90.00525741230996"
    }
  },
  {
    "service_request": "2026-1302692",
    "request_type": "Streetlights",
    "request_reason": "Streetlight Outage/Malfunction",
    "date_created": "2026-07-22T12:40:13.000",
    "date_modified": "2026-07-22T12:40:16.000",
    "request_status": "Pending",
    "responsible_agency": "Department of Public Works",
    "final_address": "2853 Allen St",
    "address_councildis": "D",
    "status": "Pending",
    "rowid": "1302692",
    "final_x": "3682279.07503",
    "final_y": "542872.955981",
    "longitude": "-90.06521354411994",
    "latitude": "29.986688707827636",
    "geocoded_column": {
      "latitude": "29.986688707827636",
      "longitude": "-90.06521354411994"
    }
  },
  {
    "service_request": "2026-1302691",
    "request_type": "Trash/Recycling",
    "request_reason": "Repair Trash Cart",
    "date_created": "2026-07-22T12:39:03.000",
    "date_modified": "2026-07-22T12:39:06.000",
    "request_status": "Pending",
    "responsible_agency": "Department of Sanitation",
    "final_address": "920 Royal St",
    "address_councildis": "C",
    "status": "Assigned to Contractor",
    "contractor": "IV Waste",
    "rowid": "1302691",
    "final_x": "3683134.99772",
    "final_y": "533167.384708",
    "longitude": "-90.06284991674887",
    "latitude": "29.959975684767798",
    "geocoded_column": {
      "latitude": "29.959975684767798",
      "longitude": "-90.06284991674887"
    }
  },
  {
    "service_request": "2026-1302690",
    "request_type": "Utility Poles",
    "request_reason": "Utility Pole Leaning",
    "date_created": "2026-07-22T12:39:00.000",
    "date_modified": "2026-07-22T12:39:03.000",
    "request_status": "Pending",
    "responsible_agency": "Utility Company Collective",
    "final_address": "JEFFERSON AVE & S CLAIBORNE AVE",
    "address_councildis": "A",
    "status": "Pending",
    "rowid": "1302690",
    "final_x": "3668388.0",
    "final_y": "526228.78",
    "longitude": "-90.10965185923143",
    "latitude": "29.941338149304734",
    "geocoded_column": {
      "latitude": "29.941338149304734",
      "longitude": "-90.10965185923143"
    }
  },
  {
    "service_request": "2026-1302689",
    "request_type": "Trash/Recycling",
    "request_reason": "Order Recycling Cart",
    "date_created": "2026-07-22T12:37:04.000",
    "date_modified": "2026-07-22T12:37:06.000",
    "request_status": "Pending",
    "responsible_agency": "Department of Sanitation",
    "final_address": "424 Fern St",
    "address_councildis": "A",
    "status": "Pending",
    "rowid": "1302689",
    "final_x": "3660764.7849",
    "final_y": "525972.910141",
    "longitude": "-90.13372840169654",
    "latitude": "29.94085624001353",
    "geocoded_column": {
      "latitude": "29.94085624001353",
      "longitude": "-90.13372840169654"
    }
  },