[
  {
    "service_request": "2023-984501",
    "request_type": "Property Maintenance",
    "request_reason": "Property Maintenance",
    "date_created": "2023-03-20T22:59:36.000",
    "date_modified": "2023-03-20T22:59:36.000",
    "request_status": "Pending",
    "responsible_agency": "Department of Code Enforcement",
    "final_address": "136 S Scott St",
    "address_councildis": "A",
    "status": "Pending",
    "rowid": "984501",
    "final_x": "3671582.19681",
    "final_y": "537494.501576",
    "longitude": "-90.09918405122492",
    "latitude": "29.972220967264597",
    "geocoded_column": {
      "latitude": "29.972220967264597",
      "longitude": "-90.09918405122492"
    }
  },
  {
    "service_request": "2023-984500",
    "request_type": "Traffic Signals/Signs/Striping/Streetlights",
    "request_reason": "Street Light Outage/Malfunction",
    "date_created": "2023-03-20T22:35:08.000",
    "date_modified": "2023-03-20T22:35:09.000",
    "request_status": "Pending",
    "responsible_agency": "Department of Public Works",
    "final_address": "4646 Wright Rd",
    "address_councildis": "E",
    "status": "Assigned to Contractor",
    "contractor": "Legacy Professional Services",
    "rowid": "984500",
    "final_x": "3716626.99724",
    "final_y": "556433.51113",
    "longitude": "-89.95620775698325",
    "latitude": "30.02288500771418",
    "geocoded_column": {
      "latitude": "30.02288500771418",
      "longitude": "-89.95620775698325"
    }
  },
  {
    "service_request": "2023-984499",
    "request_type": "Traffic Signals/Signs/Striping/Streetlights",
    "request_reason": "Street Light Outage/Malfunction",
    "date_created": "2023-03-20T21:51:23.000",
    "date_modified": "2023-03-20T21:51:24.000",
    "request_status": "Pending",
    "responsible_agency": "Department of Public Works",
    "final_address": "2011 Chartres St",
    "address_councildis": "C",
    "status": "Assigned to Contractor",
    "contractor": "Legacy Professional Services",
    "rowid": "984499",
    "final_x": "3684613.92009",
    "final_y": "534498.126981",
    "longitude": "-90.05813304454537",
    "latitude": "29.963589596366827",
    "geocoded_column": {
      "latitude": "29.963589596366827",
      "longitude": "-90.05813304454537"
    }
  },
  {
    "service_request": "2023-984498",
    "request_type": "Property Maintenance",
    "request_reason": "Property Maintenance",
    "date_created": "2023-03-20T21:49:50.000",
    "date_modified": "2023-03-20T21:49:50.000",
    "request_status": "Pending",
    "responsible_agency": "Department of Code Enforcement",
    "final_address": "1642 N Villere St",
    "address_councildis": "C",
    "status": "Pending",
    "rowid": "984498",
    "final_x": "3682895.15196",
    "final_y": "537219.315592",
    "longitude": "-90.0634654957455",
    "latitude": "29.97112441036866",
    "geocoded_column": {
      "latitude": "29.97112441036866",
      "longitude": "-90.0634654957455"
    }
  },
  {
    "service_request": "2023-984497",
    "request_type": "Trash/Recycling",
    "request_reason": "Order Recycling Cart",
    "date_created": "2023-03-20T21:43:58.000",
    "date_modified": "2023-03-20T21:43:58.000",
    "request_status": "Pending",
    "responsible_agency": "Department of Sanitation",
    "final_address": "909 St Ann St",
    "address_councildis": "C",
    "status": "Pending",
    "rowid": "984497",
    "final_x": "3682153.93461",
    "final_y": "533273.28186",
    "longitude": "-90.06594419834427",
    "latitude": "29.9602967396159",
    "geocoded_column": {
      "latitude": "29.9602967396159",
      "longitude": "-90.06594419834427"
    }
  },
  {
    "service_request": "2023-984496",
    "request_type": "Trash/Recycling",
    "request_reason": "Order Recycling Cart",
    "date_created": "2023-03-20T21:42:01.000",
    "date_modified": "2023-03-20T21:42:01.000",
    "request_status": "Pending",
    "responsible_agency": "Department of Sanitation",
    "final_address": "1620 N Villere St",
    "address_councildis": "C",
    "status": "Pending",
    "rowid": "984496",
    "final_x": "3682725.78504",
    "final_y": "537204.024136",
    "longitude": "-90.06400091365587",
    "latitude": "29.971087524159778",
    "geocoded_column": {
      "latitude": "29.971087524159778",
      "longitude": "-90.06400091365587"
    }
  },
  {
    "service_request": "2023-984495",
    "request_type": "Abandoned Vehicles",
    "request_reason": "Abandoned/Junk Vehicles",
    "date_created": "2023-03-20T21:29:14.000",
    "date_modified": "2023-03-20T21:29:14.000",
    "request_status": "Pending",
    "responsible_agency": "Department of Public Works",
    "final_address": "1441 N Prieur St",
    "address_councildis": "D",
    "status": "Pending",
    "rowid": "984495",
    "final_x": "3680609.07586",
    "final_y": "537537.75956",
    "longitude": "-90.07067414625665",
    "latitude": "29.972069486703433",
    "geocoded_column": {
      "latitude": "29.972069486703433",
      "longitude": "-90.07067414625665"
    }
  },
  {
    "service_request": "2023-984494",
    "request_type": "Traffic Signals/Signs/Striping/Streetlights",
    "request_reason": "Street Light Outage/Malfunction",
    "date_created": "2023-03-20T21:09:33.000",
    "date_modified": "2023-03-20T21:09:33.000",
    "request_status": "Pending",
    "responsible_agency": "Department of Public Works",
    "final_address": "7901 Lehigh St",
    "address_councildis": "E",
    "status": "Assigned to Contractor",
    "contractor": "Legacy Professional Services",
    "rowid": "984494",
    "final_x": "3710001.84145",
    "final_y": "566639.118435",
    "longitude": "-89.97675976638644",
    "latitude": "30.051163639475664",
    "geocoded_column": {
      "latitude": "30.051163639475664",
      "longitude": "-89.97675976638644"
    }
  },
  {
    "service_request": "2023-984493",
    "request_type": "Trash/Recycling",
    "request_reason": "Replace Recycling Cart",
    "date_created": "2023-03-20T20:55:02.000",
    "date_modified": "2023-03-20T20:55:02.000",
    "request_status": "Pending",
    "responsible_agency": "Department of Sanitation",
    "final_address": "1223 pleasant street New Orleans La 70115",
    "address_councildis": "B",
    "status": "Pending",
    "rowid": "984493",
    "final_x": "3675328.23144",
    "final_y": "520383.518392",
    "longitude": "-90.08794076970584",
    "latitude": "29.925059960964063",
    "geocoded_column": {
      "latitude": "29.925059960964063",
      "longitude": "-90.08794076970584"
    }
  },
  {
    "service_request": "2023-984492",
    "request_type": "Abandoned Vehicles",
    "request_reason": "Abandoned/Junk Vehicles",
    "date_created": "2023-03-20T20:12:51.000",
    "date_modified": "2023-03-20T20:12:51.000",
    "request_status": "Pending",
    "responsible_agency": "Department of Public Works",
    "final_address": "4422 N Robertson St",
    "address_councildis": "D",
    "status": "Pending",
    "rowid": "984492",
    "final_x": "3693575.94109",
    "final_y": "536406.315015",
    "longitude": "-90.02976348594552",
    "latitude": "29.96855915091094",
    "geocoded_column": {
      "latitude": "29.96855915091094",
      "longitude": "-90.02976348594552"
    }
  },
  {
    "service_request": "2023-984491",
    "request_type": "Trash/Recycling",
    "request_reason": "Request a Large Item Pick Up",
    "date_created": "2023-03-20T19:53:20.000",
    "date_modified": "2023-03-20T19:53:21.000",
    "request_status": "Pending",
    "responsible_agency": "Department of Sanitation",
    "final_address": "4346 Wellington Ave",
    "address_councildis": "D",
    "status": "Assigned to Contractor",
    "contractor": "IV Waste",
    "rowid": "984491",
    "final_x": "3677154.53723",
    "final_y": "548412.33909",
    "longitude": "-90.08120886040687",
    "latitude": "30.00207501544259",
    "geocoded_column": {
      "latitude": "30.00207501544259",
      "longitude": "-90.08120886040687"
    }
  },
  {
    "service_request": "2023-984490",
    "request_type": "Trash/Recycling",
    "request_reason": "MIssed Recycling Pick-Up",
    "date_created": "2023-03-20T19:52:17.000",
    "date_modified": "2023-03-20T19:52:18.000",
    "request_status": "Pending",
    "responsible_agency": "Department of Sanitation",
    "final_address": "747 S Genois St",
    "address_councildis": "B",
    "status": "Assigned to Contractor",
    "contractor": "Richards Disposal",
    "rowid": "984490",
    "final_x": "3670901.85537",
    "final_y": "535018.57031",
    "longitude": "-90.10141675811427",
    "latitude": "29.965433118263814",
    "geocoded_column": {
      "latitude": "29.965433118263814",
      "longitude": "-90.10141675811427"
    }
  },
  {
    "service_request": "2023-984489",
    "request_type": "Trash/Recycling",
    "request_reason": "Illegal Dumping",
    "date_created": "2023-03-20T19:37:10.000",
    "date_modified": "2023-03-20T19:37:10.000",
    "request_status": "Pending",
    "responsible_agency": "Department of Sanitation",
    "final_address": "12500 Morrison Rd",
    "address_councildis": "E",
    "status": "Pending",
    "rowid": "984489",
    "final_x": "3715819.41887",
    "final_y": "568570.992165",
    "longitude": "-89.95829926500231",
    "latitude": "30.056284835798667",
    "geocoded_column": {
      "latitude": "30.056284835798667",
      "longitude": "-89.95829926500231"
    }
  },
  {
    "service_request": "2023-984488",
    "request_type": "Trash/Recycling",
    "request_reason": "MIssed Recycling Pick-Up",
    "date_created": "2023-03-20T19:13:52.000",
    "date_modified": "2023-03-20T19:13:52.000",
    "request_status": "Pending",
    "responsible_agency": "Department of Sanitation",
    "final_address": "5207 Conti St",
    "address_councildis": "A",
    "status": "Assigned to Contractor",
    "contractor": "IV Waste",
    "rowid": "984488",
    "final_x": "3668586.01844",
    "final_y": "541767.853452",
    "longitude": "-90.10850225582462",
    "latitude": "29.984059637079987",
    "geocoded_column": {
      "latitude": "29.984059637079987",
      "longitude": "-90.10850225582462"
    }
  },
  {
    "service_request": "2023-984487",
    "request_type": "Trash/Recycling",
    "request_reason": "Order Recycling Cart",
    "date_created": "2023-03-20T19:12:02.000",
    "date_modified": "2023-03-20T19:12:02.000",
    "request_status": "Pending",
    "responsible_agency": "Department of Sanitation",
    "final_address": "5220 Chamberlain Dr",
    "address_councildis": "D",
    "status": "Pending",
    "rowid": "984487",
    "final_x": "3679450.66248",
    "final_y": "551509.462549",
    "longitude": "-90.07384759295488",
    "latitude": "30.010521805136797",
    "geocoded_column": {
      "latitude": "30.010521805136797",
      "longitude": "-90.07384759295488"
    }
  },
  {
    "service_request": "2023-984486",
    "request_type": "Trash/Recycling",
    "request_reason": "Replace Trash Cart",
    "date_created": "2023-03-20T19:09:32.000",
    "date_modified": "2023-03-20T19:09:33.000",
    "request_status": "Pending",
    "responsible_agency": "Department of Sanitation",
    "final_address": "3324 Iberville St",
    "address_councildis": "B",
    "status": "Assigned to Contractor",
    "contractor": "Richards Disposal",
    "rowid": "984486",
    "final_x": "3673645.72699",
    "final_y": "536829.175304",
    "longitude": "-90.09268981348141",
    "latitude": "29.970330271090557",
    "geocoded_column": {
      "latitude": "29.970330271090557",
      "longitude": "-90.09268981348141"
    }
  },
  {
    "service_request": "2023-984485",
    "request_type": "Trash/Recycling",
    "request_reason": "Request a Large Item Pick Up",
    "date_created": "2023-03-20T18:57:58.000",
    "date_modified": "2023-03-20T18:57:59.000",
    "request_status": "Pending",
    "responsible_agency": "Department of Sanitation",
    "final_address": "2445 Gladiolus St",
    "address_councildis": "D",
    "status": "Assigned to Contractor",
    "contractor": "IV Waste",
    "rowid": "984485",
    "final_x": "3685956.75599",
    "final_y": "547468.593553",
    "longitude": "-90.05343500327011",
    "latitude": "29.999212639637452",
    "geocoded_column": {
      "latitude": "29.999212639637452",
      "longitude": "-90.05343500327011"
    }
  },
  {
    "service_request": "2023-984484",
    "request_type": "Roads/Drainage",
    "request_reason": "Accessibility Ramps, Curbs and Sidewalk Repair",
    "date_created": "2023-03-20T18:55:06.000",
    "date_modified": "2023-03-20T18:55:06.000",
    "request_status": "Pending",
    "responsible_agency": "Department of Public Works",
    "final_address": "8221 Zimple St",
    "address_councildis": "A",
    "status": "Pending",
    "rowid": "984484",
    "final_x": "3661370.59693",
    "final_y": "528492.66144",
    "longitude": "-90.1317323114893",
    "latitude": "29.94776730035915",
    "geocoded_column": {
      "latitude": "29.94776730035915",
      "longitude": "-90.1317323114893"
    }
  },
  {
    "service_request": "2023-984483",
    "request_type": "Trash/Recycling",
    "request_reason": "Request a Large Item Pick Up",
    "date_created": "2023-03-20T18:51:57.000",
    "date_modified": "2023-03-20T18:51:57.000",
    "request_status": "Pending",
    "responsible_agency": "Department of Sanitation",
    "final_address": "4807 Wilson Ave",
    "address_councildis": "E",
    "status": "Assigned to Contractor",
    "contractor": "Waste Pro",
    "rowid": "984483",
    "final_x": "3703042.41975",
    "final_y": "555253.923545",
    "longitude": "-89.9991750263978",
    "latitude": "30.0200835198258",
    "geocoded_column": {
      "latitude": "30.0200835198258",
      "longitude": "-89.9991750263978"
    }
  },
  {
    "service_request": "2023-984482",
    "request_type": "Trash/Recycling",
    "request_reason": "Order Trash Cart",
    "date_created": "2023-03-20T18:51:00.000",
    "date_modified": "2023-03-20T18:51:00.000",
    "request_status": "Pending",
    "responsible_agency": "Department of Sanitation",
    "final_address": "3654 Timber Bluff Ln",
    "address_councildis": "C",
    "status": "Assigned to Contractor",
    "contractor": "Richards Disposal",
    "rowid": "984482",
    "final_x": "3704089.36938",
    "final_y": "510834.925295",
    "longitude": "-89.99750322869716",
    "latitude": "29.89791372250601",
    "geocoded_column": {
      "latitude": "29.89791372250601",
      "longitude": "-89.99750322869716"
    }
  },
  {
    "service_request": "2023-984481",
    "request_type": "Trash/Recycling",
    "request_reason": "Request a Large Item Pick Up",
    "date_created": "2023-03-20T18:50:17.000",
    "date_modified": "2023-03-20T18:50:17.000",
    "request_status": "Pending",
    "responsible_agency": "Department of Sanitation",
    "final_address": "3026 Constance St",
    "address_councildis": "B",
    "status": "Assigned to Contractor",
    "contractor": "Richards Disposal",
    "rowid": "984481",
    "final_x": "3676393.68411",
    "final_y": "519905.80364",
    "longitude": "-90.08459391085",
    "latitude": "29.92371451505227",
    "geocoded_column": {
      "latitude": "29.92371451505227",
      "longitude": "-90.08459391085"
    }
  },
  {
    "service_request": "2023-984480",
    "request_type": "Abandoned Vehicles",
    "request_reason": "Abandoned/Junk Vehicles",
    "date_created": "2023-03-20T18:46:51.000",
    "date_modified": "2023-03-20T18:46:52.000",
    "request_status": "Pending",
    "responsible_agency": "Department of Public Works",
    "final_address": "4000 BLK Palmyra St",
    "address_councildis": "A",
    "status": "Pending",
    "rowid": "984480",
    "final_x": "3670801.69773",
    "final_y": "537563.662849",
    "longitude": "-90.10164665770687",
    "latitude": "29.972434229429286",
    "geocoded_column": {
      "latitude": "29.972434229429286",
      "longitude": "-90.10164665770687"
    }
  },
  {
    "service_request": "2023-984479",
    "request_type": "Trash/Recycling",
    "request_reason": "Order Recycling Cart",
    "date_created": "2023-03-20T18:46:08.000",
    "date_modified": "2023-03-20T18:46:08.000",
    "request_status": "Pending",
    "responsible_agency": "Department of Sanitation",
    "final_address": "2029 S Carrollton Ave",
    "address_councildis": "A",
    "status": "Pending",
    "rowid": "984479",
    "final_x": "3664137.28352",
    "final_y": "530511.98893",
    "longitude": "-90.1229293982272",
    "latitude": "29.953239732006622",
    "geocoded_column": {
      "latitude": "29.953239732006622",
      "longitude": "-90.1229293982272"
    }
  },
  {
    "service_request": "2023-984478",
    "request_type": "Trash/Recycling",
    "request_reason": "Illegal Dumping",
    "date_created": "2023-03-20T18:45:15.000",
    "date_modified": "2023-03-20T18:45:15.000",
    "request_status": "Pending",
    "responsible_agency": "Department of Sanitation",
    "final_address": "1213 Marigny St",
    "address_councildis": "C",
    "status": "Pending",
    "rowid": "984478",
    "final_x": "3685409.19829",
    "final_y": "536830.118728",
    "longitude": "-90.05553952113674",
    "latitude": "29.96997740494156",
    "geocoded_column": {
      "latitude": "29.96997740494156",
      "longitude": "-90.05553952113674"
    }
  },
  {
    "service_request": "2023-984477",
    "request_type": "Trash/Recycling",
    "request_reason": "Missed Trash Pick-Up",
    "date_created": "2023-03-20T18:39:47.000",
    "date_modified": "2023-03-20T18:39:47.000",
    "request_status": "Pending",
    "responsible_agency": "Department of Sanitation",
    "final_address": "6325 S Robertson St",
    "address_councildis": "A",
    "status": "Assigned to Contractor",
    "contractor": "Richards Disposal",
    "rowid": "984477",
    "final_x": "3665587.74471",
    "final_y": "525193.649533",
    "longitude": "-90.11852748677317",
    "latitude": "29.93857380347427",
    "geocoded_column": {
      "latitude": "29.93857380347427",
      "longitude": "-90.11852748677317"
    }
  },
  {
    "service_request": "2023-984476",
    "request_type": "Abandoned Vehicles",
    "request_reason": "Abandoned/Junk Vehicles",
    "date_created": "2023-03-20T18:34:07.000",
    "date_modified": "2023-03-20T18:34:08.000",
    "request_status": "Pending",
    "responsible_agency": "Department of Public Works",
    "final_address": "2800 BLK Dumaine St",
    "address_councildis": "A",
    "status": "Pending",
    "rowid": "984476",
    "final_x": "3676572.89616",
    "final_y": "537964.223072",
    "longitude": "-90.08340638356252",
    "latitude": "29.973363793947573",
    "geocoded_column": {
      "latitude": "29.973363793947573",
      "longitude": "-90.08340638356252"
    }
  },
  {
    "service_request": "2023-984475",
    "request_type": "Traffic Signals/Signs/Striping/Streetlights",
    "request_reason": "Street Light Outage/Malfunction",
    "date_created": "2023-03-20T18:30:02.000",
    "date_modified": "2023-03-20T18:30:03.000",
    "request_status": "Pending",
    "responsible_agency": "Department of Public Works",
    "final_address": "4133 Vincennes Pl",
    "address_councildis": "B",
    "status": "Assigned to Contractor",
    "contractor": "Legacy Professional Services",
    "rowid": "984475",
    "final_x": "3668690.06023",
    "final_y": "530771.10797",
    "longitude": "-90.10854490304123",
    "latitude": "29.953819199199952",
    "geocoded_column": {
      "latitude": "29.953819199199952",
      "longitude": "-90.10854490304123"
    }
  },
  {
    "service_request": "2023-984474",
    "request_type": "Traffic Signals/Signs/Striping/Streetlights",
    "request_reason": "Street Light Outage/Malfunction",
    "date_created": "2023-03-20T18:25:58.000",
    "date_modified": "2023-03-20T18:25:59.000",
    "request_status": "Pending",
    "responsible_agency": "Department of Public Works",
    "final_address": "5610 Samovar Dr",
    "address_councildis": "E",
    "status": "Assigned to Contractor",
    "contractor": "Legacy Professional Services",
    "rowid": "984474",
    "final_x": "3703588.0419",
    "final_y": "556631.540634",
    "longitude": "-89.99740029598505",
    "latitude": "30.023853956309523",
    "geocoded_column": {
      "latitude": "30.023853956309523",
      "longitude": "-89.99740029598505"
    }
  },
  {
    "service_request": "2023-984473",
    "request_type": "Trash/Recycling",
    "request_reason": "Repair Trash Cart",
    "date_created": "2023-03-20T18:22:47.000",
    "date_modified": "2023-03-20T18:22:48.000",
    "request_status": "Pending",
    "responsible_agency": "Department of Sanitation",
    "final_address": "5303 Wilton Dr",
    "address_councildis": "D",
    "status": "Assigned to Contractor",
    "contractor": "IV Waste",
    "rowid": "984473",
    "final_x": "3682009.50536",
    "final_y": "552264.66447",
    "longitude": "-90.06573684281501",
    "latitude": "30.012520751391865",
    "geocoded_column": {
      "latitude": "30.012520751391865",
      "longitude": "-90.06573684281501"
    }
  },
  {
    "service_request": "2023-984472",
    "request_type": "Trash/Recycling",
    "request_reason": "Request a Large Item Pick Up",
    "date_created": "2023-03-20T18:18:29.000",
    "date_modified": "2023-03-20T18:18:30.000",
    "request_status": "Pending",
    "responsible_agency": "Department of Sanitation",
    "final_address": "23 Marywood Ct",
    "address_councildis": "E",
    "status": "Assigned to Contractor",
    "contractor": "Waste Pro",
    "rowid": "984472",
    "final_x": "3712573.18898",
    "final_y": "566767.833379",
    "longitude": "-89.96862782607204",
    "latitude": "30.051433597452853",
    "geocoded_column": {
      "latitude": "30.051433597452853",
      "longitude": "-89.96862782607204"
    }
  },
  {
    "service_request": "2023-984471",
    "request_type": "Abandoned Vehicles",
    "request_reason": "Abandoned/Junk Vehicles",
    "date_created": "2023-03-20T18:17:17.000",
    "date_modified": "2023-03-20T18:17:17.000",
    "request_status": "Pending",
    "responsible_agency": "Department of Public Works",
    "final_address": "5545 Catina St",
    "address_councildis": "A",
    "status": "Pending",
    "rowid": "984471",
    "final_x": "3666653.08717",
    "final_y": "544309.457295",
    "longitude": "-90.114522136879",
    "latitude": "29.991104855721158",
    "geocoded_column": {
      "latitude": "29.991104855721158",
      "longitude": "-90.114522136879"
    }
  },
  {
    "service_request": "2023-984470",
    "request_type": "Trash/Recycling",
    "request_reason": "Order Trash Cart",
    "date_created": "2023-03-20T18:16:13.000",
    "date_modified": "2023-03-20T18:16:14.000",
    "request_status": "Pending",
    "responsible_agency": "Department of Sanitation",
    "final_address": "3001 N Derbigny St",
    "address_councildis": "D",
    "status": "Assigned to Contractor",
    "contractor": "IV Waste",
    "rowid": "984470",
    "final_x": "3689058.21628",
    "final_y": "538417.184329",
    "longitude": "-90.04395919942493",
    "latitude": "29.97422888238119",
    "geocoded_column": {
      "latitude": "29.97422888238119",
      "longitude": "-90.04395919942493"
    }
  },
  {
    "service_request": "2023-984469",
    "request_type": "Trash/Recycling",
    "request_reason": "Order Recycling Cart",
    "date_created": "2023-03-20T18:16:13.000",
    "date_modified": "2023-03-20T18:16:13.000",
    "request_status": "Pending",
    "responsible_agency": "Department of Sanitation",
    "final_address": "1121 S Genois St",
    "address_councildis": "B",
    "status": "Pending",
    "rowid": "984469",
    "final_x": "3669515.6377",
    "final_y": "532936.441604",
    "longitude": "-90.10586481983576",
    "latitude": "29.95974886228466",
    "geocoded_column": {
      "latitude": "29.95974886228466",
      "longitude": "-90.10586481983576"
    }
  },
  {
    "service_request": "2023-984468",
    "request_type": "Trash/Recycling",
    "request_reason": "Dead Animal Pick Up",
    "date_created": "2023-03-20T18:15:00.000",
    "date_modified": "2023-03-20T18:15:00.000",
    "request_status": "Pending",
    "responsible_agency": "Department of Sanitation",
    "final_address": "1506 Louisa St",
    "address_councildis": "D",
    "status": "Assigned to Contractor",
    "contractor": "IV Waste",
    "rowid": "984468",
    "final_x": "3689921.71984",
    "final_y": "537429.269256",
    "longitude": "-90.04126724542427",
    "latitude": "29.971485718831833",
    "geocoded_column": {
      "latitude": "29.971485718831833",
      "longitude": "-90.04126724542427"
    }
  },
  {
    "service_request": "2023-984467",
    "request_type": "Trash/Recycling",
    "request_reason": "Order Trash Cart",
    "date_created": "2023-03-20T18:00:44.000",
    "date_modified": "2023-03-20T18:00:45.000",
    "request_status": "Pending",
    "responsible_agency": "Department of Sanitation",
    "final_address": "822 Baronne St",
    "address_councildis": "B",
    "status": "Assigned to Contractor",
    "contractor": "Empire Services",
    "rowid": "984467",
    "final_x": "3679596.63035",
    "final_y": "528025.065791",
    "longitude": "-90.07420174551093",
    "latitude": "29.945943440530012",
    "geocoded_column": {
      "latitude": "29.945943440530012",
      "longitude": "-90.07420174551093"
    }
  },
  {
    "service_request": "2023-984466",
    "request_type": "Trash/Recycling",
    "request_reason": "Illegal Dumping",
    "date_created": "2023-03-20T18:00:20.000",
    "date_modified": "2023-03-20T18:00:20.000",
    "request_status": "Pending",
    "responsible_agency": "Department of Sanitation",
    "final_address": "2600 Reynes St",
    "address_councildis": "E",
    "status": "Pending",
    "rowid": "984466",
    "final_x": "3697513.7889",
    "final_y": "539938.712714",
    "longitude": "-90.01719948938111",
    "latitude": "29.978148204445507",
    "geocoded_column": {
      "latitude": "29.978148204445507",
      "longitude": "-90.01719948938111"
    }
  },
  {
    "service_request": "2023-984465",
    "request_type": "Trash/Recycling",
    "request_reason": "Replace Trash Cart",
    "date_created": "2023-03-20T17:52:37.000",
    "date_modified": "2023-03-20T17:52:38.000",
    "request_status": "Pending",
    "responsible_agency": "Department of Sanitation",
    "final_address": "3641 Paris Ave",
    "address_councildis": "D",
    "status": "Assigned to Contractor",
    "contractor": "IV Waste",
    "rowid": "984465",
    "final_x": "3679737.14191",
    "final_y": "545838.637072",
    "longitude": "-90.07313953840585",
    "latitude": "29.994920396059175",
    "geocoded_column": {
      "latitude": "29.994920396059175",
      "longitude": "-90.07313953840585"
    }
  },
  {
    "service_request": "2023-984463",
    "request_type": "Abandoned Vehicles",
    "request_reason": "Abandoned/Junk Vehicles",
    "date_created": "2023-03-20T17:51:02.000",
    "date_modified": "2023-03-20T17:51:02.000",
    "request_status": "Pending",
    "responsible_agency": "Department of Public Works",
    "final_address": "1800 Tricou St",
    "address_councildis": "E",
    "status": "Pending",
    "rowid": "984463",
    "final_x": "3701115.66609",
    "final_y": "535588.95335",
    "longitude": "-90.0059826961168",
    "latitude": "29.966073692780913",
    "geocoded_column": {
      "latitude": "29.966073692780913",
      "longitude": "-90.0059826961168"
    }
  },
  {
    "service_request": "2023-984464",
    "request_type": "Abandoned Vehicles",
    "request_reason": "Abandoned/Junk Vehicles",
    "date_created": "2023-03-20T17:51:02.000",
    "date_modified": "2023-03-20T17:51:02.000",
    "request_status": "Pending",
    "responsible_agency": "Department of Public Works",
    "final_address": "1800 Tricou St",
    "address_councildis": "E",
    "status": "Pending",
    "rowid": "984464",
    "final_x": "3701115.66609",
    "final_y": "535588.95335",
    "longitude": "-90.0059826961168",
    "latitude": "29.966073692780913",
    "geocoded_column": {
      "latitude": "29.966073692780913",
      "longitude": "-90.0059826961168"
    }
  },
  {
    "service_request": "2023-984461",
    "request_type": "Abandoned Vehicles",
    "request_reason": "Abandoned/Junk Vehicles",
    "date_created": "2023-03-20T17:40:21.000",
    "date_modified": "2023-03-20T17:40:21.000",
    "request_status": "Pending",
    "responsible_agency": "Department of Public Works",
    "final_address": "1729 Tricou St",
    "address_councildis": "E",
    "status": "Pending",
    "rowid": "984461",
    "final_x": "3701130.37034",
    "final_y": "535412.855494",
    "longitude": "-90.00594270301612",
    "latitude": "29.965589018687165",
    "geocoded_column": {
      "latitude": "29.965589018687165",
      "longitude": "-90.00594270301612"
    }
  },
  {
    "service_request": "2023-984460",
    "request_type": "Trash/Recycling",
    "request_reason": "Request a Large Item Pick Up",
    "date_created": "2023-03-20T17:30:08.000",
    "date_modified": "2023-03-20T17:30:09.000",
    "request_status": "Pending",
    "responsible_agency": "Department of Sanitation",
    "final_address": "925 Seventh St",
    "address_councildis": "B",
    "status": "Assigned to Contractor",
    "contractor": "Richards Disposal",
    "rowid": "984460",
    "final_x": "3676695.80661",
    "final_y": "519969.184824",
    "longitude": "-90.08363803773199",
    "latitude": "29.923879735947164",
    "geocoded_column": {
      "latitude": "29.923879735947164",
      "longitude": "-90.08363803773199"
    }
  },
  {
    "service_request": "2023-984459",
    "request_type": "Trash/Recycling",
    "request_reason": "Illegal Dumping",
    "date_created": "2023-03-20T17:29:00.000",
    "date_modified": "2023-03-20T17:29:00.000",
    "request_status": "Pending",
    "responsible_agency": "Department of Sanitation",
    "final_address": "2778 Jonquil St",
    "address_councildis": "D",
    "status": "Pending",
    "rowid": "984459",
    "final_x": "3688420.94639",
    "final_y": "547245.079249",
    "longitude": "-90.04565852406978",
    "latitude": "29.998522142507678",
    "geocoded_column": {
      "latitude": "29.998522142507678",
      "longitude": "-90.04565852406978"
    }
  },
  {
    "service_request": "2023-984458",
    "request_type": "Trash/Recycling",
    "request_reason": "Missed Trash Pick-Up",
    "date_created": "2023-03-20T17:27:48.000",
    "date_modified": "2023-03-20T17:27:48.000",
    "request_status": "Pending",
    "responsible_agency": "Department of Sanitation",
    "final_address": "2538 Dubreuil St",
    "address_councildis": "E",
    "status": "Assigned to Contractor",
    "contractor": "Waste Pro",
    "rowid": "984458",
    "final_x": "3702786.56439",
    "final_y": "538081.851209",
    "longitude": "-90.00061451612997",
    "latitude": "29.97287492990985",
    "geocoded_column": {
      "latitude": "29.97287492990985",
      "longitude": "-90.00061451612997"
    }
  },
  {
    "service_request": "2023-984457",
    "request_type": "Traffic Signals/Signs/Striping/Streetlights",
    "request_reason": "Traffic Signal Malfunctioning/Damaged",
    "date_created": "2023-03-20T17:25:42.000",
    "date_modified": "2023-03-20T17:25:42.000",
    "request_status": "Pending",
    "responsible_agency": "Department of Public Works",
    "final_address": "POYDRAS ST & ST CHARLES AVE",
    "address_councildis": "B",
    "status": "Pending",
    "rowid": "984457",
    "final_x": "3680720.1",
    "final_y": "529331.08",
    "longitude": "-90.07060913253059",
    "latitude": "29.949500547686682",
    "geocoded_column": {
      "latitude": "29.949500547686682",
      "longitude": "-90.07060913253059"
    }
  },
  {
    "service_request": "2023-984456",
    "request_type": "Trash/Recycling",
    "request_reason": "Order Recycling Cart",
    "date_created": "2023-03-20T17:22:20.000",
    "date_modified": "2023-03-20T17:22:20.000",
    "request_status": "Pending",
    "responsible_agency": "Department of Sanitation",
    "final_address": "1714 Painters St",
    "address_councildis": "D",
    "status": "Pending",
    "rowid": "984456",
    "final_x": "3687337.13423",
    "final_y": "538858.718537",
    "longitude": "-90.04937913811759",
    "latitude": "29.975496085763297",
    "geocoded_column": {
      "latitude": "29.975496085763297",
      "longitude": "-90.04937913811759"
    }
  },
  {
    "service_request": "2023-984455",
    "request_type": "Trash/Recycling",
    "request_reason": "Order Recycling Cart",
    "date_created": "2023-03-20T17:22:02.000",
    "date_modified": "2023-03-20T17:22:02.000",
    "request_status": "Pending",
    "responsible_agency": "Department of Sanitation",
    "final_address": "1712 Painters St",
    "address_councildis": "D",
    "status": "Pending",
    "rowid": "984455",
    "final_x": "3687340.0509",
    "final_y": "538844.551817",
    "longitude": "-90.04937042785761",
    "latitude": "29.975457042402297",
    "geocoded_column": {
      "latitude": "29.975457042402297",
      "longitude": "-90.04937042785761"
    }
  },
  {
    "service_request": "2023-984454",
    "request_type": "Trash/Recycling",
    "request_reason": "Replace Trash Cart",
    "date_created": "2023-03-20T17:21:22.000",
    "date_modified": "2023-03-20T17:21:22.000",
    "request_status": "Pending",
    "responsible_agency": "Department of Sanitation",
    "final_address": "1712 Painters St",
    "address_councildis": "D",
    "status": "Assigned to Contractor",
    "contractor": "IV Waste",
    "rowid": "984454",
    "final_x": "3687340.0509",
    "final_y": "538844.551817",
    "longitude": "-90.04937042785761",
    "latitude": "29.975457042402297",
    "geocoded_column": {
      "latitude": "29.975457042402297",
      "longitude": "-90.04937042785761"
    }
  },
  {
    "service_request": "2023-984453",
    "request_type": "Trash/Recycling",
    "request_reason": "Request a Large Item Pick Up",
    "date_created": "2023-03-20T17:21:14.000",
    "date_modified": "2023-03-20T17:21:14.000",
    "request_status": "Pending",
    "responsible_agency": "Department of Sanitation",
    "final_address": "3422 Elysian Fields Ave",
    "address_councildis": "D",
    "status": "Assigned to Contractor",
    "contractor": "IV Waste",
    "rowid": "984453",
    "final_x": "3684168.28962",
    "final_y": "545330.309455",
    "longitude": "-90.05915991680946",
    "latitude": "29.99338793180409",
    "geocoded_column": {
      "latitude": "29.99338793180409",
      "longitude": "-90.05915991680946"
    }
  },
  {
    "service_request": "2023-984452",
    "request_type": "Roads/Drainage",
    "request_reason": "Street Subsidence (Sinking)",
    "date_created": "2023-03-20T17:20:50.000",
    "date_modified": "2023-03-20T17:20:50.000",
    "request_status": "Pending",
    "responsible_agency": "Department of Public Works",
    "final_address": "7011 Coventry St",
    "address_councildis": "E",
    "status": "Pending",
    "rowid": "984452",
    "final_x": "3699186.30212",
    "final_y": "559827.066077",
    "longitude": "-90.01119233808276",
    "latitude": "30.032780798712942",
    "geocoded_column": {
      "latitude": "30.032780798712942",
      "longitude": "-90.01119233808276"
    }
  },
  {
    "service_request": "2023-984451",
    "request_type": "Trash/Recycling",
    "request_reason": "Request a Large Item Pick Up",
    "date_created": "2023-03-20T17:19:37.000",
    "date_modified": "2023-03-20T17:19:37.000",
    "request_status": "Pending",
    "responsible_agency": "Department of Sanitation",
    "final_address": "5012 Revel St",
    "address_councildis": "E",
    "status": "Assigned to Contractor",
    "contractor": "Waste Pro",
    "rowid": "984451",
    "final_x": "3725079.27532",
    "final_y": "562017.367647",
    "longitude": "-89.92928466933667",
    "latitude": "30.037956306754257",
    "geocoded_column": {
      "latitude": "30.037956306754257",
      "longitude": "-89.92928466933667"
    }
  },
  {
    "service_request": "2023-984450",
    "request_type": "Trash/Recycling",
    "request_reason": "Request a Large Item Pick Up",
    "date_created": "2023-03-20T17:12:24.000",
    "date_modified": "2023-03-20T17:12:24.000",
    "request_status": "Pending",
    "responsible_agency": "Department of Sanitation",
    "final_address": "2656 Ursulines Ave",
    "address_councildis": "D",
    "status": "Assigned to Contractor",
    "contractor": "Richards Disposal",
    "rowid": "984450",
    "final_x": "3677652.37966",
    "final_y": "538046.433609",
    "longitude": "-90.07999431141604",
    "latitude": "29.973557422212807",
    "geocoded_column": {
      "latitude": "29.973557422212807",
      "longitude": "-90.07999431141604"
    }
  },
  {
    "service_request": "2023-984449",
    "request_type": "Trash/Recycling",
    "request_reason": "Order Trash Cart",
    "date_created": "2023-03-20T17:09:09.000",
    "date_modified": "2023-03-20T17:09:09.000",
    "request_status": "Pending",
    "responsible_agency": "Department of Sanitation",
    "final_address": "2121 Chippewa St",
    "address_councildis": "B",
    "status": "Assigned to Contractor",
    "contractor": "Richards Disposal",
    "rowid": "984449",
    "final_x": "3679890.80674",
    "final_y": "521073.103609",
    "longitude": "-90.07351426209772",
    "latitude": "29.926818950784263",
    "geocoded_column": {
      "latitude": "29.926818950784263",
      "longitude": "-90.07351426209772"
    }
  },
  {
    "service_request": "2023-984448",
    "request_type": "Trash/Recycling",
    "request_reason": "Order Trash Cart",
    "date_created": "2023-03-20T17:08:54.000",
    "date_modified": "2023-03-20T17:08:55.000",
    "request_status": "Pending",
    "responsible_agency": "Department of Sanitation",
    "final_address": "2119 Chippewa St",
    "address_councildis": "B",
    "status": "Assigned to Contractor",
    "contractor": "Richards Disposal",
    "rowid": "984448",
    "final_x": "3679900.85314",
    "final_y": "521079.533305",
    "longitude": "-90.07348232514045",
    "latitude": "29.926836326619725",
    "geocoded_column": {
      "latitude": "29.926836326619725",
      "longitude": "-90.07348232514045"
    }
  },
  {
    "service_request": "2023-984447",
    "request_type": "Trash/Recycling",
    "request_reason": "Missed Trash Pick-Up",
    "date_created": "2023-03-20T16:56:27.000",
    "date_modified": "2023-03-20T16:56:28.000",
    "request_status": "Pending",
    "responsible_agency": "Department of Sanitation",
    "final_address": "1909 N Lopez St",
    "address_councildis": "A",
    "status": "Assigned to Contractor",
    "contractor": "IV Waste",
    "rowid": "984447",
    "final_x": "3676981.16411",
    "final_y": "543033.311053",
    "longitude": "-90.08194214931677",
    "latitude": "29.987289784521888",
    "geocoded_column": {
      "latitude": "29.987289784521888",
      "longitude": "-90.08194214931677"
    }
  },
  {
    "service_request": "2023-984446",
    "request_type": "Trash/Recycling",
    "request_reason": "Request a Large Item Pick Up",
    "date_created": "2023-03-20T16:52:08.000",
    "date_modified": "2023-03-20T16:52:09.000",
    "request_status": "Pending",
    "responsible_agency": "Department of Sanitation",
    "final_address": "7151 E Renaissance Ct",
    "address_councildis": "E",
    "status": "Assigned to Contractor",
    "contractor": "Waste Pro",
    "rowid": "984446",
    "final_x": "3717234.4046",
    "final_y": "568046.991781",
    "longitude": "-89.95384672649836",
    "latitude": "30.054797286422193",
    "geocoded_column": {
      "latitude": "30.054797286422193",
      "longitude": "-89.95384672649836"
    }
  },
  {
    "service_request": "2023-984445",
    "request_type": "Traffic Signals/Signs/Striping/Streetlights",
    "request_reason": "Street Light Knocked Down/Leaning",
    "date_created": "2023-03-20T16:50:13.000",
    "date_modified": "2023-03-20T16:50:14.000",
    "request_status": "Pending",
    "responsible_agency": "Department of Public Works",
    "final_address": "2729 Valentine Ct",
    "address_councildis": "C",
    "status": "Pending",
    "contractor": "Legacy Professional Services",
    "rowid": "984445",
    "final_x": "3699022.70583",
    "final_y": "520909.296569",
    "longitude": "-90.01312629459557",
    "latitude": "29.92577628128184",
    "geocoded_column": {
      "latitude": "29.92577628128184",
      "longitude": "-90.01312629459557"
    }
  },
  {
    "service_request": "2023-984444",
    "request_type": "Roads/Drainage",
    "request_reason": "Man hole cover issue",
    "date_created": "2023-03-20T16:48:17.000",
    "date_modified": "2023-03-20T16:48:17.000",
    "request_status": "Pending",
    "responsible_agency": "Department of Public Works",
    "final_address": "832 St Peter St",
    "address_councildis": "C",
    "status": "Pending",
    "rowid": "984444",
    "final_x": "3682023.19375",
    "final_y": "532788.902084",
    "longitude": "-90.06637396291357",
    "latitude": "29.958968836085422",
    "geocoded_column": {
      "latitude": "29.958968836085422",
      "longitude": "-90.06637396291357"
    }
  },
  {
    "service_request": "2023-984443",
    "request_type": "Roads/Drainage",
    "request_reason": "Man hole cover issue",
    "date_created": "2023-03-20T16:45:24.000",
    "date_modified": "2023-03-20T16:45:24.000",
    "request_status": "Pending",
    "responsible_agency": "Department of Public Works",
    "final_address": "642 Dauphine St",
    "address_councildis": "C",
    "status": "Pending",
    "rowid": "984443",
    "final_x": "3681970.96175",
    "final_y": "532821.23098",
    "longitude": "-90.06653776973451",
    "latitude": "29.95905931744129",
    "geocoded_column": {
      "latitude": "29.95905931744129",
      "longitude": "-90.06653776973451"
    }
  },
  {
    "service_request": "2023-984442",
    "request_type": "Trash/Recycling",
    "request_reason": "Order Trash Cart",
    "date_created": "2023-03-20T16:43:42.000",
    "date_modified": "2023-03-20T16:44:49.000",
    "request_status": "Pending",
    "responsible_agency": "Department of Sanitation",
    "final_address": "7128 E Tamaron Blvd",
    "address_councildis": "E",
    "status": "Assigned to Contractor",
    "contractor": "Waste Pro",
    "rowid": "984442",
    "final_x": "3718472.64236",
    "final_y": "568950.653861",
    "longitude": "-89.94989848669697",
    "latitude": "30.057240935525137",
    "geocoded_column": {
      "latitude": "30.057240935525137",
      "longitude": "-89.94989848669697"
    }
  },
  {
    "service_request": "2023-984441",
    "request_type": "Trash/Recycling",
    "request_reason": "Missed Trash Pick-Up",
    "date_created": "2023-03-20T16:38:55.000",
    "date_modified": "2023-03-20T16:38:55.000",
    "request_status": "Pending",
    "responsible_agency": "Department of Sanitation",
    "final_address": "4801 Evangeline Dr",
    "address_councildis": "E",
    "status": "Assigned to Contractor",
    "contractor": "Waste Pro",
    "rowid": "984441",
    "final_x": "3709140.2172",
    "final_y": "556112.342938",
    "longitude": "-89.97987605158069",
    "latitude": "30.022247206080003",
    "geocoded_column": {
      "latitude": "30.022247206080003",
      "longitude": "-89.97987605158069"
    }
  },
  {
    "service_request": "2023-984440",
    "request_type": "Mosquito, Termite & Rodent Control",
    "request_reason": "Rodent Complaint (Rats)",
    "date_created": "2023-03-20T16:34:44.000",
    "date_modified": "2023-03-20T16:38:05.000",
    "request_status": "Pending",
    "responsible_agency": "Mosquito, Termite & Rodent Control Board",
    "final_address": "1423 Pauline St",
    "address_councildis": "D",
    "status": "Pending",
    "rowid": "984440",
    "final_x": "3691568.51977",
    "final_y": "536741.769735",
    "longitude": "-90.0360910117665",
    "latitude": "29.969544175557047",
    "geocoded_column": {
      "latitude": "29.969544175557047",
      "longitude": "-90.0360910117665"
    }
  },
  {
    "service_request": "2023-984439",
    "request_type": "Trash/Recycling",
    "request_reason": "Repair Trash Cart",
    "date_created": "2023-03-20T16:28:13.000",
    "date_modified": "2023-03-20T16:28:14.000",
    "request_status": "Pending",
    "responsible_agency": "Department of Sanitation",
    "final_address": "614 River Oaks Dr",
    "address_councildis": "C",
    "status": "Assigned to Contractor",
    "contractor": "Richards Disposal",
    "rowid": "984439",
    "final_x": "3701540.79709",
    "final_y": "520428.116024",
    "longitude": "-90.0051950974697",
    "latitude": "29.92437318511145",
    "geocoded_column": {
      "latitude": "29.92437318511145",
      "longitude": "-90.0051950974697"
    }
  },
  {
    "service_request": "2023-984438",
    "request_type": "Trash/Recycling",
    "request_reason": "Request a Large Item Pick Up",
    "date_created": "2023-03-20T16:24:09.000",
    "date_modified": "2023-03-20T16:24:10.000",
    "request_status": "Pending",
    "responsible_agency": "Department of Sanitation",
    "final_address": "2227 Monticello St",
    "address_councildis": "E",
    "status": "Assigned to Contractor",
    "contractor": "Waste Pro",
    "rowid": "984438",
    "final_x": "3700683.97149",
    "final_y": "537635.031368",
    "longitude": "-90.00727119033746",
    "latitude": "29.97171341259305",
    "geocoded_column": {
      "latitude": "29.97171341259305",
      "longitude": "-90.00727119033746"
    }
  },
  {
    "service_request": "2023-984437",
    "request_type": "Trash/Recycling",
    "request_reason": "Repair Trash Cart",
    "date_created": "2023-03-20T16:23:34.000",
    "date_modified": "2023-03-20T16:23:35.000",
    "request_status": "Pending",
    "responsible_agency": "Department of Sanitation",
    "final_address": "2227 Monticello St",
    "address_councildis": "E",
    "status": "Assigned to Contractor",
    "contractor": "Waste Pro",
    "rowid": "984437",
    "final_x": "3700683.97149",
    "final_y": "537635.031368",
    "longitude": "-90.00727119033746",
    "latitude": "29.97171341259305",
    "geocoded_column": {
      "latitude": "29.97171341259305",
      "longitude": "-90.00727119033746"
    }
  },
  {
    "service_request": "2023-984436",
    "request_type": "Trash/Recycling",
    "request_reason": "Missed Trash Pick-Up",
    "date_created": "2023-03-20T16:22:17.000",
    "date_modified": "2023-03-20T16:22:18.000",
    "request_status": "Pending",
    "responsible_agency": "Department of Sanitation",
    "final_address": "2227 Monticello St",
    "address_councildis": "E",
    "status": "Assigned to Contractor",
    "contractor": "Waste Pro",
    "rowid": "984436",
    "final_x": "3700683.97149",
    "final_y": "537635.031368",
    "longitude": "-90.00727119033746",
    "latitude": "29.97171341259305",
    "geocoded_column": {
      "latitude": "29.97171341259305",
      "longitude": "-90.00727119033746"
    }
  },
  {
    "service_request": "2023-984435",
    "request_type": "Trash/Recycling",
    "request_reason": "Request a Large Item Pick Up",
    "date_created": "2023-03-20T16:21:31.000",
    "date_modified": "2023-03-20T16:21:31.000",
    "request_status": "Pending",
    "responsible_agency": "Department of Sanitation",
    "final_address": "5512 Constance St",
    "address_councildis": "A",
    "status": "Assigned to Contractor",
    "contractor": "Richards Disposal",
    "rowid": "984435",
    "final_x": "3666235.67949",
    "final_y": "518464.33343",
    "longitude": "-90.11670745721872",
    "latitude": "29.92005141188264",
    "geocoded_column": {
      "latitude": "29.92005141188264",
      "longitude": "-90.11670745721872"
    }
  },
  {
    "service_request": "2023-984434",
    "request_type": "Roads/Drainage",
    "request_reason": "Damaged Sidewalk",
    "date_created": "2023-03-20T16:20:02.000",
    "date_modified": "2023-03-20T16:20:02.000",
    "request_status": "Pending",
    "responsible_agency": "Department of Public Works",
    "final_address": "3200 St Claude Ave",
    "address_councildis": "C",
    "status": "Pending",
    "rowid": "984434",
    "final_x": "3689589.33123",
    "final_y": "535812.657415",
    "longitude": "-90.04237449473014",
    "latitude": "29.96705090583904",
    "geocoded_column": {
      "latitude": "29.96705090583904",
      "longitude": "-90.04237449473014"
    }
  },
  {
    "service_request": "2023-984433",
    "request_type": "Parks & Parkways",
    "request_reason": "Request Tree Service (Right of Way/Public Property)",
    "date_created": "2023-03-20T16:19:28.000",
    "date_modified": "2023-03-20T16:21:02.000",
    "request_status": "Pending",
    "responsible_agency": "Department of Parks & Parkway",
    "final_address": "2134 Franklin Ave",
    "address_councildis": "D",
    "status": "Pending",
    "rowid": "984433",
    "final_x": "3687519.86902",
    "final_y": "540503.077771",
    "longitude": "-90.04874379138155",
    "latitude": "29.98001186189364",
    "geocoded_column": {
      "latitude": "29.98001186189364",
      "longitude": "-90.04874379138155"
    }
  },
  {
    "service_request": "2023-984432",
    "request_type": "Abandoned Vehicles",
    "request_reason": "Abandoned/Junk Vehicles",
    "date_created": "2023-03-20T16:19:26.000",
    "date_modified": "2023-03-20T16:19:26.000",
    "request_status": "Pending",
    "responsible_agency": "Department of Public Works",
    "final_address": "100 BLK Maumus Ave",
    "address_councildis": "C",
    "status": "Inspected",
    "rowid": "984432",
    "final_x": "3705684.88912",
    "final_y": "516779.862882",
    "longitude": "-89.99224852020879",
    "latitude": "29.914209025459854",
    "geocoded_column": {
      "latitude": "29.914209025459854",
      "longitude": "-89.99224852020879"
    }
  },
  {
    "service_request": "2023-984431",
    "request_type": "Taxi Issues",
    "request_reason": "School Bus Complaints",
    "date_created": "2023-03-20T16:18:02.000",
    "date_modified": "2023-03-20T16:18:03.000",
    "request_status": "Pending",
    "responsible_agency": "Department of Public Works",
    "status": "Pending",
    "rowid": "984431",
    "longitude": "0.0",
    "latitude": "0.0",
    "geocoded_column": {
      "latitude": "0.0",
      "longitude": "0.0"
    }
  },
  {
    "service_request": "2023-984430",
    "request_type": "Trash/Recycling",
    "request_reason": "Repair Trash Cart",
    "date_created": "2023-03-20T16:11:29.000",
    "date_modified": "2023-03-20T16:13:08.000",
    "request_status": "Pending",
    "responsible_agency": "Department of Sanitation",
    "final_address": "2735 Paris Ave",
    "address_councildis": "D",
    "status": "Assigned to Contractor",
    "contractor": "IV Waste",
    "rowid": "984430",
    "final_x": "3679999.22984",
    "final_y": "542479.703053",
    "longitude": "-90.07242839215691",
    "latitude": "29.98567658046859",
    "geocoded_column": {
      "latitude": "29.98567658046859",
      "longitude": "-90.07242839215691"
    }
  },
  {
    "service_request": "2023-984429",
    "request_type": "Trash/Recycling",
    "request_reason": "Repair Recycling Cart",
    "date_created": "2023-03-20T16:11:18.000",
    "date_modified": "2023-03-20T16:12:13.000",
    "request_status": "Pending",
    "responsible_agency": "Department of Sanitation",
    "final_address": "7140 E Renaissance Ct",
    "address_councildis": "E",
    "status": "Pending",
    "rowid": "984429",
    "final_x": "3717178.64108",
    "final_y": "567875.805732",
    "longitude": "-89.9540294941188",
    "latitude": "30.05432844119819",
    "geocoded_column": {
      "latitude": "30.05432844119819",
      "longitude": "-89.9540294941188"
    }
  },
  {
    "service_request": "2023-984428",
    "request_type": "Trash/Recycling",
    "request_reason": "Repair Trash Cart",
    "date_created": "2023-03-20T16:10:35.000",
    "date_modified": "2023-03-20T16:12:32.000",
    "request_status": "Pending",
    "responsible_agency": "Department of Sanitation",
    "final_address": "7140 E Renaissance Ct",
    "address_councildis": "E",
    "status": "Assigned to Contractor",
    "contractor": "Waste Pro",
    "rowid": "984428",
    "final_x": "3717178.64108",
    "final_y": "567875.805732",
    "longitude": "-89.9540294941188",
    "latitude": "30.05432844119819",
    "geocoded_column": {
      "latitude": "30.05432844119819",
      "longitude": "-89.9540294941188"
    }
  },
  {
    "service_request": "2023-984427",
    "request_type": "Trash/Recycling",
    "request_reason": "Request a Large Item Pick Up",
    "date_created": "2023-03-20T16:10:26.000",
    "date_modified": "2023-03-20T16:10:27.000",
    "request_status": "Pending",
    "responsible_agency": "Department of Sanitation",
    "final_address": "7509 Lafourche St",
    "address_councildis": "E",
    "status": "Assigned to Contractor",
    "contractor": "Waste Pro",
    "rowid": "984427",
    "final_x": "3710596.68024",
    "final_y": "565002.09277",
    "longitude": "-89.97494103459087",
    "latitude": "30.04664310277251",
    "geocoded_column": {
      "latitude": "30.04664310277251",
      "longitude": "-89.97494103459087"
    }
  },
  {
    "service_request": "2023-984426",
    "request_type": "Tax and Revenue",
    "request_reason": "Occupational License Tax",
    "date_created": "2023-03-20T16:08:20.000",
    "date_modified": "2023-03-20T16:08:20.000",
    "request_status": "Pending",
    "responsible_agency": "Bureau of Revenue",
    "final_address": "301 Dauphine St",
    "address_councildis": "C",
    "status": "Pending",
    "rowid": "984426",
    "final_x": "3681071.89531",
    "final_y": "531801.477827",
    "longitude": "-90.06941231724717",
    "latitude": "29.956282642776195",
    "geocoded_column": {
      "latitude": "29.956282642776195",
      "longitude": "-90.06941231724717"
    }
  },
  {
    "service_request": "2023-984424",
    "request_type": "Property Maintenance",
    "request_reason": "Property Maintenance",
    "date_created": "2023-03-20T16:06:43.000",
    "date_modified": "2023-03-20T16:06:43.000",
    "request_status": "Pending",
    "responsible_agency": "Department of Code Enforcement",
    "final_address": "2717 S Rocheblave St",
    "address_councildis": "B",
    "status": "Pending",
    "rowid": "984424",
    "final_x": "3671791.92532",
    "final_y": "529058.413312",
    "longitude": "-90.09880873822918",
    "latitude": "29.949018321232273",
    "geocoded_column": {
      "latitude": "29.949018321232273",
      "longitude": "-90.09880873822918"
    }
  },
  {
    "service_request": "2023-984423",
    "request_type": "Property Maintenance",
    "request_reason": "Property Maintenance",
    "date_created": "2023-03-20T16:04:13.000",
    "date_modified": "2023-03-20T16:04:13.000",
    "request_status": "Pending",
    "responsible_agency": "Department of Code Enforcement",
    "final_address": "3700 Fourth St",
    "address_councildis": "B",
    "status": "Pending",
    "rowid": "984423",
    "final_x": "3672060.21467",
    "final_y": "528886.596672",
    "longitude": "-90.09796747910197",
    "latitude": "29.948537931200864",
    "geocoded_column": {
      "latitude": "29.948537931200864",
      "longitude": "-90.09796747910197"
    }
  },
  {
    "service_request": "2023-984422",
    "request_type": "Trash/Recycling",
    "request_reason": "Illegal Dumping",
    "date_created": "2023-03-20T16:02:18.000",
    "date_modified": "2023-03-20T16:02:18.000",
    "request_status": "Pending",
    "responsible_agency": "Department of Sanitation",
    "final_address": "2708 S Rocheblave St",
    "address_councildis": "B",
    "status": "Pending",
    "rowid": "984422",
    "final_x": "3671880.57838",
    "final_y": "529044.54112",
    "longitude": "-90.09852929335602",
    "latitude": "29.948977550634655",
    "geocoded_column": {
      "latitude": "29.948977550634655",
      "longitude": "-90.09852929335602"
    }
  },
  {
    "service_request": "2023-984421",
    "request_type": "Property Maintenance",
    "request_reason": "Property Maintenance",
    "date_created": "2023-03-20T16:00:56.000",
    "date_modified": "2023-03-20T16:00:56.000",
    "request_status": "Pending",
    "responsible_agency": "Department of Code Enforcement",
    "final_address": "3627 Second St",
    "address_councildis": "B",
    "status": "Pending",
    "rowid": "984421",
    "final_x": "3672710.05281",
    "final_y": "529143.75648",
    "longitude": "-90.09590689470326",
    "latitude": "29.9492257555374",
    "geocoded_column": {
      "latitude": "29.9492257555374",
      "longitude": "-90.09590689470326"
    }
  },
  {
    "service_request": "2023-984420",
    "request_type": "Property Maintenance",
    "request_reason": "Property Maintenance",
    "date_created": "2023-03-20T16:00:55.000",
    "date_modified": "2023-03-20T16:00:55.000",
    "request_status": "Pending",
    "responsible_agency": "Department of Code Enforcement",
    "final_address": "3707 Texas Dr",
    "address_councildis": "C",
    "status": "Pending",
    "rowid": "984420",
    "final_x": "3696671.06698",
    "final_y": "518032.346038",
    "longitude": "-90.020653712356",
    "latitude": "29.917939937055557",
    "geocoded_column": {
      "latitude": "29.917939937055557",
      "longitude": "-90.020653712356"
    }
  },
  {
    "service_request": "2023-984419",
    "request_type": "Property Maintenance",
    "request_reason": "Property Maintenance",
    "date_created": "2023-03-20T15:59:17.000",
    "date_modified": "2023-03-20T15:59:17.000",
    "request_status": "Pending",
    "responsible_agency": "Department of Code Enforcement",
    "final_address": "3300 Behrman Hwy",
    "address_councildis": "C",
    "status": "Pending",
    "rowid": "984419",
    "final_x": "3696037.15274",
    "final_y": "517851.338998",
    "longitude": "-90.02266115713313",
    "latitude": "29.9174621821031",
    "geocoded_column": {
      "latitude": "29.9174621821031",
      "longitude": "-90.02266115713313"
    }
  },
  {
    "service_request": "2023-984418",
    "request_type": "Trash/Recycling",
    "request_reason": "Illegal Dumping",
    "date_created": "2023-03-20T15:58:35.000",
    "date_modified": "2023-03-20T15:58:35.000",
    "request_status": "Pending",
    "responsible_agency": "Department of Sanitation",
    "final_address": "3611 Second St",
    "address_councildis": "B",
    "status": "Pending",
    "rowid": "984418",
    "final_x": "3672789.59272",
    "final_y": "529021.901312",
    "longitude": "-90.09565990747001",
    "latitude": "29.948888331833402",
    "geocoded_column": {
      "latitude": "29.948888331833402",
      "longitude": "-90.09565990747001"
    }
  },
  {
    "service_request": "2023-984417",
    "request_type": "Trash/Recycling",
    "request_reason": "Request a Large Item Pick Up",
    "date_created": "2023-03-20T15:58:05.000",
    "date_modified": "2023-03-20T15:58:06.000",
    "request_status": "Pending",
    "responsible_agency": "Department of Sanitation",
    "final_address": "416 Elmira Ave",
    "address_councildis": "C",
    "status": "Assigned to Contractor",
    "contractor": "Richards Disposal",
    "rowid": "984417",
    "final_x": "3688269.18735",
    "final_y": "530169.202561",
    "longitude": "-90.04674361712001",
    "latitude": "29.95157418982283",
    "geocoded_column": {
      "latitude": "29.95157418982283",
      "longitude": "-90.04674361712001"
    }
  },
  {
    "service_request": "2023-984416",
    "request_type": "Property Maintenance",
    "request_reason": "Property Maintenance",
    "date_created": "2023-03-20T15:56:42.000",
    "date_modified": "2023-03-20T15:56:42.000",
    "request_status": "Pending",
    "responsible_agency": "Department of Code Enforcement",
    "final_address": "3301 Second St",
    "address_councildis": "B",
    "status": "Pending",
    "rowid": "984416",
    "final_x": "3673361.80539",
    "final_y": "528153.158912",
    "longitude": "-90.09388285321698",
    "latitude": "29.946482569033627",
    "geocoded_column": {
      "latitude": "29.946482569033627",
      "longitude": "-90.09388285321698"
    }
  },
  {
    "service_request": "2023-984415",
    "request_type": "Trash/Recycling",
    "request_reason": "Request a Large Item Pick Up",
    "date_created": "2023-03-20T15:56:16.000",
    "date_modified": "2023-03-20T15:56:17.000",
    "request_status": "Pending",
    "responsible_agency": "Department of Sanitation",
    "final_address": "6120 Cartier Ave",
    "address_councildis": "D",
    "status": "Assigned to Contractor",
    "contractor": "IV Waste",
    "rowid": "984415",
    "final_x": "3677537.96782",
    "final_y": "555046.125017",
    "longitude": "-90.07976828746212",
    "latitude": "30.0203040224647",
    "geocoded_column": {
      "latitude": "30.0203040224647",
      "longitude": "-90.07976828746212"
    }
  },
  {
    "service_request": "2023-984414",
    "request_type": "Trash/Recycling",
    "request_reason": "Request a Large Item Pick Up",
    "date_created": "2023-03-20T15:55:40.000",
    "date_modified": "2023-03-20T15:55:42.000",
    "request_status": "Pending",
    "responsible_agency": "Department of Sanitation",
    "final_address": "8022 Ebbtide Dr",
    "address_councildis": "E",
    "status": "Assigned to Contractor",
    "contractor": "Waste Pro",
    "rowid": "984414",
    "final_x": "3701793.00996",
    "final_y": "562352.177503",
    "longitude": "-90.00286231897961",
    "latitude": "30.03964090961092",
    "geocoded_column": {
      "latitude": "30.03964090961092",
      "longitude": "-90.00286231897961"
    }
  },
  {
    "service_request": "2023-984412",
    "request_type": "Trash/Recycling",
    "request_reason": "MIssed Recycling Pick-Up",
    "date_created": "2023-03-20T15:55:04.000",
    "date_modified": "2023-03-20T15:55:04.000",
    "request_status": "Pending",
    "responsible_agency": "Department of Sanitation",
    "final_address": "7531 Burke Ave",
    "address_councildis": "E",
    "status": "Assigned to Contractor",
    "contractor": "Waste Pro",
    "rowid": "984412",
    "final_x": "3705584.50948",
    "final_y": "562775.619232",
    "longitude": "-89.99086444613232",
    "latitude": "30.04068361180892",
    "geocoded_column": {
      "latitude": "30.04068361180892",
      "longitude": "-89.99086444613232"
    }
  },
  {
    "service_request": "2023-984411",
    "request_type": "Trash/Recycling",
    "request_reason": "Request a Large Item Pick Up",
    "date_created": "2023-03-20T15:54:45.000",
    "date_modified": "2023-03-20T15:54:45.000",
    "request_status": "Pending",
    "responsible_agency": "Department of Sanitation",
    "final_address": "5209 Perrier St",
    "address_councildis": "B",
    "status": "Assigned to Contractor",
    "contractor": "Richards Disposal",
    "rowid": "984411",
    "final_x": "3667984.57537",
    "final_y": "519962.996856",
    "longitude": "-90.11113655805326",
    "latitude": "29.9241210876722",
    "geocoded_column": {
      "latitude": "29.9241210876722",
      "longitude": "-90.11113655805326"
    }
  },
  {
    "service_request": "2023-984410",
    "request_type": "Trash/Recycling",
    "request_reason": "Illegal Dumping",
    "date_created": "2023-03-20T15:54:36.000",
    "date_modified": "2023-03-20T15:54:36.000",
    "request_status": "Pending",
    "responsible_agency": "Department of Sanitation",
    "final_address": "2500 S Prieur St",
    "address_councildis": "B",
    "status": "Pending",
    "rowid": "984410",
    "final_x": "3673343.89812",
    "final_y": "528062.560191",
    "longitude": "-90.09394248698817",
    "latitude": "29.946233984949618",
    "geocoded_column": {
      "latitude": "29.946233984949618",
      "longitude": "-90.09394248698817"
    }
  },
  {
    "service_request": "2023-984409",
    "request_type": "Property Maintenance",
    "request_reason": "Property Maintenance",
    "date_created": "2023-03-20T15:53:28.000",
    "date_modified": "2023-03-20T15:53:28.000",
    "request_status": "Pending",
    "responsible_agency": "Department of Code Enforcement",
    "final_address": "3134 Second St",
    "address_councildis": "B",
    "status": "Pending",
    "rowid": "984409",
    "final_x": "3673517.51118",
    "final_y": "527779.187647",
    "longitude": "-90.09340401113081",
    "latitude": "29.945449638956212",
    "geocoded_column": {
      "latitude": "29.945449638956212",
      "longitude": "-90.09340401113081"
    }
  },
  {
    "service_request": "2023-984408",
    "request_type": "Property Maintenance",
    "request_reason": "Property Maintenance",
    "date_created": "2023-03-20T15:51:13.000",
    "date_modified": "2023-03-20T15:51:13.000",
    "request_status": "Pending",
    "responsible_agency": "Department of Code Enforcement",
    "final_address": "2406 Rex Pl",
    "address_councildis": "B",
    "status": "Pending",
    "rowid": "984408",
    "final_x": "3673834.27528",
    "final_y": "527791.734783",
    "longitude": "-90.09240345420515",
    "latitude": "29.945474710485904",
    "geocoded_column": {
      "latitude": "29.945474710485904",
      "longitude": "-90.09240345420515"
    }
  },
  {
    "service_request": "2023-984407",
    "request_type": "Abandoned Vehicles",
    "request_reason": "Abandoned/Junk Vehicles",
    "date_created": "2023-03-20T15:50:55.000",
    "date_modified": "2023-03-20T15:50:55.000",
    "request_status": "Pending",
    "responsible_agency": "Department of Public Works",
    "final_address": "6600 Maumus Ave",
    "address_councildis": "C",
    "status": "Inspected",
    "rowid": "984407",
    "final_x": "3708130.57681",
    "final_y": "516729.308213",
    "longitude": "-89.98453106103871",
    "latitude": "29.913991084086362",
    "geocoded_column": {
      "latitude": "29.913991084086362",
      "longitude": "-89.98453106103871"
    }
  },
  {
    "service_request": "2023-984406",
    "request_type": "Property Maintenance",
    "request_reason": "Property Maintenance",
    "date_created": "2023-03-20T15:50:08.000",
    "date_modified": "2023-03-20T15:50:08.000",
    "request_status": "Pending",
    "responsible_agency": "Department of Code Enforcement",
    "final_address": "2420 Rex Pl",
    "address_councildis": "B",
    "status": "Pending",
    "rowid": "984406",
    "final_x": "3673737.26305",
    "final_y": "527732.063423",
    "longitude": "-90.09271179349956",
    "latitude": "29.945313522392926",
    "geocoded_column": {
      "latitude": "29.945313522392926",
      "longitude": "-90.09271179349956"
    }
  },
  {
    "service_request": "2023-984405",
    "request_type": "Traffic Signals/Signs/Striping/Streetlights",
    "request_reason": "Request for Traffic Calming due to Speeding",
    "date_created": "2023-03-20T15:50:07.000",
    "date_modified": "2023-03-20T15:50:07.000",
    "request_status": "Pending",
    "responsible_agency": "Department of Public Works",
    "final_address": "715 Opelousas Ave",
    "address_councildis": "C",
    "status": "Pending",
    "rowid": "984405",
    "final_x": "3687653.84406",
    "final_y": "529001.158656",
    "longitude": "-90.0487279158485",
    "latitude": "29.948381452620364",
    "geocoded_column": {
      "latitude": "29.948381452620364",
      "longitude": "-90.0487279158485"
    }
  },
  {
    "service_request": "2023-984404",
    "request_type": "Trash/Recycling",
    "request_reason": "Repair Trash Cart",
    "date_created": "2023-03-20T15:49:44.000",
    "date_modified": "2023-03-20T15:49:46.000",
    "request_status": "Pending",
    "responsible_agency": "Department of Sanitation",
    "final_address": "4634 Stephen Girard Ave",
    "address_councildis": "D",
    "status": "Assigned to Contractor",
    "contractor": "IV Waste",
    "rowid": "984404",
    "final_x": "3691381.97148",
    "final_y": "550423.236052",
    "longitude": "-90.03619102040868",
    "latitude": "30.007169080859004",
    "geocoded_column": {
      "latitude": "30.007169080859004",
      "longitude": "-90.03619102040868"
    }
  },
  {
    "service_request": "2023-984402",
    "request_type": "Roads/Drainage",
    "request_reason": "Street Flooding / Drainage",
    "date_created": "2023-03-20T15:47:35.000",
    "date_modified": "2023-03-20T15:47:35.000",
    "request_status": "Pending",
    "responsible_agency": "Department of Public Works",
    "final_address": "2400 S Roman St",
    "address_councildis": "B",
    "status": "Pending",
    "rowid": "984402",
    "final_x": "3673782.53121",
    "final_y": "527936.245695",
    "longitude": "-90.09256188651744",
    "latitude": "29.945873608716322",
    "geocoded_column": {
      "latitude": "29.945873608716322",
      "longitude": "-90.09256188651744"
    }
  },
  {
    "service_request": "2023-984401",
    "request_type": "Trash/Recycling",
    "request_reason": "Request a Large Item Pick Up",
    "date_created": "2023-03-20T15:44:45.000",
    "date_modified": "2023-03-20T15:44:45.000",
    "request_status": "Pending",
    "responsible_agency": "Department of Sanitation",
    "final_address": "4634 Stephen Girard Ave",
    "address_councildis": "D",
    "status": "Assigned to Contractor",
    "contractor": "IV Waste",
    "rowid": "984401",
    "final_x": "3691381.97148",
    "final_y": "550423.236052",
    "longitude": "-90.03619102040868",
    "latitude": "30.007169080859004",
    "geocoded_column": {
      "latitude": "30.007169080859004",
      "longitude": "-90.03619102040868"
    }
  },
  {
    "service_request": "2023-984400",
    "request_type": "Trash/Recycling",
    "request_reason": "Request a Large Item Pick Up",
    "date_created": "2023-03-20T15:44:12.000",
    "date_modified": "2023-03-20T16:14:45.000",
    "request_status": "Pending",
    "responsible_agency": "Department of Sanitation",
    "final_address": "My address is 20 Winners Circle, New Orleans LA 70128 ",
    "address_councildis": "E",
    "status": "Assigned to Contractor",
    "rowid": "984400",
    "final_x": "3715808.01727",
    "final_y": "570325.773991",
    "longitude": "-89.9582687418173",
    "latitude": "30.061110137094577",
    "geocoded_column": {
      "latitude": "30.061110137094577",
      "longitude": "-89.9582687418173"
    }
  },
  {
    "service_request": "2023-984399",
    "request_type": "Trash/Recycling",
    "request_reason": "Illegal Dumping",
    "date_created": "2023-03-20T15:43:56.000",
    "date_modified": "2023-03-20T15:43:56.000",
    "request_status": "Pending",
    "responsible_agency": "Department of Sanitation",
    "final_address": "3204 First St",
    "address_councildis": "B",
    "status": "Pending",
    "rowid": "984399",
    "final_x": "3673681.81652",
    "final_y": "527980.822719",
    "longitude": "-90.09287835344605",
    "latitude": "29.945999179236203",
    "geocoded_column": {
      "latitude": "29.945999179236203",
      "longitude": "-90.09287835344605"
    }
  },
  {
    "service_request": "2023-984398",
    "request_type": "Property Maintenance",
    "request_reason": "Property Maintenance",
    "date_created": "2023-03-20T15:42:20.000",
    "date_modified": "2023-03-20T15:42:20.000",
    "request_status": "Pending",
    "responsible_agency": "Department of Code Enforcement",
    "final_address": "3300 First St",
    "address_councildis": "B",
    "status": "Pending",
    "rowid": "984398",
    "final_x": "3673554.77537",
    "final_y": "528278.399232",
    "longitude": "-90.09326929805376",
    "latitude": "29.94682119776854",
    "geocoded_column": {
      "latitude": "29.94682119776854",
      "longitude": "-90.09326929805376"
    }
  },
  {
    "service_request": "2023-984397",
    "request_type": "Trash/Recycling",
    "request_reason": "Illegal Dumping",
    "date_created": "2023-03-20T15:41:42.000",
    "date_modified": "2023-03-20T15:41:42.000",
    "request_status": "Pending",
    "responsible_agency": "Department of Sanitation",
    "final_address": "1100 BLK Monroe St",
    "address_councildis": "A",
    "status": "Pending",
    "rowid": "984397",
    "final_x": "3660269.44845",
    "final_y": "529673.850217",
    "longitude": "-90.13517009417765",
    "latitude": "29.951046897584394",
    "geocoded_column": {
      "latitude": "29.951046897584394",
      "longitude": "-90.13517009417765"
    }
  },
  {
    "service_request": "2023-984396",
    "request_type": "Trash/Recycling",
    "request_reason": "Request a Large Item Pick Up",
    "date_created": "2023-03-20T15:41:27.000",
    "date_modified": "2023-03-20T15:41:28.000",
    "request_status": "Pending",
    "responsible_agency": "Department of Sanitation",
    "final_address": "6750 Catina St",
    "address_councildis": "A",
    "status": "Assigned to Contractor",
    "contractor": "IV Waste",
    "rowid": "984396",
    "final_x": "3666972.82119",
    "final_y": "552669.240854",
    "longitude": "-90.11323098739844",
    "latitude": "30.014082011577372",
    "geocoded_column": {
      "latitude": "30.014082011577372",
      "longitude": "-90.11323098739844"
    }
  },
  {
    "service_request": "2023-984395",
    "request_type": "Property Maintenance",
    "request_reason": "Property Maintenance",
    "date_created": "2023-03-20T15:41:16.000",
    "date_modified": "2023-03-20T15:41:16.000",
    "request_status": "Pending",
    "responsible_agency": "Department of Code Enforcement",
    "final_address": "2629 S Johnson St",
    "address_councildis": "B",
    "status": "Pending",
    "rowid": "984395",
    "final_x": "3672692.1483",
    "final_y": "528101.306047",
    "longitude": "-90.0959989702448",
    "latitude": "29.946359891326214",
    "geocoded_column": {
      "latitude": "29.946359891326214",
      "longitude": "-90.0959989702448"
    }
  },
  {
    "service_request": "2023-984394",
    "request_type": "Trash/Recycling",
    "request_reason": "Illegal Dumping",
    "date_created": "2023-03-20T15:40:21.000",
    "date_modified": "2023-03-20T15:40:21.000",
    "request_status": "Pending",
    "responsible_agency": "Department of Sanitation",
    "final_address": "2629 S Johnson St",
    "address_councildis": "B",
    "status": "Pending",
    "rowid": "984394",
    "final_x": "3672692.1483",
    "final_y": "528101.306047",
    "longitude": "-90.0959989702448",
    "latitude": "29.946359891326214",
    "geocoded_column": {
      "latitude": "29.946359891326214",
      "longitude": "-90.0959989702448"
    }
  },
  {
    "service_request": "2023-984393",
    "request_type": "Traffic Signals/Signs/Striping/Streetlights",
    "request_reason": "Street Light Outage/Malfunction",
    "date_created": "2023-03-20T15:37:55.000",
    "date_modified": "2023-03-20T15:37:56.000",
    "request_status": "Pending",
    "responsible_agency": "Department of Public Works",
    "final_address": "332 Homer St",
    "address_councildis": "C",
    "status": "Assigned to Contractor",
    "contractor": "Legacy Professional Services",
    "rowid": "984393",
    "final_x": "3686436.31695",
    "final_y": "528377.033024",
    "longitude": "-90.05259417172111",
    "latitude": "29.946702795492328",
    "geocoded_column": {
      "latitude": "29.946702795492328",
      "longitude": "-90.05259417172111"
    }
  },
  {
    "service_request": "2023-984392",
    "request_type": "Traffic Signals/Signs/Striping/Streetlights",
    "request_reason": "Street Light Outage/Malfunction",
    "date_created": "2023-03-20T15:36:41.000",
    "date_modified": "2023-03-20T15:36:41.000",
    "request_status": "Pending",
    "responsible_agency": "Department of Public Works",
    "final_address": "6100 Perrier St",
    "address_councildis": "A",
    "status": "Assigned to Contractor",
    "contractor": "Legacy Professional Services",
    "rowid": "984392",
    "final_x": "3664501.70228",
    "final_y": "520693.993977",
    "longitude": "-90.12210641682161",
    "latitude": "29.926232790361293",
    "geocoded_column": {
      "latitude": "29.926232790361293",
      "longitude": "-90.12210641682161"
    }
  },
  {
    "service_request": "2023-984391",
    "request_type": "Trash/Recycling",
    "request_reason": "Dead Animal Pick Up",
    "date_created": "2023-03-20T15:35:43.000",
    "date_modified": "2023-03-20T15:35:44.000",
    "request_status": "Pending",
    "responsible_agency": "Department of Sanitation",
    "final_address": "1501 Louisa St",
    "address_councildis": "D",
    "status": "Assigned to Contractor",
    "contractor": "IV Waste",
    "rowid": "984391",
    "final_x": "3689970.56227",
    "final_y": "537372.847432",
    "longitude": "-90.04111500392423",
    "latitude": "29.971329064228026",
    "geocoded_column": {
      "latitude": "29.971329064228026",
      "longitude": "-90.04111500392423"
    }
  },
  {
    "service_request": "2023-984390",
    "request_type": "Trash/Recycling",
    "request_reason": "Illegal Dumping",
    "date_created": "2023-03-20T15:35:08.000",
    "date_modified": "2023-03-20T15:35:08.000",
    "request_status": "Pending",
    "responsible_agency": "Department of Sanitation",
    "final_address": "20 Winners Cir",
    "address_councildis": "E",
    "status": "Pending",
    "rowid": "984390",
    "final_x": "3715808.01727",
    "final_y": "570325.773991",
    "longitude": "-89.9582687418173",
    "latitude": "30.061110137094577",
    "geocoded_column": {
      "latitude": "30.061110137094577",
      "longitude": "-89.9582687418173"
    }
  },
  {
    "service_request": "2023-984389",
    "request_type": "Abandoned Vehicles",
    "request_reason": "Abandoned/Junk Vehicles",
    "date_created": "2023-03-20T15:35:01.000",
    "date_modified": "2023-03-20T15:35:01.000",
    "request_status": "Pending",
    "responsible_agency": "Department of Public Works",
    "final_address": "3720 Fourth St",
    "address_councildis": "B",
    "status": "Pending",
    "rowid": "984389",
    "final_x": "3671996.94868",
    "final_y": "528989.786432",
    "longitude": "-90.09816372468207",
    "latitude": "29.948823544498605",
    "geocoded_column": {
      "latitude": "29.948823544498605",
      "longitude": "-90.09816372468207"
    }
  },
  {
    "service_request": "2023-984388",
    "request_type": "Trash/Recycling",
    "request_reason": "Missed Trash Pick-Up",
    "date_created": "2023-03-20T15:33:04.000",
    "date_modified": "2023-03-20T15:33:05.000",
    "request_status": "Pending",
    "responsible_agency": "Department of Sanitation",
    "final_address": "2314 Delery St",
    "address_councildis": "E",
    "status": "Assigned to Contractor",
    "contractor": "Waste Pro",
    "rowid": "984388",
    "final_x": "3702208.70065",
    "final_y": "537434.866696",
    "longitude": "-90.00246323893724",
    "latitude": "29.971114425544155",
    "geocoded_column": {
      "latitude": "29.971114425544155",
      "longitude": "-90.00246323893724"
    }
  },
  {
    "service_request": "2023-984387",
    "request_type": "Trash/Recycling",
    "request_reason": "Illegal Dumping",
    "date_created": "2023-03-20T15:29:11.000",
    "date_modified": "2023-03-20T15:29:11.000",
    "request_status": "Pending",
    "responsible_agency": "Department of Sanitation",
    "final_address": "3818 Second St",
    "address_councildis": "B",
    "status": "Pending",
    "rowid": "984387",
    "final_x": "3672333.06075",
    "final_y": "529590.943425",
    "longitude": "-90.09708199377204",
    "latitude": "29.9504665615443",
    "geocoded_column": {
      "latitude": "29.9504665615443",
      "longitude": "-90.09708199377204"
    }
  },
  {
    "service_request": "2023-984386",
    "request_type": "Property Maintenance",
    "request_reason": "Property Maintenance",
    "date_created": "2023-03-20T15:26:57.000",
    "date_modified": "2023-03-20T15:26:57.000",
    "request_status": "Pending",
    "responsible_agency": "Department of Code Enforcement",
    "final_address": "3821 Second St",
    "address_councildis": "B",
    "status": "Pending",
    "rowid": "984386",
    "final_x": "3672408.8434",
    "final_y": "529654.387713",
    "longitude": "-90.09684054929566",
    "latitude": "29.950638764015554",
    "geocoded_column": {
      "latitude": "29.950638764015554",
      "longitude": "-90.09684054929566"
    }
  },
  {
    "service_request": "2023-984385",
    "request_type": "Trash/Recycling",
    "request_reason": "Order Trash Cart",
    "date_created": "2023-03-20T15:24:40.000",
    "date_modified": "2023-03-20T15:24:41.000",
    "request_status": "Pending",
    "responsible_agency": "Department of Sanitation",
    "final_address": "14706 Emory Rd",
    "address_councildis": "E",
    "status": "Assigned to Contractor",
    "contractor": "Waste Pro",
    "rowid": "984385",
    "final_x": "3720342.03244",
    "final_y": "573485.111658",
    "longitude": "-89.94381587154238",
    "latitude": "30.069646600669888",
    "geocoded_column": {
      "latitude": "30.069646600669888",
      "longitude": "-89.94381587154238"
    }
  },
  {
    "service_request": "2023-984384",
    "request_type": "Roads/Drainage",
    "request_reason": "Street Flooding / Drainage",
    "date_created": "2023-03-20T15:24:29.000",
    "date_modified": "2023-03-20T15:24:29.000",
    "request_status": "Pending",
    "responsible_agency": "Department of Public Works",
    "final_address": "2500 S Rocheblave St",
    "address_councildis": "B",
    "status": "Pending",
    "rowid": "984384",
    "final_x": "3672435.59611",
    "final_y": "529363.865857",
    "longitude": "-90.09676597733174",
    "latitude": "29.949839130827048",
    "geocoded_column": {
      "latitude": "29.949839130827048",
      "longitude": "-90.09676597733174"
    }
  },
  {
    "service_request": "2023-984383",
    "request_type": "Tax and Revenue",
    "request_reason": "Occupational License Tax",
    "date_created": "2023-03-20T15:22:23.000",
    "date_modified": "2023-03-20T15:22:24.000",
    "request_status": "Pending",
    "responsible_agency": "Bureau of Revenue",
    "status": "Pending",
    "rowid": "984383",
    "longitude": "0.0",
    "latitude": "0.0",
    "geocoded_column": {
      "latitude": "0.0",
      "longitude": "0.0"
    }
  },
  {
    "service_request": "2023-984382",
    "request_type": "Roads/Drainage",
    "request_reason": "Street Flooding / Drainage",
    "date_created": "2023-03-20T15:21:51.000",
    "date_modified": "2023-03-20T15:21:51.000",
    "request_status": "Pending",
    "responsible_agency": "Department of Public Works",
    "final_address": "3618 Third St",
    "address_councildis": "B",
    "status": "Pending",
    "rowid": "984382",
    "final_x": "3672431.48737",
    "final_y": "528872.067776",
    "longitude": "-90.0967957080078",
    "latitude": "29.94848696991084",
    "geocoded_column": {
      "latitude": "29.94848696991084",
      "longitude": "-90.0967957080078"
    }
  },
  {
    "service_request": "2023-984381",
    "request_type": "Roads/Drainage",
    "request_reason": "Pothole",
    "date_created": "2023-03-20T15:20:29.000",
    "date_modified": "2023-03-20T15:20:29.000",
    "request_status": "Pending",
    "responsible_agency": "Department of Public Works",
    "final_address": "3328 Third St",
    "address_councildis": "B",
    "status": "Pending",
    "rowid": "984381",
    "final_x": "3672923.6603",
    "final_y": "528127.451391",
    "longitude": "-90.09526711231096",
    "latitude": "29.946424906288918",
    "geocoded_column": {
      "latitude": "29.946424906288918",
      "longitude": "-90.09526711231096"
    }
  },
  {
    "service_request": "2023-984380",
    "request_type": "Property Maintenance",
    "request_reason": "Property Maintenance",
    "date_created": "2023-03-20T15:15:56.000",
    "date_modified": "2023-03-20T15:15:56.000",
    "request_status": "Pending",
    "responsible_agency": "Department of Code Enforcement",
    "final_address": "3318 Fourth St",
    "address_councildis": "B",
    "status": "Pending",
    "rowid": "984380",
    "final_x": "3672715.72398",
    "final_y": "527881.890495",
    "longitude": "-90.09593201470415",
    "latitude": "29.945755870541532",
    "geocoded_column": {
      "latitude": "29.945755870541532",
      "longitude": "-90.09593201470415"
    }
  },
  {
    "service_request": "2023-984379",
    "request_type": "Trash/Recycling",
    "request_reason": "Request a Large Item Pick Up",
    "date_created": "2023-03-20T15:15:10.000",
    "date_modified": "2023-03-20T15:15:11.000",
    "request_status": "Pending",
    "responsible_agency": "Department of Sanitation",
    "final_address": "4758 Charlmark Dr",
    "address_councildis": "E",
    "status": "Assigned to Contractor",
    "contractor": "Waste Pro",
    "rowid": "984379",
    "final_x": "3711336.68178",
    "final_y": "556142.57129",
    "longitude": "-89.97293470141582",
    "latitude": "30.022258801712216",
    "geocoded_column": {
      "latitude": "30.022258801712216",
      "longitude": "-89.97293470141582"
    }
  },
  {
    "service_request": "2023-984378",
    "request_type": "Trash/Recycling",
    "request_reason": "Repair Recycling Cart",
    "date_created": "2023-03-20T15:14:52.000",
    "date_modified": "2023-03-20T15:14:53.000",
    "request_status": "Pending",
    "responsible_agency": "Department of Sanitation",
    "final_address": "4826 Annette St",
    "address_councildis": "D",
    "status": "Pending",
    "rowid": "984378",
    "final_x": "3681965.43599",
    "final_y": "550373.123476",
    "longitude": "-90.06594217921987",
    "latitude": "30.007321038030778",
    "geocoded_column": {
      "latitude": "30.007321038030778",
      "longitude": "-90.06594217921987"
    }
  },
  {
    "service_request": "2023-984377",
    "request_type": "Trash/Recycling",
    "request_reason": "Order Recycling Cart",
    "date_created": "2023-03-20T15:13:14.000",
    "date_modified": "2023-03-20T15:13:14.000",
    "request_status": "Pending",
    "responsible_agency": "Department of Sanitation",
    "final_address": "8402 Pritchard Pl",
    "address_councildis": "A",
    "status": "Pending",
    "rowid": "984377",
    "final_x": "3665191.42343",
    "final_y": "533625.713477",
    "longitude": "-90.11949671290695",
    "latitude": "29.961770797290477",
    "geocoded_column": {
      "latitude": "29.961770797290477",
      "longitude": "-90.11949671290695"
    }
  },
  {
    "service_request": "2023-984376",
    "request_type": "Abandoned Vehicles",
    "request_reason": "Abandoned/Junk Vehicles",
    "date_created": "2023-03-20T15:12:27.000",
    "date_modified": "2023-03-20T15:12:27.000",
    "request_status": "Pending",
    "responsible_agency": "Department of Public Works",
    "final_address": "3237 Third St",
    "address_councildis": "B",
    "status": "Pending",
    "rowid": "984376",
    "final_x": "3673166.87873",
    "final_y": "527892.336575",
    "longitude": "-90.09450721032161",
    "latitude": "29.945771189591582",
    "geocoded_column": {
      "latitude": "29.945771189591582",
      "longitude": "-90.09450721032161"
    }
  },
  {
    "service_request": "2023-984375",
    "request_type": "Trash/Recycling",
    "request_reason": "MIssed Recycling Pick-Up",
    "date_created": "2023-03-20T15:11:29.000",
    "date_modified": "2023-03-20T15:11:30.000",
    "request_status": "Pending",
    "responsible_agency": "Department of Sanitation",
    "final_address": "1256 Leboeuf St",
    "address_councildis": "C",
    "status": "Assigned to Contractor",
    "contractor": "Richards Disposal",
    "rowid": "984375",
    "final_x": "3689757.25193",
    "final_y": "526671.122686",
    "longitude": "-90.04216950542569",
    "latitude": "29.941909642437555",
    "geocoded_column": {
      "latitude": "29.941909642437555",
      "longitude": "-90.04216950542569"
    }
  },
  {
    "service_request": "2023-984373",
    "request_type": "Abandoned Vehicles",
    "request_reason": "Abandoned/Junk Vehicles",
    "date_created": "2023-03-20T15:09:57.000",
    "date_modified": "2023-03-20T15:09:57.000",
    "request_status": "Pending",
    "responsible_agency": "Department of Public Works",
    "final_address": "3237 Third St",
    "address_councildis": "B",
    "status": "Pending",
    "rowid": "984373",
    "final_x": "3673166.87873",
    "final_y": "527892.336575",
    "longitude": "-90.09450721032161",
    "latitude": "29.945771189591582",
    "geocoded_column": {
      "latitude": "29.945771189591582",
      "longitude": "-90.09450721032161"
    }
  },
  {
    "service_request": "2023-984372",
    "request_type": "Traffic Signals/Signs/Striping/Streetlights",
    "request_reason": "Street Light Outage/Malfunction",
    "date_created": "2023-03-20T15:09:33.000",
    "date_modified": "2023-03-20T15:09:33.000",
    "request_status": "Pending",
    "responsible_agency": "Department of Public Works",
    "final_address": "312 Maumus Ave",
    "address_councildis": "C",
    "status": "Assigned to Contractor",
    "contractor": "Legacy Professional Services",
    "rowid": "984372",
    "final_x": "3707373.91947",
    "final_y": "516809.440501",
    "longitude": "-89.98691632615777",
    "latitude": "29.914235889301192",
    "geocoded_column": {
      "latitude": "29.914235889301192",
      "longitude": "-89.98691632615777"
    }
  },
  {
    "service_request": "2023-984371",
    "request_type": "Property Maintenance",
    "request_reason": "Property Maintenance",
    "date_created": "2023-03-20T15:06:53.000",
    "date_modified": "2023-03-20T15:06:53.000",
    "request_status": "Pending",
    "responsible_agency": "Department of Code Enforcement",
    "final_address": "3237 Third St",
    "address_councildis": "B",
    "status": "Pending",
    "rowid": "984371",
    "final_x": "3673166.87873",
    "final_y": "527892.336575",
    "longitude": "-90.09450721032161",
    "latitude": "29.945771189591582",
    "geocoded_column": {
      "latitude": "29.945771189591582",
      "longitude": "-90.09450721032161"
    }
  },
  {
    "service_request": "2023-984370",
    "request_type": "Roads/Drainage",
    "request_reason": "Pothole",
    "date_created": "2023-03-20T15:05:45.000",
    "date_modified": "2023-03-20T15:05:45.000",
    "request_status": "Pending",
    "responsible_agency": "Department of Public Works",
    "final_address": "1100 Flanders St",
    "address_councildis": "C",
    "status": "Pending",
    "rowid": "984370",
    "final_x": "3696805.93904",
    "final_y": "527338.620159",
    "longitude": "-90.01989128363904",
    "latitude": "29.943524750401814",
    "geocoded_column": {
      "latitude": "29.943524750401814",
      "longitude": "-90.01989128363904"
    }
  },
  {
    "service_request": "2023-984369",
    "request_type": "Trash/Recycling",
    "request_reason": "Illegal Dumping",
    "date_created": "2023-03-20T15:05:29.000",
    "date_modified": "2023-03-20T15:05:29.000",
    "request_status": "Pending",
    "responsible_agency": "Department of Sanitation",
    "final_address": "3237 Third St",
    "address_councildis": "B",
    "status": "Pending",
    "rowid": "984369",
    "final_x": "3673166.87873",
    "final_y": "527892.336575",
    "longitude": "-90.09450721032161",
    "latitude": "29.945771189591582",
    "geocoded_column": {
      "latitude": "29.945771189591582",
      "longitude": "-90.09450721032161"
    }
  },
  {
    "service_request": "2023-984368",
    "request_type": "Trash/Recycling",
    "request_reason": "Order Trash Cart",
    "date_created": "2023-03-20T15:05:26.000",
    "date_modified": "2023-03-20T15:05:27.000",
    "request_status": "Pending",
    "responsible_agency": "Department of Sanitation",
    "final_address": "4022 Annunciation St",
    "address_councildis": "B",
    "status": "Assigned to Contractor",
    "contractor": "Richards Disposal",
    "rowid": "984368",
    "final_x": "3672438.8619",
    "final_y": "517836.677942",
    "longitude": "-90.09714832960026",
    "latitude": "29.9181429970783",
    "geocoded_column": {
      "latitude": "29.9181429970783",
      "longitude": "-90.09714832960026"
    }
  },
  {
    "service_request": "2023-984367",
    "request_type": "Property Maintenance",
    "request_reason": "Property Maintenance",
    "date_created": "2023-03-20T15:02:21.000",
    "date_modified": "2023-03-20T15:02:21.000",
    "request_status": "Pending",
    "responsible_agency": "Department of Code Enforcement",
    "final_address": "3318 Fourth St",
    "address_councildis": "B",
    "status": "Pending",
    "rowid": "984367",
    "final_x": "3672715.72398",
    "final_y": "527881.890495",
    "longitude": "-90.09593201470415",
    "latitude": "29.945755870541532",
    "geocoded_column": {
      "latitude": "29.945755870541532",
      "longitude": "-90.09593201470415"
    }
  },
  {
    "service_request": "2023-984366",
    "request_type": "Trash/Recycling",
    "request_reason": "Illegal Dumping",
    "date_created": "2023-03-20T14:59:57.000",
    "date_modified": "2023-03-20T14:59:57.000",
    "request_status": "Pending",
    "responsible_agency": "Department of Sanitation",
    "final_address": "2708 S Galvez St",
    "address_councildis": "B",
    "status": "Pending",
    "rowid": "984366",
    "final_x": "3672461.01191",
    "final_y": "528186.907072",
    "longitude": "-90.0967258335797",
    "latitude": "29.946602126988907",
    "geocoded_column": {
      "latitude": "29.946602126988907",
      "longitude": "-90.0967258335797"
    }
  },
  {
    "service_request": "2023-984364",
    "request_type": "Trash/Recycling",
    "request_reason": "Illegal Dumping",
    "date_created": "2023-03-20T14:57:35.000",
    "date_modified": "2023-03-20T14:57:35.000",
    "request_status": "Pending",
    "responsible_agency": "Department of Sanitation",
    "final_address": "2816 S Prieur St",
    "address_councildis": "B",
    "status": "Pending",
    "rowid": "984364",
    "final_x": "3672463.65953",
    "final_y": "527438.416959",
    "longitude": "-90.09674297829187",
    "latitude": "29.944543945999346",
    "geocoded_column": {
      "latitude": "29.944543945999346",
      "longitude": "-90.09674297829187"
    }
  },
  {
    "service_request": "2023-984363",
    "request_type": "Roads/Drainage",
    "request_reason": "Pothole",
    "date_created": "2023-03-20T14:56:20.000",
    "date_modified": "2023-03-20T14:56:20.000",
    "request_status": "Pending",
    "responsible_agency": "Department of Public Works",
    "final_address": "2816 S Prieur St",
    "address_councildis": "B",
    "status": "Pending",
    "rowid": "984363",
    "final_x": "3672463.65953",
    "final_y": "527438.416959",
    "longitude": "-90.09674297829187",
    "latitude": "29.944543945999346",
    "geocoded_column": {
      "latitude": "29.944543945999346",
      "longitude": "-90.09674297829187"
    }
  },
  {
    "service_request": "2023-984362",
    "request_type": "Trash/Recycling",
    "request_reason": "Request a Large Item Pick Up",
    "date_created": "2023-03-20T14:56:00.000",
    "date_modified": "2023-03-20T14:56:00.000",
    "request_status": "Pending",
    "responsible_agency": "Department of Sanitation",
    "final_address": "4923 Flake Ave",
    "address_councildis": "E",
    "status": "Assigned to Contractor",
    "contractor": "Waste Pro",
    "rowid": "984362",
    "final_x": "3706046.14212",
    "final_y": "556402.74121",
    "longitude": "-89.98964172347709",
    "latitude": "30.023145816246938",
    "geocoded_column": {
      "latitude": "30.023145816246938",
      "longitude": "-89.98964172347709"
    }
  },
  {
    "service_request": "2023-984361",
    "request_type": "Traffic Signals/Signs/Striping/Streetlights",
    "request_reason": "Street Light Outage/Malfunction",
    "date_created": "2023-03-20T14:55:49.000",
    "date_modified": "2023-03-20T14:55:50.000",
    "request_status": "Pending",
    "responsible_agency": "Department of Public Works",
    "final_address": "1703 Clouet St",
    "address_councildis": "D",
    "status": "Assigned to Contractor",
    "contractor": "Legacy Professional Services",
    "rowid": "984361",
    "final_x": "3689606.44751",
    "final_y": "538279.838857",
    "longitude": "-90.04223265070081",
    "latitude": "29.973834256695863",
    "geocoded_column": {
      "latitude": "29.973834256695863",
      "longitude": "-90.04223265070081"
    }
  },
  {
    "service_request": "2023-984360",
    "request_type": "Trash/Recycling",
    "request_reason": "Missed Trash Pick-Up",
    "date_created": "2023-03-20T14:54:20.000",
    "date_modified": "2023-03-20T14:54:21.000",
    "request_status": "Pending",
    "responsible_agency": "Department of Sanitation",
    "final_address": "1914 Magazine St, New Orleans, Louisiana, 70130",
    "address_councildis": "B",
    "status": "Assigned to Contractor",
    "contractor": "Richards Disposal",
    "rowid": "984360",
    "final_x": "3679683.7124",
    "final_y": "522687.819514",
    "longitude": "-90.07411198752877",
    "latitude": "29.931265149568254",
    "geocoded_column": {
      "latitude": "29.931265149568254",
      "longitude": "-90.07411198752877"
    }
  },
  {
    "service_request": "2023-984359",
    "request_type": "Trash/Recycling",
    "request_reason": "Illegal Dumping",
    "date_created": "2023-03-20T14:53:53.000",
    "date_modified": "2023-03-20T14:53:53.000",
    "request_status": "Pending",
    "responsible_agency": "Department of Sanitation",
    "final_address": "2821 S Claiborne Ave",
    "address_councildis": "B",
    "status": "Pending",
    "rowid": "984359",
    "final_x": "3672902.22171",
    "final_y": "526933.255614",
    "longitude": "-90.09537553784317",
    "latitude": "29.94314189640889",
    "geocoded_column": {
      "latitude": "29.94314189640889",
      "longitude": "-90.09537553784317"
    }
  },
  {
    "service_request": "2023-984358",
    "request_type": "Trash/Recycling",
    "request_reason": "Missed Trash Pick-Up",
    "date_created": "2023-03-20T14:51:46.000",
    "date_modified": "2023-03-20T14:51:47.000",
    "request_status": "Pending",
    "responsible_agency": "Department of Sanitation",
    "final_address": "7800 Briarwood Dr",
    "address_councildis": "E",
    "status": "Assigned to Contractor",
    "contractor": "Waste Pro",
    "rowid": "984358",
    "final_x": "3716879.1422",
    "final_y": "571676.94052",
    "longitude": "-89.95483159004776",
    "latitude": "30.064789895814403",
    "geocoded_column": {
      "latitude": "30.064789895814403",
      "longitude": "-89.95483159004776"
    }
  },
  {
    "service_request": "2023-984356",
    "request_type": "Abandoned Vehicles",
    "request_reason": "Abandoned/Junk Vehicles",
    "date_created": "2023-03-20T14:44:58.000",
    "date_modified": "2023-03-20T14:44:58.000",
    "request_status": "Pending",
    "responsible_agency": "Department of Public Works",
    "final_address": "333 W Harrison Ave",
    "address_councildis": "A",
    "status": "Pending",
    "rowid": "984356",
    "final_x": "3664923.57197",
    "final_y": "549750.978516",
    "longitude": "-90.11980325635794",
    "latitude": "30.006117644451145",
    "geocoded_column": {
      "latitude": "30.006117644451145",
      "longitude": "-90.11980325635794"
    }
  },
  {
    "service_request": "2023-984355",
    "request_type": "Trash/Recycling",
    "request_reason": "Request a Large Item Pick Up",
    "date_created": "2023-03-20T14:42:32.000",
    "date_modified": "2023-03-20T14:44:48.000",
    "case_close_date": "2023-03-20T09:44:48.000",
    "request_status": "Closed",
    "responsible_agency": "Department of Sanitation",
    "final_address": "4486 St Roch Ave",
    "address_councildis": "D",
    "status": "Assigned to Contractor",
    "contractor": "IV Waste",
    "contractor_action": "Completed",
    "rowid": "984355",
    "final_x": "3685280.52245",
    "final_y": "549466.113619",
    "longitude": "-90.05550086614666",
    "latitude": "30.004725850828947",
    "geocoded_column": {
      "latitude": "30.004725850828947",
      "longitude": "-90.05550086614666"
    }
  },