[
  {
    "service_request": "2025-1220505",
    "request_type": "Traffic Safety",
    "request_reason": "Request for Traffic Calming due to Speeding",
    "date_created": "2025-08-21T23:23:11.000",
    "date_modified": "2025-08-21T23:23:13.000",
    "request_status": "Pending",
    "responsible_agency": "Department of Public Works",
    "final_address": "1222 Frenchmen St",
    "address_councildis": "C",
    "status": "Pending",
    "rowid": "1220505",
    "final_x": "3684510.02377",
    "final_y": "536832.931464",
    "longitude": "-90.05837909912964",
    "latitude": "29.97001267975877",
    "geocoded_column": {
      "latitude": "29.97001267975877",
      "longitude": "-90.05837909912964"
    }
  },
  {
    "service_request": "2025-1220504",
    "request_type": "Trash/Recycling",
    "request_reason": "Request a Large Item Pick Up",
    "date_created": "2025-08-21T21:55:04.000",
    "date_modified": "2025-08-21T21:55:06.000",
    "request_status": "Pending",
    "responsible_agency": "Department of Sanitation",
    "final_address": "6631 Coveview Ct",
    "address_councildis": "E",
    "status": "Assigned to Contractor",
    "contractor": "Waste Pro",
    "rowid": "1220504",
    "final_x": "3699176.25661",
    "final_y": "555844.405913",
    "longitude": "-90.01136928268052",
    "latitude": "30.02183033097487",
    "geocoded_column": {
      "latitude": "30.02183033097487",
      "longitude": "-90.01136928268052"
    }
  },
  {
    "service_request": "2025-1220503",
    "request_type": "Trash/Recycling",
    "request_reason": "Request a Large Item Pick Up",
    "date_created": "2025-08-21T21:51:16.000",
    "date_modified": "2025-08-21T21:51:19.000",
    "request_status": "Pending",
    "responsible_agency": "Department of Sanitation",
    "final_address": "4708 Lafon Dr",
    "address_councildis": "E",
    "status": "Assigned to Contractor",
    "contractor": "Waste Pro",
    "rowid": "1220503",
    "final_x": "3701097.90634",
    "final_y": "553967.754456",
    "longitude": "-90.00536613232342",
    "latitude": "30.016609156535495",
    "geocoded_column": {
      "latitude": "30.016609156535495",
      "longitude": "-90.00536613232342"
    }
  },
  {
    "service_request": "2025-1220502",
    "request_type": "Abandoned Vehicles",
    "request_reason": "Abandoned/Junk Vehicles",
    "date_created": "2025-08-21T21:07:06.000",
    "date_modified": "2025-08-21T21:07:09.000",
    "request_status": "Pending",
    "responsible_agency": "Department of Public Works",
    "final_address": "4566 Cerise Ave",
    "address_councildis": "E",
    "status": "Pending",
    "rowid": "1220502",
    "final_x": "3708644.65675",
    "final_y": "554591.824728",
    "longitude": "-89.98149856764431",
    "latitude": "30.01808245838527",
    "geocoded_column": {
      "latitude": "30.01808245838527",
      "longitude": "-89.98149856764431"
    }
  },
  {
    "service_request": "2025-1220501",
    "request_type": "Property Maintenance",
    "request_reason": "Property Maintenance",
    "date_created": "2025-08-21T21:02:26.000",
    "date_modified": "2025-08-21T21:02:27.000",
    "request_status": "Pending",
    "responsible_agency": "Department of Code Enforcement",
    "final_address": "13528 Trappers Ct",
    "address_councildis": "E",
    "status": "Pending",
    "rowid": "1220501",
    "final_x": "3724483.75974",
    "final_y": "569185.98519",
    "longitude": "-89.93088934225133",
    "latitude": "30.057687073392664",
    "geocoded_column": {
      "latitude": "30.057687073392664",
      "longitude": "-89.93088934225133"
    }
  },
  {
    "service_request": "2025-1220500",
    "request_type": "Abandoned Vehicles",
    "request_reason": "Abandoned/Junk Vehicles",
    "date_created": "2025-08-21T20:57:47.000",
    "date_modified": "2025-08-21T20:57:49.000",
    "request_status": "Pending",
    "responsible_agency": "Department of Public Works",
    "final_address": "2104 Benefit St",
    "address_councildis": "D",
    "status": "Pending",
    "rowid": "1220500",
    "final_x": "3683644.60079",
    "final_y": "544316.841551",
    "longitude": "-90.06084971555408",
    "latitude": "29.9906172572289",
    "geocoded_column": {
      "latitude": "29.9906172572289",
      "longitude": "-90.06084971555408"
    }
  },
  {
    "service_request": "2025-1220499",
    "request_type": "Traffic Signals",
    "request_reason": "Traffic Signal Malfunctioning or Damaged",
    "date_created": "2025-08-21T20:36:18.000",
    "date_modified": "2025-08-21T20:36:21.000",
    "request_status": "Pending",
    "responsible_agency": "Department of Public Works",
    "final_address": "7603 Chef Menteur Hwy",
    "address_councildis": "E",
    "status": "Pending",
    "rowid": "1220499",
    "final_x": "3703409.73815",
    "final_y": "552571.461334",
    "longitude": "-89.99811319021275",
    "latitude": "30.012696010769705",
    "geocoded_column": {
      "latitude": "30.012696010769705",
      "longitude": "-89.99811319021275"
    }
  },
  {
    "service_request": "2025-1220498",
    "request_type": "Roads and Streets",
    "request_reason": "Sidewalk Damaged or Missing",
    "date_created": "2025-08-21T20:24:22.000",
    "date_modified": "2025-08-21T20:24:25.000",
    "request_status": "Pending",
    "responsible_agency": "Department of Public Works",
    "final_address": "1212 Austerlitz St",
    "address_councildis": "B",
    "status": "Pending",
    "rowid": "1220498",
    "final_x": "3672716.81652",
    "final_y": "520114.793976",
    "longitude": "-90.096193338305",
    "latitude": "29.924398840621677",
    "geocoded_column": {
      "latitude": "29.924398840621677",
      "longitude": "-90.096193338305"
    }
  },
  {
    "service_request": "2025-1220497",
    "request_type": "Abandoned Vehicles",
    "request_reason": "Abandoned/Junk Vehicles",
    "date_created": "2025-08-21T19:59:42.000",
    "date_modified": "2025-08-21T19:59:44.000",
    "request_status": "Pending",
    "responsible_agency": "Department of Public Works",
    "final_address": "2339 N Miro St",
    "address_councildis": "D",
    "status": "Pending",
    "rowid": "1220497",
    "final_x": "3685763.20521",
    "final_y": "540523.343627",
    "longitude": "-90.05429134054478",
    "latitude": "29.980121619914712",
    "geocoded_column": {
      "latitude": "29.980121619914712",
      "longitude": "-90.05429134054478"
    }
  },
  {
    "service_request": "2025-1220496",
    "request_type": "General Services",
    "request_reason": "General Service Request",
    "date_created": "2025-08-21T19:56:52.000",
    "date_modified": "2025-08-21T19:56:54.000",
    "request_status": "Pending",
    "responsible_agency": "Orleans Parish Communication District",
    "final_address": "4040 Tulane Ave",
    "address_councildis": "A",
    "status": "Pending",
    "rowid": "1220496",
    "final_x": "3669503.05063",
    "final_y": "536038.946823",
    "longitude": "-90.10579961203256",
    "latitude": "29.96828009083972",
    "geocoded_column": {
      "latitude": "29.96828009083972",
      "longitude": "-90.10579961203256"
    }
  },
  {
    "service_request": "2025-1220495",
    "request_type": "Mosquito, Termite & Rodent Control",
    "request_reason": "Termite Complaint",
    "date_created": "2025-08-21T19:53:28.000",
    "date_modified": "2025-08-21T19:53:30.000",
    "request_status": "Pending",
    "responsible_agency": "Mosquito, Termite & Rodent Control Board",
    "final_address": "4040 Tulane Ave",
    "address_councildis": "A",
    "status": "Pending",
    "rowid": "1220495",
    "final_x": "3669503.05063",
    "final_y": "536038.946823",
    "longitude": "-90.10579961203256",
    "latitude": "29.96828009083972",
    "geocoded_column": {
      "latitude": "29.96828009083972",
      "longitude": "-90.10579961203256"
    }
  },
  {
    "service_request": "2025-1220494",
    "request_type": "Graffiti Removal",
    "request_reason": "Graffiti Removal",
    "date_created": "2025-08-21T19:52:20.000",
    "date_modified": "2025-08-21T19:52:22.000",
    "request_status": "Pending",
    "responsible_agency": "Department of Code Enforcement",
    "final_address": "4040 Tulane Ave",
    "address_councildis": "A",
    "status": "Pending",
    "rowid": "1220494",
    "final_x": "3669503.05063",
    "final_y": "536038.946823",
    "longitude": "-90.10579961203256",
    "latitude": "29.96828009083972",
    "geocoded_column": {
      "latitude": "29.96828009083972",
      "longitude": "-90.10579961203256"
    }
  },
  {
    "service_request": "2025-1220493",
    "request_type": "Traffic Signals",
    "request_reason": "Traffic Signal Malfunctioning or Damaged",
    "date_created": "2025-08-21T19:51:06.000",
    "date_modified": "2025-08-21T19:51:08.000",
    "request_status": "Pending",
    "responsible_agency": "Department of Public Works",
    "final_address": "I 10 E & READ BLVD",
    "address_councildis": "E",
    "status": "Pending",
    "rowid": "1220493",
    "final_x": "3710246.0",
    "final_y": "561456.68",
    "longitude": "-89.97618207572056",
    "latitude": "30.0369060630307",
    "geocoded_column": {
      "latitude": "30.0369060630307",
      "longitude": "-89.97618207572056"
    }
  },
  {
    "service_request": "2025-1220492",
    "request_type": "General Services",
    "request_reason": "General Service Request",
    "date_created": "2025-08-21T19:26:29.000",
    "date_modified": "2025-08-21T19:26:30.000",
    "request_status": "Pending",
    "responsible_agency": "Orleans Parish Communication District",
    "final_address": "908 N Hennessey St",
    "address_councildis": "A",
    "status": "Pending",
    "rowid": "1220492",
    "final_x": "3672187.03406",
    "final_y": "541387.804236",
    "longitude": "-90.09714121628043",
    "latitude": "29.982908299153753",
    "geocoded_column": {
      "latitude": "29.982908299153753",
      "longitude": "-90.09714121628043"
    }
  },
  {
    "service_request": "2025-1220491",
    "request_type": "Parks & Parkways",
    "request_reason": "Park Maintenance/Clean Up",
    "date_created": "2025-08-21T19:11:07.000",
    "date_modified": "2025-08-21T19:11:09.000",
    "request_status": "Pending",
    "responsible_agency": "Department of Parks & Parkway",
    "final_address": "900 Napoleon Ave",
    "address_councildis": "B",
    "status": "Pending",
    "rowid": "1220491",
    "final_x": "3670816.23329",
    "final_y": "518803.454263",
    "longitude": "-90.10223731581735",
    "latitude": "29.920849360685466",
    "geocoded_column": {
      "latitude": "29.920849360685466",
      "longitude": "-90.10223731581735"
    }
  },
  {
    "service_request": "2025-1220490",
    "request_type": "Streetlights",
    "request_reason": "Streetlight Outage/Malfunction",
    "date_created": "2025-08-21T18:51:45.000",
    "date_modified": "2025-08-21T18:51:47.000",
    "request_status": "Pending",
    "responsible_agency": "Department of Public Works",
    "final_address": "8936 Belfast St",
    "address_councildis": "A",
    "status": "Pending",
    "contractor": "Legacy Professional Services",
    "rowid": "1220490",
    "final_x": "3663278.86944",
    "final_y": "534420.628229",
    "longitude": "-90.12550981793875",
    "latitude": "29.964012123818733",
    "geocoded_column": {
      "latitude": "29.964012123818733",
      "longitude": "-90.12550981793875"
    }
  },
  {
    "service_request": "2025-1220489",
    "request_type": "Property Maintenance",
    "request_reason": "Property Maintenance",
    "date_created": "2025-08-21T18:45:39.000",
    "date_modified": "2025-08-21T18:45:41.000",
    "request_status": "Pending",
    "responsible_agency": "Department of Code Enforcement",
    "final_address": "8920 Apricot St",
    "address_councildis": "A",
    "status": "Pending",
    "rowid": "1220489",
    "final_x": "3663593.82778",
    "final_y": "534611.03175",
    "longitude": "-90.12450886014419",
    "latitude": "29.964526538558847",
    "geocoded_column": {
      "latitude": "29.964526538558847",
      "longitude": "-90.12450886014419"
    }
  },
  {
    "service_request": "2025-1220488",
    "request_type": "Trash/Recycling",
    "request_reason": "Order Trash Cart",
    "date_created": "2025-08-21T18:20:27.000",
    "date_modified": "2025-08-21T18:20:29.000",
    "request_status": "Pending",
    "responsible_agency": "Department of Sanitation",
    "final_address": "7941 Bullard Ave Apt D",
    "address_councildis": "E",
    "status": "Assigned to Contractor",
    "contractor": "Waste Pro",
    "rowid": "1220488",
    "final_x": "3712511.43416",
    "final_y": "568490.014885",
    "longitude": "-89.9687581878588",
    "latitude": "30.056170916442884",
    "geocoded_column": {
      "latitude": "30.056170916442884",
      "longitude": "-89.9687581878588"
    }
  },
  {
    "service_request": "2025-1220487",
    "request_type": "Trash/Recycling",
    "request_reason": "Order Recycling Cart",
    "date_created": "2025-08-21T18:04:19.000",
    "date_modified": "2025-08-21T18:04:21.000",
    "request_status": "Pending",
    "responsible_agency": "Department of Sanitation",
    "final_address": "3905 N Claiborne Ave",
    "address_councildis": "D",
    "status": "Pending",
    "rowid": "1220487",
    "final_x": "3692040.54461",
    "final_y": "537273.137608",
    "longitude": "-90.03458130289519",
    "latitude": "29.970990546790084",
    "geocoded_column": {
      "latitude": "29.970990546790084",
      "longitude": "-90.03458130289519"
    }
  },
  {
    "service_request": "2025-1220486",
    "request_type": "Trash/Recycling",
    "request_reason": "Missed Trash Pick-Up",
    "date_created": "2025-08-21T18:00:17.000",
    "date_modified": "2025-08-21T18:00:18.000",
    "request_status": "Pending",
    "responsible_agency": "Department of Sanitation",
    "final_address": "2233 Annette St",
    "address_councildis": "D",
    "status": "Assigned to Contractor",
    "contractor": "IV Waste",
    "rowid": "1220486",
    "final_x": "3682831.84821",
    "final_y": "540470.619403",
    "longitude": "-90.06355163020623",
    "latitude": "29.980066293045812",
    "geocoded_column": {
      "latitude": "29.980066293045812",
      "longitude": "-90.06355163020623"
    }
  },
  {
    "service_request": "2025-1220485",
    "request_type": "General Services",
    "request_reason": "General Service Request",
    "date_created": "2025-08-21T17:58:35.000",
    "date_modified": "2025-08-21T17:58:36.000",
    "request_status": "Pending",
    "responsible_agency": "Orleans Parish Communication District",
    "final_address": "1518 Terpsichore St",
    "address_councildis": "B",
    "status": "Pending",
    "rowid": "1220485",
    "final_x": "3679289.6228",
    "final_y": "525077.971773",
    "longitude": "-90.07527323467696",
    "latitude": "29.93784918348774",
    "geocoded_column": {
      "latitude": "29.93784918348774",
      "longitude": "-90.07527323467696"
    }
  },
  {
    "service_request": "2025-1220484",
    "request_type": "Trash/Recycling",
    "request_reason": "Change Size of Trash Cart",
    "date_created": "2025-08-21T17:57:46.000",
    "date_modified": "2025-08-21T17:57:48.000",
    "request_status": "Pending",
    "responsible_agency": "Department of Sanitation",
    "final_address": "1833 Fourth St",
    "address_councildis": "B",
    "status": "Assigned to Contractor",
    "contractor": "IV Waste",
    "rowid": "1220484",
    "final_x": "3675655.41992",
    "final_y": "523568.891387",
    "longitude": "-90.08679855191127",
    "latitude": "29.933808920645497",
    "geocoded_column": {
      "latitude": "29.933808920645497",
      "longitude": "-90.08679855191127"
    }
  },
  {
    "service_request": "2025-1220483",
    "request_type": "Abandoned Vehicles",
    "request_reason": "Abandoned/Junk Vehicles",
    "date_created": "2025-08-21T17:45:49.000",
    "date_modified": "2025-08-21T17:45:51.000",
    "request_status": "Pending",
    "responsible_agency": "Department of Public Works",
    "final_address": "2216 Soniat St",
    "address_councildis": "B",
    "status": "Pending",
    "rowid": "1220483",
    "final_x": "3668464.95169",
    "final_y": "523724.164603",
    "longitude": "-90.10949336561482",
    "latitude": "29.93444900291553",
    "geocoded_column": {
      "latitude": "29.93444900291553",
      "longitude": "-90.10949336561482"
    }
  },
  {
    "service_request": "2025-1220482",
    "request_type": "Trash/Recycling",
    "request_reason": "Request a Large Item Pick Up",
    "date_created": "2025-08-21T17:42:29.000",
    "date_modified": "2025-08-21T17:42:31.000",
    "request_status": "Pending",
    "responsible_agency": "Department of Sanitation",
    "final_address": "733 St Joseph St",
    "address_councildis": "B",
    "status": "Assigned to Contractor",
    "contractor": "IV Waste",
    "rowid": "1220482",
    "final_x": "3680018.85359",
    "final_y": "527570.779711",
    "longitude": "-90.07288442247352",
    "latitude": "29.944681541177417",
    "geocoded_column": {
      "latitude": "29.944681541177417",
      "longitude": "-90.07288442247352"
    }
  },
  {
    "service_request": "2025-1220481",
    "request_type": "Parks & Parkways",
    "request_reason": "Tree Stump (removal, grind)",
    "date_created": "2025-08-21T17:33:50.000",
    "date_modified": "2025-08-21T17:33:52.000",
    "request_status": "Pending",
    "responsible_agency": "Department of Parks & Parkway",
    "final_address": "9320 Palm St",
    "address_councildis": "A",
    "status": "Pending",
    "rowid": "1220481",
    "final_x": "3664380.3945",
    "final_y": "537636.302152",
    "longitude": "-90.12192392716516",
    "latitude": "29.972822193066115",
    "geocoded_column": {
      "latitude": "29.972822193066115",
      "longitude": "-90.12192392716516"
    }
  },
  {
    "service_request": "2025-1220480",
    "request_type": "Parks & Parkways",
    "request_reason": "Request Tree Service (Right of Way/Public Property)",
    "date_created": "2025-08-21T17:24:20.000",
    "date_modified": "2025-08-21T17:24:22.000",
    "request_status": "Pending",
    "responsible_agency": "Department of Parks & Parkway",
    "final_address": "511 Washington Ave",
    "address_councildis": "B",
    "status": "Pending",
    "rowid": "1220480",
    "final_x": "3678281.23035",
    "final_y": "519061.777271",
    "longitude": "-90.07866478861386",
    "latitude": "29.921337018994784",
    "geocoded_column": {
      "latitude": "29.921337018994784",
      "longitude": "-90.07866478861386"
    }
  },
  {
    "service_request": "2025-1220479",
    "request_type": "Streetlights",
    "request_reason": "Streetlight Knocked Down/Leaning",
    "date_created": "2025-08-21T17:06:05.000",
    "date_modified": "2025-08-21T17:06:07.000",
    "request_status": "Pending",
    "responsible_agency": "Department of Public Works",
    "final_address": "N ROBERTSON ST & POLAND AVE",
    "address_councildis": "D",
    "status": "Pending",
    "contractor": "Legacy Professional Services",
    "rowid": "1220479",
    "final_x": "3693387.9",
    "final_y": "536500.58",
    "longitude": "-90.03035394194877",
    "latitude": "29.968824227096107",
    "geocoded_column": {
      "latitude": "29.968824227096107",
      "longitude": "-90.03035394194877"
    }
  },
  {
    "service_request": "2025-1220478",
    "request_type": "Parks & Parkways",
    "request_reason": "Request Tree Service (Right of Way/Public Property)",
    "date_created": "2025-08-21T16:58:16.000",
    "date_modified": "2025-08-21T16:58:55.000",
    "request_status": "Pending",
    "responsible_agency": "Department of Parks & Parkway",
    "final_address": "3800 BLK Magellan St",
    "address_councildis": "C",
    "status": "Pending",
    "rowid": "1220478",
    "final_x": "3698327.95993",
    "final_y": "524339.649271",
    "longitude": "-90.01519481738768",
    "latitude": "29.935230562608727",
    "geocoded_column": {
      "latitude": "29.935230562608727",
      "longitude": "-90.01519481738768"
    }
  },
  {
    "service_request": "2025-1220477",
    "request_type": "Parks & Parkways",
    "request_reason": "Request Tree Service (Right of Way/Public Property)",
    "date_created": "2025-08-21T16:53:04.000",
    "date_modified": "2025-08-21T16:53:06.000",
    "request_status": "Pending",
    "responsible_agency": "Department of Parks & Parkway",
    "final_address": "5229 Coliseum St",
    "address_councildis": "B",
    "status": "Pending",
    "rowid": "1220477",
    "final_x": "3667829.97466",
    "final_y": "519710.634552",
    "longitude": "-90.11163307324642",
    "latitude": "29.923431704505507",
    "geocoded_column": {
      "latitude": "29.923431704505507",
      "longitude": "-90.11163307324642"
    }
  },
  {
    "service_request": "2025-1220476",
    "request_type": "Trash/Recycling",
    "request_reason": "Repair Recycling Cart",
    "date_created": "2025-08-21T16:44:53.000",
    "date_modified": "2025-08-21T16:44:55.000",
    "request_status": "Pending",
    "responsible_agency": "Department of Sanitation",
    "final_address": "1513 Seville Dr",
    "address_councildis": "D",
    "status": "Pending",
    "rowid": "1220476",
    "final_x": "3678815.68264",
    "final_y": "551326.150933",
    "longitude": "-90.07586009279126",
    "latitude": "30.010036940061593",
    "geocoded_column": {
      "latitude": "30.010036940061593",
      "longitude": "-90.07586009279126"
    }
  },
  {
    "service_request": "2025-1220475",
    "request_type": "Abandoned Vehicles",
    "request_reason": "Abandoned/Junk Vehicles",
    "date_created": "2025-08-21T16:39:04.000",
    "date_modified": "2025-08-21T16:39:05.000",
    "request_status": "Pending",
    "responsible_agency": "Department of Public Works",
    "final_address": "4706 St Anthony Ave",
    "address_councildis": "D",
    "status": "Pending",
    "rowid": "1220475",
    "final_x": "3682292.15944",
    "final_y": "549895.05058",
    "longitude": "-90.06492668838001",
    "latitude": "30.00599656912797",
    "geocoded_column": {
      "latitude": "30.00599656912797",
      "longitude": "-90.06492668838001"
    }
  },
  {
    "service_request": "2025-1220474",
    "request_type": "Trash/Recycling",
    "request_reason": "Repair Trash Cart",
    "date_created": "2025-08-21T16:36:38.000",
    "date_modified": "2025-08-21T16:36:41.000",
    "request_status": "Pending",
    "responsible_agency": "Department of Sanitation",
    "final_address": "4706 St Anthony Ave",
    "address_councildis": "D",
    "status": "Assigned to Contractor",
    "contractor": "IV Waste",
    "rowid": "1220474",
    "final_x": "3682292.15944",
    "final_y": "549895.05058",
    "longitude": "-90.06492668838001",
    "latitude": "30.00599656912797",
    "geocoded_column": {
      "latitude": "30.00599656912797",
      "longitude": "-90.06492668838001"
    }
  },
  {
    "service_request": "2025-1220473",
    "request_type": "Trash/Recycling",
    "request_reason": "Replace Trash Cart",
    "date_created": "2025-08-21T16:27:21.000",
    "date_modified": "2025-08-21T16:27:23.000",
    "request_status": "Pending",
    "responsible_agency": "Department of Sanitation",
    "final_address": "7330 Hansbrough Ave",
    "address_councildis": "E",
    "status": "Assigned to Contractor",
    "contractor": "Waste Pro",
    "rowid": "1220473",
    "final_x": "3708108.51044",
    "final_y": "563544.047008",
    "longitude": "-89.98285920144167",
    "latitude": "30.042714930924113",
    "geocoded_column": {
      "latitude": "30.042714930924113",
      "longitude": "-89.98285920144167"
    }
  },
  {
    "service_request": "2025-1220472",
    "request_type": "Trash/Recycling",
    "request_reason": "Order Trash Cart",
    "date_created": "2025-08-21T16:24:10.000",
    "date_modified": "2025-08-21T16:24:12.000",
    "request_status": "Pending",
    "responsible_agency": "Department of Sanitation",
    "final_address": "11206 Curran Rd",
    "address_councildis": "E",
    "status": "Assigned to Contractor",
    "contractor": "Waste Pro",
    "rowid": "1220472",
    "final_x": "3710943.82385",
    "final_y": "566339.236387",
    "longitude": "-89.97379374672605",
    "latitude": "30.050308387300632",
    "geocoded_column": {
      "latitude": "30.050308387300632",
      "longitude": "-89.97379374672605"
    }
  },
  {
    "service_request": "2025-1220471",
    "request_type": "Trash/Recycling",
    "request_reason": "Replace Trash Cart",
    "date_created": "2025-08-21T16:12:39.000",
    "date_modified": "2025-08-21T16:12:41.000",
    "request_status": "Pending",
    "responsible_agency": "Department of Sanitation",
    "final_address": "6960 Pinebrook Dr",
    "address_councildis": "E",
    "status": "Assigned to Contractor",
    "contractor": "Waste Pro",
    "rowid": "1220471",
    "final_x": "3719827.36607",
    "final_y": "569289.662374",
    "longitude": "-89.94560346907494",
    "latitude": "30.058128024767235",
    "geocoded_column": {
      "latitude": "30.058128024767235",
      "longitude": "-89.94560346907494"
    }
  },
  {
    "service_request": "2025-1220470",
    "request_type": "Trash/Recycling",
    "request_reason": "Repair Trash Cart",
    "date_created": "2025-08-21T16:09:32.000",
    "date_modified": "2025-08-21T16:09:33.000",
    "request_status": "Pending",
    "responsible_agency": "Department of Sanitation",
    "final_address": "2608 Franklin Ave",
    "address_councildis": "D",
    "status": "Assigned to Contractor",
    "contractor": "IV Waste",
    "rowid": "1220470",
    "final_x": "3687379.30396",
    "final_y": "542166.209805",
    "longitude": "-90.04912888159707",
    "latitude": "29.984589217529148",
    "geocoded_column": {
      "latitude": "29.984589217529148",
      "longitude": "-90.04912888159707"
    }
  },
  {
    "service_request": "2025-1220469",
    "request_type": "Streetlights",
    "request_reason": "Streetlight Outage/Malfunction",
    "date_created": "2025-08-21T16:05:07.000",
    "date_modified": "2025-08-21T16:05:09.000",
    "request_status": "Pending",
    "responsible_agency": "Department of Public Works",
    "final_address": "4517 Piety Dr",
    "address_councildis": "D",
    "status": "Pending",
    "contractor": "Legacy Professional Services",
    "rowid": "1220469",
    "final_x": "3691836.49481",
    "final_y": "550910.386901",
    "longitude": "-90.03473761929413",
    "latitude": "30.008494410069005",
    "geocoded_column": {
      "latitude": "30.008494410069005",
      "longitude": "-90.03473761929413"
    }
  },
  {
    "service_request": "2025-1220468",
    "request_type": "Property Maintenance",
    "request_reason": "Property Maintenance",
    "date_created": "2025-08-21T16:03:46.000",
    "date_modified": "2025-08-21T16:03:47.000",
    "request_status": "Pending",
    "responsible_agency": "Department of Code Enforcement",
    "final_address": "232 S Solomon St",
    "address_councildis": "A",
    "status": "Pending",
    "rowid": "1220468",
    "final_x": "3670173.91796",
    "final_y": "538120.222601",
    "longitude": "-90.1036104381259",
    "latitude": "29.973983121494967",
    "geocoded_column": {
      "latitude": "29.973983121494967",
      "longitude": "-90.1036104381259"
    }
  },
  {
    "service_request": "2025-1220467",
    "request_type": "Property Maintenance",
    "request_reason": "Property Maintenance",
    "date_created": "2025-08-21T16:01:56.000",
    "date_modified": "2025-08-21T16:01:59.000",
    "request_status": "Pending",
    "responsible_agency": "Department of Code Enforcement",
    "final_address": "6515 Pauline Dr",
    "address_councildis": "D",
    "status": "Pending",
    "rowid": "1220467",
    "final_x": "3691079.4774",
    "final_y": "557712.005531",
    "longitude": "-90.03688614060856",
    "latitude": "30.027219894406553",
    "geocoded_column": {
      "latitude": "30.027219894406553",
      "longitude": "-90.03688614060856"
    }
  },
  {
    "service_request": "2025-1220466",
    "request_type": "Roads and Streets",
    "request_reason": "Push-up/Pavement Expansion",
    "date_created": "2025-08-21T15:55:07.000",
    "date_modified": "2025-08-21T15:55:10.000",
    "request_status": "Pending",
    "responsible_agency": "Department of Public Works",
    "final_address": "624 Eliza St",
    "address_councildis": "C",
    "status": "Pending",
    "rowid": "1220466",
    "final_x": "3687391.50902",
    "final_y": "530004.746305",
    "longitude": "-90.04952071139542",
    "latitude": "29.95114905984249",
    "geocoded_column": {
      "latitude": "29.95114905984249",
      "longitude": "-90.04952071139542"
    }
  },
  {
    "service_request": "2025-1220465",
    "request_type": "Trash/Recycling",
    "request_reason": "MIssed Recycling Pick-Up",
    "date_created": "2025-08-21T15:49:21.000",
    "date_modified": "2025-08-21T15:49:22.000",
    "request_status": "Pending",
    "responsible_agency": "Department of Sanitation",
    "final_address": "5718 Marais St",
    "address_councildis": "E",
    "status": "Assigned to Contractor",
    "contractor": "Waste Pro",
    "rowid": "1220465",
    "final_x": "3698589.3697",
    "final_y": "533903.940421",
    "longitude": "-90.01402189622308",
    "latitude": "29.96152073489703",
    "geocoded_column": {
      "latitude": "29.96152073489703",
      "longitude": "-90.01402189622308"
    }
  },
  {
    "service_request": "2025-1220464",
    "request_type": "Parks & Parkways",
    "request_reason": "Tree Stump (removal, grind)",
    "date_created": "2025-08-21T15:40:45.000",
    "date_modified": "2025-08-21T15:40:47.000",
    "request_status": "Pending",
    "responsible_agency": "Department of Parks & Parkway",
    "final_address": "5468 Dauphine St",
    "address_councildis": "E",
    "status": "Pending",
    "rowid": "1220464",
    "final_x": "3697337.44304",
    "final_y": "532690.256452",
    "longitude": "-90.01801924086766",
    "latitude": "29.958223109725324",
    "geocoded_column": {
      "latitude": "29.958223109725324",
      "longitude": "-90.01801924086766"
    }
  },
  {
    "service_request": "2025-1220463",
    "request_type": "Roads and Streets",
    "request_reason": "Pothole",
    "date_created": "2025-08-21T15:40:26.000",
    "date_modified": "2025-08-21T15:40:27.000",
    "request_status": "Pending",
    "responsible_agency": "Department of Public Works",
    "final_address": "INDUSTRY ST & A P TUREAUD AVE",
    "address_councildis": "D",
    "status": "Pending",
    "rowid": "1220463",
    "final_x": "3681500.7",
    "final_y": "542698.68",
    "longitude": "-90.06767821927332",
    "latitude": "29.986233173733876",
    "geocoded_column": {
      "latitude": "29.986233173733876",
      "longitude": "-90.06767821927332"
    }
  },
  {
    "service_request": "2025-1220462",
    "request_type": "Trash/Recycling",
    "request_reason": "Repair Trash Cart",
    "date_created": "2025-08-21T15:39:15.000",
    "date_modified": "2025-08-21T15:39:16.000",
    "request_status": "Pending",
    "responsible_agency": "Department of Sanitation",
    "final_address": "229 S Scott St",
    "address_councildis": "A",
    "status": "Assigned to Contractor",
    "contractor": "IV Waste",
    "rowid": "1220462",
    "final_x": "3671340.29428",
    "final_y": "537318.090376",
    "longitude": "-90.09995401914986",
    "latitude": "29.971743057836303",
    "geocoded_column": {
      "latitude": "29.971743057836303",
      "longitude": "-90.09995401914986"
    }
  },
  {
    "service_request": "2025-1220461",
    "request_type": "Streetlights",
    "request_reason": "Streetlight Outage/Malfunction",
    "date_created": "2025-08-21T15:38:26.000",
    "date_modified": "2025-08-21T15:38:27.000",
    "request_status": "Pending",
    "responsible_agency": "Department of Public Works",
    "final_address": "2700 BLK AP Tureaud Ave",
    "address_councildis": "D",
    "status": "Pending",
    "contractor": "Legacy Professional Services",
    "rowid": "1220461",
    "final_x": "3681454.16986",
    "final_y": "542504.959725",
    "longitude": "-90.0678319477377",
    "latitude": "29.985701924111094",
    "geocoded_column": {
      "latitude": "29.985701924111094",
      "longitude": "-90.0678319477377"
    }
  },
  {
    "service_request": "2025-1220460",
    "request_type": "Property Maintenance",
    "request_reason": "Property Maintenance",
    "date_created": "2025-08-21T15:30:15.000",
    "date_modified": "2025-08-21T15:30:17.000",
    "request_status": "Pending",
    "responsible_agency": "Department of Code Enforcement",
    "final_address": "32 Honeysuckle Ln",
    "address_councildis": "E",
    "status": "Pending",
    "rowid": "1220460",
    "final_x": "3713100.32606",
    "final_y": "568455.486373",
    "longitude": "-89.96689812292428",
    "latitude": "30.05605668077827",
    "geocoded_column": {
      "latitude": "30.05605668077827",
      "longitude": "-89.96689812292428"
    }
  },
  {
    "service_request": "2025-1220459",
    "request_type": "Trash/Recycling",
    "request_reason": "Repair Trash Cart",
    "date_created": "2025-08-21T15:29:54.000",
    "date_modified": "2025-08-21T15:29:56.000",
    "request_status": "Pending",
    "responsible_agency": "Department of Sanitation",
    "final_address": "7322 Panola St",
    "address_councildis": "A",
    "status": "Assigned to Contractor",
    "contractor": "IV Waste",
    "rowid": "1220459",
    "final_x": "3665472.31981",
    "final_y": "529363.856385",
    "longitude": "-90.1187523404273",
    "latitude": "29.9500438950398",
    "geocoded_column": {
      "latitude": "29.9500438950398",
      "longitude": "-90.1187523404273"
    }
  },
  {
    "service_request": "2025-1220458",
    "request_type": "Streetlights",
    "request_reason": "Streetlight Outage/Malfunction",
    "date_created": "2025-08-21T15:25:37.000",
    "date_modified": "2025-08-21T15:25:39.000",
    "request_status": "Pending",
    "responsible_agency": "Department of Public Works",
    "final_address": "5101 Metropolitan Dr",
    "address_councildis": "D",
    "status": "Pending",
    "contractor": "Legacy Professional Services",
    "rowid": "1220458",
    "final_x": "3690512.98083",
    "final_y": "552186.80495",
    "longitude": "-90.03887344946021",
    "latitude": "30.012045265675166",
    "geocoded_column": {
      "latitude": "30.012045265675166",
      "longitude": "-90.03887344946021"
    }
  },
  {
    "service_request": "2025-1220457",
    "request_type": "Street and Traffic Signs",
    "request_reason": "Traffic or Parking Sign Damaged or Missing",
    "date_created": "2025-08-21T15:24:53.000",
    "date_modified": "2025-08-21T15:24:55.000",
    "request_status": "Pending",
    "responsible_agency": "Department of Public Works",
    "final_address": "636 State St",
    "address_councildis": "A",
    "status": "Pending",
    "rowid": "1220457",
    "final_x": "3664529.68775",
    "final_y": "518875.585079",
    "longitude": "-90.1220787533461",
    "latitude": "29.92123192240745",
    "geocoded_column": {
      "latitude": "29.92123192240745",
      "longitude": "-90.1220787533461"
    }
  },
  {
    "service_request": "2025-1220456",
    "request_type": "Trash/Recycling",
    "request_reason": "Request a Large Item Pick Up",
    "date_created": "2025-08-21T15:20:33.000",
    "date_modified": "2025-08-21T15:20:35.000",
    "request_status": "Pending",
    "responsible_agency": "Department of Sanitation",
    "final_address": "2737 Edna St",
    "address_councildis": "D",
    "status": "Assigned to Contractor",
    "contractor": "IV Waste",
    "rowid": "1220456",
    "final_x": "3689662.18243",
    "final_y": "545337.530575",
    "longitude": "-90.04180539071751",
    "latitude": "29.993238661882355",
    "geocoded_column": {
      "latitude": "29.993238661882355",
      "longitude": "-90.04180539071751"
    }
  },
  {
    "service_request": "2025-1220455",
    "request_type": "Property Maintenance",
    "request_reason": "Property Maintenance",
    "date_created": "2025-08-21T15:13:23.000",
    "date_modified": "2025-08-21T15:13:24.000",
    "request_status": "Pending",
    "responsible_agency": "Department of Code Enforcement",
    "final_address": "5800 Winchester Park Dr",
    "address_councildis": "E",
    "status": "Pending",
    "rowid": "1220455",
    "final_x": "3715205.82456",
    "final_y": "562073.763487",
    "longitude": "-89.96048476335083",
    "latitude": "30.03844033509644",
    "geocoded_column": {
      "latitude": "30.03844033509644",
      "longitude": "-89.96048476335083"
    }
  },
  {
    "service_request": "2025-1220454",
    "request_type": "Trash/Recycling",
    "request_reason": "Missed Trash Pick-Up",
    "date_created": "2025-08-21T15:13:07.000",
    "date_modified": "2025-08-21T15:13:09.000",
    "request_status": "Pending",
    "responsible_agency": "Department of Sanitation",
    "final_address": "4800 BLK Donna Dr",
    "address_councildis": "E",
    "status": "Assigned to Contractor",
    "contractor": "Waste Pro",
    "rowid": "1220454",
    "final_x": "3710909.10767",
    "final_y": "556714.608143",
    "longitude": "-89.97426427839058",
    "latitude": "30.023845629761333",
    "geocoded_column": {
      "latitude": "30.023845629761333",
      "longitude": "-89.97426427839058"
    }
  },
  {
    "service_request": "2025-1220453",
    "request_type": "Trash/Recycling",
    "request_reason": "Replace Trash Cart",
    "date_created": "2025-08-21T15:10:43.000",
    "date_modified": "2025-08-21T15:10:46.000",
    "request_status": "Pending",
    "responsible_agency": "Department of Sanitation",
    "final_address": "1756 Holiday Dr",
    "address_councildis": "C",
    "status": "Assigned to Contractor",
    "contractor": "Richards Disposal",
    "rowid": "1220453",
    "final_x": "3699045.62372",
    "final_y": "524076.308348",
    "longitude": "-90.01293874771167",
    "latitude": "29.93448374614935",
    "geocoded_column": {
      "latitude": "29.93448374614935",
      "longitude": "-90.01293874771167"
    }
  },
  {
    "service_request": "2025-1220452",
    "request_type": "Trash/Recycling",
    "request_reason": "Replace Trash Cart",
    "date_created": "2025-08-21T15:10:21.000",
    "date_modified": "2025-08-21T15:10:23.000",
    "request_status": "Pending",
    "responsible_agency": "Department of Sanitation",
    "final_address": "3600 Pittari Pl",
    "address_councildis": "C",
    "status": "Assigned to Contractor",
    "contractor": "Richards Disposal",
    "rowid": "1220452",
    "final_x": "3709641.05566",
    "final_y": "517568.814006",
    "longitude": "-89.97973223920812",
    "latitude": "29.91625045601474",
    "geocoded_column": {
      "latitude": "29.91625045601474",
      "longitude": "-89.97973223920812"
    }
  },
  {
    "service_request": "2025-1220451",
    "request_type": "Trash/Recycling",
    "request_reason": "Illegal Dumping",
    "date_created": "2025-08-21T15:08:57.000",
    "date_modified": "2025-08-21T15:09:53.000",
    "request_status": "Pending",
    "responsible_agency": "Department of Sanitation",
    "final_address": "URQUHART ST & PRESS ST",
    "address_councildis": "C",
    "status": "Pending",
    "rowid": "1220451",
    "final_x": "3688210.3",
    "final_y": "536974.28",
    "longitude": "-90.04668827907773",
    "latitude": "29.970287610391416",
    "geocoded_column": {
      "latitude": "29.970287610391416",
      "longitude": "-90.04668827907773"
    }
  },
  {
    "service_request": "2025-1220450",
    "request_type": "Trash/Recycling",
    "request_reason": "Repair Trash Cart",
    "date_created": "2025-08-21T15:04:23.000",
    "date_modified": "2025-08-21T15:04:30.000",
    "request_status": "Pending",
    "responsible_agency": "Department of Sanitation",
    "final_address": "3910 Mimosa Dr",
    "address_councildis": "C",
    "status": "Assigned to Contractor",
    "contractor": "Richards Disposal",
    "rowid": "1220450",
    "final_x": "3704492.30942",
    "final_y": "512967.400945",
    "longitude": "-89.99615309834273",
    "latitude": "29.903764384519388",
    "geocoded_column": {
      "latitude": "29.903764384519388",
      "longitude": "-89.99615309834273"
    }
  },
  {
    "service_request": "2025-1220449",
    "request_type": "Streetlights",
    "request_reason": "Streetlight Outage/Malfunction",
    "date_created": "2025-08-21T15:03:28.000",
    "date_modified": "2025-08-21T15:03:29.000",
    "request_status": "Pending",
    "responsible_agency": "Department of Public Works",
    "final_address": "1475 Tchoupitoulas St",
    "address_councildis": "B",
    "status": "Pending",
    "contractor": "Legacy Professional Services",
    "rowid": "1220449",
    "final_x": "3682163.48072",
    "final_y": "523455.627579",
    "longitude": "-90.06625687659984",
    "latitude": "29.93330120228854",
    "geocoded_column": {
      "latitude": "29.93330120228854",
      "longitude": "-90.06625687659984"
    }
  },
  {
    "service_request": "2025-1220448",
    "request_type": "Street and Traffic Signs",
    "request_reason": "Stop Sign Missing or Damaged",
    "date_created": "2025-08-21T15:01:45.000",
    "date_modified": "2025-08-21T15:01:47.000",
    "request_status": "Pending",
    "responsible_agency": "Department of Public Works",
    "final_address": "1000 BLK Constantinople St",
    "address_councildis": "B",
    "status": "Pending",
    "rowid": "1220448",
    "final_x": "3672466.85582",
    "final_y": "519479.359123",
    "longitude": "-90.09700402247122",
    "latitude": "29.922659016369742",
    "geocoded_column": {
      "latitude": "29.922659016369742",
      "longitude": "-90.09700402247122"
    }
  },
  {
    "service_request": "2025-1220447",
    "request_type": "Trash/Recycling",
    "request_reason": "Missed Trash Pick-Up",
    "date_created": "2025-08-21T15:01:08.000",
    "date_modified": "2025-08-21T16:13:44.000",
    "case_close_date": "2025-08-21T11:13:42.000",
    "request_status": "Closed",
    "responsible_agency": "Department of Sanitation",
    "final_address": "5939 Baccich St",
    "address_councildis": "D",
    "status": "Invalid Request",
    "contractor": "IV Waste",
    "contractor_action": "Invalid",
    "rowid": "1220447",
    "final_x": "3687542.91478",
    "final_y": "555219.663193",
    "longitude": "-90.04814966829801",
    "latitude": "30.02047643058605",
    "geocoded_column": {
      "latitude": "30.02047643058605",
      "longitude": "-90.04814966829801"
    }
  },
  {
    "service_request": "2025-1220446",
    "request_type": "Safety & Permits",
    "request_reason": "Zoning Enforcement",
    "date_created": "2025-08-21T14:59:48.000",
    "date_modified": "2025-08-21T15:36:02.000",
    "case_close_date": "2025-08-21T10:36:01.000",
    "request_status": "Closed",
    "responsible_agency": "Safety and Permits",
    "final_address": "22 Egret St",
    "address_councildis": "D",
    "status": "Pending",
    "contractor_action": "Completed",
    "rowid": "1220446",
    "final_x": "3673940.55227",
    "final_y": "554840.029848",
    "longitude": "-90.09114208964907",
    "latitude": "30.0198450595014",
    "geocoded_column": {
      "latitude": "30.0198450595014",
      "longitude": "-90.09114208964907"
    }
  },
  {
    "service_request": "2025-1220445",
    "request_type": "Abandoned Vehicles",
    "request_reason": "Abandoned/Junk Vehicles",
    "date_created": "2025-08-21T14:57:37.000",
    "date_modified": "2025-08-21T14:57:41.000",
    "request_status": "Pending",
    "responsible_agency": "Department of Public Works",
    "final_address": "MARKS ST & MONROE ST",
    "address_councildis": "A",
    "status": "Pending",
    "rowid": "1220445",
    "final_x": "3667326.7",
    "final_y": "537422.18",
    "longitude": "-90.11262611107591",
    "latitude": "29.972147450490404",
    "geocoded_column": {
      "latitude": "29.972147450490404",
      "longitude": "-90.11262611107591"
    }
  },
  {
    "service_request": "2025-1220444",
    "request_type": "Property Maintenance",
    "request_reason": "Property Maintenance",
    "date_created": "2025-08-21T14:56:56.000",
    "date_modified": "2025-08-21T14:56:58.000",
    "request_status": "Pending",
    "responsible_agency": "Department of Code Enforcement",
    "final_address": "3343 St Anthony Ave",
    "address_councildis": "D",
    "status": "Pending",
    "rowid": "1220444",
    "final_x": "3682884.68533",
    "final_y": "544984.196751",
    "longitude": "-90.0632267308069",
    "latitude": "29.992475429894018",
    "geocoded_column": {
      "latitude": "29.992475429894018",
      "longitude": "-90.0632267308069"
    }
  },
  {
    "service_request": "2025-1220443",
    "request_type": "Trash/Recycling",
    "request_reason": "Order Trash Cart",
    "date_created": "2025-08-21T14:56:36.000",
    "date_modified": "2025-08-21T14:56:38.000",
    "request_status": "Pending",
    "responsible_agency": "Department of Sanitation",
    "final_address": "5227 De Montluzin St",
    "address_councildis": "D",
    "status": "Assigned to Contractor",
    "contractor": "IV Waste",
    "rowid": "1220443",
    "final_x": "3687036.88975",
    "final_y": "552530.048918",
    "longitude": "-90.04984374304583",
    "latitude": "30.01309657949427",
    "geocoded_column": {
      "latitude": "30.01309657949427",
      "longitude": "-90.04984374304583"
    }
  },
  {
    "service_request": "2025-1220442",
    "request_type": "Trash/Recycling",
    "request_reason": "Missed Trash Pick-Up",
    "date_created": "2025-08-21T14:54:36.000",
    "date_modified": "2025-08-21T15:51:32.000",
    "case_close_date": "2025-08-21T10:51:32.000",
    "request_status": "Closed",
    "responsible_agency": "Department of Sanitation",
    "final_address": "2405 Marengo St",
    "address_councildis": "B",
    "status": "Invalid Request",
    "contractor": "IV Waste",
    "contractor_action": "Invalid",
    "rowid": "1220442",
    "final_x": "3671713.86855",
    "final_y": "523864.085564",
    "longitude": "-90.09923183867426",
    "latitude": "29.934737924743803",
    "geocoded_column": {
      "latitude": "29.934737924743803",
      "longitude": "-90.09923183867426"
    }
  },
  {
    "service_request": "2025-1220441",
    "request_type": "Trash/Recycling",
    "request_reason": "Request a Large Item Pick Up",
    "date_created": "2025-08-21T14:53:59.000",
    "date_modified": "2025-08-21T14:54:01.000",
    "request_status": "Pending",
    "responsible_agency": "Department of Sanitation",
    "final_address": "4318 S Rocheblave St",
    "address_councildis": "B",
    "status": "Assigned to Contractor",
    "contractor": "IV Waste",
    "rowid": "1220441",
    "final_x": "3670330.79514",
    "final_y": "528454.249472",
    "longitude": "-90.10344264938001",
    "latitude": "29.947400273141245",
    "geocoded_column": {
      "latitude": "29.947400273141245",
      "longitude": "-90.10344264938001"
    }
  },
  {
    "service_request": "2025-1220440",
    "request_type": "Trash/Recycling",
    "request_reason": "Request a Large Item Pick Up",
    "date_created": "2025-08-21T14:50:54.000",
    "date_modified": "2025-08-21T14:50:56.000",
    "request_status": "Pending",
    "responsible_agency": "Department of Sanitation",
    "final_address": "4785 Pauline Dr",
    "address_councildis": "D",
    "status": "Assigned to Contractor",
    "contractor": "IV Waste",
    "rowid": "1220440",
    "final_x": "3692932.164",
    "final_y": "551723.662805",
    "longitude": "-90.03124686929627",
    "latitude": "30.010696428534256",
    "geocoded_column": {
      "latitude": "30.010696428534256",
      "longitude": "-90.03124686929627"
    }
  },
  {
    "service_request": "2025-1220439",
    "request_type": "Trash/Recycling",
    "request_reason": "Request a Large Item Pick Up",
    "date_created": "2025-08-21T14:44:14.000",
    "date_modified": "2025-08-21T14:44:16.000",
    "request_status": "Pending",
    "responsible_agency": "Department of Sanitation",
    "final_address": "824 Marigny St",
    "address_councildis": "C",
    "status": "Assigned to Contractor",
    "contractor": "IV Waste",
    "rowid": "1220439",
    "final_x": "3685448.12514",
    "final_y": "535474.316678",
    "longitude": "-90.05546433770425",
    "latitude": "29.966248226508434",
    "geocoded_column": {
      "latitude": "29.966248226508434",
      "longitude": "-90.05546433770425"
    }
  },
  {
    "service_request": "2025-1220438",
    "request_type": "Property Maintenance",
    "request_reason": "Property Maintenance",
    "date_created": "2025-08-21T14:40:00.000",
    "date_modified": "2025-08-21T14:40:02.000",
    "request_status": "Pending",
    "responsible_agency": "Department of Code Enforcement",
    "final_address": "2800 BLK N Tonti St",
    "address_councildis": "D",
    "status": "Pending",
    "rowid": "1220438",
    "final_x": "3688720.81773",
    "final_y": "540867.767462",
    "longitude": "-90.044937755625",
    "latitude": "29.980977553921665",
    "geocoded_column": {
      "latitude": "29.980977553921665",
      "longitude": "-90.044937755625"
    }
  },
  {
    "service_request": "2025-1220437",
    "request_type": "Trash/Recycling",
    "request_reason": "Replace Trash Cart",
    "date_created": "2025-08-21T14:38:25.000",
    "date_modified": "2025-08-21T14:38:27.000",
    "request_status": "Pending",
    "responsible_agency": "Department of Sanitation",
    "final_address": "4881 Palace St",
    "address_councildis": "E",
    "status": "Assigned to Contractor",
    "contractor": "Waste Pro",
    "rowid": "1220437",
    "final_x": "3729241.95661",
    "final_y": "562391.999391",
    "longitude": "-89.9161151195094",
    "latitude": "30.03884548110868",
    "geocoded_column": {
      "latitude": "30.03884548110868",
      "longitude": "-89.9161151195094"
    }
  },
  {
    "service_request": "2025-1220436",
    "request_type": "Trash/Recycling",
    "request_reason": "Replace Trash Cart",
    "date_created": "2025-08-21T14:38:24.000",
    "date_modified": "2025-08-21T14:38:26.000",
    "request_status": "Pending",
    "responsible_agency": "Department of Sanitation",
    "final_address": "2207 General Pershing St",
    "address_councildis": "B",
    "status": "Assigned to Contractor",
    "contractor": "IV Waste",
    "rowid": "1220436",
    "final_x": "3671113.29031",
    "final_y": "523114.504187",
    "longitude": "-90.1011533059929",
    "latitude": "29.932694589891383",
    "geocoded_column": {
      "latitude": "29.932694589891383",
      "longitude": "-90.1011533059929"
    }
  },
  {
    "service_request": "2025-1220435",
    "request_type": "Parks & Parkways",
    "request_reason": "Request Tree Service (Right of Way/Public Property)",
    "date_created": "2025-08-21T14:36:45.000",
    "date_modified": "2025-08-21T14:36:47.000",
    "request_status": "Pending",
    "responsible_agency": "Department of Parks & Parkway",
    "final_address": "5301 Annunciation St",
    "address_councildis": "B",
    "status": "Pending",
    "rowid": "1220435",
    "final_x": "3667317.22465",
    "final_y": "517623.600502",
    "longitude": "-90.11332178322662",
    "latitude": "29.91770803980382",
    "geocoded_column": {
      "latitude": "29.91770803980382",
      "longitude": "-90.11332178322662"
    }
  },
  {
    "service_request": "2025-1220434",
    "request_type": "Trash/Recycling",
    "request_reason": "Request a Large Item Pick Up",
    "date_created": "2025-08-21T14:36:32.000",
    "date_modified": "2025-08-21T14:36:34.000",
    "request_status": "Pending",
    "responsible_agency": "Department of Sanitation",
    "final_address": "4881 Palace St",
    "address_councildis": "E",
    "status": "Assigned to Contractor",
    "contractor": "Waste Pro",
    "rowid": "1220434",
    "final_x": "3729241.95661",
    "final_y": "562391.999391",
    "longitude": "-89.9161151195094",
    "latitude": "30.03884548110868",
    "geocoded_column": {
      "latitude": "30.03884548110868",
      "longitude": "-89.9161151195094"
    }
  },
  {
    "service_request": "2025-1220433",
    "request_type": "Drainage",
    "request_reason": "Drainage Manhole Cover Missing or Damaged",
    "date_created": "2025-08-21T14:34:20.000",
    "date_modified": "2025-08-21T14:34:21.000",
    "request_status": "Pending",
    "responsible_agency": "Sewerage & Water Board",
    "final_address": "7821 Sandpiper Dr",
    "address_councildis": "E",
    "status": "Pending",
    "rowid": "1220433",
    "final_x": "3715562.24383",
    "final_y": "570276.581351",
    "longitude": "-89.95904748405388",
    "latitude": "30.060982985105227",
    "geocoded_column": {
      "latitude": "30.060982985105227",
      "longitude": "-89.95904748405388"
    }
  },
  {
    "service_request": "2025-1220432",
    "request_type": "Trash/Recycling",
    "request_reason": "Request a Large Item Pick Up",
    "date_created": "2025-08-21T14:30:20.000",
    "date_modified": "2025-08-21T14:30:24.000",
    "request_status": "Pending",
    "responsible_agency": "Department of Sanitation",
    "final_address": "7813 Shubert St",
    "address_councildis": "E",
    "status": "Assigned to Contractor",
    "contractor": "Waste Pro",
    "rowid": "1220432",
    "final_x": "3695612.44138",
    "final_y": "559389.616797",
    "longitude": "-90.02250180663418",
    "latitude": "30.03169088387979",
    "geocoded_column": {
      "latitude": "30.03169088387979",
      "longitude": "-90.02250180663418"
    }
  },
  {
    "service_request": "2025-1220431",
    "request_type": "Trash/Recycling",
    "request_reason": "Replace Trash Cart",
    "date_created": "2025-08-21T14:26:45.000",
    "date_modified": "2025-08-21T14:26:48.000",
    "request_status": "Pending",
    "responsible_agency": "Department of Sanitation",
    "final_address": "2207 General Pershing St",
    "address_councildis": "B",
    "status": "Assigned to Contractor",
    "contractor": "IV Waste",
    "rowid": "1220431",
    "final_x": "3671113.29031",
    "final_y": "523114.504187",
    "longitude": "-90.1011533059929",
    "latitude": "29.932694589891383",
    "geocoded_column": {
      "latitude": "29.932694589891383",
      "longitude": "-90.1011533059929"
    }
  },
  {
    "service_request": "2025-1220430",
    "request_type": "Trash/Recycling",
    "request_reason": "Repair Recycling Cart",
    "date_created": "2025-08-21T14:26:06.000",
    "date_modified": "2025-08-21T14:26:07.000",
    "request_status": "Pending",
    "responsible_agency": "Department of Sanitation",
    "final_address": "1661 Industry St",
    "address_councildis": "D",
    "status": "Pending",
    "rowid": "1220430",
    "final_x": "3680466.4909",
    "final_y": "542713.511501",
    "longitude": "-90.07094436797605",
    "latitude": "29.98630532528641",
    "geocoded_column": {
      "latitude": "29.98630532528641",
      "longitude": "-90.07094436797605"
    }
  },
  {
    "service_request": "2025-1220429",
    "request_type": "Trash/Recycling",
    "request_reason": "Request a Large Item Pick Up",
    "date_created": "2025-08-21T14:25:38.000",
    "date_modified": "2025-08-21T14:25:42.000",
    "request_status": "Pending",
    "responsible_agency": "Department of Sanitation",
    "final_address": "4804 Ray Ave",
    "address_councildis": "E",
    "status": "Assigned to Contractor",
    "contractor": "Waste Pro",
    "rowid": "1220429",
    "final_x": "3698700.73495",
    "final_y": "554721.03612",
    "longitude": "-90.01291270209269",
    "latitude": "30.018756567626145",
    "geocoded_column": {
      "latitude": "30.018756567626145",
      "longitude": "-90.01291270209269"
    }
  },
  {
    "service_request": "2025-1220428",
    "request_type": "Trash/Recycling",
    "request_reason": "Repair Trash Cart",
    "date_created": "2025-08-21T14:22:26.000",
    "date_modified": "2025-08-21T14:22:28.000",
    "request_status": "Pending",
    "responsible_agency": "Department of Sanitation",
    "final_address": "4834 Dauphine St",
    "address_councildis": "E",
    "status": "Assigned to Contractor",
    "contractor": "Waste Pro",
    "rowid": "1220428",
    "final_x": "3694990.10198",
    "final_y": "533270.995908",
    "longitude": "-90.02541053301043",
    "latitude": "29.95989382015398",
    "geocoded_column": {
      "latitude": "29.95989382015398",
      "longitude": "-90.02541053301043"
    }
  },
  {
    "service_request": "2025-1220427",
    "request_type": "Trash/Recycling",
    "request_reason": "Request a Large Item Pick Up",
    "date_created": "2025-08-21T14:21:49.000",
    "date_modified": "2025-08-21T14:21:51.000",
    "request_status": "Pending",
    "responsible_agency": "Department of Sanitation",
    "final_address": "4705 Marjorie Ln",
    "address_councildis": "D",
    "status": "Assigned to Contractor",
    "contractor": "IV Waste",
    "rowid": "1220427",
    "final_x": "3678510.14229",
    "final_y": "549851.494228",
    "longitude": "-90.07687649444797",
    "latitude": "30.005991378079525",
    "geocoded_column": {
      "latitude": "30.005991378079525",
      "longitude": "-90.07687649444797"
    }
  },
  {
    "service_request": "2025-1220426",
    "request_type": "Trash/Recycling",
    "request_reason": "Request a Large Item Pick Up",
    "date_created": "2025-08-21T14:18:35.000",
    "date_modified": "2025-08-21T15:27:27.000",
    "request_status": "Pending",
    "responsible_agency": "Department of Sanitation",
    "final_address": "1204 Saint Mary St, New Orleans, Louisiana, 70130",
    "address_councildis": "B",
    "status": "Assigned to Contractor",
    "contractor": "IV Waste",
    "rowid": "1220426",
    "final_x": "3679400.74338",
    "final_y": "523156.879803",
    "longitude": "-90.07498902332853",
    "latitude": "29.932563458851476",
    "geocoded_column": {
      "latitude": "29.932563458851476",
      "longitude": "-90.07498902332853"
    }
  },
  {
    "service_request": "2025-1220425",
    "request_type": "Trash/Recycling",
    "request_reason": "Request a Large Item Pick Up",
    "date_created": "2025-08-21T14:15:03.000",
    "date_modified": "2025-08-21T14:15:04.000",
    "request_status": "Pending",
    "responsible_agency": "Department of Sanitation",
    "final_address": "321 Hillary St",
    "address_councildis": "A",
    "status": "Assigned to Contractor",
    "contractor": "IV Waste",
    "rowid": "1220425",
    "final_x": "3661318.54566",
    "final_y": "524936.14502",
    "longitude": "-90.13201438922763",
    "latitude": "29.937989511458262",
    "geocoded_column": {
      "latitude": "29.937989511458262",
      "longitude": "-90.13201438922763"
    }
  },
  {
    "service_request": "2025-1220424",
    "request_type": "Trash/Recycling",
    "request_reason": "Illegal Dumping",
    "date_created": "2025-08-21T14:14:56.000",
    "date_modified": "2025-08-21T14:15:00.000",
    "request_status": "Pending",
    "responsible_agency": "Department of Sanitation",
    "final_address": "3400 BLK Momus Ct",
    "address_councildis": "B",
    "status": "Pending",
    "rowid": "1220424",
    "final_x": "3672447.89654",
    "final_y": "528074.238259",
    "longitude": "-90.09677108260328",
    "latitude": "29.946292713916236",
    "geocoded_column": {
      "latitude": "29.946292713916236",
      "longitude": "-90.09677108260328"
    }
  },
  {
    "service_request": "2025-1220423",
    "request_type": "Trash/Recycling",
    "request_reason": "MIssed Recycling Pick-Up",
    "date_created": "2025-08-21T14:14:18.000",
    "date_modified": "2025-08-21T14:14:20.000",
    "request_status": "Pending",
    "responsible_agency": "Department of Sanitation",
    "final_address": "4643 Citrus Dr",
    "address_councildis": "E",
    "status": "Assigned to Contractor",
    "contractor": "Waste Pro",
    "rowid": "1220423",
    "final_x": "3710899.47838",
    "final_y": "555348.461209",
    "longitude": "-89.97434590210005",
    "latitude": "30.020089575195463",
    "geocoded_column": {
      "latitude": "30.020089575195463",
      "longitude": "-89.97434590210005"
    }
  },
  {
    "service_request": "2025-1220422",
    "request_type": "Mosquito, Termite & Rodent Control",
    "request_reason": "Mosquito Complaint",
    "date_created": "2025-08-21T14:14:00.000",
    "date_modified": "2025-08-21T15:37:51.000",
    "case_close_date": "2025-08-21T10:37:50.000",
    "request_status": "Closed",
    "responsible_agency": "Mosquito, Termite & Rodent Control Board",
    "final_address": "3240 Constance St",
    "address_councildis": "B",
    "status": "Resolved",
    "rowid": "1220422",
    "final_x": "3675654.14081",
    "final_y": "519473.131447",
    "longitude": "-90.08694323773106",
    "latitude": "29.922546946414577",
    "geocoded_column": {
      "latitude": "29.922546946414577",
      "longitude": "-90.08694323773106"
    }
  },
  {
    "service_request": "2025-1220421",
    "request_type": "Streetlights",
    "request_reason": "Streetlight Outage/Malfunction",
    "date_created": "2025-08-21T14:12:55.000",
    "date_modified": "2025-08-21T14:12:57.000",
    "request_status": "Pending",
    "responsible_agency": "Department of Public Works",
    "final_address": "2027 Socrates St",
    "address_councildis": "C",
    "status": "Pending",
    "contractor": "Legacy Professional Services",
    "rowid": "1220421",
    "final_x": "3691615.88502",
    "final_y": "526200.907134",
    "longitude": "-90.03631823696804",
    "latitude": "29.940558991928366",
    "geocoded_column": {
      "latitude": "29.940558991928366",
      "longitude": "-90.03631823696804"
    }
  },
  {
    "service_request": "2025-1220420",
    "request_type": "General Services",
    "request_reason": "General Service Request",
    "date_created": "2025-08-21T14:12:29.000",
    "date_modified": "2025-08-21T15:35:30.000",
    "case_close_date": "2025-08-21T10:35:29.000",
    "request_status": "Closed",
    "responsible_agency": "Orleans Parish Communication District",
    "final_address": "1204 Saint Mary St, Scott, Louisiana, 70583",
    "address_councildis": "B",
    "status": "Duplicate Request",
    "rowid": "1220420",
    "final_x": "3679400.74338",
    "final_y": "523156.879803",
    "longitude": "-90.07498902332853",
    "latitude": "29.932563458851476",
    "geocoded_column": {
      "latitude": "29.932563458851476",
      "longitude": "-90.07498902332853"
    }
  },
  {
    "service_request": "2025-1220419",
    "request_type": "Parks & Parkways",
    "request_reason": "Request Tree Service (Right of Way/Public Property)",
    "date_created": "2025-08-21T14:11:49.000",
    "date_modified": "2025-08-21T14:11:59.000",
    "request_status": "Pending",
    "responsible_agency": "Department of Parks & Parkway",
    "final_address": "3145 Maurepas St",
    "address_councildis": "A",
    "status": "Pending",
    "rowid": "1220419",
    "final_x": "3676247.8884",
    "final_y": "540780.226059",
    "longitude": "-90.08433588393761",
    "latitude": "29.981116579951735",
    "geocoded_column": {
      "latitude": "29.981116579951735",
      "longitude": "-90.08433588393761"
    }
  },
  {
    "service_request": "2025-1220418",
    "request_type": "Trash/Recycling",
    "request_reason": "Order Trash Cart",
    "date_created": "2025-08-21T14:04:27.000",
    "date_modified": "2025-08-21T14:04:29.000",
    "request_status": "Pending",
    "responsible_agency": "Department of Sanitation",
    "final_address": "1943 L. B. Landry Ave",
    "address_councildis": "C",
    "status": "Assigned to Contractor",
    "contractor": "Richards Disposal",
    "rowid": "1220418",
    "final_x": "3689896.73654",
    "final_y": "523494.310651",
    "longitude": "-90.04184217236602",
    "latitude": "29.93317016513861",
    "geocoded_column": {
      "latitude": "29.93317016513861",
      "longitude": "-90.04184217236602"
    }
  },
  {
    "service_request": "2025-1220417",
    "request_type": "Abandoned Vehicles",
    "request_reason": "Abandoned/Junk Vehicles",
    "date_created": "2025-08-21T14:00:00.000",
    "date_modified": "2025-08-21T14:00:02.000",
    "request_status": "Pending",
    "responsible_agency": "Department of Public Works",
    "final_address": "2315 Aubry St",
    "address_councildis": "D",
    "status": "Pending",
    "rowid": "1220417",
    "final_x": "3680806.11253",
    "final_y": "540281.878795",
    "longitude": "-90.06995631889792",
    "latitude": "29.9796088921873",
    "geocoded_column": {
      "latitude": "29.9796088921873",
      "longitude": "-90.06995631889792"
    }
  },
  {
    "service_request": "2025-1220416",
    "request_type": "Roads and Streets",
    "request_reason": "Sidewalk Damaged or Missing",
    "date_created": "2025-08-21T13:57:42.000",
    "date_modified": "2025-08-21T13:57:45.000",
    "request_status": "Pending",
    "responsible_agency": "Department of Public Works",
    "final_address": "6200 BLK McKenna St",
    "address_councildis": "A",
    "status": "Pending",
    "rowid": "1220416",
    "final_x": "3667776.54335",
    "final_y": "529373.39675",
    "longitude": "-90.11147648367495",
    "latitude": "29.95000276732041",
    "geocoded_column": {
      "latitude": "29.95000276732041",
      "longitude": "-90.11147648367495"
    }
  },
  {
    "service_request": "2025-1220415",
    "request_type": "Streetlights",
    "request_reason": "Streetlight Outage/Malfunction",
    "date_created": "2025-08-21T13:53:17.000",
    "date_modified": "2025-08-21T13:53:19.000",
    "request_status": "Pending",
    "responsible_agency": "Department of Public Works",
    "final_address": "3521 Clematis St",
    "address_councildis": "D",
    "status": "Pending",
    "contractor": "Legacy Professional Services",
    "rowid": "1220415",
    "final_x": "3686511.16137",
    "final_y": "545888.69736",
    "longitude": "-90.05173944965907",
    "latitude": "29.9948514544675",
    "geocoded_column": {
      "latitude": "29.9948514544675",
      "longitude": "-90.05173944965907"
    }
  },
  {
    "service_request": "2025-1220414",
    "request_type": "Trash/Recycling",
    "request_reason": "Request a Large Item Pick Up",
    "date_created": "2025-08-21T13:52:07.000",
    "date_modified": "2025-08-21T13:52:09.000",
    "request_status": "Pending",
    "responsible_agency": "Department of Sanitation",
    "final_address": "333 Virginia St",
    "address_councildis": "A",
    "status": "Assigned to Contractor",
    "contractor": "IV Waste",
    "rowid": "1220414",
    "final_x": "3668542.8393",
    "final_y": "541602.62798",
    "longitude": "-90.10864421731138",
    "latitude": "29.983606592197273",
    "geocoded_column": {
      "latitude": "29.983606592197273",
      "longitude": "-90.10864421731138"
    }
  },
  {
    "service_request": "2025-1220413",
    "request_type": "Trash/Recycling",
    "request_reason": "Repair Trash Cart",
    "date_created": "2025-08-21T13:51:33.000",
    "date_modified": "2025-08-21T13:51:36.000",
    "request_status": "Pending",
    "responsible_agency": "Department of Sanitation",
    "final_address": "3540 White Oak Ave",
    "address_councildis": "C",
    "status": "Assigned to Contractor",
    "contractor": "Richards Disposal",
    "rowid": "1220413",
    "final_x": "3703364.59556",
    "final_y": "514519.337203",
    "longitude": "-89.99965513272258",
    "latitude": "29.908067820021447",
    "geocoded_column": {
      "latitude": "29.908067820021447",
      "longitude": "-89.99965513272258"
    }
  },
  {
    "service_request": "2025-1220412",
    "request_type": "Trash/Recycling",
    "request_reason": "Request a Large Item Pick Up",
    "date_created": "2025-08-21T13:48:42.000",
    "date_modified": "2025-08-21T13:48:44.000",
    "request_status": "Pending",
    "responsible_agency": "Department of Sanitation",
    "final_address": "7730 Mill St",
    "address_councildis": "E",
    "status": "Assigned to Contractor",
    "contractor": "Waste Pro",
    "rowid": "1220412",
    "final_x": "3696398.39319",
    "final_y": "559476.112861",
    "longitude": "-90.02001503792576",
    "latitude": "30.031903968966372",
    "geocoded_column": {
      "latitude": "30.031903968966372",
      "longitude": "-90.02001503792576"
    }
  },
  {
    "service_request": "2025-1220411",
    "request_type": "Trash/Recycling",
    "request_reason": "Repair Trash Cart",
    "date_created": "2025-08-21T13:46:48.000",
    "date_modified": "2025-08-21T13:47:49.000",
    "request_status": "Pending",
    "responsible_agency": "Department of Sanitation",
    "final_address": "3521 General Taylor St",
    "address_councildis": "B",
    "status": "Assigned to Contractor",
    "contractor": "IV Waste",
    "rowid": "1220411",
    "final_x": "3671087.28398",
    "final_y": "527800.912511",
    "longitude": "-90.10107630209414",
    "latitude": "29.94558146176737",
    "geocoded_column": {
      "latitude": "29.94558146176737",
      "longitude": "-90.10107630209414"
    }
  },
  {
    "service_request": "2025-1220410",
    "request_type": "Trash/Recycling",
    "request_reason": "Repair Trash Cart",
    "date_created": "2025-08-21T13:46:43.000",
    "date_modified": "2025-08-21T13:46:45.000",
    "request_status": "Pending",
    "responsible_agency": "Department of Sanitation",
    "final_address": "3519 General Taylor St",
    "address_councildis": "B",
    "status": "Assigned to Contractor",
    "contractor": "IV Waste",
    "rowid": "1220410",
    "final_x": "3671090.27156",
    "final_y": "527787.965119",
    "longitude": "-90.10106730893155",
    "latitude": "29.945545772325225",
    "geocoded_column": {
      "latitude": "29.945545772325225",
      "longitude": "-90.10106730893155"
    }
  },
  {
    "service_request": "2025-1220409",
    "request_type": "Traffic Signals",
    "request_reason": "Traffic Signal Malfunctioning or Damaged",
    "date_created": "2025-08-21T13:44:26.000",
    "date_modified": "2025-08-21T13:44:28.000",
    "request_status": "Pending",
    "responsible_agency": "Department of Public Works",
    "final_address": "ST CHARLES AVE & CALLIOPE ST",
    "address_councildis": "B",
    "status": "Pending",
    "rowid": "1220409",
    "final_x": "3679819.05",
    "final_y": "526554.96",
    "longitude": "-90.07355052352129",
    "latitude": "29.941894417235446",
    "geocoded_column": {
      "latitude": "29.941894417235446",
      "longitude": "-90.07355052352129"
    }
  },
  {
    "service_request": "2025-1220408",
    "request_type": "General Services",
    "request_reason": "General Service Request",
    "date_created": "2025-08-21T13:40:22.000",
    "date_modified": "2025-08-21T15:23:43.000",
    "case_close_date": "2025-08-21T10:23:42.000",
    "request_status": "Closed",
    "responsible_agency": "Orleans Parish Communication District",
    "final_address": "2034 Broadway St",
    "address_councildis": "A",
    "status": "Additional information requested from citizen",
    "rowid": "1220408",
    "final_x": "3665872.77428",
    "final_y": "529129.912832",
    "longitude": "-90.11749575141324",
    "latitude": "29.9493889482592",
    "geocoded_column": {
      "latitude": "29.9493889482592",
      "longitude": "-90.11749575141324"
    }
  },
  {
    "service_request": "2025-1220407",
    "request_type": "Property Maintenance",
    "request_reason": "Property Maintenance",
    "date_created": "2025-08-21T13:39:43.000",
    "date_modified": "2025-08-21T14:19:21.000",
    "case_close_date": "2025-08-21T09:19:20.000",
    "request_status": "Closed",
    "responsible_agency": "Department of Code Enforcement",
    "final_address": "2661 Mendez St",
    "address_councildis": "D",
    "status": "Referred to Code Enforcement",
    "rowid": "1220407",
    "final_x": "3687043.34774",
    "final_y": "553731.276055",
    "longitude": "-90.04978082573527",
    "latitude": "30.016399313233226",
    "geocoded_column": {
      "latitude": "30.016399313233226",
      "longitude": "-90.04978082573527"
    }
  },
  {
    "service_request": "2025-1220406",
    "request_type": "Safety & Permits",
    "request_reason": "Construction permit",
    "date_created": "2025-08-21T13:38:30.000",
    "date_modified": "2025-08-21T15:32:14.000",
    "request_status": "Pending",
    "responsible_agency": "Safety and Permits",
    "final_address": "2034 Broadway St",
    "address_councildis": "A",
    "status": "Pending",
    "rowid": "1220406",
    "final_x": "3665872.77428",
    "final_y": "529129.912832",
    "longitude": "-90.11749575141324",
    "latitude": "29.9493889482592",
    "geocoded_column": {
      "latitude": "29.9493889482592",
      "longitude": "-90.11749575141324"
    }
  },
  {
    "service_request": "2025-1220405",
    "request_type": "Trash/Recycling",
    "request_reason": "Request a Large Item Pick Up",
    "date_created": "2025-08-21T13:34:34.000",
    "date_modified": "2025-08-21T13:34:36.000",
    "request_status": "Pending",
    "responsible_agency": "Department of Sanitation",
    "final_address": "7600 Hansbrough Ave",
    "address_councildis": "E",
    "status": "Assigned to Contractor",
    "contractor": "Waste Pro",
    "rowid": "1220405",
    "final_x": "3707645.44203",
    "final_y": "564377.540257",
    "longitude": "-89.9842916576798",
    "latitude": "30.045021703279385",
    "geocoded_column": {
      "latitude": "30.045021703279385",
      "longitude": "-89.9842916576798"
    }
  },
  {
    "service_request": "2025-1220404",
    "request_type": "Parks & Parkways",
    "request_reason": "Request Tree Service (Right of Way/Public Property)",
    "date_created": "2025-08-21T13:31:56.000",
    "date_modified": "2025-08-21T14:59:43.000",
    "case_close_date": "2025-08-21T09:59:42.000",
    "request_status": "Closed",
    "responsible_agency": "Department of Parks & Parkway",
    "final_address": "2702 Dublin St",
    "address_councildis": "A",
    "status": "Resolved",
    "rowid": "1220404",
    "final_x": "3665335.35194",
    "final_y": "532649.90138",
    "longitude": "-90.11907486259516",
    "latitude": "29.95908344063946",
    "geocoded_column": {
      "latitude": "29.95908344063946",
      "longitude": "-90.11907486259516"
    }
  },
  {
    "service_request": "2025-1220403",
    "request_type": "Parks & Parkways",
    "request_reason": "Request Tree Service (Right of Way/Public Property)",
    "date_created": "2025-08-21T13:31:30.000",
    "date_modified": "2025-08-21T13:31:33.000",
    "request_status": "Pending",
    "responsible_agency": "Department of Parks & Parkway",
    "final_address": "3029 St Charles Ave",
    "address_councildis": "B",
    "status": "Pending",
    "rowid": "1220403",
    "final_x": "3675035.57947",
    "final_y": "522031.654074",
    "longitude": "-90.08880807157456",
    "latitude": "29.929600544178726",
    "geocoded_column": {
      "latitude": "29.929600544178726",
      "longitude": "-90.08880807157456"
    }
  },
  {
    "service_request": "2025-1220402",
    "request_type": "Parks & Parkways",
    "request_reason": "Request Tree Service (Right of Way/Public Property)",
    "date_created": "2025-08-21T13:30:33.000",
    "date_modified": "2025-08-21T13:30:35.000",
    "request_status": "Pending",
    "responsible_agency": "Department of Parks & Parkway",
    "final_address": "4542 Louisa Dr",
    "address_councildis": "D",
    "status": "Pending",
    "rowid": "1220402",
    "final_x": "3690864.76451",
    "final_y": "550688.56194",
    "longitude": "-90.03781553666705",
    "latitude": "30.00791471841187",
    "geocoded_column": {
      "latitude": "30.00791471841187",
      "longitude": "-90.03781553666705"
    }
  },
  {
    "service_request": "2025-1220401",
    "request_type": "Roads and Streets",
    "request_reason": "Pothole",
    "date_created": "2025-08-21T13:30:29.000",
    "date_modified": "2025-08-21T13:30:31.000",
    "request_status": "Pending",
    "responsible_agency": "Department of Public Works",
    "final_address": "IBERVILLE ST & DAUPHINE ST",
    "address_councildis": "C",
    "status": "Pending",
    "rowid": "1220401",
    "final_x": "3680877.4",
    "final_y": "531445.48",
    "longitude": "-90.07003886142438",
    "latitude": "29.955309666966254",
    "geocoded_column": {
      "latitude": "29.955309666966254",
      "longitude": "-90.07003886142438"
    }
  },
  {
    "service_request": "2025-1220400",
    "request_type": "New Orleans Recreation Development Commission (NORDC)",
    "request_reason": "Facilities and Parks Maintenance/Clean Up",
    "date_created": "2025-08-21T13:28:10.000",
    "date_modified": "2025-08-21T13:28:11.000",
    "request_status": "Pending",
    "responsible_agency": "New Orleans Recreation Development Commission",
    "final_address": "500 BLK S Norman C Francis Pkwy",
    "address_councildis": "B",
    "status": "Pending",
    "rowid": "1220400",
    "final_x": "3672199.99677",
    "final_y": "535248.008688",
    "longitude": "-90.0973094623752",
    "latitude": "29.9660255571327",
    "geocoded_column": {
      "latitude": "29.9660255571327",
      "longitude": "-90.0973094623752"
    }
  },
  {
    "service_request": "2025-1220399",
    "request_type": "Trash/Recycling",
    "request_reason": "Repair Trash Cart",
    "date_created": "2025-08-21T13:27:28.000",
    "date_modified": "2025-08-21T13:27:31.000",
    "request_status": "Pending",
    "responsible_agency": "Department of Sanitation",
    "final_address": "1689 Elizardi Blvd",
    "address_councildis": "C",
    "status": "Assigned to Contractor",
    "contractor": "Richards Disposal",
    "rowid": "1220399",
    "final_x": "3694612.68266",
    "final_y": "524813.348796",
    "longitude": "-90.02690683711849",
    "latitude": "29.93665006998081",
    "geocoded_column": {
      "latitude": "29.93665006998081",
      "longitude": "-90.02690683711849"
    }
  },
  {
    "service_request": "2025-1220398",
    "request_type": "Trash/Recycling",
    "request_reason": "Request a Large Item Pick Up",
    "date_created": "2025-08-21T13:25:32.000",
    "date_modified": "2025-08-21T13:25:34.000",
    "request_status": "Pending",
    "responsible_agency": "Department of Sanitation",
    "final_address": "4927 Gawain Dr",
    "address_councildis": "E",
    "status": "Assigned to Contractor",
    "contractor": "Waste Pro",
    "rowid": "1220398",
    "final_x": "3706932.28158",
    "final_y": "556606.456538",
    "longitude": "-89.98683417622908",
    "latitude": "30.02367735167262",
    "geocoded_column": {
      "latitude": "30.02367735167262",
      "longitude": "-89.98683417622908"
    }
  },
  {
    "service_request": "2025-1220397",
    "request_type": "Trash/Recycling",
    "request_reason": "Request a Large Item Pick Up",
    "date_created": "2025-08-21T13:23:53.000",
    "date_modified": "2025-08-21T13:23:55.000",
    "request_status": "Pending",
    "responsible_agency": "Department of Sanitation",
    "final_address": "11260 Lake Forest Blvd",
    "address_councildis": "E",
    "status": "Assigned to Contractor",
    "contractor": "Waste Pro",
    "rowid": "1220397",
    "final_x": "3716339.74431",
    "final_y": "561649.219167",
    "longitude": "-89.95691743338071",
    "latitude": "30.0372356055835",
    "geocoded_column": {
      "latitude": "30.0372356055835",
      "longitude": "-89.95691743338071"
    }
  },
  {
    "service_request": "2025-1220396",
    "request_type": "Abandoned Vehicles",
    "request_reason": "Abandoned/Junk Vehicles",
    "date_created": "2025-08-21T13:20:09.000",
    "date_modified": "2025-08-21T13:20:11.000",
    "request_status": "Pending",
    "responsible_agency": "Department of Public Works",
    "final_address": "2300 BLK N Peters St",
    "address_councildis": "C",
    "status": "Pending",
    "rowid": "1220396",
    "final_x": "3685793.33409",
    "final_y": "533909.442467",
    "longitude": "-90.0544293340899",
    "latitude": "29.961934773610217",
    "geocoded_column": {
      "latitude": "29.961934773610217",
      "longitude": "-90.0544293340899"
    }
  },
  {
    "service_request": "2025-1220395",
    "request_type": "Trash/Recycling",
    "request_reason": "Illegal Dumping",
    "date_created": "2025-08-21T13:14:58.000",
    "date_modified": "2025-08-21T13:14:59.000",
    "request_status": "Pending",
    "responsible_agency": "Department of Sanitation",
    "final_address": "8900 BLK Olive St",
    "address_councildis": "A",
    "status": "Pending",
    "rowid": "1220395",
    "final_x": "3665026.10528",
    "final_y": "536196.090125",
    "longitude": "-90.11993280887509",
    "latitude": "29.968843300848565",
    "geocoded_column": {
      "latitude": "29.968843300848565",
      "longitude": "-90.11993280887509"
    }
  },
  {
    "service_request": "2025-1220394",
    "request_type": "Trash/Recycling",
    "request_reason": "Illegal Dumping",
    "date_created": "2025-08-21T13:14:02.000",
    "date_modified": "2025-08-21T13:14:04.000",
    "request_status": "Pending",
    "responsible_agency": "Department of Sanitation",
    "final_address": "CONTI ST & N NORMAN C FRANCIS PKWY",
    "address_councildis": "B",
    "status": "Pending",
    "rowid": "1220394",
    "final_x": "3673840.9",
    "final_y": "537716.58",
    "longitude": "-90.0920430750219",
    "latitude": "29.9727645211337",
    "geocoded_column": {
      "latitude": "29.9727645211337",
      "longitude": "-90.0920430750219"
    }
  },
  {
    "service_request": "2025-1220393",
    "request_type": "Trash/Recycling",
    "request_reason": "Replace Trash Cart",
    "date_created": "2025-08-21T13:13:29.000",
    "date_modified": "2025-08-21T13:13:30.000",
    "request_status": "Pending",
    "responsible_agency": "Department of Sanitation",
    "final_address": "7131 Thornley Dr",
    "address_councildis": "E",
    "status": "Assigned to Contractor",
    "contractor": "Waste Pro",
    "rowid": "1220393",
    "final_x": "3703307.6177",
    "final_y": "560194.738397",
    "longitude": "-89.99815518086598",
    "latitude": "30.03366035376102",
    "geocoded_column": {
      "latitude": "30.03366035376102",
      "longitude": "-89.99815518086598"
    }
  },
  {
    "service_request": "2025-1220392",
    "request_type": "Parks & Parkways",
    "request_reason": "Request Tree Service (Right of Way/Public Property)",
    "date_created": "2025-08-21T13:12:08.000",
    "date_modified": "2025-08-21T13:12:10.000",
    "request_status": "Pending",
    "responsible_agency": "Department of Parks & Parkway",
    "final_address": "979 Harding Dr",
    "address_councildis": "A",
    "status": "Pending",
    "rowid": "1220392",
    "final_x": "3674354.35662",
    "final_y": "540322.535691",
    "longitude": "-90.09033220132643",
    "latitude": "29.9799147054534",
    "geocoded_column": {
      "latitude": "29.9799147054534",
      "longitude": "-90.09033220132643"
    }
  },
  {
    "service_request": "2025-1220391",
    "request_type": "Trash/Recycling",
    "request_reason": "Replace Recycling Cart",
    "date_created": "2025-08-21T13:11:49.000",
    "date_modified": "2025-08-21T13:11:51.000",
    "request_status": "Pending",
    "responsible_agency": "Department of Sanitation",
    "final_address": "5348 Camp St",
    "address_councildis": "B",
    "status": "Pending",
    "rowid": "1220391",
    "final_x": "3667096.28666",
    "final_y": "519055.230455",
    "longitude": "-90.1139710761393",
    "latitude": "29.921651039027743",
    "geocoded_column": {
      "latitude": "29.921651039027743",
      "longitude": "-90.1139710761393"
    }
  },
  {
    "service_request": "2025-1220390",
    "request_type": "Trash/Recycling",
    "request_reason": "Request a Large Item Pick Up",
    "date_created": "2025-08-21T13:10:00.000",
    "date_modified": "2025-08-21T13:10:02.000",
    "request_status": "Pending",
    "responsible_agency": "Department of Sanitation",
    "final_address": "7344 Alabama St",
    "address_councildis": "D",
    "status": "Assigned to Contractor",
    "contractor": "Waste Pro",
    "rowid": "1220390",
    "final_x": "3695072.40086",
    "final_y": "557830.319387",
    "longitude": "-90.02426464859482",
    "latitude": "30.02742038681218",
    "geocoded_column": {
      "latitude": "30.02742038681218",
      "longitude": "-90.02426464859482"
    }
  },
  {
    "service_request": "2025-1220389",
    "request_type": "Trash/Recycling",
    "request_reason": "Illegal Dumping",
    "date_created": "2025-08-21T13:09:10.000",
    "date_modified": "2025-08-21T13:13:19.000",
    "request_status": "Pending",
    "responsible_agency": "Department of Sanitation",
    "final_address": "8616 Apple St",
    "address_councildis": "A",
    "status": "Pending",
    "rowid": "1220389",
    "final_x": "3663935.14355",
    "final_y": "533343.43098",
    "longitude": "-90.12347327189772",
    "latitude": "29.961031146278874",
    "geocoded_column": {
      "latitude": "29.961031146278874",
      "longitude": "-90.12347327189772"
    }
  },
  {
    "service_request": "2025-1220388",
    "request_type": "Trash/Recycling",
    "request_reason": "Repair Trash Cart",
    "date_created": "2025-08-21T13:08:49.000",
    "date_modified": "2025-08-21T13:08:52.000",
    "request_status": "Pending",
    "responsible_agency": "Department of Sanitation",
    "final_address": "7046 Lake Willow Dr",
    "address_councildis": "E",
    "status": "Assigned to Contractor",
    "contractor": "Waste Pro",
    "rowid": "1220388",
    "final_x": "3702245.72721",
    "final_y": "559069.97398",
    "longitude": "-90.00155216452771",
    "latitude": "30.030601668775283",
    "geocoded_column": {
      "latitude": "30.030601668775283",
      "longitude": "-90.00155216452771"
    }
  },
  {
    "service_request": "2025-1220387",
    "request_type": "Trash/Recycling",
    "request_reason": "Repair Recycling Cart",
    "date_created": "2025-08-21T13:06:03.000",
    "date_modified": "2025-08-21T13:06:05.000",
    "request_status": "Pending",
    "responsible_agency": "Department of Sanitation",
    "final_address": "4524 Laurel St",
    "address_councildis": "B",
    "status": "Pending",
    "rowid": "1220387",
    "final_x": "3670516.8251",
    "final_y": "517954.816822",
    "longitude": "-90.10321117139962",
    "latitude": "29.91852471852496",
    "geocoded_column": {
      "latitude": "29.91852471852496",
      "longitude": "-90.10321117139962"
    }
  },
  {
    "service_request": "2025-1220386",
    "request_type": "Trash/Recycling",
    "request_reason": "Request a Large Item Pick Up",
    "date_created": "2025-08-21T12:55:39.000",
    "date_modified": "2025-08-21T12:55:41.000",
    "request_status": "Pending",
    "responsible_agency": "Department of Sanitation",
    "final_address": "4352 America St",
    "address_councildis": "E",
    "status": "Assigned to Contractor",
    "contractor": "Waste Pro",
    "rowid": "1220386",
    "final_x": "3699871.69815",
    "final_y": "553011.202711",
    "longitude": "-90.00927532754427",
    "latitude": "30.01401802029087",
    "geocoded_column": {
      "latitude": "30.01401802029087",
      "longitude": "-90.00927532754427"
    }
  },
  {
    "service_request": "2025-1220385",
    "request_type": "Healthy Homes",
    "request_reason": "Healthy Homes",
    "date_created": "2025-08-21T12:54:15.000",
    "date_modified": "2025-08-21T12:54:17.000",
    "request_status": "Pending",
    "responsible_agency": "Department of Code Enforcement",
    "final_address": "3400 Garden Oaks Dr Apt 603",
    "address_councildis": "C",
    "status": "Pending",
    "rowid": "1220385",
    "final_x": "3696113.96989",
    "final_y": "519106.138935",
    "longitude": "-90.02237337552361",
    "latitude": "29.920910041311927",
    "geocoded_column": {
      "latitude": "29.920910041311927",
      "longitude": "-90.02237337552361"
    }
  },
  {
    "service_request": "2025-1220384",
    "request_type": "Trash/Recycling",
    "request_reason": "Repair Trash Cart",
    "date_created": "2025-08-21T12:52:00.000",
    "date_modified": "2025-08-21T12:52:02.000",
    "request_status": "Pending",
    "responsible_agency": "Department of Sanitation",
    "final_address": "5347 Royal St",
    "address_councildis": "E",
    "status": "Assigned to Contractor",
    "contractor": "Waste Pro",
    "rowid": "1220384",
    "final_x": "3696718.73533",
    "final_y": "532543.065092",
    "longitude": "-90.01997826721907",
    "latitude": "29.957837899465613",
    "geocoded_column": {
      "latitude": "29.957837899465613",
      "longitude": "-90.01997826721907"
    }
  },
  {
    "service_request": "2025-1220383",
    "request_type": "Mosquito, Termite & Rodent Control",
    "request_reason": "Rodent Complaint (Mice & Rats)",
    "date_created": "2025-08-21T12:45:37.000",
    "date_modified": "2025-08-21T12:45:39.000",
    "request_status": "Pending",
    "responsible_agency": "Mosquito, Termite & Rodent Control Board",
    "final_address": "1206 Second St",
    "address_councildis": "B",
    "status": "Pending",
    "rowid": "1220383",
    "final_x": "3677533.16629",
    "final_y": "521663.045881",
    "longitude": "-90.08093635205609",
    "latitude": "29.928512165403795",
    "geocoded_column": {
      "latitude": "29.928512165403795",
      "longitude": "-90.08093635205609"
    }
  },
  {
    "service_request": "2025-1220382",
    "request_type": "Trash/Recycling",
    "request_reason": "Request a Large Item Pick Up",
    "date_created": "2025-08-21T12:44:59.000",
    "date_modified": "2025-08-21T12:45:01.000",
    "request_status": "Pending",
    "responsible_agency": "Department of Sanitation",
    "final_address": "6596 Harbourview Dr",
    "address_councildis": "E",
    "status": "Assigned to Contractor",
    "contractor": "Waste Pro",
    "rowid": "1220382",
    "final_x": "3699030.96906",
    "final_y": "555929.084633",
    "longitude": "-90.01182526494887",
    "latitude": "30.022067773265775",
    "geocoded_column": {
      "latitude": "30.022067773265775",
      "longitude": "-90.01182526494887"
    }
  },
  {
    "service_request": "2025-1220381",
    "request_type": "Abandoned Vehicles",
    "request_reason": "Abandoned/Junk Vehicles",
    "date_created": "2025-08-21T12:42:56.000",
    "date_modified": "2025-08-21T12:42:59.000",
    "request_status": "Pending",
    "responsible_agency": "Department of Public Works",
    "final_address": "1642 Frenchmen St",
    "address_councildis": "D",
    "status": "Pending",
    "rowid": "1220381",
    "final_x": "3684381.28469",
    "final_y": "538438.088393",
    "longitude": "-90.05872928031101",
    "latitude": "29.974430240797954",
    "geocoded_column": {
      "latitude": "29.974430240797954",
      "longitude": "-90.05872928031101"
    }
  },
  {
    "service_request": "2025-1220380",
    "request_type": "Trash/Recycling",
    "request_reason": "Replace Trash Cart",
    "date_created": "2025-08-21T12:35:36.000",
    "date_modified": "2025-08-21T12:35:38.000",
    "request_status": "Pending",
    "responsible_agency": "Department of Sanitation",
    "final_address": "816 N White St",
    "address_councildis": "A",
    "status": "Assigned to Contractor",
    "contractor": "IV Waste",
    "rowid": "1220380",
    "final_x": "3676606.24552",
    "final_y": "537666.416392",
    "longitude": "-90.08331131984967",
    "latitude": "29.97254392704314",
    "geocoded_column": {
      "latitude": "29.97254392704314",
      "longitude": "-90.08331131984967"
    }
  },
  {
    "service_request": "2025-1220379",
    "request_type": "Roads and Streets",
    "request_reason": "Pothole",
    "date_created": "2025-08-21T12:35:10.000",
    "date_modified": "2025-08-21T12:35:12.000",
    "request_status": "Pending",
    "responsible_agency": "Department of Public Works",
    "final_address": "500 BLK Burgundy St",
    "address_councildis": "C",
    "status": "Pending",
    "rowid": "1220379",
    "final_x": "3681346.33773",
    "final_y": "532659.720886",
    "longitude": "-90.06851580626676",
    "latitude": "29.958634192895335",
    "geocoded_column": {
      "latitude": "29.958634192895335",
      "longitude": "-90.06851580626676"
    }
  },
  {
    "service_request": "2025-1220378",
    "request_type": "Trash/Recycling",
    "request_reason": "Return Trash Cart",
    "date_created": "2025-08-21T12:31:20.000",
    "date_modified": "2025-08-21T12:31:21.000",
    "request_status": "Pending",
    "responsible_agency": "Department of Sanitation",
    "final_address": "6233 Magazine St",
    "address_councildis": "A",
    "status": "Assigned to Contractor",
    "contractor": "IV Waste",
    "rowid": "1220378",
    "final_x": "3663535.64666",
    "final_y": "519739.001848",
    "longitude": "-90.12518777818275",
    "latitude": "29.923634904883837",
    "geocoded_column": {
      "latitude": "29.923634904883837",
      "longitude": "-90.12518777818275"
    }
  },
  {
    "service_request": "2025-1220377",
    "request_type": "Drainage",
    "request_reason": "Catch Basin Not Draining",
    "date_created": "2025-08-21T12:26:57.000",
    "date_modified": "2025-08-21T12:26:58.000",
    "request_status": "Pending",
    "responsible_agency": "Sewerage & Water Board",
    "final_address": "5726 Pratt Dr",
    "address_councildis": "D",
    "status": "Pending",
    "rowid": "1220377",
    "final_x": "3680172.87067",
    "final_y": "553827.023127",
    "longitude": "-90.07148522850332",
    "latitude": "30.016872411023897",
    "geocoded_column": {
      "latitude": "30.016872411023897",
      "longitude": "-90.07148522850332"
    }
  },
  {
    "service_request": "2025-1220376",
    "request_type": "Streetlights",
    "request_reason": "Streetlight Outage/Malfunction",
    "date_created": "2025-08-21T12:26:52.000",
    "date_modified": "2025-08-21T12:26:53.000",
    "request_status": "Pending",
    "responsible_agency": "Department of Public Works",
    "final_address": "1817 Third St",
    "address_councildis": "B",
    "status": "Pending",
    "contractor": "Legacy Professional Services",
    "rowid": "1220376",
    "final_x": "3675963.338",
    "final_y": "523652.879483",
    "longitude": "-90.08582358106347",
    "latitude": "29.934030646126047",
    "geocoded_column": {
      "latitude": "29.934030646126047",
      "longitude": "-90.08582358106347"
    }
  },
  {
    "service_request": "2025-1220375",
    "request_type": "Trash/Recycling",
    "request_reason": "Missed Trash Pick-Up",
    "date_created": "2025-08-21T12:25:46.000",
    "date_modified": "2025-08-21T13:10:54.000",
    "case_close_date": "2025-08-21T08:10:52.000",
    "request_status": "Closed",
    "responsible_agency": "Department of Sanitation",
    "final_address": "2204 Octavia St",
    "address_councildis": "A",
    "status": "Invalid Request",
    "contractor": "IV Waste",
    "contractor_action": "Invalid",
    "rowid": "1220375",
    "final_x": "3667456.33172",
    "final_y": "523772.683899",
    "longitude": "-90.11267593212925",
    "latitude": "29.934611998580188",
    "geocoded_column": {
      "latitude": "29.934611998580188",
      "longitude": "-90.11267593212925"
    }
  },
  {
    "service_request": "2025-1220374",
    "request_type": "Trash/Recycling",
    "request_reason": "Request a Large Item Pick Up",
    "date_created": "2025-08-21T12:25:40.000",
    "date_modified": "2025-08-21T12:25:42.000",
    "request_status": "Pending",
    "responsible_agency": "Department of Sanitation",
    "final_address": "6911 Manchester St",
    "address_councildis": "E",
    "status": "Assigned to Contractor",
    "contractor": "Waste Pro",
    "rowid": "1220374",
    "final_x": "3698700.83069",
    "final_y": "560109.602013",
    "longitude": "-90.01271617062565",
    "latitude": "30.03357305699327",
    "geocoded_column": {
      "latitude": "30.03357305699327",
      "longitude": "-90.01271617062565"
    }
  },
  {
    "service_request": "2025-1220373",
    "request_type": "Trash/Recycling",
    "request_reason": "Request a Large Item Pick Up",
    "date_created": "2025-08-21T12:18:37.000",
    "date_modified": "2025-08-21T12:18:39.000",
    "request_status": "Pending",
    "responsible_agency": "Department of Sanitation",
    "final_address": "1900 Jena St",
    "address_councildis": "B",
    "status": "Assigned to Contractor",
    "contractor": "IV Waste",
    "rowid": "1220373",
    "final_x": "3670300.8834",
    "final_y": "521976.01113",
    "longitude": "-90.10375658319747",
    "latitude": "29.92958809593163",
    "geocoded_column": {
      "latitude": "29.92958809593163",
      "longitude": "-90.10375658319747"
    }
  },
  {
    "service_request": "2025-1220372",
    "request_type": "Drainage",
    "request_reason": "Catch Basin Not Draining",
    "date_created": "2025-08-21T12:15:32.000",
    "date_modified": "2025-08-21T12:15:33.000",
    "request_status": "Pending",
    "responsible_agency": "Sewerage & Water Board",
    "final_address": "GIROD ST & LOYOLA AVE",
    "address_councildis": "B",
    "status": "Pending",
    "rowid": "1220372",
    "final_x": "3678857.8",
    "final_y": "528954.68",
    "longitude": "-90.07650228853845",
    "latitude": "29.948521872655697",
    "geocoded_column": {
      "latitude": "29.948521872655697",
      "longitude": "-90.07650228853845"
    }
  },
  {
    "service_request": "2025-1220371",
    "request_type": "Health Related Request",
    "request_reason": "Homeless Encampment Complaint",
    "date_created": "2025-08-21T12:15:03.000",
    "date_modified": "2025-08-21T12:25:51.000",
    "request_status": "Pending",
    "responsible_agency": "Office Of Homeless Services And Strategy",
    "final_address": "4840 Perrier St",
    "address_councildis": "B",
    "status": "Pending",
    "rowid": "1220371",
    "final_x": "3669152.51463",
    "final_y": "519852.695992",
    "longitude": "-90.10745349947895",
    "latitude": "29.92378348901833",
    "geocoded_column": {
      "latitude": "29.92378348901833",
      "longitude": "-90.10745349947895"
    }
  },
  {
    "service_request": "2025-1220370",
    "request_type": "Trash/Recycling",
    "request_reason": "Request a Large Item Pick Up",
    "date_created": "2025-08-21T12:10:12.000",
    "date_modified": "2025-08-21T14:36:30.000",
    "case_close_date": "2025-08-21T09:36:29.000",
    "request_status": "Closed",
    "responsible_agency": "Department of Sanitation",
    "final_address": "2529 Burgundy St Apt A",
    "address_councildis": "C",
    "status": "Canceled By Citizen",
    "contractor": "IV Waste",
    "contractor_action": "Invalid",
    "rowid": "1220370",
    "final_x": "3686800.4063",
    "final_y": "535803.551047",
    "longitude": "-90.05118223653677",
    "latitude": "29.96711196971916",
    "geocoded_column": {
      "latitude": "29.96711196971916",
      "longitude": "-90.05118223653677"
    }
  },
  {
    "service_request": "2025-1220369",
    "request_type": "Traffic Signals",
    "request_reason": "Traffic Signal Malfunctioning or Damaged",
    "date_created": "2025-08-21T12:07:07.000",
    "date_modified": "2025-08-21T12:07:09.000",
    "request_status": "Pending",
    "responsible_agency": "Department of Public Works",
    "final_address": "JULIA ST & CAMP ST",
    "address_councildis": "B",
    "status": "Pending",
    "rowid": "1220369",
    "final_x": "3680791.6",
    "final_y": "527933.18",
    "longitude": "-90.07043202214226",
    "latitude": "29.945654624905025",
    "geocoded_column": {
      "latitude": "29.945654624905025",
      "longitude": "-90.07043202214226"
    }
  },
  {
    "service_request": "2025-1220368",
    "request_type": "Trash/Recycling",
    "request_reason": "Repair Trash Cart",
    "date_created": "2025-08-21T11:59:53.000",
    "date_modified": "2025-08-21T11:59:57.000",
    "request_status": "Pending",
    "responsible_agency": "Department of Sanitation",
    "final_address": "3003 Oliver White Ave",
    "address_councildis": "D",
    "status": "Assigned to Contractor",
    "contractor": "IV Waste",
    "rowid": "1220368",
    "final_x": "3692117.02537",
    "final_y": "543310.881102",
    "longitude": "-90.03412356588848",
    "latitude": "29.98758979936881",
    "geocoded_column": {
      "latitude": "29.98758979936881",
      "longitude": "-90.03412356588848"
    }
  },