[
  {
    "service_request": "2025-1190060",
    "request_type": "Trash/Recycling",
    "request_reason": "Request a Large Item Pick Up",
    "date_created": "2025-05-06T22:51:35.000",
    "date_modified": "2025-05-06T22:51:37.000",
    "request_status": "Pending",
    "responsible_agency": "Department of Sanitation",
    "final_address": "6390 Eastover Dr",
    "address_councildis": "E",
    "status": "Assigned to Contractor",
    "contractor": "Waste Pro",
    "rowid": "1190060",
    "final_x": "3718165.90578",
    "final_y": "563340.759008",
    "longitude": "-89.95108193212951",
    "latitude": "30.0418262096572",
    "geocoded_column": {
      "latitude": "30.0418262096572",
      "longitude": "-89.95108193212951"
    }
  },
  {
    "service_request": "2025-1190059",
    "request_type": "Roads and Streets",
    "request_reason": "Sidewalk Damaged or Missing",
    "date_created": "2025-05-06T22:41:30.000",
    "date_modified": "2025-05-06T22:41:32.000",
    "request_status": "Pending",
    "responsible_agency": "Department of Public Works",
    "final_address": "3024 Republic St",
    "address_councildis": "D",
    "status": "Pending",
    "rowid": "1190059",
    "final_x": "3680583.0996",
    "final_y": "543569.853006",
    "longitude": "-90.07054623698346",
    "latitude": "29.988656430870183",
    "geocoded_column": {
      "latitude": "29.988656430870183",
      "longitude": "-90.07054623698346"
    }
  },
  {
    "service_request": "2025-1190058",
    "request_type": "Drainage",
    "request_reason": "Catch Basin Clogged",
    "date_created": "2025-05-06T22:35:08.000",
    "date_modified": "2025-05-06T22:35:10.000",
    "request_status": "Pending",
    "responsible_agency": "Sewerage & Water Board",
    "final_address": "1200 N Derbigny St",
    "address_councildis": "D",
    "status": "Pending",
    "rowid": "1190058",
    "final_x": "3680631.01365",
    "final_y": "536295.941895",
    "longitude": "-90.07064808101914",
    "latitude": "29.968654250760657",
    "geocoded_column": {
      "latitude": "29.968654250760657",
      "longitude": "-90.07064808101914"
    }
  },
  {
    "service_request": "2025-1190057",
    "request_type": "Trash/Recycling",
    "request_reason": "Replace Trash Cart",
    "date_created": "2025-05-06T22:22:45.000",
    "date_modified": "2025-05-06T22:22:48.000",
    "request_status": "Pending",
    "responsible_agency": "Department of Sanitation",
    "final_address": "1363 Prentiss Ave",
    "address_councildis": "D",
    "status": "Assigned to Contractor",
    "contractor": "IV Waste",
    "rowid": "1190057",
    "final_x": "3677468.91406",
    "final_y": "553441.560855",
    "longitude": "-90.08004192979026",
    "latitude": "30.015894127903476",
    "geocoded_column": {
      "latitude": "30.015894127903476",
      "longitude": "-90.08004192979026"
    }
  },
  {
    "service_request": "2025-1190056",
    "request_type": "Drainage",
    "request_reason": "Catch Basin Clogged",
    "date_created": "2025-05-06T22:15:50.000",
    "date_modified": "2025-05-06T22:15:52.000",
    "request_status": "Pending",
    "responsible_agency": "Sewerage & Water Board",
    "final_address": "4639 Berkley Dr",
    "address_councildis": "C",
    "status": "Pending",
    "rowid": "1190056",
    "final_x": "3700987.77533",
    "final_y": "518222.427318",
    "longitude": "-90.00702137683028",
    "latitude": "29.91832591204613",
    "geocoded_column": {
      "latitude": "29.91832591204613",
      "longitude": "-90.00702137683028"
    }
  },
  {
    "service_request": "2025-1190055",
    "request_type": "Trash/Recycling",
    "request_reason": "Return Trash Cart",
    "date_created": "2025-05-06T21:55:22.000",
    "date_modified": "2025-05-06T21:55:24.000",
    "request_status": "Pending",
    "responsible_agency": "Department of Sanitation",
    "final_address": "315 S Alexander St",
    "address_councildis": "A",
    "status": "Assigned to Contractor",
    "contractor": "IV Waste",
    "rowid": "1190055",
    "final_x": "3669411.18574",
    "final_y": "538461.739721",
    "longitude": "-90.1060077722068",
    "latitude": "29.974944664440365",
    "geocoded_column": {
      "latitude": "29.974944664440365",
      "longitude": "-90.1060077722068"
    }
  },
  {
    "service_request": "2025-1190054",
    "request_type": "Safety & Permits",
    "request_reason": "Zoning Enforcement",
    "date_created": "2025-05-06T21:18:08.000",
    "date_modified": "2025-05-06T21:18:11.000",
    "request_status": "Pending",
    "responsible_agency": "Safety and Permits",
    "final_address": "10902 Curran Rd",
    "address_councildis": "E",
    "status": "Pending",
    "rowid": "1190054",
    "final_x": "3710103.98622",
    "final_y": "565790.345507",
    "longitude": "-89.97646869102844",
    "latitude": "30.048826531222797",
    "geocoded_column": {
      "latitude": "30.048826531222797",
      "longitude": "-89.97646869102844"
    }
  },
  {
    "service_request": "2025-1190053",
    "request_type": "Property Maintenance",
    "request_reason": "Property Maintenance",
    "date_created": "2025-05-06T21:06:26.000",
    "date_modified": "2025-05-06T21:06:28.000",
    "request_status": "Pending",
    "responsible_agency": "Department of Code Enforcement",
    "final_address": "8051 Curran Rd",
    "address_councildis": "E",
    "status": "Pending",
    "rowid": "1190053",
    "final_x": "3702323.63921",
    "final_y": "561766.778015",
    "longitude": "-90.00120688907629",
    "latitude": "30.038014338482515",
    "geocoded_column": {
      "latitude": "30.038014338482515",
      "longitude": "-90.00120688907629"
    }
  },
  {
    "service_request": "2025-1190052",
    "request_type": "Trash/Recycling",
    "request_reason": "Request a Large Item Pick Up",
    "date_created": "2025-05-06T21:05:43.000",
    "date_modified": "2025-05-06T21:05:45.000",
    "request_status": "Pending",
    "responsible_agency": "Department of Sanitation",
    "final_address": "7801 Devine Ave",
    "address_councildis": "E",
    "status": "Assigned to Contractor",
    "contractor": "Waste Pro",
    "rowid": "1190052",
    "final_x": "3705497.98942",
    "final_y": "563511.740896",
    "longitude": "-89.99111062549073",
    "latitude": "30.042710441832853",
    "geocoded_column": {
      "latitude": "30.042710441832853",
      "longitude": "-89.99111062549073"
    }
  },
  {
    "service_request": "2025-1190050",
    "request_type": "Utility Poles",
    "request_reason": "Utility Pole Leaning",
    "date_created": "2025-05-06T20:37:34.000",
    "date_modified": "2025-05-06T20:37:37.000",
    "request_status": "Pending",
    "responsible_agency": "Utility Company Collective",
    "final_address": "1815 Kerlerec St",
    "address_councildis": "D",
    "status": "Pending",
    "rowid": "1190050",
    "final_x": "3680847.60437",
    "final_y": "537442.59988",
    "longitude": "-90.06992414803906",
    "latitude": "29.97180060087676",
    "geocoded_column": {
      "latitude": "29.97180060087676",
      "longitude": "-90.06992414803906"
    }
  },
  {
    "service_request": "2025-1190049",
    "request_type": "Trash/Recycling",
    "request_reason": "Request a Large Item Pick Up",
    "date_created": "2025-05-06T20:14:39.000",
    "date_modified": "2025-05-06T20:14:41.000",
    "request_status": "Pending",
    "responsible_agency": "Department of Sanitation",
    "final_address": "6025 Marais St",
    "address_councildis": "E",
    "status": "Assigned to Contractor",
    "contractor": "Waste Pro",
    "rowid": "1190049",
    "final_x": "3699522.05194",
    "final_y": "533798.061765",
    "longitude": "-90.01108052053532",
    "latitude": "29.9612000453367",
    "geocoded_column": {
      "latitude": "29.9612000453367",
      "longitude": "-90.01108052053532"
    }
  },
  {
    "service_request": "2025-1190048",
    "request_type": "Roads and Streets",
    "request_reason": "Street Subsidence (Sinking)",
    "date_created": "2025-05-06T19:55:17.000",
    "date_modified": "2025-05-06T19:55:19.000",
    "request_status": "Pending",
    "responsible_agency": "Department of Public Works",
    "final_address": "2013 Burdette St",
    "address_councildis": "A",
    "status": "Pending",
    "rowid": "1190048",
    "final_x": "3664808.34701",
    "final_y": "529757.073665",
    "longitude": "-90.12083568388132",
    "latitude": "29.951144450953368",
    "geocoded_column": {
      "latitude": "29.951144450953368",
      "longitude": "-90.12083568388132"
    }
  },
  {
    "service_request": "2025-1190047",
    "request_type": "Property Maintenance",
    "request_reason": "Property Maintenance",
    "date_created": "2025-05-06T19:42:00.000",
    "date_modified": "2025-05-06T19:42:02.000",
    "request_status": "Pending",
    "responsible_agency": "Department of Code Enforcement",
    "final_address": "3625 Napoleon Ave",
    "address_councildis": "B",
    "status": "Pending",
    "rowid": "1190047",
    "final_x": "3670233.44257",
    "final_y": "528023.318143",
    "longitude": "-90.1037646300207",
    "latitude": "29.94621822555074",
    "geocoded_column": {
      "latitude": "29.94621822555074",
      "longitude": "-90.1037646300207"
    }
  },
  {
    "service_request": "2025-1190046",
    "request_type": "Trash/Recycling",
    "request_reason": "Request a Large Item Pick Up",
    "date_created": "2025-05-06T19:03:38.000",
    "date_modified": "2025-05-06T19:03:40.000",
    "request_status": "Pending",
    "responsible_agency": "Department of Sanitation",
    "final_address": "49 Winners Cir",
    "address_councildis": "E",
    "status": "Assigned to Contractor",
    "contractor": "Waste Pro",
    "rowid": "1190046",
    "final_x": "3715888.69285",
    "final_y": "570252.245671",
    "longitude": "-89.9580165201457",
    "latitude": "30.06090530240643",
    "geocoded_column": {
      "latitude": "30.06090530240643",
      "longitude": "-89.9580165201457"
    }
  },
  {
    "service_request": "2025-1190045",
    "request_type": "Property Maintenance",
    "request_reason": "Property Maintenance",
    "date_created": "2025-05-06T19:00:24.000",
    "date_modified": "2025-05-06T19:00:26.000",
    "request_status": "Pending",
    "responsible_agency": "Department of Code Enforcement",
    "final_address": "11731 W Barrington Dr",
    "address_councildis": "E",
    "status": "Pending",
    "rowid": "1190045",
    "final_x": "3713973.11711",
    "final_y": "565589.99197",
    "longitude": "-89.96424763282866",
    "latitude": "30.04814909396246",
    "geocoded_column": {
      "latitude": "30.04814909396246",
      "longitude": "-89.96424763282866"
    }
  },
  {
    "service_request": "2025-1190044",
    "request_type": "Trash/Recycling",
    "request_reason": "Order Trash Cart",
    "date_created": "2025-05-06T18:59:22.000",
    "date_modified": "2025-05-06T18:59:24.000",
    "request_status": "Pending",
    "responsible_agency": "Department of Sanitation",
    "final_address": "4601 Chestnut St",
    "address_councildis": "B",
    "status": "Assigned to Contractor",
    "contractor": "IV Waste",
    "rowid": "1190044",
    "final_x": "3670200.10318",
    "final_y": "519483.024055",
    "longitude": "-90.104159151869",
    "latitude": "29.922736149710044",
    "geocoded_column": {
      "latitude": "29.922736149710044",
      "longitude": "-90.104159151869"
    }
  },
  {
    "service_request": "2025-1190043",
    "request_type": "Trash/Recycling",
    "request_reason": "Order Trash Cart",
    "date_created": "2025-05-06T18:58:53.000",
    "date_modified": "2025-05-06T18:58:55.000",
    "request_status": "Pending",
    "responsible_agency": "Department of Sanitation",
    "final_address": "4603 Chestnut St",
    "address_councildis": "B",
    "status": "Assigned to Contractor",
    "contractor": "IV Waste",
    "rowid": "1190043",
    "final_x": "3670183.24449",
    "final_y": "519481.579063",
    "longitude": "-90.10421241714354",
    "latitude": "29.92273267370321",
    "geocoded_column": {
      "latitude": "29.92273267370321",
      "longitude": "-90.10421241714354"
    }
  },
  {
    "service_request": "2025-1190042",
    "request_type": "Trash/Recycling",
    "request_reason": "Request a Large Item Pick Up",
    "date_created": "2025-05-06T18:42:48.000",
    "date_modified": "2025-05-06T18:42:50.000",
    "request_status": "Pending",
    "responsible_agency": "Department of Sanitation",
    "final_address": "3541 Silver Maple Ct",
    "address_councildis": "C",
    "status": "Assigned to Contractor",
    "contractor": "Richards Disposal",
    "rowid": "1190042",
    "final_x": "3703190.08266",
    "final_y": "512438.588849",
    "longitude": "-90.00028231644679",
    "latitude": "29.902352052463144",
    "geocoded_column": {
      "latitude": "29.902352052463144",
      "longitude": "-90.00028231644679"
    }
  },
  {
    "service_request": "2025-1190041",
    "request_type": "Property Maintenance",
    "request_reason": "Property Maintenance",
    "date_created": "2025-05-06T18:40:18.000",
    "date_modified": "2025-05-06T18:40:20.000",
    "request_status": "Pending",
    "responsible_agency": "Department of Code Enforcement",
    "final_address": "3649 St Ferdinand St",
    "address_councildis": "D",
    "status": "Pending",
    "rowid": "1190041",
    "final_x": "3690020.02313",
    "final_y": "546704.913105",
    "longitude": "-90.04062630534582",
    "latitude": "29.996987373442373",
    "geocoded_column": {
      "latitude": "29.996987373442373",
      "longitude": "-90.04062630534582"
    }
  },
  {
    "service_request": "2025-1190040",
    "request_type": "Trash/Recycling",
    "request_reason": "Request a Large Item Pick Up",
    "date_created": "2025-05-06T18:25:47.000",
    "date_modified": "2025-05-06T18:25:50.000",
    "request_status": "Pending",
    "responsible_agency": "Department of Sanitation",
    "final_address": "7341 W Laverne St",
    "address_councildis": "E",
    "status": "Assigned to Contractor",
    "contractor": "Waste Pro",
    "rowid": "1190040",
    "final_x": "3695454.21366",
    "final_y": "557870.260571",
    "longitude": "-90.02305671454455",
    "latitude": "30.02751821036795",
    "geocoded_column": {
      "latitude": "30.02751821036795",
      "longitude": "-90.02305671454455"
    }
  },
  {
    "service_request": "2025-1190039",
    "request_type": "Trash/Recycling",
    "request_reason": "Repair Trash Cart",
    "date_created": "2025-05-06T18:23:15.000",
    "date_modified": "2025-05-06T18:23:16.000",
    "request_status": "Pending",
    "responsible_agency": "Department of Sanitation",
    "final_address": "7822 Walmsley Ave",
    "address_councildis": "A",
    "status": "Assigned to Contractor",
    "contractor": "IV Waste",
    "rowid": "1190039",
    "final_x": "3666523.77069",
    "final_y": "531928.444483",
    "longitude": "-90.1153463313273",
    "latitude": "29.957064988424477",
    "geocoded_column": {
      "latitude": "29.957064988424477",
      "longitude": "-90.1153463313273"
    }
  },
  {
    "service_request": "2025-1190038",
    "request_type": "Trash/Recycling",
    "request_reason": "Request a Large Item Pick Up",
    "date_created": "2025-05-06T18:19:32.000",
    "date_modified": "2025-05-06T18:19:34.000",
    "request_status": "Pending",
    "responsible_agency": "Department of Sanitation",
    "final_address": "53 Kingsmill Ln",
    "address_councildis": "C",
    "status": "Assigned to Contractor",
    "contractor": "Richards Disposal",
    "rowid": "1190038",
    "final_x": "3721953.04665",
    "final_y": "510299.155567",
    "longitude": "-89.94115000435258",
    "latitude": "29.895855825528788",
    "geocoded_column": {
      "latitude": "29.895855825528788",
      "longitude": "-89.94115000435258"
    }
  },
  {
    "service_request": "2025-1190037",
    "request_type": "Trash/Recycling",
    "request_reason": "Request a Large Item Pick Up",
    "date_created": "2025-05-06T18:16:47.000",
    "date_modified": "2025-05-06T18:16:49.000",
    "request_status": "Pending",
    "responsible_agency": "Department of Sanitation",
    "final_address": "203 Audubon Blvd",
    "address_councildis": "A",
    "status": "Assigned to Contractor",
    "contractor": "IV Waste",
    "rowid": "1190037",
    "final_x": "3666360.57639",
    "final_y": "528402.465856",
    "longitude": "-90.11597993864528",
    "latitude": "29.947374463402497",
    "geocoded_column": {
      "latitude": "29.947374463402497",
      "longitude": "-90.11597993864528"
    }
  },
  {
    "service_request": "2025-1190036",
    "request_type": "Trash/Recycling",
    "request_reason": "Request a Large Item Pick Up",
    "date_created": "2025-05-06T18:12:04.000",
    "date_modified": "2025-05-06T18:12:07.000",
    "request_status": "Pending",
    "responsible_agency": "Department of Sanitation",
    "final_address": "7700 Berg Rd",
    "address_councildis": "E",
    "status": "Assigned to Contractor",
    "contractor": "Waste Pro",
    "rowid": "1190036",
    "final_x": "3711700.39582",
    "final_y": "567021.086692",
    "longitude": "-89.97137690207978",
    "latitude": "30.05215849464439",
    "geocoded_column": {
      "latitude": "30.05215849464439",
      "longitude": "-89.97137690207978"
    }
  },
  {
    "service_request": "2025-1190035",
    "request_type": "General Services",
    "request_reason": "General Service Request",
    "date_created": "2025-05-06T18:09:14.000",
    "date_modified": "2025-05-06T18:09:16.000",
    "request_status": "Pending",
    "responsible_agency": "Orleans Parish Communication District",
    "final_address": "7700 Berg Rd",
    "address_councildis": "E",
    "status": "Pending",
    "rowid": "1190035",
    "final_x": "3711700.39582",
    "final_y": "567021.086692",
    "longitude": "-89.97137690207978",
    "latitude": "30.05215849464439",
    "geocoded_column": {
      "latitude": "30.05215849464439",
      "longitude": "-89.97137690207978"
    }
  },
  {
    "service_request": "2025-1190034",
    "request_type": "Roads and Streets",
    "request_reason": "Sidewalk Damaged or Missing",
    "date_created": "2025-05-06T18:08:27.000",
    "date_modified": "2025-05-06T18:08:28.000",
    "request_status": "Pending",
    "responsible_agency": "Department of Public Works",
    "final_address": "8200 Willow St",
    "address_councildis": "A",
    "status": "Pending",
    "rowid": "1190034",
    "final_x": "3662101.86599",
    "final_y": "529136.635328",
    "longitude": "-90.12940203059486",
    "latitude": "29.949516915823203",
    "geocoded_column": {
      "latitude": "29.949516915823203",
      "longitude": "-90.12940203059486"
    }
  },
  {
    "service_request": "2025-1190033",
    "request_type": "Abandoned Vehicles",
    "request_reason": "Abandoned/Junk Vehicles",
    "date_created": "2025-05-06T18:05:32.000",
    "date_modified": "2025-05-06T18:05:34.000",
    "request_status": "Pending",
    "responsible_agency": "Department of Public Works",
    "final_address": "3801 Octavia St",
    "address_councildis": "A",
    "status": "Pending",
    "rowid": "1190033",
    "final_x": "3668815.86087",
    "final_y": "529363.450433",
    "longitude": "-90.10819519943391",
    "latitude": "29.9499449036107",
    "geocoded_column": {
      "latitude": "29.9499449036107",
      "longitude": "-90.10819519943391"
    }
  },
  {
    "service_request": "2025-1190032",
    "request_type": "Trash/Recycling",
    "request_reason": "Request a Large Item Pick Up",
    "date_created": "2025-05-06T18:03:23.000",
    "date_modified": "2025-05-06T18:03:25.000",
    "request_status": "Pending",
    "responsible_agency": "Department of Sanitation",
    "final_address": "6391 Eastover Dr",
    "address_councildis": "E",
    "status": "Assigned to Contractor",
    "contractor": "Waste Pro",
    "rowid": "1190032",
    "final_x": "3718334.99129",
    "final_y": "563527.49296",
    "longitude": "-89.95054044349781",
    "latitude": "30.042334042378123",
    "geocoded_column": {
      "latitude": "30.042334042378123",
      "longitude": "-89.95054044349781"
    }
  },
  {
    "service_request": "2025-1190031",
    "request_type": "Trash/Recycling",
    "request_reason": "Request a Large Item Pick Up",
    "date_created": "2025-05-06T17:52:56.000",
    "date_modified": "2025-05-06T17:52:58.000",
    "request_status": "Pending",
    "responsible_agency": "Department of Sanitation",
    "final_address": "5249 Pratt Dr",
    "address_councildis": "D",
    "status": "Assigned to Contractor",
    "contractor": "IV Waste",
    "rowid": "1190031",
    "final_x": "3680473.21461",
    "final_y": "551864.86607",
    "longitude": "-90.07060458746255",
    "latitude": "30.011468091838687",
    "geocoded_column": {
      "latitude": "30.011468091838687",
      "longitude": "-90.07060458746255"
    }
  },
  {
    "service_request": "2025-1190030",
    "request_type": "Trash/Recycling",
    "request_reason": "Request a Large Item Pick Up",
    "date_created": "2025-05-06T17:51:46.000",
    "date_modified": "2025-05-06T17:51:48.000",
    "request_status": "Pending",
    "responsible_agency": "Department of Sanitation",
    "final_address": "5121 St Anthony Ave",
    "address_councildis": "D",
    "status": "Assigned to Contractor",
    "contractor": "IV Waste",
    "rowid": "1190030",
    "final_x": "3682367.58434",
    "final_y": "551547.701141",
    "longitude": "-90.06463059387343",
    "latitude": "30.010538465255667",
    "geocoded_column": {
      "latitude": "30.010538465255667",
      "longitude": "-90.06463059387343"
    }
  },
  {
    "service_request": "2025-1190029",
    "request_type": "Trash/Recycling",
    "request_reason": "Replace Trash Cart",
    "date_created": "2025-05-06T17:37:16.000",
    "date_modified": "2025-05-06T17:37:18.000",
    "request_status": "Pending",
    "responsible_agency": "Department of Sanitation",
    "final_address": "1541 Burdette St",
    "address_councildis": "A",
    "status": "Assigned to Contractor",
    "contractor": "IV Waste",
    "rowid": "1190029",
    "final_x": "3663752.87891",
    "final_y": "528595.690688",
    "longitude": "-90.12420703815935",
    "latitude": "29.947981690054736",
    "geocoded_column": {
      "latitude": "29.947981690054736",
      "longitude": "-90.12420703815935"
    }
  },
  {
    "service_request": "2025-1190028",
    "request_type": "Trash/Recycling",
    "request_reason": "Request a Large Item Pick Up",
    "date_created": "2025-05-06T17:26:45.000",
    "date_modified": "2025-05-06T17:26:47.000",
    "request_status": "Pending",
    "responsible_agency": "Department of Sanitation",
    "final_address": "324 Newton St",
    "address_councildis": "C",
    "status": "Assigned to Contractor",
    "contractor": "Richards Disposal",
    "rowid": "1190028",
    "final_x": "3686415.58742",
    "final_y": "527967.290175",
    "longitude": "-90.05267408142032",
    "latitude": "29.945576778915967",
    "geocoded_column": {
      "latitude": "29.945576778915967",
      "longitude": "-90.05267408142032"
    }
  },
  {
    "service_request": "2025-1190027",
    "request_type": "Trash/Recycling",
    "request_reason": "Missed Trash Pick-Up",
    "date_created": "2025-05-06T16:57:12.000",
    "date_modified": "2025-05-06T18:11:27.000",
    "case_close_date": "2025-05-06T13:11:26.000",
    "request_status": "Closed",
    "responsible_agency": "Department of Sanitation",
    "final_address": "1492 Moss St",
    "address_councildis": "A",
    "status": "Invalid Request",
    "contractor": "IV Waste",
    "contractor_action": "Invalid Request",
    "rowid": "1190027",
    "final_x": "3674657.29608",
    "final_y": "541400.335372",
    "longitude": "-90.08933843475648",
    "latitude": "29.982869244652427",
    "geocoded_column": {
      "latitude": "29.982869244652427",
      "longitude": "-90.08933843475648"
    }
  },
  {
    "service_request": "2025-1190026",
    "request_type": "General Services",
    "request_reason": "General Service Request",
    "date_created": "2025-05-06T16:54:45.000",
    "date_modified": "2025-05-06T16:54:47.000",
    "request_status": "Pending",
    "responsible_agency": "Orleans Parish Communication District",
    "final_address": "2200 BLK Burdette St",
    "address_councildis": "A",
    "status": "Pending",
    "rowid": "1190026",
    "final_x": "3665279.97288",
    "final_y": "530342.948944",
    "longitude": "-90.1193269184264",
    "latitude": "29.95274168692515",
    "geocoded_column": {
      "latitude": "29.95274168692515",
      "longitude": "-90.1193269184264"
    }
  },
  {
    "service_request": "2025-1190025",
    "request_type": "Trash/Recycling",
    "request_reason": "Request a Large Item Pick Up",
    "date_created": "2025-05-06T16:49:15.000",
    "date_modified": "2025-05-06T16:49:16.000",
    "request_status": "Pending",
    "responsible_agency": "Department of Sanitation",
    "final_address": "4620 St Roch Ave",
    "address_councildis": "D",
    "status": "Assigned to Contractor",
    "contractor": "IV Waste",
    "rowid": "1190025",
    "final_x": "3685259.94057",
    "final_y": "549741.840596",
    "longitude": "-90.05555617451944",
    "latitude": "30.005484631223897",
    "geocoded_column": {
      "latitude": "30.005484631223897",
      "longitude": "-90.05555617451944"
    }
  },
  {
    "service_request": "2025-1190024",
    "request_type": "Streetlights",
    "request_reason": "Streetlight Outage/Malfunction",
    "date_created": "2025-05-06T16:46:19.000",
    "date_modified": "2025-05-06T16:46:21.000",
    "request_status": "Pending",
    "responsible_agency": "Department of Public Works",
    "final_address": "0 BLK Crescent City Connection",
    "status": "Pending",
    "contractor": "Legacy Professional Services",
    "rowid": "1190024",
    "final_x": "3685262.17635",
    "final_y": "525097.252743",
    "longitude": "-90.05641675185699",
    "latitude": "29.93772053935159",
    "geocoded_column": {
      "latitude": "29.93772053935159",
      "longitude": "-90.05641675185699"
    }
  },
  {
    "service_request": "2025-1190023",
    "request_type": "Drainage",
    "request_reason": "Street Flooding",
    "date_created": "2025-05-06T16:44:35.000",
    "date_modified": "2025-05-06T16:44:36.000",
    "request_status": "Pending",
    "responsible_agency": "Sewerage & Water Board",
    "final_address": "5700 Annunciation St",
    "address_councildis": "A",
    "status": "Pending",
    "rowid": "1190023",
    "final_x": "3665481.69965",
    "final_y": "517524.606006",
    "longitude": "-90.11911885120603",
    "latitude": "29.91748944632555",
    "geocoded_column": {
      "latitude": "29.91748944632555",
      "longitude": "-90.11911885120603"
    }
  },
  {
    "service_request": "2025-1190022",
    "request_type": "Trash/Recycling",
    "request_reason": "Request a Large Item Pick Up",
    "date_created": "2025-05-06T16:44:04.000",
    "date_modified": "2025-05-06T16:44:06.000",
    "request_status": "Pending",
    "responsible_agency": "Department of Sanitation",
    "final_address": "4826 Citrus Dr",
    "address_councildis": "E",
    "status": "Assigned to Contractor",
    "contractor": "Waste Pro",
    "rowid": "1190022",
    "final_x": "3710643.42897",
    "final_y": "556456.240282",
    "longitude": "-89.97511343976889",
    "latitude": "30.02314388143371",
    "geocoded_column": {
      "latitude": "30.02314388143371",
      "longitude": "-89.97511343976889"
    }
  },
  {
    "service_request": "2025-1190021",
    "request_type": "Trash/Recycling",
    "request_reason": "Request a Large Item Pick Up",
    "date_created": "2025-05-06T16:43:34.000",
    "date_modified": "2025-05-06T16:43:35.000",
    "request_status": "Pending",
    "responsible_agency": "Department of Sanitation",
    "final_address": "2519 Bristol Pl",
    "address_councildis": "C",
    "status": "Assigned to Contractor",
    "contractor": "Richards Disposal",
    "rowid": "1190021",
    "final_x": "3702572.8218",
    "final_y": "521759.55609",
    "longitude": "-90.00188853799541",
    "latitude": "29.928001251950622",
    "geocoded_column": {
      "latitude": "29.928001251950622",
      "longitude": "-90.00188853799541"
    }
  },
  {
    "service_request": "2025-1190020",
    "request_type": "Trash/Recycling",
    "request_reason": "Replace Trash Cart",
    "date_created": "2025-05-06T16:43:01.000",
    "date_modified": "2025-05-06T16:43:04.000",
    "request_status": "Pending",
    "responsible_agency": "Department of Sanitation",
    "final_address": "7825 Sail St",
    "address_councildis": "E",
    "status": "Assigned to Contractor",
    "contractor": "Waste Pro",
    "rowid": "1190020",
    "final_x": "3720124.21887",
    "final_y": "574045.54129",
    "longitude": "-89.94448295313289",
    "latitude": "30.071194806138745",
    "geocoded_column": {
      "latitude": "30.071194806138745",
      "longitude": "-89.94448295313289"
    }
  },
  {
    "service_request": "2025-1190019",
    "request_type": "EMS",
    "request_reason": "EMS Compliment",
    "date_created": "2025-05-06T16:42:18.000",
    "date_modified": "2025-05-06T16:42:20.000",
    "request_status": "Pending",
    "responsible_agency": "Emergency Medical Services",
    "final_address": "0 BLK Acadiana Pl",
    "address_councildis": "E",
    "status": "Pending",
    "rowid": "1190019",
    "final_x": "3725131.4083",
    "final_y": "564393.680055",
    "longitude": "-89.92902788187175",
    "latitude": "30.04448842646984",
    "geocoded_column": {
      "latitude": "30.04448842646984",
      "longitude": "-89.92902788187175"
    }
  },
  {
    "service_request": "2025-1190018",
    "request_type": "Trash/Recycling",
    "request_reason": "Request a Large Item Pick Up",
    "date_created": "2025-05-06T16:42:02.000",
    "date_modified": "2025-05-06T16:42:03.000",
    "request_status": "Pending",
    "responsible_agency": "Department of Sanitation",
    "final_address": "4954 Warren Dr",
    "address_councildis": "E",
    "status": "Assigned to Contractor",
    "contractor": "Waste Pro",
    "rowid": "1190018",
    "final_x": "3713273.37861",
    "final_y": "557391.219995",
    "longitude": "-89.96676822799627",
    "latitude": "30.025628726979832",
    "geocoded_column": {
      "latitude": "30.025628726979832",
      "longitude": "-89.96676822799627"
    }
  },
  {
    "service_request": "2025-1190017",
    "request_type": "Roads and Streets",
    "request_reason": "Push-up/Pavement Expansion",
    "date_created": "2025-05-06T16:41:34.000",
    "date_modified": "2025-05-06T16:41:36.000",
    "request_status": "Pending",
    "responsible_agency": "Department of Public Works",
    "final_address": "5700 Annunciation St",
    "address_councildis": "A",
    "status": "Pending",
    "rowid": "1190017",
    "final_x": "3665481.69965",
    "final_y": "517524.606006",
    "longitude": "-90.11911885120603",
    "latitude": "29.91748944632555",
    "geocoded_column": {
      "latitude": "29.91748944632555",
      "longitude": "-90.11911885120603"
    }
  },
  {
    "service_request": "2025-1190016",
    "request_type": "Parks & Parkways",
    "request_reason": "Request Tree Service (Right of Way/Public Property)",
    "date_created": "2025-05-06T16:40:54.000",
    "date_modified": "2025-05-06T16:40:56.000",
    "request_status": "Pending",
    "responsible_agency": "Department of Parks & Parkway",
    "final_address": "939 Nashville Ave",
    "address_councildis": "A",
    "status": "Pending",
    "rowid": "1190016",
    "final_x": "3665731.03789",
    "final_y": "519609.022712",
    "longitude": "-90.11826205882325",
    "latitude": "29.923213671948385",
    "geocoded_column": {
      "latitude": "29.923213671948385",
      "longitude": "-90.11826205882325"
    }
  },
  {
    "service_request": "2025-1190015",
    "request_type": "Trash/Recycling",
    "request_reason": "Request a Large Item Pick Up",
    "date_created": "2025-05-06T16:40:30.000",
    "date_modified": "2025-05-06T16:40:33.000",
    "request_status": "Pending",
    "responsible_agency": "Department of Sanitation",
    "final_address": "319 S Lopez St",
    "address_councildis": "B",
    "status": "Assigned to Contractor",
    "contractor": "IV Waste",
    "rowid": "1190015",
    "final_x": "3673242.72532",
    "final_y": "535485.220038",
    "longitude": "-90.09400844551256",
    "latitude": "29.966646839253436",
    "geocoded_column": {
      "latitude": "29.966646839253436",
      "longitude": "-90.09400844551256"
    }
  },
  {
    "service_request": "2025-1190014",
    "request_type": "Property Maintenance",
    "request_reason": "Property Maintenance",
    "date_created": "2025-05-06T16:39:55.000",
    "date_modified": "2025-05-06T16:39:56.000",
    "request_status": "Pending",
    "responsible_agency": "Department of Code Enforcement",
    "final_address": "4868 Cardenas Dr",
    "address_councildis": "E",
    "status": "Pending",
    "rowid": "1190014",
    "final_x": "3713545.15135",
    "final_y": "557028.860122",
    "longitude": "-89.96592313745604",
    "latitude": "30.024623465716168",
    "geocoded_column": {
      "latitude": "30.024623465716168",
      "longitude": "-89.96592313745604"
    }
  },
  {
    "service_request": "2025-1190013",
    "request_type": "Trash/Recycling",
    "request_reason": "Order Second Trash Cart",
    "date_created": "2025-05-06T16:39:14.000",
    "date_modified": "2025-05-06T16:39:16.000",
    "request_status": "Pending",
    "responsible_agency": "Department of Sanitation",
    "final_address": "10 Glacier Ct",
    "address_councildis": "C",
    "status": "Assigned to Contractor",
    "contractor": "Richards Disposal",
    "rowid": "1190013",
    "final_x": "3700216.98781",
    "final_y": "515973.615412",
    "longitude": "-90.00953633111642",
    "latitude": "29.91216695442454",
    "geocoded_column": {
      "latitude": "29.91216695442454",
      "longitude": "-90.00953633111642"
    }
  },
  {
    "service_request": "2025-1190012",
    "request_type": "Trash/Recycling",
    "request_reason": "Order Trash Cart",
    "date_created": "2025-05-06T16:39:11.000",
    "date_modified": "2025-05-06T16:39:12.000",
    "request_status": "Pending",
    "responsible_agency": "Department of Sanitation",
    "final_address": "3118 Urquhart St",
    "address_councildis": "C",
    "status": "Assigned to Contractor",
    "contractor": "IV Waste",
    "rowid": "1190012",
    "final_x": "3689337.65532",
    "final_y": "536655.822599",
    "longitude": "-90.04313930450255",
    "latitude": "29.96937710869188",
    "geocoded_column": {
      "latitude": "29.96937710869188",
      "longitude": "-90.04313930450255"
    }
  },
  {
    "service_request": "2025-1190011",
    "request_type": "Trash/Recycling",
    "request_reason": "Request a Large Item Pick Up",
    "date_created": "2025-05-06T16:39:07.000",
    "date_modified": "2025-05-06T16:39:09.000",
    "request_status": "Pending",
    "responsible_agency": "Department of Sanitation",
    "final_address": "319 S Lopez St",
    "address_councildis": "B",
    "status": "Assigned to Contractor",
    "contractor": "IV Waste",
    "rowid": "1190011",
    "final_x": "3673242.72532",
    "final_y": "535485.220038",
    "longitude": "-90.09400844551256",
    "latitude": "29.966646839253436",
    "geocoded_column": {
      "latitude": "29.966646839253436",
      "longitude": "-90.09400844551256"
    }
  },
  {
    "service_request": "2025-1190010",
    "request_type": "Property Maintenance",
    "request_reason": "Property Maintenance",
    "date_created": "2025-05-06T16:38:09.000",
    "date_modified": "2025-05-06T16:38:10.000",
    "request_status": "Pending",
    "responsible_agency": "Department of Code Enforcement",
    "final_address": "2310 Seminole Ln",
    "address_councildis": "B",
    "status": "Pending",
    "rowid": "1190010",
    "final_x": "3673904.58964",
    "final_y": "528282.424",
    "longitude": "-90.09216466715381",
    "latitude": "29.946821850231483",
    "geocoded_column": {
      "latitude": "29.946821850231483",
      "longitude": "-90.09216466715381"
    }
  },
  {
    "service_request": "2025-1190009",
    "request_type": "Property Maintenance",
    "request_reason": "Property Maintenance",
    "date_created": "2025-05-06T16:37:56.000",
    "date_modified": "2025-05-06T16:37:58.000",
    "request_status": "Pending",
    "responsible_agency": "Department of Code Enforcement",
    "final_address": "4115 S Carrollton Ave",
    "address_councildis": "A",
    "status": "Pending",
    "rowid": "1190009",
    "final_x": "3669231.28954",
    "final_y": "536574.153991",
    "longitude": "-90.1066397534481",
    "latitude": "29.96975973413392",
    "geocoded_column": {
      "latitude": "29.96975973413392",
      "longitude": "-90.1066397534481"
    }
  },
  {
    "service_request": "2025-1190008",
    "request_type": "Trash/Recycling",
    "request_reason": "Request a Large Item Pick Up",
    "date_created": "2025-05-06T16:33:54.000",
    "date_modified": "2025-05-06T16:33:55.000",
    "request_status": "Pending",
    "responsible_agency": "Department of Sanitation",
    "final_address": "728 Marigny St",
    "address_councildis": "C",
    "status": "Assigned to Contractor",
    "contractor": "IV Waste",
    "rowid": "1190008",
    "final_x": "3685482.19292",
    "final_y": "535135.428742",
    "longitude": "-90.05536868856711",
    "latitude": "29.965315357354065",
    "geocoded_column": {
      "latitude": "29.965315357354065",
      "longitude": "-90.05536868856711"
    }
  },
  {
    "service_request": "2025-1190007",
    "request_type": "Trash/Recycling",
    "request_reason": "Dead Animal Pick Up",
    "date_created": "2025-05-06T16:32:47.000",
    "date_modified": "2025-05-06T18:08:22.000",
    "case_close_date": "2025-05-06T13:08:21.000",
    "request_status": "Closed",
    "responsible_agency": "Department of Sanitation",
    "final_address": "823 Clouet St",
    "address_councildis": "C",
    "status": "Assigned to Contractor",
    "contractor": "IV Waste",
    "contractor_action": "Completed",
    "rowid": "1190007",
    "final_x": "3688790.29206",
    "final_y": "535036.322822",
    "longitude": "-90.04492542454533",
    "latitude": "29.96494098608617",
    "geocoded_column": {
      "latitude": "29.96494098608617",
      "longitude": "-90.04492542454533"
    }
  },
  {
    "service_request": "2025-1190006",
    "request_type": "Trash/Recycling",
    "request_reason": "Request a Large Item Pick Up",
    "date_created": "2025-05-06T16:25:09.000",
    "date_modified": "2025-05-06T16:25:10.000",
    "request_status": "Pending",
    "responsible_agency": "Department of Sanitation",
    "final_address": "4401 Knight Dr",
    "address_councildis": "E",
    "status": "Assigned to Contractor",
    "contractor": "Waste Pro",
    "rowid": "1190006",
    "final_x": "3708389.25656",
    "final_y": "553724.823511",
    "longitude": "-89.98233782673758",
    "latitude": "30.0157068235578",
    "geocoded_column": {
      "latitude": "30.0157068235578",
      "longitude": "-89.98233782673758"
    }
  },
  {
    "service_request": "2025-1190005",
    "request_type": "Trash/Recycling",
    "request_reason": "Missed Trash Pick-Up",
    "date_created": "2025-05-06T16:21:11.000",
    "date_modified": "2025-05-06T18:12:00.000",
    "case_close_date": "2025-05-06T13:11:58.000",
    "request_status": "Closed",
    "responsible_agency": "Department of Sanitation",
    "final_address": "537 Jewel St",
    "address_councildis": "D",
    "status": "Invalid Request",
    "contractor": "IV Waste",
    "contractor_action": "Invalid Request",
    "rowid": "1190005",
    "final_x": "3668691.94222",
    "final_y": "556073.652506",
    "longitude": "-90.10768436243436",
    "latitude": "30.023392491723403",
    "geocoded_column": {
      "latitude": "30.023392491723403",
      "longitude": "-90.10768436243436"
    }
  },
  {
    "service_request": "2025-1190004",
    "request_type": "Trash/Recycling",
    "request_reason": "Missed Trash Pick-Up",
    "date_created": "2025-05-06T16:20:13.000",
    "date_modified": "2025-05-06T18:12:18.000",
    "case_close_date": "2025-05-06T13:12:17.000",
    "request_status": "Closed",
    "responsible_agency": "Department of Sanitation",
    "final_address": "527 Jewel St",
    "address_councildis": "D",
    "status": "Invalid Request",
    "contractor": "IV Waste",
    "contractor_action": "Invalid Request",
    "rowid": "1190004",
    "final_x": "3668622.09652",
    "final_y": "556080.06281",
    "longitude": "-90.10790484423518",
    "latitude": "30.023412171857796",
    "geocoded_column": {
      "latitude": "30.023412171857796",
      "longitude": "-90.10790484423518"
    }
  },
  {
    "service_request": "2025-1190003",
    "request_type": "Trash/Recycling",
    "request_reason": "Request a Large Item Pick Up",
    "date_created": "2025-05-06T16:17:30.000",
    "date_modified": "2025-05-06T16:17:31.000",
    "request_status": "Pending",
    "responsible_agency": "Department of Sanitation",
    "final_address": "4924 Paris Ave",
    "address_councildis": "D",
    "status": "Assigned to Contractor",
    "contractor": "IV Waste",
    "rowid": "1190003",
    "final_x": "3679134.68175",
    "final_y": "550546.134804",
    "longitude": "-90.07487932318185",
    "latitude": "30.00788254584537",
    "geocoded_column": {
      "latitude": "30.00788254584537",
      "longitude": "-90.07487932318185"
    }
  },
  {
    "service_request": "2025-1190002",
    "request_type": "Trash/Recycling",
    "request_reason": "Request a Large Item Pick Up",
    "date_created": "2025-05-06T16:16:20.000",
    "date_modified": "2025-05-06T16:16:21.000",
    "request_status": "Pending",
    "responsible_agency": "Department of Sanitation",
    "final_address": "1231 Governor Nicholls St",
    "address_councildis": "C",
    "status": "Assigned to Contractor",
    "contractor": "IV Waste",
    "rowid": "1190002",
    "final_x": "3681998.84098",
    "final_y": "535288.925318",
    "longitude": "-90.06636357295567",
    "latitude": "29.96584378492434",
    "geocoded_column": {
      "latitude": "29.96584378492434",
      "longitude": "-90.06636357295567"
    }
  },
  {
    "service_request": "2025-1190001",
    "request_type": "Trash/Recycling",
    "request_reason": "Request a Large Item Pick Up",
    "date_created": "2025-05-06T16:15:52.000",
    "date_modified": "2025-05-06T16:15:53.000",
    "request_status": "Pending",
    "responsible_agency": "Department of Sanitation",
    "final_address": "1460 Eleonore St",
    "address_councildis": "A",
    "status": "Assigned to Contractor",
    "contractor": "IV Waste",
    "rowid": "1190001",
    "final_x": "3665684.376",
    "final_y": "521546.044345",
    "longitude": "-90.11834451884245",
    "latitude": "29.92854123150544",
    "geocoded_column": {
      "latitude": "29.92854123150544",
      "longitude": "-90.11834451884245"
    }
  },
  {
    "service_request": "2025-1190000",
    "request_type": "Trash/Recycling",
    "request_reason": "Request a Large Item Pick Up",
    "date_created": "2025-05-06T16:14:15.000",
    "date_modified": "2025-05-06T16:14:17.000",
    "request_status": "Pending",
    "responsible_agency": "Department of Sanitation",
    "final_address": "4924 Paris Ave",
    "address_councildis": "D",
    "status": "Assigned to Contractor",
    "contractor": "IV Waste",
    "rowid": "1190000",
    "final_x": "3679134.68175",
    "final_y": "550546.134804",
    "longitude": "-90.07487932318185",
    "latitude": "30.00788254584537",
    "geocoded_column": {
      "latitude": "30.00788254584537",
      "longitude": "-90.07487932318185"
    }
  },
  {
    "service_request": "2025-1189999",
    "request_type": "Drainage",
    "request_reason": "Catch Basin Clogged",
    "date_created": "2025-05-06T16:11:05.000",
    "date_modified": "2025-05-06T16:11:06.000",
    "request_status": "Pending",
    "responsible_agency": "Sewerage & Water Board",
    "final_address": "2228 Hyman Pl",
    "address_councildis": "C",
    "status": "Pending",
    "rowid": "1189999",
    "final_x": "3701147.28209",
    "final_y": "522589.548666",
    "longitude": "-90.00635826581887",
    "latitude": "29.930328914133444",
    "geocoded_column": {
      "latitude": "29.930328914133444",
      "longitude": "-90.00635826581887"
    }
  },
  {
    "service_request": "2025-1189998",
    "request_type": "Drainage",
    "request_reason": "Catch Basin Clogged",
    "date_created": "2025-05-06T16:10:46.000",
    "date_modified": "2025-05-06T16:11:36.000",
    "request_status": "Pending",
    "responsible_agency": "Sewerage & Water Board",
    "final_address": "2018 Bringier St",
    "address_councildis": "C",
    "status": "Pending",
    "rowid": "1189998",
    "final_x": "3691491.87651",
    "final_y": "525212.625405",
    "longitude": "-90.03674505770009",
    "latitude": "29.937845413689963",
    "geocoded_column": {
      "latitude": "29.937845413689963",
      "longitude": "-90.03674505770009"
    }
  },
  {
    "service_request": "2025-1189997",
    "request_type": "Trash/Recycling",
    "request_reason": "Request a Large Item Pick Up",
    "date_created": "2025-05-06T16:08:28.000",
    "date_modified": "2025-05-06T16:08:30.000",
    "request_status": "Pending",
    "responsible_agency": "Department of Sanitation",
    "final_address": "4950 Major Dr",
    "address_councildis": "E",
    "status": "Assigned to Contractor",
    "contractor": "Waste Pro",
    "rowid": "1189997",
    "final_x": "3718055.17106",
    "final_y": "558200.423579",
    "longitude": "-89.95162778419986",
    "latitude": "30.027696037188395",
    "geocoded_column": {
      "latitude": "30.027696037188395",
      "longitude": "-89.95162778419986"
    }
  },
  {
    "service_request": "2025-1189996",
    "request_type": "Drainage",
    "request_reason": "Catch Basin Clogged",
    "date_created": "2025-05-06T16:08:11.000",
    "date_modified": "2025-05-06T16:08:12.000",
    "request_status": "Pending",
    "responsible_agency": "Sewerage & Water Board",
    "final_address": "1800 Old Prieur St",
    "address_councildis": "D",
    "status": "Pending",
    "rowid": "1189996",
    "final_x": "3682056.63311",
    "final_y": "539312.756042",
    "longitude": "-90.06604052743049",
    "latitude": "29.976906171004977",
    "geocoded_column": {
      "latitude": "29.976906171004977",
      "longitude": "-90.06604052743049"
    }
  },
  {
    "service_request": "2025-1189995",
    "request_type": "Drainage",
    "request_reason": "Catch Basin Clogged",
    "date_created": "2025-05-06T16:07:41.000",
    "date_modified": "2025-05-06T16:08:21.000",
    "request_status": "Pending",
    "responsible_agency": "Sewerage & Water Board",
    "final_address": "4325 Touro St",
    "address_councildis": "D",
    "status": "Pending",
    "rowid": "1189995",
    "final_x": "3683290.64348",
    "final_y": "548610.058963",
    "longitude": "-90.0618172914391",
    "latitude": "30.002432875847205",
    "geocoded_column": {
      "latitude": "30.002432875847205",
      "longitude": "-90.0618172914391"
    }
  },
  {
    "service_request": "2025-1189994",
    "request_type": "Trash/Recycling",
    "request_reason": "Order Recycling Cart",
    "date_created": "2025-05-06T16:05:35.000",
    "date_modified": "2025-05-06T16:05:37.000",
    "request_status": "Pending",
    "responsible_agency": "Department of Sanitation",
    "final_address": "4755 Deanne St",
    "address_councildis": "D",
    "status": "Pending",
    "rowid": "1189994",
    "final_x": "3696425.08144",
    "final_y": "554290.996504",
    "longitude": "-90.02011848853518",
    "latitude": "30.01764603028123",
    "geocoded_column": {
      "latitude": "30.01764603028123",
      "longitude": "-90.02011848853518"
    }
  },
  {
    "service_request": "2025-1189993",
    "request_type": "Trash/Recycling",
    "request_reason": "Missed Trash Pick-Up",
    "date_created": "2025-05-06T16:03:30.000",
    "date_modified": "2025-05-06T18:12:39.000",
    "case_close_date": "2025-05-06T13:12:38.000",
    "request_status": "Closed",
    "responsible_agency": "Department of Sanitation",
    "final_address": "41 Crane St",
    "address_councildis": "D",
    "status": "Invalid Request",
    "contractor": "IV Waste",
    "contractor_action": "Invalid Request",
    "rowid": "1189993",
    "final_x": "3672995.29524",
    "final_y": "555032.581721",
    "longitude": "-90.09412222262503",
    "latitude": "30.02040265091282",
    "geocoded_column": {
      "latitude": "30.02040265091282",
      "longitude": "-90.09412222262503"
    }
  },
  {
    "service_request": "2025-1189992",
    "request_type": "Trash/Recycling",
    "request_reason": "Repair Recycling Cart",
    "date_created": "2025-05-06T16:03:15.000",
    "date_modified": "2025-05-06T16:03:17.000",
    "request_status": "Pending",
    "responsible_agency": "Department of Sanitation",
    "final_address": "533 Bermuda St",
    "address_councildis": "C",
    "status": "Pending",
    "rowid": "1189992",
    "final_x": "3686853.41794",
    "final_y": "529946.803073",
    "longitude": "-90.05122177843062",
    "latitude": "29.951006302051873",
    "geocoded_column": {
      "latitude": "29.951006302051873",
      "longitude": "-90.05122177843062"
    }
  },
  {
    "service_request": "2025-1189991",
    "request_type": "Trash/Recycling",
    "request_reason": "Replace Trash Cart",
    "date_created": "2025-05-06T15:57:30.000",
    "date_modified": "2025-05-06T15:57:32.000",
    "request_status": "Pending",
    "responsible_agency": "Department of Sanitation",
    "final_address": "1510 Robert C. Blakes, Sr. Dr",
    "address_councildis": "B",
    "status": "Assigned to Contractor",
    "contractor": "IV Waste",
    "rowid": "1189991",
    "final_x": "3678785.27874",
    "final_y": "525641.540605",
    "longitude": "-90.07684597982491",
    "latitude": "29.93941402785168",
    "geocoded_column": {
      "latitude": "29.93941402785168",
      "longitude": "-90.07684597982491"
    }
  },
  {
    "service_request": "2025-1189990",
    "request_type": "Property Maintenance",
    "request_reason": "Property Maintenance",
    "date_created": "2025-05-06T15:57:13.000",
    "date_modified": "2025-05-06T15:57:15.000",
    "request_status": "Pending",
    "responsible_agency": "Department of Code Enforcement",
    "final_address": "941 Tricou St",
    "address_councildis": "E",
    "status": "Pending",
    "rowid": "1189990",
    "final_x": "3699986.17181",
    "final_y": "532585.119428",
    "longitude": "-90.00965916976523",
    "latitude": "29.957850151639374",
    "geocoded_column": {
      "latitude": "29.957850151639374",
      "longitude": "-90.00965916976523"
    }
  },
  {
    "service_request": "2025-1189989",
    "request_type": "Trash/Recycling",
    "request_reason": "Request a Large Item Pick Up",
    "date_created": "2025-05-06T15:55:52.000",
    "date_modified": "2025-05-06T15:55:55.000",
    "request_status": "Pending",
    "responsible_agency": "Department of Sanitation",
    "final_address": "6711 Dorian St",
    "address_councildis": "D",
    "status": "Assigned to Contractor",
    "contractor": "Waste Pro",
    "rowid": "1189989",
    "final_x": "3696559.24867",
    "final_y": "555911.582169",
    "longitude": "-90.0196358699417",
    "latitude": "30.02209779904845",
    "geocoded_column": {
      "latitude": "30.02209779904845",
      "longitude": "-90.0196358699417"
    }
  },
  {
    "service_request": "2025-1189987",
    "request_type": "Trash/Recycling",
    "request_reason": "Request a Large Item Pick Up",
    "date_created": "2025-05-06T15:54:15.000",
    "date_modified": "2025-05-06T15:54:16.000",
    "request_status": "Pending",
    "responsible_agency": "Department of Sanitation",
    "final_address": "1524 Euterpe St",
    "address_councildis": "B",
    "status": "Assigned to Contractor",
    "contractor": "IV Waste",
    "rowid": "1189987",
    "final_x": "3679110.07138",
    "final_y": "524831.1879",
    "longitude": "-90.075848643482",
    "latitude": "29.937176028726743",
    "geocoded_column": {
      "latitude": "29.937176028726743",
      "longitude": "-90.075848643482"
    }
  },
  {
    "service_request": "2025-1189986",
    "request_type": "Trash/Recycling",
    "request_reason": "Request a Large Item Pick Up",
    "date_created": "2025-05-06T15:52:54.000",
    "date_modified": "2025-05-06T15:52:56.000",
    "request_status": "Pending",
    "responsible_agency": "Department of Sanitation",
    "final_address": "6025 Coliseum St",
    "address_councildis": "A",
    "status": "Assigned to Contractor",
    "contractor": "IV Waste",
    "rowid": "1189986",
    "final_x": "3664796.34074",
    "final_y": "520310.32268",
    "longitude": "-90.12118913565936",
    "latitude": "29.92516924769698",
    "geocoded_column": {
      "latitude": "29.92516924769698",
      "longitude": "-90.12118913565936"
    }
  },
  {
    "service_request": "2025-1189985",
    "request_type": "Trash/Recycling",
    "request_reason": "Request a Large Item Pick Up",
    "date_created": "2025-05-06T15:51:35.000",
    "date_modified": "2025-05-06T15:51:37.000",
    "request_status": "Pending",
    "responsible_agency": "Department of Sanitation",
    "final_address": "5410 Chamberlain Dr",
    "address_councildis": "D",
    "status": "Assigned to Contractor",
    "contractor": "IV Waste",
    "rowid": "1189985",
    "final_x": "3679380.44648",
    "final_y": "552365.53039",
    "longitude": "-90.07403970770059",
    "latitude": "30.01287780534851",
    "geocoded_column": {
      "latitude": "30.01287780534851",
      "longitude": "-90.07403970770059"
    }
  },
  {
    "service_request": "2025-1189984",
    "request_type": "Trash/Recycling",
    "request_reason": "Damaged Caused By Contractor",
    "date_created": "2025-05-06T15:48:39.000",
    "date_modified": "2025-05-06T15:48:42.000",
    "request_status": "Pending",
    "responsible_agency": "Department of Sanitation",
    "final_address": "4920 Camp St",
    "address_councildis": "B",
    "status": "Assigned to Contractor",
    "contractor": "IV Waste",
    "rowid": "1189984",
    "final_x": "3668829.47758",
    "final_y": "518888.438583",
    "longitude": "-90.10850574963433",
    "latitude": "29.921141585271084",
    "geocoded_column": {
      "latitude": "29.921141585271084",
      "longitude": "-90.10850574963433"
    }
  },
  {
    "service_request": "2025-1189983",
    "request_type": "Drainage",
    "request_reason": "Street Flooding",
    "date_created": "2025-05-06T15:47:49.000",
    "date_modified": "2025-05-06T15:47:52.000",
    "request_status": "Pending",
    "responsible_agency": "Sewerage & Water Board",
    "final_address": "5888 Marcia Ave",
    "address_councildis": "A",
    "status": "Pending",
    "rowid": "1189983",
    "final_x": "3664723.65696",
    "final_y": "547009.738513",
    "longitude": "-90.12052650292928",
    "latitude": "29.998585998170707",
    "geocoded_column": {
      "latitude": "29.998585998170707",
      "longitude": "-90.12052650292928"
    }
  },
  {
    "service_request": "2025-1189982",
    "request_type": "Drainage",
    "request_reason": "Catch Basin Damaged",
    "date_created": "2025-05-06T15:45:21.000",
    "date_modified": "2025-05-06T15:45:22.000",
    "request_status": "Pending",
    "responsible_agency": "Sewerage & Water Board",
    "final_address": "12301 Six Flags Prkwy",
    "address_councildis": "E",
    "status": "Pending",
    "rowid": "1189982",
    "final_x": "3723545.58534",
    "final_y": "567766.645412",
    "longitude": "-89.93390954575591",
    "latitude": "30.05381602307878",
    "geocoded_column": {
      "latitude": "30.05381602307878",
      "longitude": "-89.93390954575591"
    }
  },
  {
    "service_request": "2025-1189981",
    "request_type": "Street and Traffic Signs",
    "request_reason": "Additional Signage Request",
    "date_created": "2025-05-06T15:41:15.000",
    "date_modified": "2025-05-06T15:41:16.000",
    "request_status": "Pending",
    "responsible_agency": "Department of Public Works",
    "final_address": "2130 Perdido St",
    "address_councildis": "B",
    "status": "Pending",
    "rowid": "1189981",
    "final_x": "3675609.30229",
    "final_y": "531912.165187",
    "longitude": "-90.08665757097846",
    "latitude": "29.956751546943305",
    "geocoded_column": {
      "latitude": "29.956751546943305",
      "longitude": "-90.08665757097846"
    }
  },
  {
    "service_request": "2025-1189980",
    "request_type": "Trash/Recycling",
    "request_reason": "Order Second Trash Cart",
    "date_created": "2025-05-06T15:41:03.000",
    "date_modified": "2025-05-06T15:41:04.000",
    "request_status": "Pending",
    "responsible_agency": "Department of Sanitation",
    "final_address": "4743 Redwood St",
    "address_councildis": "E",
    "status": "Assigned to Contractor",
    "contractor": "Waste Pro",
    "rowid": "1189980",
    "final_x": "3712564.0067",
    "final_y": "556184.875226",
    "longitude": "-89.96905510617383",
    "latitude": "30.022334997850134",
    "geocoded_column": {
      "latitude": "30.022334997850134",
      "longitude": "-89.96905510617383"
    }
  },
  {
    "service_request": "2025-1189979",
    "request_type": "Roads and Streets",
    "request_reason": "Pothole",
    "date_created": "2025-05-06T15:38:36.000",
    "date_modified": "2025-05-06T15:38:38.000",
    "request_status": "Pending",
    "responsible_agency": "Department of Public Works",
    "final_address": "9999 Lake Forest Blvd",
    "address_councildis": "E",
    "status": "Pending",
    "rowid": "1189979",
    "final_x": "3710976.71409",
    "final_y": "560035.412509",
    "longitude": "-89.97392616951281",
    "latitude": "30.032974325442808",
    "geocoded_column": {
      "latitude": "30.032974325442808",
      "longitude": "-89.97392616951281"
    }
  },
  {
    "service_request": "2025-1189978",
    "request_type": "Street and Traffic Signs",
    "request_reason": "Traffic or Parking Sign Damaged or Missing",
    "date_created": "2025-05-06T15:36:06.000",
    "date_modified": "2025-05-06T15:50:46.000",
    "request_status": "Pending",
    "responsible_agency": "Department of Public Works",
    "final_address": "5900 Alfred St",
    "address_councildis": "D",
    "status": "Pending",
    "rowid": "1189978",
    "final_x": "3677094.92488",
    "final_y": "553967.891032",
    "longitude": "-90.08120539661627",
    "latitude": "30.017352588562474",
    "geocoded_column": {
      "latitude": "30.017352588562474",
      "longitude": "-90.08120539661627"
    }
  },
  {
    "service_request": "2025-1189977",
    "request_type": "Health Related Request",
    "request_reason": "Noise Ordinance Complaint",
    "date_created": "2025-05-06T15:33:26.000",
    "date_modified": "2025-05-06T15:33:27.000",
    "request_status": "Pending",
    "responsible_agency": "Health Department",
    "final_address": "1511 S Rendon St",
    "address_councildis": "B",
    "status": "Pending",
    "rowid": "1189977",
    "final_x": "3669882.2363",
    "final_y": "531210.702274",
    "longitude": "-90.10476561032844",
    "latitude": "29.954992845577344",
    "geocoded_column": {
      "latitude": "29.954992845577344",
      "longitude": "-90.10476561032844"
    }
  },
  {
    "service_request": "2025-1189976",
    "request_type": "Trash/Recycling",
    "request_reason": "Order Recycling Cart",
    "date_created": "2025-05-06T15:32:02.000",
    "date_modified": "2025-05-06T15:32:04.000",
    "request_status": "Pending",
    "responsible_agency": "Department of Sanitation",
    "final_address": "429 S Genois St",
    "address_councildis": "B",
    "status": "Pending",
    "rowid": "1189976",
    "final_x": "3671623.84583",
    "final_y": "535981.045959",
    "longitude": "-90.09910400084739",
    "latitude": "29.968058240244954",
    "geocoded_column": {
      "latitude": "29.968058240244954",
      "longitude": "-90.09910400084739"
    }
  },
  {
    "service_request": "2025-1189975",
    "request_type": "Trash/Recycling",
    "request_reason": "Order Trash Cart",
    "date_created": "2025-05-06T15:30:14.000",
    "date_modified": "2025-05-06T15:30:16.000",
    "request_status": "Pending",
    "responsible_agency": "Department of Sanitation",
    "final_address": "90 Fontainebleau Dr",
    "address_councildis": "A",
    "status": "Assigned to Contractor",
    "contractor": "IV Waste",
    "rowid": "1189975",
    "final_x": "3667044.72845",
    "final_y": "530566.716546",
    "longitude": "-90.1137470690836",
    "latitude": "29.953305445184142",
    "geocoded_column": {
      "latitude": "29.953305445184142",
      "longitude": "-90.1137470690836"
    }
  },
  {
    "service_request": "2025-1189974",
    "request_type": "Drainage",
    "request_reason": "Catch Basin Clogged",
    "date_created": "2025-05-06T15:28:05.000",
    "date_modified": "2025-05-06T15:28:06.000",
    "request_status": "Pending",
    "responsible_agency": "Sewerage & Water Board",
    "final_address": "834 Dublin St",
    "address_councildis": "A",
    "status": "Pending",
    "rowid": "1189974",
    "final_x": "3660910.32352",
    "final_y": "527803.813183",
    "longitude": "-90.1332083645921",
    "latitude": "29.94588645126366",
    "geocoded_column": {
      "latitude": "29.94588645126366",
      "longitude": "-90.1332083645921"
    }
  },
  {
    "service_request": "2025-1189973",
    "request_type": "Trash/Recycling",
    "request_reason": "Request a Large Item Pick Up",
    "date_created": "2025-05-06T15:28:02.000",
    "date_modified": "2025-05-06T15:28:04.000",
    "request_status": "Pending",
    "responsible_agency": "Department of Sanitation",
    "final_address": "7522 Alabama St",
    "address_councildis": "D",
    "status": "Assigned to Contractor",
    "contractor": "Waste Pro",
    "rowid": "1189973",
    "final_x": "3694945.10384",
    "final_y": "558217.087516",
    "longitude": "-90.02465293631312",
    "latitude": "30.028487850189045",
    "geocoded_column": {
      "latitude": "30.028487850189045",
      "longitude": "-90.02465293631312"
    }
  },
  {
    "service_request": "2025-1189972",
    "request_type": "Trash/Recycling",
    "request_reason": "Request a Large Item Pick Up",
    "date_created": "2025-05-06T15:26:12.000",
    "date_modified": "2025-05-06T15:26:14.000",
    "request_status": "Pending",
    "responsible_agency": "Department of Sanitation",
    "final_address": "7441 Scottsdale Dr",
    "address_councildis": "E",
    "status": "Assigned to Contractor",
    "contractor": "Waste Pro",
    "rowid": "1189972",
    "final_x": "3704242.54244",
    "final_y": "561849.205663",
    "longitude": "-89.9951396745282",
    "latitude": "30.038179501986388",
    "geocoded_column": {
      "latitude": "30.038179501986388",
      "longitude": "-89.9951396745282"
    }
  },
  {
    "service_request": "2025-1189971",
    "request_type": "Trash/Recycling",
    "request_reason": "Order Recycling Cart",
    "date_created": "2025-05-06T15:24:54.000",
    "date_modified": "2025-05-06T15:24:56.000",
    "request_status": "Pending",
    "responsible_agency": "Department of Sanitation",
    "final_address": "1207 Marigny St",
    "address_councildis": "C",
    "status": "Pending",
    "rowid": "1189971",
    "final_x": "3685415.10325",
    "final_y": "536787.408584",
    "longitude": "-90.05552237690524",
    "latitude": "29.96985978584301",
    "geocoded_column": {
      "latitude": "29.96985978584301",
      "longitude": "-90.05552237690524"
    }
  },
  {
    "service_request": "2025-1189970",
    "request_type": "Abandoned Vehicles",
    "request_reason": "Abandoned/Junk Vehicles",
    "date_created": "2025-05-06T15:22:08.000",
    "date_modified": "2025-05-06T15:22:10.000",
    "request_status": "Pending",
    "responsible_agency": "Department of Public Works",
    "final_address": "2700 BLK Abundance St",
    "address_councildis": "D",
    "status": "Pending",
    "rowid": "1189970",
    "final_x": "3688221.97588",
    "final_y": "543971.467947",
    "longitude": "-90.04640321740617",
    "latitude": "29.989527037112534",
    "geocoded_column": {
      "latitude": "29.989527037112534",
      "longitude": "-90.04640321740617"
    }
  },
  {
    "service_request": "2025-1189969",
    "request_type": "Abandoned Vehicles",
    "request_reason": "Abandoned/Junk Vehicles",
    "date_created": "2025-05-06T15:19:12.000",
    "date_modified": "2025-05-06T15:19:14.000",
    "request_status": "Pending",
    "responsible_agency": "Department of Public Works",
    "final_address": "7728 Plum St",
    "address_councildis": "A",
    "status": "Pending",
    "rowid": "1189969",
    "final_x": "3663079.25248",
    "final_y": "527781.895167",
    "longitude": "-90.12636102356754",
    "latitude": "29.945763541728354",
    "geocoded_column": {
      "latitude": "29.945763541728354",
      "longitude": "-90.12636102356754"
    }
  },
  {
    "service_request": "2025-1189968",
    "request_type": "Trash/Recycling",
    "request_reason": "Request a Large Item Pick Up",
    "date_created": "2025-05-06T15:18:52.000",
    "date_modified": "2025-05-06T15:18:54.000",
    "request_status": "Pending",
    "responsible_agency": "Department of Sanitation",
    "final_address": "11299 Midpoint Dr",
    "address_councildis": "E",
    "status": "Assigned to Contractor",
    "contractor": "Waste Pro",
    "rowid": "1189968",
    "final_x": "3718522.94738",
    "final_y": "559684.433053",
    "longitude": "-89.95009305512761",
    "latitude": "30.031760948250856",
    "geocoded_column": {
      "latitude": "30.031760948250856",
      "longitude": "-89.95009305512761"
    }
  },
  {
    "service_request": "2025-1189967",
    "request_type": "Street and Traffic Signs",
    "request_reason": "Additional Signage Request",
    "date_created": "2025-05-06T15:18:23.000",
    "date_modified": "2025-05-06T15:18:24.000",
    "request_status": "Pending",
    "responsible_agency": "Department of Public Works",
    "final_address": "PAUGER ST & SERE ST",
    "address_councildis": "D",
    "status": "Pending",
    "rowid": "1189967",
    "final_x": "3683090.6",
    "final_y": "545786.88",
    "longitude": "-90.06254816615547",
    "latitude": "29.994676245810982",
    "geocoded_column": {
      "latitude": "29.994676245810982",
      "longitude": "-90.06254816615547"
    }
  },
  {
    "service_request": "2025-1189966",
    "request_type": "Safety & Permits",
    "request_reason": "Zoning Enforcement",
    "date_created": "2025-05-06T15:17:25.000",
    "date_modified": "2025-05-06T15:17:27.000",
    "request_status": "Pending",
    "responsible_agency": "Safety and Permits",
    "final_address": "PAUGER ST & SERE ST",
    "address_councildis": "D",
    "status": "Pending",
    "rowid": "1189966",
    "final_x": "3683090.6",
    "final_y": "545786.88",
    "longitude": "-90.06254816615547",
    "latitude": "29.994676245810982",
    "geocoded_column": {
      "latitude": "29.994676245810982",
      "longitude": "-90.06254816615547"
    }
  },
  {
    "service_request": "2025-1189965",
    "request_type": "Parks & Parkways",
    "request_reason": "Request Tree Service (Right of Way/Public Property)",
    "date_created": "2025-05-06T15:16:35.000",
    "date_modified": "2025-05-06T15:16:38.000",
    "request_status": "Pending",
    "responsible_agency": "Department of Parks & Parkway",
    "final_address": "PAUGER ST & SERE ST",
    "address_councildis": "D",
    "status": "Pending",
    "rowid": "1189965",
    "final_x": "3683090.6",
    "final_y": "545786.88",
    "longitude": "-90.06254816615547",
    "latitude": "29.994676245810982",
    "geocoded_column": {
      "latitude": "29.994676245810982",
      "longitude": "-90.06254816615547"
    }
  },
  {
    "service_request": "2025-1189964",
    "request_type": "Trash/Recycling",
    "request_reason": "Request a Large Item Pick Up",
    "date_created": "2025-05-06T15:14:39.000",
    "date_modified": "2025-05-06T15:14:40.000",
    "request_status": "Pending",
    "responsible_agency": "Department of Sanitation",
    "final_address": "10321 Brookfield Dr",
    "address_councildis": "E",
    "status": "Assigned to Contractor",
    "contractor": "Waste Pro",
    "rowid": "1189964",
    "final_x": "3710483.0236",
    "final_y": "563227.483936",
    "longitude": "-89.97536671587568",
    "latitude": "30.04176734543833",
    "geocoded_column": {
      "latitude": "30.04176734543833",
      "longitude": "-89.97536671587568"
    }
  },
  {
    "service_request": "2025-1189963",
    "request_type": "Trash/Recycling",
    "request_reason": "Replace Trash Cart",
    "date_created": "2025-05-06T15:09:43.000",
    "date_modified": "2025-05-06T15:09:45.000",
    "request_status": "Pending",
    "responsible_agency": "Department of Sanitation",
    "final_address": "1802 Tita St",
    "address_councildis": "C",
    "status": "Assigned to Contractor",
    "contractor": "Richards Disposal",
    "rowid": "1189963",
    "final_x": "3695648.3023",
    "final_y": "524692.54278",
    "longitude": "-90.0236417164989",
    "latitude": "29.936285387456444",
    "geocoded_column": {
      "latitude": "29.936285387456444",
      "longitude": "-90.0236417164989"
    }
  },
  {
    "service_request": "2025-1189962",
    "request_type": "Trash/Recycling",
    "request_reason": "Request a Large Item Pick Up",
    "date_created": "2025-05-06T15:08:16.000",
    "date_modified": "2025-05-06T15:08:18.000",
    "request_status": "Pending",
    "responsible_agency": "Department of Sanitation",
    "final_address": "7813 Shamrock Dr",
    "address_councildis": "E",
    "status": "Assigned to Contractor",
    "contractor": "Waste Pro",
    "rowid": "1189962",
    "final_x": "3718789.30316",
    "final_y": "572621.253929",
    "longitude": "-89.94875738273981",
    "latitude": "30.067323036971608",
    "geocoded_column": {
      "latitude": "30.067323036971608",
      "longitude": "-89.94875738273981"
    }
  },
  {
    "service_request": "2025-1189961",
    "request_type": "Drainage",
    "request_reason": "Catch Basin Clogged",
    "date_created": "2025-05-06T15:06:21.000",
    "date_modified": "2025-05-06T15:06:22.000",
    "request_status": "Pending",
    "responsible_agency": "Sewerage & Water Board",
    "final_address": "6139 N Rampart St",
    "address_councildis": "E",
    "status": "Pending",
    "rowid": "1189961",
    "final_x": "3699641.41008",
    "final_y": "532809.82394",
    "longitude": "-90.01073963189948",
    "latitude": "29.958478955646143",
    "geocoded_column": {
      "latitude": "29.958478955646143",
      "longitude": "-90.01073963189948"
    }
  },
  {
    "service_request": "2025-1189960",
    "request_type": "Roads and Streets",
    "request_reason": "Pothole",
    "date_created": "2025-05-06T15:05:35.000",
    "date_modified": "2025-05-06T15:05:36.000",
    "request_status": "Pending",
    "responsible_agency": "Department of Public Works",
    "final_address": "3900 BLK N Johnson St",
    "address_councildis": "D",
    "status": "Pending",
    "rowid": "1189960",
    "final_x": "3692487.80462",
    "final_y": "538725.170041",
    "longitude": "-90.03311676809803",
    "latitude": "29.974969173321195",
    "geocoded_column": {
      "latitude": "29.974969173321195",
      "longitude": "-90.03311676809803"
    }
  },
  {
    "service_request": "2025-1189959",
    "request_type": "Trash/Recycling",
    "request_reason": "Request a Large Item Pick Up",
    "date_created": "2025-05-06T15:02:13.000",
    "date_modified": "2025-05-06T15:02:15.000",
    "request_status": "Pending",
    "responsible_agency": "Department of Sanitation",
    "final_address": "5010 E St Andrews Cir",
    "address_councildis": "E",
    "status": "Assigned to Contractor",
    "contractor": "Waste Pro",
    "rowid": "1189959",
    "final_x": "3719893.96454",
    "final_y": "559874.545053",
    "longitude": "-89.94575334676105",
    "latitude": "30.032238099939566",
    "geocoded_column": {
      "latitude": "30.032238099939566",
      "longitude": "-89.94575334676105"
    }
  },
  {
    "service_request": "2025-1189958",
    "request_type": "Roads and Streets",
    "request_reason": "Pothole",
    "date_created": "2025-05-06T15:02:00.000",
    "date_modified": "2025-05-06T15:02:02.000",
    "request_status": "Pending",
    "responsible_agency": "Department of Public Works",
    "final_address": "3900 BLK N Johnson St",
    "address_councildis": "D",
    "status": "Pending",
    "rowid": "1189958",
    "final_x": "3692487.80462",
    "final_y": "538725.170041",
    "longitude": "-90.03311676809803",
    "latitude": "29.974969173321195",
    "geocoded_column": {
      "latitude": "29.974969173321195",
      "longitude": "-90.03311676809803"
    }
  },
  {
    "service_request": "2025-1189957",
    "request_type": "Trash/Recycling",
    "request_reason": "Request a Large Item Pick Up",
    "date_created": "2025-05-06T15:00:47.000",
    "date_modified": "2025-05-06T15:00:49.000",
    "request_status": "Pending",
    "responsible_agency": "Department of Sanitation",
    "final_address": "1507 Baronne St",
    "address_councildis": "B",
    "status": "Assigned to Contractor",
    "contractor": "IV Waste",
    "rowid": "1189957",
    "final_x": "3678341.81627",
    "final_y": "525964.415229",
    "longitude": "-90.07823488381104",
    "latitude": "29.940315190114",
    "geocoded_column": {
      "latitude": "29.940315190114",
      "longitude": "-90.07823488381104"
    }
  },
  {
    "service_request": "2025-1189956",
    "request_type": "Roads and Streets",
    "request_reason": "ADA Ramps Damaged or Missing",
    "date_created": "2025-05-06T14:58:03.000",
    "date_modified": "2025-05-06T14:58:05.000",
    "request_status": "Pending",
    "responsible_agency": "Department of Public Works",
    "final_address": "3601 Texas Dr",
    "address_councildis": "C",
    "status": "Pending",
    "rowid": "1189956",
    "final_x": "3696443.17898",
    "final_y": "518476.518774",
    "longitude": "-90.02135697321798",
    "latitude": "29.91916843843383",
    "geocoded_column": {
      "latitude": "29.91916843843383",
      "longitude": "-90.02135697321798"
    }
  },
  {
    "service_request": "2025-1189955",
    "request_type": "Trash/Recycling",
    "request_reason": "Request a Large Item Pick Up",
    "date_created": "2025-05-06T14:56:38.000",
    "date_modified": "2025-05-06T14:56:40.000",
    "request_status": "Pending",
    "responsible_agency": "Department of Sanitation",
    "final_address": "2750 Edna St",
    "address_councildis": "D",
    "status": "Assigned to Contractor",
    "contractor": "IV Waste",
    "rowid": "1189955",
    "final_x": "3689799.80515",
    "final_y": "545267.516751",
    "longitude": "-90.04137315837106",
    "latitude": "29.99304188316363",
    "geocoded_column": {
      "latitude": "29.99304188316363",
      "longitude": "-90.04137315837106"
    }
  },
  {
    "service_request": "2025-1189954",
    "request_type": "Trash/Recycling",
    "request_reason": "Order Recycling Cart",
    "date_created": "2025-05-06T14:56:34.000",
    "date_modified": "2025-05-06T14:56:36.000",
    "request_status": "Pending",
    "responsible_agency": "Department of Sanitation",
    "final_address": "1527 Baronne St",
    "address_councildis": "B",
    "status": "Pending",
    "rowid": "1189954",
    "final_x": "3678265.31586",
    "final_y": "525836.314685",
    "longitude": "-90.07848083699317",
    "latitude": "29.939965259827677",
    "geocoded_column": {
      "latitude": "29.939965259827677",
      "longitude": "-90.07848083699317"
    }
  },
  {
    "service_request": "2025-1189953",
    "request_type": "Health Related Request",
    "request_reason": "Noise Ordinance Complaint",
    "date_created": "2025-05-06T14:56:33.000",
    "date_modified": "2025-05-06T14:56:34.000",
    "request_status": "Pending",
    "responsible_agency": "Health Department",
    "final_address": "0 S Rocheblave St",
    "address_councildis": "B",
    "status": "Pending",
    "rowid": "1189953",
    "final_x": "3675612.38913",
    "final_y": "534094.616005",
    "longitude": "-90.0865728392052",
    "latitude": "29.96275246141173",
    "geocoded_column": {
      "latitude": "29.96275246141173",
      "longitude": "-90.0865728392052"
    }
  },
  {
    "service_request": "2025-1189952",
    "request_type": "Trash/Recycling",
    "request_reason": "Order Second Trash Cart",
    "date_created": "2025-05-06T14:54:52.000",
    "date_modified": "2025-05-06T14:54:54.000",
    "request_status": "Pending",
    "responsible_agency": "Department of Sanitation",
    "final_address": "1527 Baronne St",
    "address_councildis": "B",
    "status": "Assigned to Contractor",
    "contractor": "IV Waste",
    "rowid": "1189952",
    "final_x": "3678265.31586",
    "final_y": "525836.314685",
    "longitude": "-90.07848083699317",
    "latitude": "29.939965259827677",
    "geocoded_column": {
      "latitude": "29.939965259827677",
      "longitude": "-90.07848083699317"
    }
  },
  {
    "service_request": "2025-1189951",
    "request_type": "Trash/Recycling",
    "request_reason": "Order Trash Cart",
    "date_created": "2025-05-06T14:52:37.000",
    "date_modified": "2025-05-06T14:52:38.000",
    "request_status": "Pending",
    "responsible_agency": "Department of Sanitation",
    "final_address": "1527 Baronne St",
    "address_councildis": "B",
    "status": "Assigned to Contractor",
    "contractor": "IV Waste",
    "rowid": "1189951",
    "final_x": "3678265.31586",
    "final_y": "525836.314685",
    "longitude": "-90.07848083699317",
    "latitude": "29.939965259827677",
    "geocoded_column": {
      "latitude": "29.939965259827677",
      "longitude": "-90.07848083699317"
    }
  },
  {
    "service_request": "2025-1189950",
    "request_type": "Trash/Recycling",
    "request_reason": "Illegal Dumping",
    "date_created": "2025-05-06T14:49:12.000",
    "date_modified": "2025-05-06T14:49:13.000",
    "request_status": "Pending",
    "responsible_agency": "Department of Sanitation",
    "final_address": "801 N Claiborne Ave",
    "address_councildis": "D",
    "status": "Pending",
    "rowid": "1189950",
    "final_x": "3679894.71797",
    "final_y": "535006.160966",
    "longitude": "-90.07301814508043",
    "latitude": "29.965130084099094",
    "geocoded_column": {
      "latitude": "29.965130084099094",
      "longitude": "-90.07301814508043"
    }
  },
  {
    "service_request": "2025-1189949",
    "request_type": "Roads and Streets",
    "request_reason": "Pothole",
    "date_created": "2025-05-06T14:48:35.000",
    "date_modified": "2025-05-06T14:48:37.000",
    "request_status": "Pending",
    "responsible_agency": "Department of Public Works",
    "final_address": "3900 BLK N Johnson St",
    "address_councildis": "D",
    "status": "Pending",
    "rowid": "1189949",
    "final_x": "3692487.80462",
    "final_y": "538725.170041",
    "longitude": "-90.03311676809803",
    "latitude": "29.974969173321195",
    "geocoded_column": {
      "latitude": "29.974969173321195",
      "longitude": "-90.03311676809803"
    }
  },
  {
    "service_request": "2025-1189948",
    "request_type": "Healthy Homes",
    "request_reason": "Healthy Homes",
    "date_created": "2025-05-06T14:44:44.000",
    "date_modified": "2025-05-06T14:46:28.000",
    "request_status": "Pending",
    "responsible_agency": "Department of Code Enforcement",
    "final_address": "3428 S Galvez St",
    "address_councildis": "B",
    "status": "Pending",
    "rowid": "1189948",
    "final_x": "3671459.75188",
    "final_y": "527658.723391",
    "longitude": "-90.09990512923687",
    "latitude": "29.945179468887602",
    "geocoded_column": {
      "latitude": "29.945179468887602",
      "longitude": "-90.09990512923687"
    }
  },
  {
    "service_request": "2025-1189947",
    "request_type": "Trash/Recycling",
    "request_reason": "Order Trash Cart",
    "date_created": "2025-05-06T14:41:45.000",
    "date_modified": "2025-05-06T14:41:47.000",
    "request_status": "Pending",
    "responsible_agency": "Department of Sanitation",
    "final_address": "3433 LaSalle St",
    "address_councildis": "B",
    "status": "Assigned to Contractor",
    "contractor": "IV Waste",
    "rowid": "1189947",
    "final_x": "3672783.88244",
    "final_y": "524072.308604",
    "longitude": "-90.09584671691552",
    "latitude": "29.935278739065275",
    "geocoded_column": {
      "latitude": "29.935278739065275",
      "longitude": "-90.09584671691552"
    }
  },
  {
    "service_request": "2025-1189946",
    "request_type": "Trash/Recycling",
    "request_reason": "Request a Large Item Pick Up",
    "date_created": "2025-05-06T14:40:34.000",
    "date_modified": "2025-05-06T14:40:36.000",
    "request_status": "Pending",
    "responsible_agency": "Department of Sanitation",
    "final_address": "8709 Stroelitz St",
    "address_councildis": "A",
    "status": "Assigned to Contractor",
    "contractor": "IV Waste",
    "rowid": "1189946",
    "final_x": "3666350.84493",
    "final_y": "536467.127175",
    "longitude": "-90.11574008699941",
    "latitude": "29.969549922699667",
    "geocoded_column": {
      "latitude": "29.969549922699667",
      "longitude": "-90.11574008699941"
    }
  },
  {
    "service_request": "2025-1189945",
    "request_type": "Trash/Recycling",
    "request_reason": "Order Trash Cart",
    "date_created": "2025-05-06T14:39:39.000",
    "date_modified": "2025-05-06T14:39:42.000",
    "request_status": "Pending",
    "responsible_agency": "Department of Sanitation",
    "final_address": "8709 Stroelitz St",
    "address_councildis": "A",
    "status": "Assigned to Contractor",
    "contractor": "IV Waste",
    "rowid": "1189945",
    "final_x": "3666350.84493",
    "final_y": "536467.127175",
    "longitude": "-90.11574008699941",
    "latitude": "29.969549922699667",
    "geocoded_column": {
      "latitude": "29.969549922699667",
      "longitude": "-90.11574008699941"
    }
  },
  {
    "service_request": "2025-1189944",
    "request_type": "Trash/Recycling",
    "request_reason": "Request a Large Item Pick Up",
    "date_created": "2025-05-06T14:34:46.000",
    "date_modified": "2025-05-06T14:34:48.000",
    "request_status": "Pending",
    "responsible_agency": "Department of Sanitation",
    "final_address": "1312 Behrman Ave",
    "address_councildis": "C",
    "status": "Assigned to Contractor",
    "contractor": "Richards Disposal",
    "rowid": "1189944",
    "final_x": "3691443.54531",
    "final_y": "526515.38195",
    "longitude": "-90.03685110646427",
    "latitude": "29.94142905295197",
    "geocoded_column": {
      "latitude": "29.94142905295197",
      "longitude": "-90.03685110646427"
    }
  },
  {
    "service_request": "2025-1189943",
    "request_type": "Trash/Recycling",
    "request_reason": "Repair Trash Cart",
    "date_created": "2025-05-06T14:33:03.000",
    "date_modified": "2025-05-06T14:33:05.000",
    "request_status": "Pending",
    "responsible_agency": "Department of Sanitation",
    "final_address": "7802 Duke Ct",
    "address_councildis": "E",
    "status": "Assigned to Contractor",
    "contractor": "Waste Pro",
    "rowid": "1189943",
    "final_x": "3700027.60912",
    "final_y": "561064.541022",
    "longitude": "-90.00848853757032",
    "latitude": "30.03615665598718",
    "geocoded_column": {
      "latitude": "30.03615665598718",
      "longitude": "-90.00848853757032"
    }
  },
  {
    "service_request": "2025-1189942",
    "request_type": "Property Maintenance",
    "request_reason": "Property Maintenance",
    "date_created": "2025-05-06T14:32:01.000",
    "date_modified": "2025-05-06T15:11:00.000",
    "case_close_date": "2025-05-06T10:11:00.000",
    "request_status": "Closed",
    "responsible_agency": "Department of Code Enforcement",
    "final_address": "5722 Peoples Ave",
    "address_councildis": "D",
    "status": "Referred to Code Enforcement",
    "rowid": "1189942",
    "final_x": "3687848.49372",
    "final_y": "554392.691928",
    "longitude": "-90.04721346259635",
    "latitude": "30.018193138472505",
    "geocoded_column": {
      "latitude": "30.018193138472505",
      "longitude": "-90.04721346259635"
    }
  },
  {
    "service_request": "2025-1189941",
    "request_type": "Trash/Recycling",
    "request_reason": "Illegal Dumping",
    "date_created": "2025-05-06T14:31:30.000",
    "date_modified": "2025-05-06T15:58:28.000",
    "request_status": "Pending",
    "responsible_agency": "Department of Code Enforcement",
    "final_address": "9671 Chef Menteur Hwy",
    "address_councildis": "E",
    "status": "Pending",
    "rowid": "1189941",
    "final_x": "3711145.28248",
    "final_y": "554883.066072",
    "longitude": "-89.97358669647859",
    "latitude": "30.01880190234258",
    "geocoded_column": {
      "latitude": "30.01880190234258",
      "longitude": "-89.97358669647859"
    }
  },
  {
    "service_request": "2025-1189940",
    "request_type": "Trash/Recycling",
    "request_reason": "Order Trash Cart",
    "date_created": "2025-05-06T14:29:51.000",
    "date_modified": "2025-05-06T14:29:52.000",
    "request_status": "Pending",
    "responsible_agency": "Department of Sanitation",
    "final_address": "6535 Dwyer Rd",
    "address_councildis": "E",
    "status": "Assigned to Contractor",
    "contractor": "Waste Pro",
    "rowid": "1189940",
    "final_x": "3698732.97668",
    "final_y": "555535.020057",
    "longitude": "-90.01278118993862",
    "latitude": "30.020993692297825",
    "geocoded_column": {
      "latitude": "30.020993692297825",
      "longitude": "-90.01278118993862"
    }
  },
  {
    "service_request": "2025-1189939",
    "request_type": "Drainage",
    "request_reason": "Catch Basin Clogged",
    "date_created": "2025-05-06T14:25:38.000",
    "date_modified": "2025-05-06T14:25:40.000",
    "request_status": "Pending",
    "responsible_agency": "Sewerage & Water Board",
    "final_address": "PLEASANT ST & CAMP ST",
    "address_councildis": "B",
    "status": "Pending",
    "rowid": "1189939",
    "final_x": "3675385.0",
    "final_y": "520201.48",
    "longitude": "-90.0877678159675",
    "latitude": "29.92455771742885",
    "geocoded_column": {
      "latitude": "29.92455771742885",
      "longitude": "-90.0877678159675"
    }
  },
  {
    "service_request": "2025-1189938",
    "request_type": "Trash/Recycling",
    "request_reason": "Request a Large Item Pick Up",
    "date_created": "2025-05-06T14:23:58.000",
    "date_modified": "2025-05-06T14:24:00.000",
    "request_status": "Pending",
    "responsible_agency": "Department of Sanitation",
    "final_address": "4745 Cardenas Dr",
    "address_councildis": "E",
    "status": "Assigned to Contractor",
    "contractor": "Waste Pro",
    "rowid": "1189938",
    "final_x": "3713750.21451",
    "final_y": "556394.823898",
    "longitude": "-89.9652990993926",
    "latitude": "30.022873386375604",
    "geocoded_column": {
      "latitude": "30.022873386375604",
      "longitude": "-89.9652990993926"
    }
  },
  {
    "service_request": "2025-1189937",
    "request_type": "Trash/Recycling",
    "request_reason": "Request a Large Item Pick Up",
    "date_created": "2025-05-06T14:22:31.000",
    "date_modified": "2025-05-06T14:22:32.000",
    "request_status": "Pending",
    "responsible_agency": "Department of Sanitation",
    "final_address": "8007 Hickman St",
    "address_councildis": "E",
    "status": "Assigned to Contractor",
    "contractor": "Waste Pro",
    "rowid": "1189937",
    "final_x": "3705595.84599",
    "final_y": "564462.033441",
    "longitude": "-89.99076617268126",
    "latitude": "30.045320216767927",
    "geocoded_column": {
      "latitude": "30.045320216767927",
      "longitude": "-89.99076617268126"
    }
  },
  {
    "service_request": "2025-1189936",
    "request_type": "Property Maintenance",
    "request_reason": "Property Maintenance",
    "date_created": "2025-05-06T14:22:15.000",
    "date_modified": "2025-05-06T14:22:17.000",
    "request_status": "Pending",
    "responsible_agency": "Department of Code Enforcement",
    "final_address": "5313 Wildair Dr",
    "address_councildis": "D",
    "status": "Pending",
    "rowid": "1189936",
    "final_x": "3681706.99042",
    "final_y": "552508.085462",
    "longitude": "-90.06668411988002",
    "latitude": "30.013199269319504",
    "geocoded_column": {
      "latitude": "30.013199269319504",
      "longitude": "-90.06668411988002"
    }
  },
  {
    "service_request": "2025-1189935",
    "request_type": "Health Related Request",
    "request_reason": "Noise Ordinance Complaint",
    "date_created": "2025-05-06T14:21:29.000",
    "date_modified": "2025-05-06T14:21:31.000",
    "request_status": "Pending",
    "responsible_agency": "Health Department",
    "final_address": "3219 Tulane Ave",
    "address_councildis": "B",
    "status": "Pending",
    "rowid": "1189935",
    "final_x": "3672477.87233",
    "final_y": "534747.970182",
    "longitude": "-90.0964489828439",
    "latitude": "29.964642374049543",
    "geocoded_column": {
      "latitude": "29.964642374049543",
      "longitude": "-90.0964489828439"
    }
  },
  {
    "service_request": "2025-1189934",
    "request_type": "Trash/Recycling",
    "request_reason": "Request a Large Item Pick Up",
    "date_created": "2025-05-06T14:18:35.000",
    "date_modified": "2025-05-06T14:18:37.000",
    "request_status": "Pending",
    "responsible_agency": "Department of Sanitation",
    "final_address": "3143 Plymouth Pl",
    "address_councildis": "C",
    "status": "Assigned to Contractor",
    "contractor": "Richards Disposal",
    "rowid": "1189934",
    "final_x": "3702770.87914",
    "final_y": "519562.452151",
    "longitude": "-90.00134394595587",
    "latitude": "29.92195364686327",
    "geocoded_column": {
      "latitude": "29.92195364686327",
      "longitude": "-90.00134394595587"
    }
  },
  {
    "service_request": "2025-1189933",
    "request_type": "Trash/Recycling",
    "request_reason": "Illegal Dumping",
    "date_created": "2025-05-06T14:17:03.000",
    "date_modified": "2025-05-06T14:17:04.000",
    "request_status": "Pending",
    "responsible_agency": "Department of Sanitation",
    "final_address": "3700 BLK Herschel St",
    "address_councildis": "C",
    "status": "Pending",
    "rowid": "1189933",
    "final_x": "3697173.57642",
    "final_y": "521107.91853",
    "longitude": "-90.01895621655463",
    "latitude": "29.926380876507952",
    "geocoded_column": {
      "latitude": "29.926380876507952",
      "longitude": "-90.01895621655463"
    }
  },
  {
    "service_request": "2025-1189932",
    "request_type": "Trash/Recycling",
    "request_reason": "Missed Trash Pick-Up",
    "date_created": "2025-05-06T14:15:56.000",
    "date_modified": "2025-05-06T14:54:57.000",
    "case_close_date": "2025-05-06T09:54:55.000",
    "request_status": "Closed",
    "responsible_agency": "Department of Sanitation",
    "final_address": "4319 N Villere St",
    "address_councildis": "D",
    "status": "Invalid Request",
    "contractor": "IV Waste",
    "contractor_action": "Invalid",
    "rowid": "1189932",
    "final_x": "3693149.26979",
    "final_y": "536180.110279",
    "longitude": "-90.03111904942357",
    "latitude": "29.967950507987016",
    "geocoded_column": {
      "latitude": "29.967950507987016",
      "longitude": "-90.03111904942357"
    }
  },
  {
    "service_request": "2025-1189931",
    "request_type": "Trash/Recycling",
    "request_reason": "Request a Large Item Pick Up",
    "date_created": "2025-05-06T14:15:18.000",
    "date_modified": "2025-05-06T14:15:21.000",
    "request_status": "Pending",
    "responsible_agency": "Department of Sanitation",
    "final_address": "1913 Mandeville St",
    "address_councildis": "D",
    "status": "Assigned to Contractor",
    "contractor": "IV Waste",
    "rowid": "1189931",
    "final_x": "3685562.2351",
    "final_y": "539446.353162",
    "longitude": "-90.05496403734149",
    "latitude": "29.977166441633372",
    "geocoded_column": {
      "latitude": "29.977166441633372",
      "longitude": "-90.05496403734149"
    }
  },
  {
    "service_request": "2025-1189930",
    "request_type": "Trash/Recycling",
    "request_reason": "Repair Trash Cart",
    "date_created": "2025-05-06T14:14:05.000",
    "date_modified": "2025-05-06T14:14:07.000",
    "request_status": "Pending",
    "responsible_agency": "Department of Sanitation",
    "final_address": "1435 Audubon St",
    "address_councildis": "A",
    "status": "Assigned to Contractor",
    "contractor": "IV Waste",
    "rowid": "1189930",
    "final_x": "3664982.9312",
    "final_y": "527083.694079",
    "longitude": "-90.12037378826605",
    "latitude": "29.94378843835146",
    "geocoded_column": {
      "latitude": "29.94378843835146",
      "longitude": "-90.12037378826605"
    }
  },
  {
    "service_request": "2025-1189929",
    "request_type": "Trash/Recycling",
    "request_reason": "Request a Large Item Pick Up",
    "date_created": "2025-05-06T14:13:19.000",
    "date_modified": "2025-05-06T14:13:21.000",
    "request_status": "Pending",
    "responsible_agency": "Department of Sanitation",
    "final_address": "5414 N Prieur St",
    "address_councildis": "E",
    "status": "Assigned to Contractor",
    "contractor": "Waste Pro",
    "rowid": "1189929",
    "final_x": "3698147.44675",
    "final_y": "536882.72916",
    "longitude": "-90.01530920590658",
    "latitude": "29.96972532338114",
    "geocoded_column": {
      "latitude": "29.96972532338114",
      "longitude": "-90.01530920590658"
    }
  },
  {
    "service_request": "2025-1189928",
    "request_type": "Trash/Recycling",
    "request_reason": "Request a Large Item Pick Up",
    "date_created": "2025-05-06T14:12:35.000",
    "date_modified": "2025-05-06T14:12:36.000",
    "request_status": "Pending",
    "responsible_agency": "Department of Sanitation",
    "final_address": "4400 Ray Ave",
    "address_councildis": "E",
    "status": "Assigned to Contractor",
    "contractor": "Waste Pro",
    "rowid": "1189928",
    "final_x": "3698870.42231",
    "final_y": "552513.925782",
    "longitude": "-90.01245694338763",
    "latitude": "30.01268247196575",
    "geocoded_column": {
      "latitude": "30.01268247196575",
      "longitude": "-90.01245694338763"
    }
  },
  {
    "service_request": "2025-1189927",
    "request_type": "Trash/Recycling",
    "request_reason": "Order Trash Cart",
    "date_created": "2025-05-06T14:12:31.000",
    "date_modified": "2025-05-06T14:12:33.000",
    "request_status": "Pending",
    "responsible_agency": "Department of Sanitation",
    "final_address": "425 Burgundy St Unit 6",
    "address_councildis": "C",
    "status": "Assigned to Contractor",
    "contractor": "IV Waste",
    "rowid": "1189927",
    "final_x": "3681066.65045",
    "final_y": "532456.733764",
    "longitude": "-90.06940605563682",
    "latitude": "29.958084533307165",
    "geocoded_column": {
      "latitude": "29.958084533307165",
      "longitude": "-90.06940605563682"
    }
  },
  {
    "service_request": "2025-1189925",
    "request_type": "Abandoned Vehicles",
    "request_reason": "Abandoned/Junk Vehicles",
    "date_created": "2025-05-06T14:07:22.000",
    "date_modified": "2025-05-06T14:07:24.000",
    "request_status": "Pending",
    "responsible_agency": "Department of Public Works",
    "final_address": "3600 BLK Metropolitan St",
    "address_councildis": "D",
    "status": "Pending",
    "rowid": "1189925",
    "final_x": "3691664.39715",
    "final_y": "546066.241973",
    "longitude": "-90.03545467680756",
    "latitude": "29.995180148068282",
    "geocoded_column": {
      "latitude": "29.995180148068282",
      "longitude": "-90.03545467680756"
    }
  },
  {
    "service_request": "2025-1189924",
    "request_type": "Trash/Recycling",
    "request_reason": "Request a Large Item Pick Up",
    "date_created": "2025-05-06T14:04:13.000",
    "date_modified": "2025-05-06T19:17:22.000",
    "case_close_date": "2025-05-06T14:17:20.000",
    "request_status": "Closed",
    "responsible_agency": "Department of Sanitation",
    "final_address": "4818 Viola St",
    "address_councildis": "E",
    "status": "Duplicate Request",
    "contractor": "Waste Pro",
    "contractor_action": "Duplicate",
    "rowid": "1189924",
    "final_x": "3703861.94686",
    "final_y": "555684.660889",
    "longitude": "-89.9965697213083",
    "latitude": "30.021241618789457",
    "geocoded_column": {
      "latitude": "30.021241618789457",
      "longitude": "-89.9965697213083"
    }
  },
  {
    "service_request": "2025-1189923",
    "request_type": "Street and Traffic Signs",
    "request_reason": "Stop Sign Missing or Damaged",
    "date_created": "2025-05-06T14:02:37.000",
    "date_modified": "2025-05-06T14:02:41.000",
    "request_status": "Pending",
    "responsible_agency": "Department of Public Works",
    "final_address": "CROWDER BLVD & CURRAN BLVD",
    "address_councildis": "E",
    "status": "Pending",
    "rowid": "1189923",
    "final_x": "3703298.1",
    "final_y": "562155.38",
    "longitude": "-89.99811305906128",
    "latitude": "30.03905165534281",
    "geocoded_column": {
      "latitude": "30.03905165534281",
      "longitude": "-89.99811305906128"
    }
  },
  {
    "service_request": "2025-1189922",
    "request_type": "Roads and Streets",
    "request_reason": "Pothole",
    "date_created": "2025-05-06T14:00:30.000",
    "date_modified": "2025-05-06T14:00:31.000",
    "request_status": "Pending",
    "responsible_agency": "Department of Public Works",
    "final_address": "PARIS AVE & KING DR",
    "address_councildis": "D",
    "status": "Pending",
    "rowid": "1189922",
    "final_x": "3679360.4",
    "final_y": "549988.68",
    "longitude": "-90.07418556512097",
    "latitude": "30.00634292646669",
    "geocoded_column": {
      "latitude": "30.00634292646669",
      "longitude": "-90.07418556512097"
    }
  },
  {
    "service_request": "2025-1189921",
    "request_type": "Parks & Parkways",
    "request_reason": "Request Tree Service (Right of Way/Public Property)",
    "date_created": "2025-05-06T14:00:17.000",
    "date_modified": "2025-05-06T14:12:57.000",
    "request_status": "Pending",
    "responsible_agency": "Department of Parks & Parkway",
    "final_address": "5632 Coliseum St",
    "address_councildis": "A",
    "status": "Pending",
    "rowid": "1189921",
    "final_x": "3666127.97588",
    "final_y": "519886.432952",
    "longitude": "-90.11699977651087",
    "latitude": "29.92396488288307",
    "geocoded_column": {
      "latitude": "29.92396488288307",
      "longitude": "-90.11699977651087"
    }
  },
  {
    "service_request": "2025-1189920",
    "request_type": "Drainage",
    "request_reason": "Catch Basin Clogged",
    "date_created": "2025-05-06T13:57:45.000",
    "date_modified": "2025-05-06T13:57:47.000",
    "request_status": "Pending",
    "responsible_agency": "Sewerage & Water Board",
    "final_address": "1800 BLK Newton St",
    "address_councildis": "C",
    "status": "Pending",
    "rowid": "1189920",
    "final_x": "3690963.16987",
    "final_y": "527819.694148",
    "longitude": "-90.03832119925056",
    "latitude": "29.945030401325774",
    "geocoded_column": {
      "latitude": "29.945030401325774",
      "longitude": "-90.03832119925056"
    }
  },