[
  {
    "service_request": "2022-947803",
    "request_type": "Abandoned Vehicles",
    "request_reason": "Abandoned/Junk Vehicles",
    "date_created": "2022-11-30T00:39:51.000",
    "date_modified": "2022-11-30T00:39:51.000",
    "request_status": "Pending",
    "responsible_agency": "Department of Public Works",
    "final_address": "7672 Anne Marie Ct",
    "address_councildis": "E",
    "status": "Pending",
    "rowid": "947803",
    "final_x": "3717661.25944",
    "final_y": "571390.9402",
    "longitude": "-89.95237016381769",
    "latitude": "30.0639776194137",
    "geocoded_column": {
      "latitude": "30.0639776194137",
      "longitude": "-89.95237016381769"
    }
  },
  {
    "service_request": "2022-947802",
    "request_type": "Traffic Signals/Signs/Striping/Streetlights",
    "request_reason": "Street Light Outage/Malfunction",
    "date_created": "2022-11-29T23:54:08.000",
    "date_modified": "2022-11-29T23:54:09.000",
    "request_status": "Pending",
    "responsible_agency": "Department of Public Works",
    "final_address": "1429 Leda St",
    "address_councildis": "A",
    "status": "Pending",
    "contractor": "Legacy Professional Services",
    "rowid": "947802",
    "final_x": "3675529.47733",
    "final_y": "541324.587916",
    "longitude": "-90.08658624493661",
    "latitude": "29.982634900152494",
    "geocoded_column": {
      "latitude": "29.982634900152494",
      "longitude": "-90.08658624493661"
    }
  },
  {
    "service_request": "2022-947801",
    "request_type": "Health Related Request",
    "request_reason": "Noise Ordinance Complaint",
    "date_created": "2022-11-29T23:52:30.000",
    "date_modified": "2022-11-29T23:52:30.000",
    "request_status": "Pending",
    "responsible_agency": "Health Department",
    "final_address": "1009 N Claiborne Ave, New Orleans, Louisiana, 70116",
    "address_councildis": "D",
    "status": "Pending",
    "rowid": "947801",
    "final_x": "3680417.66101",
    "final_y": "535635.218886",
    "longitude": "-90.07134484150656",
    "latitude": "29.966843952035386",
    "geocoded_column": {
      "latitude": "29.966843952035386",
      "longitude": "-90.07134484150656"
    }
  },
  {
    "service_request": "2022-947800",
    "request_type": "Trash/Recycling",
    "request_reason": "Request a Large Item Pick Up",
    "date_created": "2022-11-29T23:42:03.000",
    "date_modified": "2022-11-29T23:42:03.000",
    "request_status": "Pending",
    "responsible_agency": "Department of Sanitation",
    "final_address": "5436 N Derbigny St",
    "address_councildis": "E",
    "status": "Assigned to Contractor",
    "contractor": "Waste Pro",
    "rowid": "947800",
    "final_x": "3698099.97181",
    "final_y": "536078.119367",
    "longitude": "-90.01548835981241",
    "latitude": "29.967514436265095",
    "geocoded_column": {
      "latitude": "29.967514436265095",
      "longitude": "-90.01548835981241"
    }
  },
  {
    "service_request": "2022-947799",
    "request_type": "Property Maintenance",
    "request_reason": "Property Maintenance",
    "date_created": "2022-11-29T23:14:23.000",
    "date_modified": "2022-11-29T23:14:23.000",
    "request_status": "Pending",
    "responsible_agency": "Department of Code Enforcement",
    "final_address": "3215 Cherry St",
    "address_councildis": "A",
    "status": "Pending",
    "rowid": "947799",
    "final_x": "3663758.11635",
    "final_y": "536570.515207",
    "longitude": "-90.12392473466345",
    "latitude": "29.9699097064629",
    "geocoded_column": {
      "latitude": "29.9699097064629",
      "longitude": "-90.12392473466345"
    }
  },
  {
    "service_request": "2022-947798",
    "request_type": "Health Related Request",
    "request_reason": "Noise Ordinance Complaint",
    "date_created": "2022-11-29T22:28:29.000",
    "date_modified": "2022-11-29T22:28:29.000",
    "request_status": "Pending",
    "responsible_agency": "Health Department",
    "final_address": "1910 Magazine St, New Orleans, Louisiana, 70130",
    "address_councildis": "B",
    "status": "Pending",
    "rowid": "947798",
    "final_x": "3679709.95823",
    "final_y": "522712.498298",
    "longitude": "-90.07402827655409",
    "latitude": "29.9313322150059",
    "geocoded_column": {
      "latitude": "29.9313322150059",
      "longitude": "-90.07402827655409"
    }
  },
  {
    "service_request": "2022-947797",
    "request_type": "Trash/Recycling",
    "request_reason": "Order Trash Cart",
    "date_created": "2022-11-29T22:12:52.000",
    "date_modified": "2022-11-29T22:12:53.000",
    "request_status": "Pending",
    "responsible_agency": "Department of Sanitation",
    "final_address": "5333 Constance St",
    "address_councildis": "B",
    "status": "Assigned to Contractor",
    "contractor": "Richards Disposal",
    "rowid": "947797",
    "final_x": "3667248.80122",
    "final_y": "518333.035382",
    "longitude": "-90.11351392006682",
    "latitude": "29.91966076610882",
    "geocoded_column": {
      "latitude": "29.91966076610882",
      "longitude": "-90.11351392006682"
    }
  },
  {
    "service_request": "2022-947796",
    "request_type": "Roads/Drainage",
    "request_reason": "Street Subsidence (Sinking)",
    "date_created": "2022-11-29T22:10:40.000",
    "date_modified": "2022-11-29T22:10:40.000",
    "request_status": "Pending",
    "responsible_agency": "Department of Public Works",
    "final_address": "3146 N Claiborne Ave",
    "address_councildis": "D",
    "status": "Pending",
    "rowid": "947796",
    "final_x": "3689857.84176",
    "final_y": "537728.910408",
    "longitude": "-90.04145831192021",
    "latitude": "29.972311606777694",
    "geocoded_column": {
      "latitude": "29.972311606777694",
      "longitude": "-90.04145831192021"
    }
  },
  {
    "service_request": "2022-947795",
    "request_type": "Roads/Drainage",
    "request_reason": "Debris in Roadway",
    "date_created": "2022-11-29T22:04:25.000",
    "date_modified": "2022-11-29T22:04:25.000",
    "request_status": "Pending",
    "responsible_agency": "Department of Public Works",
    "final_address": "3146 N Claiborne Ave",
    "address_councildis": "D",
    "status": "Pending",
    "rowid": "947795",
    "final_x": "3689857.84176",
    "final_y": "537728.910408",
    "longitude": "-90.04145831192021",
    "latitude": "29.972311606777694",
    "geocoded_column": {
      "latitude": "29.972311606777694",
      "longitude": "-90.04145831192021"
    }
  },
  {
    "service_request": "2022-947794",
    "request_type": "Trash/Recycling",
    "request_reason": "Replace Trash Cart",
    "date_created": "2022-11-29T22:04:16.000",
    "date_modified": "2022-11-29T22:04:17.000",
    "request_status": "Pending",
    "responsible_agency": "Department of Sanitation",
    "final_address": "611 Lyons St",
    "address_councildis": "B",
    "status": "Assigned to Contractor",
    "contractor": "Richards Disposal",
    "rowid": "947794",
    "final_x": "3669365.88193",
    "final_y": "517682.273398",
    "longitude": "-90.10685330846891",
    "latitude": "29.917809234930395",
    "geocoded_column": {
      "latitude": "29.917809234930395",
      "longitude": "-90.10685330846891"
    }
  },
  {
    "service_request": "2022-947793",
    "request_type": "Traffic Signals/Signs/Striping/Streetlights",
    "request_reason": "Street Light Knocked Down/Leaning",
    "date_created": "2022-11-29T22:00:35.000",
    "date_modified": "2022-11-29T22:00:36.000",
    "request_status": "Pending",
    "responsible_agency": "Department of Public Works",
    "final_address": "3146 N Claiborne Ave",
    "address_councildis": "D",
    "status": "Pending",
    "contractor": "Legacy Professional Services",
    "rowid": "947793",
    "final_x": "3689857.84176",
    "final_y": "537728.910408",
    "longitude": "-90.04145831192021",
    "latitude": "29.972311606777694",
    "geocoded_column": {
      "latitude": "29.972311606777694",
      "longitude": "-90.04145831192021"
    }
  },
  {
    "service_request": "2022-947792",
    "request_type": "Trash/Recycling",
    "request_reason": "MIssed Recycling Pick-Up",
    "date_created": "2022-11-29T21:50:04.000",
    "date_modified": "2022-11-29T21:50:04.000",
    "request_status": "Pending",
    "responsible_agency": "Department of Sanitation",
    "final_address": "221 S Genois St",
    "address_councildis": "B",
    "status": "Assigned to Contractor",
    "contractor": "Richards Disposal",
    "rowid": "947792",
    "final_x": "3672170.85627",
    "final_y": "536748.918728",
    "longitude": "-90.09735036031731",
    "latitude": "29.970153419346236",
    "geocoded_column": {
      "latitude": "29.970153419346236",
      "longitude": "-90.09735036031731"
    }
  },
  {
    "service_request": "2022-947791",
    "request_type": "Trash/Recycling",
    "request_reason": "Request a Large Item Pick Up",
    "date_created": "2022-11-29T21:42:42.000",
    "date_modified": "2022-11-29T21:44:36.000",
    "request_status": "Pending",
    "responsible_agency": "Department of Sanitation",
    "final_address": "2808 Jackson Ave",
    "address_councildis": "B",
    "status": "Assigned to Contractor",
    "contractor": "Richards Disposal",
    "rowid": "947791",
    "final_x": "3674746.77569",
    "final_y": "527370.872959",
    "longitude": "-90.08953681587343",
    "latitude": "29.94429027465488",
    "geocoded_column": {
      "latitude": "29.94429027465488",
      "longitude": "-90.08953681587343"
    }
  },
  {
    "service_request": "2022-947790",
    "request_type": "Trash/Recycling",
    "request_reason": "Missed Trash Pick-Up",
    "date_created": "2022-11-29T21:36:47.000",
    "date_modified": "2022-11-29T21:36:47.000",
    "request_status": "Pending",
    "responsible_agency": "Department of Sanitation",
    "final_address": "5333 Constance St",
    "address_councildis": "B",
    "status": "Assigned to Contractor",
    "contractor": "Richards Disposal",
    "rowid": "947790",
    "final_x": "3667248.80122",
    "final_y": "518333.035382",
    "longitude": "-90.11351392006682",
    "latitude": "29.91966076610882",
    "geocoded_column": {
      "latitude": "29.91966076610882",
      "longitude": "-90.11351392006682"
    }
  },
  {
    "service_request": "2022-947789",
    "request_type": "Roads/Drainage",
    "request_reason": "Street Flooding / Drainage",
    "date_created": "2022-11-29T21:35:00.000",
    "date_modified": "2022-11-29T21:35:00.000",
    "request_status": "Pending",
    "responsible_agency": "Department of Public Works",
    "final_address": "1917 Annette St",
    "address_councildis": "D",
    "status": "Pending",
    "rowid": "947789",
    "final_x": "3682982.6502",
    "final_y": "539264.348426",
    "longitude": "-90.06311756962596",
    "latitude": "29.976744873333352",
    "geocoded_column": {
      "latitude": "29.976744873333352",
      "longitude": "-90.06311756962596"
    }
  },
  {
    "service_request": "2022-947788",
    "request_type": "Trash/Recycling",
    "request_reason": "Order Recycling Cart",
    "date_created": "2022-11-29T21:33:10.000",
    "date_modified": "2022-11-29T21:33:10.000",
    "request_status": "Pending",
    "responsible_agency": "Department of Sanitation",
    "final_address": "6 Lakewood Estates Dr",
    "address_councildis": "C",
    "status": "Pending",
    "rowid": "947788",
    "final_x": "3701042.42333",
    "final_y": "513380.842098",
    "longitude": "-90.00702577527744",
    "latitude": "29.90501145861487",
    "geocoded_column": {
      "latitude": "29.90501145861487",
      "longitude": "-90.00702577527744"
    }
  },
  {
    "service_request": "2022-947787",
    "request_type": "Trash/Recycling",
    "request_reason": "Order Trash Cart",
    "date_created": "2022-11-29T21:31:53.000",
    "date_modified": "2022-11-29T21:31:53.000",
    "request_status": "Pending",
    "responsible_agency": "Department of Sanitation",
    "final_address": "6 Lakewood Estates Dr",
    "address_councildis": "C",
    "status": "Assigned to Contractor",
    "contractor": "Richards Disposal",
    "rowid": "947787",
    "final_x": "3701042.42333",
    "final_y": "513380.842098",
    "longitude": "-90.00702577527744",
    "latitude": "29.90501145861487",
    "geocoded_column": {
      "latitude": "29.90501145861487",
      "longitude": "-90.00702577527744"
    }
  },
  {
    "service_request": "2022-947786",
    "request_type": "Abandoned Vehicles",
    "request_reason": "Abandoned/Junk Vehicles",
    "date_created": "2022-11-29T20:57:54.000",
    "date_modified": "2022-11-29T20:57:54.000",
    "request_status": "Pending",
    "responsible_agency": "Department of Public Works",
    "final_address": "1705 Patterson St",
    "address_councildis": "C",
    "status": "Pending",
    "rowid": "947786",
    "final_x": "3690735.97987",
    "final_y": "530854.278722",
    "longitude": "-90.0389302723261",
    "latitude": "29.953381521734176",
    "geocoded_column": {
      "latitude": "29.953381521734176",
      "longitude": "-90.0389302723261"
    }
  },
  {
    "service_request": "2022-947785",
    "request_type": "Abandoned Vehicles",
    "request_reason": "Abandoned/Junk Vehicles",
    "date_created": "2022-11-29T20:56:06.000",
    "date_modified": "2022-11-29T20:56:06.000",
    "request_status": "Pending",
    "responsible_agency": "Department of Public Works",
    "final_address": "325 Hendee St",
    "address_councildis": "C",
    "status": "Pending",
    "rowid": "947785",
    "final_x": "3690875.89923",
    "final_y": "530411.942402",
    "longitude": "-90.03850425146697",
    "latitude": "29.95216090302517",
    "geocoded_column": {
      "latitude": "29.95216090302517",
      "longitude": "-90.03850425146697"
    }
  },
  {
    "service_request": "2022-947784",
    "request_type": "Abandoned Vehicles",
    "request_reason": "Vehicle Blocking Your Driveway",
    "date_created": "2022-11-29T20:47:58.000",
    "date_modified": "2022-11-29T20:47:58.000",
    "request_status": "Pending",
    "responsible_agency": "Department of Public Works",
    "final_address": "1492 Moss St",
    "address_councildis": "A",
    "status": "Pending",
    "rowid": "947784",
    "final_x": "3674657.29608",
    "final_y": "541400.335372",
    "longitude": "-90.08933843475648",
    "latitude": "29.982869244652427",
    "geocoded_column": {
      "latitude": "29.982869244652427",
      "longitude": "-90.08933843475648"
    }
  },
  {
    "service_request": "2022-947783",
    "request_type": "Traffic Signals/Signs/Striping/Streetlights",
    "request_reason": "Street Light Outage/Malfunction",
    "date_created": "2022-11-29T20:38:04.000",
    "date_modified": "2022-11-29T20:38:05.000",
    "request_status": "Pending",
    "responsible_agency": "Department of Public Works",
    "final_address": "1844 N Dorgenois St",
    "address_councildis": "D",
    "status": "Pending",
    "contractor": "Legacy Professional Services",
    "rowid": "947783",
    "final_x": "3680962.27119",
    "final_y": "541135.409484",
    "longitude": "-90.06943337167874",
    "latitude": "29.981951068858752",
    "geocoded_column": {
      "latitude": "29.981951068858752",
      "longitude": "-90.06943337167874"
    }
  },
  {
    "service_request": "2022-947782",
    "request_type": "Trash/Recycling",
    "request_reason": "Repair Recycling Cart",
    "date_created": "2022-11-29T20:34:41.000",
    "date_modified": "2022-11-29T20:34:41.000",
    "request_status": "Pending",
    "responsible_agency": "Department of Sanitation",
    "final_address": "4731 Music St",
    "address_councildis": "D",
    "status": "Pending",
    "rowid": "947782",
    "final_x": "3685724.75874",
    "final_y": "550458.480404",
    "longitude": "-90.05406243683623",
    "latitude": "30.007440869711196",
    "geocoded_column": {
      "latitude": "30.007440869711196",
      "longitude": "-90.05406243683623"
    }
  },
  {
    "service_request": "2022-947781",
    "request_type": "Trash/Recycling",
    "request_reason": "Missed Trash Pick-Up",
    "date_created": "2022-11-29T20:28:03.000",
    "date_modified": "2022-11-29T20:28:04.000",
    "request_status": "Pending",
    "responsible_agency": "Department of Sanitation",
    "final_address": "1721 Robert St",
    "address_councildis": "B",
    "status": "Assigned to Contractor",
    "contractor": "Richards Disposal",
    "rowid": "947781",
    "final_x": "3668804.12609",
    "final_y": "521971.424698",
    "longitude": "-90.10848174660215",
    "latitude": "29.929619563428524",
    "geocoded_column": {
      "latitude": "29.929619563428524",
      "longitude": "-90.10848174660215"
    }
  },
  {
    "service_request": "2022-947780",
    "request_type": "Trash/Recycling",
    "request_reason": "MIssed Recycling Pick-Up",
    "date_created": "2022-11-29T20:22:38.000",
    "date_modified": "2022-11-29T20:22:39.000",
    "request_status": "Pending",
    "responsible_agency": "Department of Sanitation",
    "final_address": "3729 Baudin St",
    "address_councildis": "B",
    "status": "Assigned to Contractor",
    "contractor": "Richards Disposal",
    "rowid": "947780",
    "final_x": "3671180.62183",
    "final_y": "536310.323783",
    "longitude": "-90.10049253392934",
    "latitude": "29.96897676356218",
    "geocoded_column": {
      "latitude": "29.96897676356218",
      "longitude": "-90.10049253392934"
    }
  },
  {
    "service_request": "2022-947779",
    "request_type": "Trash/Recycling",
    "request_reason": "Missed Trash Pick-Up",
    "date_created": "2022-11-29T20:21:51.000",
    "date_modified": "2022-11-29T20:21:52.000",
    "request_status": "Pending",
    "responsible_agency": "Department of Sanitation",
    "final_address": "3729 Baudin St",
    "address_councildis": "B",
    "status": "Assigned to Contractor",
    "contractor": "Richards Disposal",
    "rowid": "947779",
    "final_x": "3671180.62183",
    "final_y": "536310.323783",
    "longitude": "-90.10049253392934",
    "latitude": "29.96897676356218",
    "geocoded_column": {
      "latitude": "29.96897676356218",
      "longitude": "-90.10049253392934"
    }
  },
  {
    "service_request": "2022-947778",
    "request_type": "Trash/Recycling",
    "request_reason": "Request a Large Item Pick Up",
    "date_created": "2022-11-29T20:20:57.000",
    "date_modified": "2022-11-29T20:20:57.000",
    "request_status": "Pending",
    "responsible_agency": "Department of Sanitation",
    "final_address": "7220 Thornley Dr",
    "address_councildis": "E",
    "status": "Assigned to Contractor",
    "contractor": "Waste Pro",
    "rowid": "947778",
    "final_x": "3702894.56247",
    "final_y": "560033.846749",
    "longitude": "-89.99946639193918",
    "latitude": "30.033231192157377",
    "geocoded_column": {
      "latitude": "30.033231192157377",
      "longitude": "-89.99946639193918"
    }
  },
  {
    "service_request": "2022-947777",
    "request_type": "Traffic Signals/Signs/Striping/Streetlights",
    "request_reason": "Street Light Outage/Malfunction",
    "date_created": "2022-11-29T20:19:56.000",
    "date_modified": "2022-11-29T20:19:57.000",
    "request_status": "Pending",
    "responsible_agency": "Department of Public Works",
    "final_address": "4710 Maid Marion Dr",
    "address_councildis": "E",
    "status": "Pending",
    "contractor": "Legacy Professional Services",
    "rowid": "947777",
    "final_x": "3716904.76575",
    "final_y": "556861.263706",
    "longitude": "-89.95531382720445",
    "latitude": "30.024051974886348",
    "geocoded_column": {
      "latitude": "30.024051974886348",
      "longitude": "-89.95531382720445"
    }
  },
  {
    "service_request": "2022-947776",
    "request_type": "Trash/Recycling",
    "request_reason": "Missed Trash Pick-Up",
    "date_created": "2022-11-29T20:16:59.000",
    "date_modified": "2022-11-29T20:17:00.000",
    "request_status": "Pending",
    "responsible_agency": "Department of Sanitation",
    "final_address": "4900 BLK Royal St",
    "address_councildis": "E",
    "status": "Assigned to Contractor",
    "contractor": "Waste Pro",
    "rowid": "947776",
    "final_x": "3695045.95305",
    "final_y": "532909.246961",
    "longitude": "-90.02524720922021",
    "latitude": "29.958897384863256",
    "geocoded_column": {
      "latitude": "29.958897384863256",
      "longitude": "-90.02524720922021"
    }
  },
  {
    "service_request": "2022-947775",
    "request_type": "Trash/Recycling",
    "request_reason": "Missed Trash Pick-Up",
    "date_created": "2022-11-29T20:04:28.000",
    "date_modified": "2022-11-29T20:04:28.000",
    "request_status": "Pending",
    "responsible_agency": "Department of Sanitation",
    "final_address": "4819 Carondelet St",
    "address_councildis": "B",
    "status": "Assigned to Contractor",
    "contractor": "Richards Disposal",
    "rowid": "947775",
    "final_x": "3669166.86868",
    "final_y": "521163.278585",
    "longitude": "-90.10736392540642",
    "latitude": "29.927386752325763",
    "geocoded_column": {
      "latitude": "29.927386752325763",
      "longitude": "-90.10736392540642"
    }
  },
  {
    "service_request": "2022-947774",
    "request_type": "Trash/Recycling",
    "request_reason": "Missed Trash Pick-Up",
    "date_created": "2022-11-29T19:51:21.000",
    "date_modified": "2022-11-29T19:51:22.000",
    "request_status": "Pending",
    "responsible_agency": "Department of Sanitation",
    "final_address": "525 Delacroix Rd",
    "address_councildis": "C",
    "status": "Assigned to Contractor",
    "contractor": "Richards Disposal",
    "rowid": "947774",
    "final_x": "3724485.89062",
    "final_y": "514909.696947",
    "longitude": "-89.93297927341324",
    "latitude": "29.908448304543178",
    "geocoded_column": {
      "latitude": "29.908448304543178",
      "longitude": "-89.93297927341324"
    }
  },
  {
    "service_request": "2022-947773",
    "request_type": "Trash/Recycling",
    "request_reason": "Missed Trash Pick-Up",
    "date_created": "2022-11-29T19:32:24.000",
    "date_modified": "2022-11-29T19:32:25.000",
    "request_status": "Pending",
    "responsible_agency": "Department of Sanitation",
    "final_address": "1930 Foucher St",
    "address_councildis": "B",
    "status": "Assigned to Contractor",
    "contractor": "Richards Disposal",
    "rowid": "947773",
    "final_x": "3672974.67355",
    "final_y": "522540.367354",
    "longitude": "-90.09529664300699",
    "latitude": "29.93106072938339",
    "geocoded_column": {
      "latitude": "29.93106072938339",
      "longitude": "-90.09529664300699"
    }
  },
  {
    "service_request": "2022-947772",
    "request_type": "Roads/Drainage",
    "request_reason": "Pothole",
    "date_created": "2022-11-29T19:23:41.000",
    "date_modified": "2022-11-29T19:23:41.000",
    "request_status": "Pending",
    "responsible_agency": "Department of Public Works",
    "final_address": "1711 Holiday Dr",
    "address_councildis": "C",
    "status": "Pending",
    "rowid": "947772",
    "final_x": "3698851.47588",
    "final_y": "524523.506428",
    "longitude": "-90.01353540266118",
    "latitude": "29.93571953624502",
    "geocoded_column": {
      "latitude": "29.93571953624502",
      "longitude": "-90.01353540266118"
    }
  },
  {
    "service_request": "2022-947771",
    "request_type": "Trash/Recycling",
    "request_reason": "Order Recycling Cart",
    "date_created": "2022-11-29T19:16:26.000",
    "date_modified": "2022-11-29T19:16:26.000",
    "request_status": "Pending",
    "responsible_agency": "Department of Sanitation",
    "final_address": "4328 Touro St",
    "address_councildis": "D",
    "status": "Pending",
    "rowid": "947771",
    "final_x": "3683185.65724",
    "final_y": "548625.984595",
    "longitude": "-90.06214839762522",
    "latitude": "30.002479868557916",
    "geocoded_column": {
      "latitude": "30.002479868557916",
      "longitude": "-90.06214839762522"
    }
  },
  {
    "service_request": "2022-947769",
    "request_type": "Safety & Permits",
    "request_reason": "Construction permit",
    "date_created": "2022-11-29T19:15:59.000",
    "date_modified": "2022-11-29T19:15:59.000",
    "request_status": "Pending",
    "responsible_agency": "Department of Code Enforcement",
    "final_address": "3443 Esplanade Ave",
    "address_councildis": "A",
    "status": "Pending",
    "rowid": "947769",
    "final_x": "3674984.858",
    "final_y": "541532.608716",
    "longitude": "-90.08829928752895",
    "latitude": "29.98322316835311",
    "geocoded_column": {
      "latitude": "29.98322316835311",
      "longitude": "-90.08829928752895"
    }
  },
  {
    "service_request": "2022-947770",
    "request_type": "Trash/Recycling",
    "request_reason": "Missed Trash Pick-Up",
    "date_created": "2022-11-29T19:15:59.000",
    "date_modified": "2022-11-29T19:16:00.000",
    "request_status": "Pending",
    "responsible_agency": "Department of Sanitation",
    "final_address": "4918 S Liberty St",
    "address_councildis": "B",
    "status": "Assigned to Contractor",
    "contractor": "Richards Disposal",
    "rowid": "947770",
    "final_x": "3668949.9371",
    "final_y": "523103.705723",
    "longitude": "-90.1079832214802",
    "latitude": "29.932728687686755",
    "geocoded_column": {
      "latitude": "29.932728687686755",
      "longitude": "-90.1079832214802"
    }
  },
  {
    "service_request": "2022-947768",
    "request_type": "Trash/Recycling",
    "request_reason": "Missed Trash Pick-Up",
    "date_created": "2022-11-29T19:10:41.000",
    "date_modified": "2022-11-29T19:10:42.000",
    "request_status": "Pending",
    "responsible_agency": "Department of Sanitation",
    "final_address": "4916 Baronne St",
    "address_councildis": "B",
    "status": "Assigned to Contractor",
    "contractor": "Richards Disposal",
    "rowid": "947768",
    "final_x": "3668936.39834",
    "final_y": "521391.117817",
    "longitude": "-90.10808377428931",
    "latitude": "29.92802001600356",
    "geocoded_column": {
      "latitude": "29.92802001600356",
      "longitude": "-90.10808377428931"
    }
  },
  {
    "service_request": "2022-947767",
    "request_type": "Trash/Recycling",
    "request_reason": "Request a Large Item Pick Up",
    "date_created": "2022-11-29T19:10:17.000",
    "date_modified": "2022-11-29T19:10:17.000",
    "request_status": "Pending",
    "responsible_agency": "Department of Sanitation",
    "final_address": "8 Fairway Oaks Dr",
    "address_councildis": "C",
    "status": "Assigned to Contractor",
    "contractor": "Richards Disposal",
    "rowid": "947767",
    "final_x": "3715722.10853",
    "final_y": "515697.874484",
    "longitude": "-89.96060898082519",
    "latitude": "29.91090710679334",
    "geocoded_column": {
      "latitude": "29.91090710679334",
      "longitude": "-89.96060898082519"
    }
  },
  {
    "service_request": "2022-947766",
    "request_type": "Trash/Recycling",
    "request_reason": "Missed Trash Pick-Up",
    "date_created": "2022-11-29T19:08:19.000",
    "date_modified": "2022-11-29T19:08:20.000",
    "request_status": "Pending",
    "responsible_agency": "Department of Sanitation",
    "final_address": "1600 BLK Soniat St",
    "address_councildis": "B",
    "status": "Assigned to Contractor",
    "contractor": "Richards Disposal",
    "rowid": "947766",
    "final_x": "3668426.04172",
    "final_y": "521247.442529",
    "longitude": "-90.1096997017646",
    "latitude": "29.927639950470635",
    "geocoded_column": {
      "latitude": "29.927639950470635",
      "longitude": "-90.1096997017646"
    }
  },
  {
    "service_request": "2022-947765",
    "request_type": "Traffic Signals/Signs/Striping/Streetlights",
    "request_reason": "Street Light Outage/Malfunction",
    "date_created": "2022-11-29T18:50:49.000",
    "date_modified": "2022-11-29T18:50:49.000",
    "request_status": "Pending",
    "responsible_agency": "Department of Public Works",
    "final_address": "6001 Franklin Ave",
    "address_councildis": "D",
    "status": "Pending",
    "contractor": "Legacy Professional Services",
    "rowid": "947765",
    "final_x": "3686492.05449",
    "final_y": "555251.343897",
    "longitude": "-90.05146894149112",
    "latitude": "30.020595907583584",
    "geocoded_column": {
      "latitude": "30.020595907583584",
      "longitude": "-90.05146894149112"
    }
  },
  {
    "service_request": "2022-947764",
    "request_type": "Trash/Recycling",
    "request_reason": "MIssed Recycling Pick-Up",
    "date_created": "2022-11-29T18:49:00.000",
    "date_modified": "2022-11-29T18:49:00.000",
    "request_status": "Pending",
    "responsible_agency": "Department of Sanitation",
    "final_address": "5006 N Galvez St",
    "address_councildis": "E",
    "status": "Assigned to Contractor",
    "contractor": "Waste Pro",
    "rowid": "947764",
    "final_x": "3697065.836",
    "final_y": "537903.945161",
    "longitude": "-90.01868800928291",
    "latitude": "29.972567466573878",
    "geocoded_column": {
      "latitude": "29.972567466573878",
      "longitude": "-90.01868800928291"
    }
  },
  {
    "service_request": "2022-947763",
    "request_type": "Trash/Recycling",
    "request_reason": "MIssed Recycling Pick-Up",
    "date_created": "2022-11-29T18:47:56.000",
    "date_modified": "2022-11-29T18:47:57.000",
    "request_status": "Pending",
    "responsible_agency": "Department of Sanitation",
    "final_address": "1111 Shirley Dr",
    "address_councildis": "C",
    "status": "Assigned to Contractor",
    "contractor": "Richards Disposal",
    "rowid": "947763",
    "final_x": "3693048.87305",
    "final_y": "527209.981119",
    "longitude": "-90.03175788517305",
    "latitude": "29.94328891987638",
    "geocoded_column": {
      "latitude": "29.94328891987638",
      "longitude": "-90.03175788517305"
    }
  },
  {
    "service_request": "2022-947762",
    "request_type": "Abandoned Vehicles",
    "request_reason": "Abandoned/Junk Vehicles",
    "date_created": "2022-11-29T18:31:43.000",
    "date_modified": "2022-11-29T18:31:44.000",
    "request_status": "Pending",
    "responsible_agency": "Department of Public Works",
    "final_address": "3120 Homer St",
    "address_councildis": "C",
    "status": "Pending",
    "rowid": "947762",
    "final_x": "3695901.61098",
    "final_y": "528209.93568",
    "longitude": "-90.02271500308693",
    "latitude": "29.945949037619812",
    "geocoded_column": {
      "latitude": "29.945949037619812",
      "longitude": "-90.02271500308693"
    }
  },
  {
    "service_request": "2022-947761",
    "request_type": "Trash/Recycling",
    "request_reason": "Return Trash Cart",
    "date_created": "2022-11-29T18:13:59.000",
    "date_modified": "2022-11-29T18:14:00.000",
    "request_status": "Pending",
    "responsible_agency": "Department of Sanitation",
    "final_address": "4206 Burgundy St",
    "address_councildis": "C",
    "status": "Assigned to Contractor",
    "contractor": "IV Waste",
    "rowid": "947761",
    "final_x": "3692241.98902",
    "final_y": "534272.408773",
    "longitude": "-90.03405257484185",
    "latitude": "29.962733320824242",
    "geocoded_column": {
      "latitude": "29.962733320824242",
      "longitude": "-90.03405257484185"
    }
  },
  {
    "service_request": "2022-947760",
    "request_type": "Trash/Recycling",
    "request_reason": "Order Recycling Cart",
    "date_created": "2022-11-29T18:13:28.000",
    "date_modified": "2022-11-29T18:13:29.000",
    "request_status": "Pending",
    "responsible_agency": "Department of Sanitation",
    "final_address": "218 S Olympia St",
    "address_councildis": "A",
    "status": "Pending",
    "rowid": "947760",
    "final_x": "3669104.24039",
    "final_y": "539110.538058",
    "longitude": "-90.10695525598337",
    "latitude": "29.976737677900847",
    "geocoded_column": {
      "latitude": "29.976737677900847",
      "longitude": "-90.10695525598337"
    }
  },
  {
    "service_request": "2022-947759",
    "request_type": "Trash/Recycling",
    "request_reason": "Order Recycling Cart",
    "date_created": "2022-11-29T18:11:22.000",
    "date_modified": "2022-11-29T18:11:23.000",
    "request_status": "Pending",
    "responsible_agency": "Department of Sanitation",
    "final_address": "3523 Gravier St",
    "address_councildis": "B",
    "status": "Pending",
    "rowid": "947759",
    "final_x": "3671074.13723",
    "final_y": "534933.796486",
    "longitude": "-90.10087557802922",
    "latitude": "29.965194924434705",
    "geocoded_column": {
      "latitude": "29.965194924434705",
      "longitude": "-90.10087557802922"
    }
  },
  {
    "service_request": "2022-947758",
    "request_type": "Trash/Recycling",
    "request_reason": "Missed Trash Pick-Up",
    "date_created": "2022-11-29T18:02:41.000",
    "date_modified": "2022-11-29T18:02:43.000",
    "request_status": "Pending",
    "responsible_agency": "Department of Sanitation",
    "final_address": "2234 Upperline St",
    "address_councildis": "B",
    "status": "Assigned to Contractor",
    "contractor": "Richards Disposal",
    "rowid": "947758",
    "final_x": "3669058.16033",
    "final_y": "523103.464955",
    "longitude": "-90.10764157652953",
    "latitude": "29.93272484293292",
    "geocoded_column": {
      "latitude": "29.93272484293292",
      "longitude": "-90.10764157652953"
    }
  },
  {
    "service_request": "2022-947757",
    "request_type": "Trash/Recycling",
    "request_reason": "Missed Trash Pick-Up",
    "date_created": "2022-11-29T17:45:12.000",
    "date_modified": "2022-11-29T17:45:12.000",
    "request_status": "Pending",
    "responsible_agency": "Department of Sanitation",
    "final_address": "1917 General Taylor St",
    "address_councildis": "B",
    "status": "Assigned to Contractor",
    "contractor": "Richards Disposal",
    "rowid": "947757",
    "final_x": "3672391.62331",
    "final_y": "522259.410298",
    "longitude": "-90.09714682757276",
    "latitude": "29.930305497094775",
    "geocoded_column": {
      "latitude": "29.930305497094775",
      "longitude": "-90.09714682757276"
    }
  },
  {
    "service_request": "2022-947756",
    "request_type": "Trash/Recycling",
    "request_reason": "Missed Trash Pick-Up",
    "date_created": "2022-11-29T17:43:14.000",
    "date_modified": "2022-11-29T17:43:14.000",
    "request_status": "Pending",
    "responsible_agency": "Department of Sanitation",
    "final_address": "830 N Hennessey St",
    "address_councildis": "A",
    "status": "Assigned to Contractor",
    "contractor": "Richards Disposal",
    "rowid": "947756",
    "final_x": "3672046.00987",
    "final_y": "541175.065996",
    "longitude": "-90.09759388973784",
    "latitude": "29.9823275244283",
    "geocoded_column": {
      "latitude": "29.9823275244283",
      "longitude": "-90.09759388973784"
    }
  },
  {
    "service_request": "2022-947755",
    "request_type": "Trash/Recycling",
    "request_reason": "Order Trash Cart",
    "date_created": "2022-11-29T17:38:02.000",
    "date_modified": "2022-11-29T17:38:03.000",
    "request_status": "Pending",
    "responsible_agency": "Department of Sanitation",
    "final_address": "1918 Pace Blvd",
    "address_councildis": "C",
    "status": "Assigned to Contractor",
    "contractor": "Richards Disposal",
    "rowid": "947755",
    "final_x": "3694512.04477",
    "final_y": "523483.407227",
    "longitude": "-90.02727241153072",
    "latitude": "29.932996340675203",
    "geocoded_column": {
      "latitude": "29.932996340675203",
      "longitude": "-90.02727241153072"
    }
  },
  {
    "service_request": "2022-947754",
    "request_type": "Trash/Recycling",
    "request_reason": "Request a Large Item Pick Up",
    "date_created": "2022-11-29T17:29:01.000",
    "date_modified": "2022-11-29T17:29:02.000",
    "request_status": "Pending",
    "responsible_agency": "Department of Sanitation",
    "final_address": "1465 N Galvez St, New Orleans, Louisiana, 70119",
    "address_councildis": "D",
    "status": "Assigned to Contractor",
    "contractor": "IV Waste",
    "rowid": "947754",
    "final_x": "3680186.52507",
    "final_y": "538145.438665",
    "longitude": "-90.07198750463564",
    "latitude": "29.97375319117785",
    "geocoded_column": {
      "latitude": "29.97375319117785",
      "longitude": "-90.07198750463564"
    }
  },
  {
    "service_request": "2022-947753",
    "request_type": "Roads/Drainage",
    "request_reason": "Damaged Sidewalk",
    "date_created": "2022-11-29T17:24:25.000",
    "date_modified": "2022-11-29T17:24:25.000",
    "request_status": "Pending",
    "responsible_agency": "Department of Public Works",
    "final_address": "9781 W Rockton Cir",
    "address_councildis": "E",
    "status": "Pending",
    "rowid": "947753",
    "final_x": "3708225.08574",
    "final_y": "562794.716768",
    "longitude": "-89.98251869808557",
    "latitude": "30.040650792953492",
    "geocoded_column": {
      "latitude": "30.040650792953492",
      "longitude": "-89.98251869808557"
    }
  },
  {
    "service_request": "2022-947752",
    "request_type": "Trash/Recycling",
    "request_reason": "Missed Trash Pick-Up",
    "date_created": "2022-11-29T17:19:11.000",
    "date_modified": "2022-11-29T17:19:12.000",
    "request_status": "Pending",
    "responsible_agency": "Department of Sanitation",
    "final_address": "2925 Robert St",
    "address_councildis": "B",
    "status": "Assigned to Contractor",
    "contractor": "Richards Disposal",
    "rowid": "947752",
    "final_x": "3668983.09524",
    "final_y": "526234.729662",
    "longitude": "-90.10777282265109",
    "latitude": "29.941337020766696",
    "geocoded_column": {
      "latitude": "29.941337020766696",
      "longitude": "-90.10777282265109"
    }
  },
  {
    "service_request": "2022-947751",
    "request_type": "Trash/Recycling",
    "request_reason": "Replace Trash Cart",
    "date_created": "2022-11-29T17:11:52.000",
    "date_modified": "2022-11-29T17:11:53.000",
    "request_status": "Pending",
    "responsible_agency": "Department of Sanitation",
    "final_address": "2416 Broadway St",
    "address_councildis": "A",
    "status": "Assigned to Contractor",
    "contractor": "Richards Disposal",
    "rowid": "947751",
    "final_x": "3666634.66746",
    "final_y": "530275.214657",
    "longitude": "-90.11505165675878",
    "latitude": "29.952515904601903",
    "geocoded_column": {
      "latitude": "29.952515904601903",
      "longitude": "-90.11505165675878"
    }
  },
  {
    "service_request": "2022-947750",
    "request_type": "Trash/Recycling",
    "request_reason": "Replace Trash Cart",
    "date_created": "2022-11-29T17:07:51.000",
    "date_modified": "2022-11-29T17:07:51.000",
    "request_status": "Pending",
    "responsible_agency": "Department of Sanitation",
    "final_address": "1904 Milan St",
    "address_councildis": "B",
    "status": "Assigned to Contractor",
    "contractor": "Richards Disposal",
    "rowid": "947750",
    "final_x": "3671439.90388",
    "final_y": "522084.324538",
    "longitude": "-90.100157211905",
    "latitude": "29.929852265746902",
    "geocoded_column": {
      "latitude": "29.929852265746902",
      "longitude": "-90.100157211905"
    }
  },
  {
    "service_request": "2022-947749",
    "request_type": "Traffic Signals/Signs/Striping/Streetlights",
    "request_reason": "Street Light Outage/Malfunction",
    "date_created": "2022-11-29T17:07:12.000",
    "date_modified": "2022-11-29T17:07:13.000",
    "request_status": "Pending",
    "responsible_agency": "Department of Public Works",
    "final_address": "5512 Patio Way",
    "address_councildis": "E",
    "status": "Pending",
    "contractor": "Legacy Professional Services",
    "rowid": "947749",
    "final_x": "3725289.69235",
    "final_y": "563900.762017",
    "longitude": "-89.9285467380515",
    "latitude": "30.043127771523103",
    "geocoded_column": {
      "latitude": "30.043127771523103",
      "longitude": "-89.9285467380515"
    }
  },
  {
    "service_request": "2022-947748",
    "request_type": "Trash/Recycling",
    "request_reason": "Missed Trash Pick-Up",
    "date_created": "2022-11-29T17:06:37.000",
    "date_modified": "2022-11-29T17:06:38.000",
    "request_status": "Pending",
    "responsible_agency": "Department of Sanitation",
    "final_address": "4215 Dryades St",
    "address_councildis": "B",
    "status": "Assigned to Contractor",
    "contractor": "Richards Disposal",
    "rowid": "947748",
    "final_x": "3671356.26356",
    "final_y": "522050.464442",
    "longitude": "-90.10042240082073",
    "latitude": "29.929761636221155",
    "geocoded_column": {
      "latitude": "29.929761636221155",
      "longitude": "-90.10042240082073"
    }
  },
  {
    "service_request": "2022-947747",
    "request_type": "Trash/Recycling",
    "request_reason": "Replace Recycling Cart",
    "date_created": "2022-11-29T17:06:06.000",
    "date_modified": "2022-11-29T17:06:06.000",
    "request_status": "Pending",
    "responsible_agency": "Department of Sanitation",
    "final_address": "22 Gull St",
    "address_councildis": "D",
    "status": "Pending",
    "rowid": "947747",
    "final_x": "3674982.89825",
    "final_y": "555292.870361",
    "longitude": "-90.08783305574501",
    "latitude": "30.021059095803466",
    "geocoded_column": {
      "latitude": "30.021059095803466",
      "longitude": "-90.08783305574501"
    }
  },
  {
    "service_request": "2022-947746",
    "request_type": "Trash/Recycling",
    "request_reason": "Missed Trash Pick-Up",
    "date_created": "2022-11-29T17:05:42.000",
    "date_modified": "2022-11-29T17:05:42.000",
    "request_status": "Pending",
    "responsible_agency": "Department of Sanitation",
    "final_address": "1904 Milan St",
    "address_councildis": "B",
    "status": "Assigned to Contractor",
    "contractor": "Richards Disposal",
    "rowid": "947746",
    "final_x": "3671439.90388",
    "final_y": "522084.324538",
    "longitude": "-90.100157211905",
    "latitude": "29.929852265746902",
    "geocoded_column": {
      "latitude": "29.929852265746902",
      "longitude": "-90.100157211905"
    }
  },
  {
    "service_request": "2022-947745",
    "request_type": "Traffic Signals/Signs/Striping/Streetlights",
    "request_reason": "Street Light Outage/Malfunction",
    "date_created": "2022-11-29T17:03:01.000",
    "date_modified": "2022-11-29T17:03:02.000",
    "request_status": "Pending",
    "responsible_agency": "Department of Public Works",
    "final_address": "9781 W Rockton Cir",
    "address_councildis": "E",
    "status": "Pending",
    "contractor": "Legacy Professional Services",
    "rowid": "947745",
    "final_x": "3708225.08574",
    "final_y": "562794.716768",
    "longitude": "-89.98251869808557",
    "latitude": "30.040650792953492",
    "geocoded_column": {
      "latitude": "30.040650792953492",
      "longitude": "-89.98251869808557"
    }
  },
  {
    "service_request": "2022-947744",
    "request_type": "Trash/Recycling",
    "request_reason": "MIssed Recycling Pick-Up",
    "date_created": "2022-11-29T17:02:42.000",
    "date_modified": "2022-11-29T17:02:43.000",
    "request_status": "Pending",
    "responsible_agency": "Department of Sanitation",
    "final_address": "415 S Alexander St",
    "address_councildis": "A",
    "status": "Assigned to Contractor",
    "contractor": "Richards Disposal",
    "rowid": "947744",
    "final_x": "3669139.80916",
    "final_y": "538106.073993",
    "longitude": "-90.10687687447187",
    "latitude": "29.97397469308735",
    "geocoded_column": {
      "latitude": "29.97397469308735",
      "longitude": "-90.10687687447187"
    }
  },
  {
    "service_request": "2022-947743",
    "request_type": "Trash/Recycling",
    "request_reason": "Order Recycling Cart",
    "date_created": "2022-11-29T17:01:16.000",
    "date_modified": "2022-11-29T17:01:16.000",
    "request_status": "Pending",
    "responsible_agency": "Department of Sanitation",
    "final_address": "3807 Clermont Dr",
    "address_councildis": "D",
    "status": "Pending",
    "rowid": "947743",
    "final_x": "3685414.94146",
    "final_y": "546699.923281",
    "longitude": "-90.05517369155547",
    "latitude": "29.997115702557466",
    "geocoded_column": {
      "latitude": "29.997115702557466",
      "longitude": "-90.05517369155547"
    }
  },
  {
    "service_request": "2022-947742",
    "request_type": "Trash/Recycling",
    "request_reason": "Repair Trash Cart",
    "date_created": "2022-11-29T17:00:27.000",
    "date_modified": "2022-11-29T17:00:28.000",
    "request_status": "Pending",
    "responsible_agency": "Department of Sanitation",
    "final_address": "4622 Banks St",
    "address_councildis": "A",
    "status": "Assigned to Contractor",
    "contractor": "Richards Disposal",
    "rowid": "947742",
    "final_x": "3668482.00826",
    "final_y": "538715.090185",
    "longitude": "-90.10893381135905",
    "latitude": "29.97566862644738",
    "geocoded_column": {
      "latitude": "29.97566862644738",
      "longitude": "-90.10893381135905"
    }
  },
  {
    "service_request": "2022-947741",
    "request_type": "Traffic Signals/Signs/Striping/Streetlights",
    "request_reason": "Street Light Outage/Malfunction",
    "date_created": "2022-11-29T16:59:23.000",
    "date_modified": "2022-11-29T16:59:24.000",
    "request_status": "Pending",
    "responsible_agency": "Department of Public Works",
    "final_address": "9781 W Rockton Cir",
    "address_councildis": "E",
    "status": "Pending",
    "contractor": "Legacy Professional Services",
    "rowid": "947741",
    "final_x": "3708225.08574",
    "final_y": "562794.716768",
    "longitude": "-89.98251869808557",
    "latitude": "30.040650792953492",
    "geocoded_column": {
      "latitude": "30.040650792953492",
      "longitude": "-89.98251869808557"
    }
  },
  {
    "service_request": "2022-947740",
    "request_type": "Trash/Recycling",
    "request_reason": "Repair Trash Cart",
    "date_created": "2022-11-29T16:58:57.000",
    "date_modified": "2022-11-29T16:58:58.000",
    "request_status": "Pending",
    "responsible_agency": "Department of Sanitation",
    "final_address": "9001 Dwyer Rd",
    "address_councildis": "E",
    "status": "Assigned to Contractor",
    "contractor": "Waste Pro",
    "rowid": "947740",
    "final_x": "3708138.88433",
    "final_y": "557104.482522",
    "longitude": "-89.98300304407148",
    "latitude": "30.025007686430968",
    "geocoded_column": {
      "latitude": "30.025007686430968",
      "longitude": "-89.98300304407148"
    }
  },
  {
    "service_request": "2022-947739",
    "request_type": "Trash/Recycling",
    "request_reason": "Request a Large Item Pick Up",
    "date_created": "2022-11-29T16:58:23.000",
    "date_modified": "2022-11-29T16:58:24.000",
    "request_status": "Pending",
    "responsible_agency": "Department of Sanitation",
    "final_address": "2669 Frankfort St",
    "address_councildis": "D",
    "status": "Assigned to Contractor",
    "contractor": "IV Waste",
    "rowid": "947739",
    "final_x": "3686877.43599",
    "final_y": "557212.430939",
    "longitude": "-90.05018186409828",
    "latitude": "30.025976308203568",
    "geocoded_column": {
      "latitude": "30.025976308203568",
      "longitude": "-90.05018186409828"
    }
  },
  {
    "service_request": "2022-947738",
    "request_type": "Traffic Signals/Signs/Striping/Streetlights",
    "request_reason": "Street Name Sign Damaged or Missing",
    "date_created": "2022-11-29T16:57:25.000",
    "date_modified": "2022-11-29T16:57:25.000",
    "request_status": "Pending",
    "responsible_agency": "Department of Public Works",
    "final_address": "BACCICH ST & MENDEZ ST",
    "address_councildis": "D",
    "status": "Pending",
    "rowid": "947738",
    "final_x": "3687618.6",
    "final_y": "553725.68",
    "longitude": "-90.04796348004174",
    "latitude": "30.016366195264617",
    "geocoded_column": {
      "latitude": "30.016366195264617",
      "longitude": "-90.04796348004174"
    }
  },
  {
    "service_request": "2022-947737",
    "request_type": "Trash/Recycling",
    "request_reason": "Missed Trash Pick-Up",
    "date_created": "2022-11-29T16:55:30.000",
    "date_modified": "2022-11-29T16:55:30.000",
    "request_status": "Pending",
    "responsible_agency": "Department of Sanitation",
    "final_address": "1904 Milan St, New Orleans, Louisiana, 70115",
    "address_councildis": "B",
    "status": "Assigned to Contractor",
    "contractor": "Richards Disposal",
    "rowid": "947737",
    "final_x": "3671439.90388",
    "final_y": "522084.324538",
    "longitude": "-90.100157211905",
    "latitude": "29.929852265746902",
    "geocoded_column": {
      "latitude": "29.929852265746902",
      "longitude": "-90.100157211905"
    }
  },
  {
    "service_request": "2022-947736",
    "request_type": "Trash/Recycling",
    "request_reason": "Order Recycling Cart",
    "date_created": "2022-11-29T16:55:11.000",
    "date_modified": "2022-11-29T16:55:12.000",
    "request_status": "Pending",
    "responsible_agency": "Department of Sanitation",
    "final_address": "5000 Bancroft Dr",
    "address_councildis": "D",
    "status": "Pending",
    "rowid": "947736",
    "final_x": "3676224.95387",
    "final_y": "550513.64226",
    "longitude": "-90.08407314915787",
    "latitude": "30.007880752204546",
    "geocoded_column": {
      "latitude": "30.007880752204546",
      "longitude": "-90.08407314915787"
    }
  },
  {
    "service_request": "2022-947735",
    "request_type": "Trash/Recycling",
    "request_reason": "Missed Trash Pick-Up",
    "date_created": "2022-11-29T16:54:26.000",
    "date_modified": "2022-11-29T16:54:26.000",
    "request_status": "Pending",
    "responsible_agency": "Department of Sanitation",
    "final_address": "4213 Dryades St, New Orleans, Louisiana, 70115",
    "address_councildis": "B",
    "status": "Assigned to Contractor",
    "contractor": "Richards Disposal",
    "rowid": "947735",
    "final_x": "3671381.05243",
    "final_y": "522053.635066",
    "longitude": "-90.10034403878781",
    "latitude": "29.929769620987777",
    "geocoded_column": {
      "latitude": "29.929769620987777",
      "longitude": "-90.10034403878781"
    }
  },
  {
    "service_request": "2022-947734",
    "request_type": "Trash/Recycling",
    "request_reason": "Request a Large Item Pick Up",
    "date_created": "2022-11-29T16:45:24.000",
    "date_modified": "2022-11-29T16:45:25.000",
    "request_status": "Pending",
    "responsible_agency": "Department of Sanitation",
    "final_address": "8901 Dwyer Rd",
    "address_councildis": "E",
    "status": "Assigned to Contractor",
    "contractor": "Waste Pro",
    "rowid": "947734",
    "final_x": "3707884.06897",
    "final_y": "557085.447514",
    "longitude": "-89.98380892120694",
    "latitude": "30.024963601995157",
    "geocoded_column": {
      "latitude": "30.024963601995157",
      "longitude": "-89.98380892120694"
    }
  },
  {
    "service_request": "2022-947733",
    "request_type": "Traffic Signals/Signs/Striping/Streetlights",
    "request_reason": "Street Light Outage/Malfunction",
    "date_created": "2022-11-29T16:45:06.000",
    "date_modified": "2022-11-29T16:45:07.000",
    "request_status": "Pending",
    "responsible_agency": "Department of Public Works",
    "final_address": "3300 BLK Fourth St",
    "address_councildis": "B",
    "status": "Pending",
    "contractor": "Legacy Professional Services",
    "rowid": "947733",
    "final_x": "3672748.67678",
    "final_y": "527901.187096",
    "longitude": "-90.09582731358294",
    "latitude": "29.945807951324863",
    "geocoded_column": {
      "latitude": "29.945807951324863",
      "longitude": "-90.09582731358294"
    }
  },
  {
    "service_request": "2022-947732",
    "request_type": "Trash/Recycling",
    "request_reason": "Replace Trash Cart",
    "date_created": "2022-11-29T16:44:38.000",
    "date_modified": "2022-11-29T16:44:39.000",
    "request_status": "Pending",
    "responsible_agency": "Department of Sanitation",
    "final_address": "508 Natchez St",
    "address_councildis": "B",
    "status": "Assigned to Contractor",
    "contractor": "Empire Services",
    "rowid": "947732",
    "final_x": "3681486.2998",
    "final_y": "529400.876929",
    "longitude": "-90.06818746321454",
    "latitude": "29.949669226492283",
    "geocoded_column": {
      "latitude": "29.949669226492283",
      "longitude": "-90.06818746321454"
    }
  },
  {
    "service_request": "2022-947731",
    "request_type": "Trash/Recycling",
    "request_reason": "Missed Trash Pick-Up",
    "date_created": "2022-11-29T16:44:26.000",
    "date_modified": "2022-11-29T16:44:27.000",
    "request_status": "Pending",
    "responsible_agency": "Department of Sanitation",
    "final_address": "11100 Wales St",
    "address_councildis": "E",
    "status": "Assigned to Contractor",
    "contractor": "Waste Pro",
    "rowid": "947731",
    "final_x": "3710380.48741",
    "final_y": "566723.663587",
    "longitude": "-89.97555983683561",
    "latitude": "30.051383772931196",
    "geocoded_column": {
      "latitude": "30.051383772931196",
      "longitude": "-89.97555983683561"
    }
  },
  {
    "service_request": "2022-947730",
    "request_type": "Trash/Recycling",
    "request_reason": "Request a Large Item Pick Up",
    "date_created": "2022-11-29T16:43:45.000",
    "date_modified": "2022-11-29T16:43:46.000",
    "request_status": "Pending",
    "responsible_agency": "Department of Sanitation",
    "final_address": "7541 Briarheath Dr",
    "address_councildis": "E",
    "status": "Assigned to Contractor",
    "contractor": "Waste Pro",
    "rowid": "947730",
    "final_x": "3714914.68735",
    "final_y": "566751.645731",
    "longitude": "-89.96122779905973",
    "latitude": "30.051312200476033",
    "geocoded_column": {
      "latitude": "30.051312200476033",
      "longitude": "-89.96122779905973"
    }
  },
  {
    "service_request": "2022-947729",
    "request_type": "Traffic Signals/Signs/Striping/Streetlights",
    "request_reason": "Street Light Outage/Malfunction",
    "date_created": "2022-11-29T16:43:43.000",
    "date_modified": "2022-11-29T16:43:43.000",
    "request_status": "Pending",
    "responsible_agency": "Department of Public Works",
    "final_address": "508 Natchez St",
    "address_councildis": "B",
    "status": "Pending",
    "contractor": "Legacy Professional Services",
    "rowid": "947729",
    "final_x": "3681486.2998",
    "final_y": "529400.876929",
    "longitude": "-90.06818746321454",
    "latitude": "29.949669226492283",
    "geocoded_column": {
      "latitude": "29.949669226492283",
      "longitude": "-90.06818746321454"
    }
  },
  {
    "service_request": "2022-947728",
    "request_type": "Trash/Recycling",
    "request_reason": "Request a Large Item Pick Up",
    "date_created": "2022-11-29T16:43:31.000",
    "date_modified": "2022-11-29T16:43:31.000",
    "request_status": "Pending",
    "responsible_agency": "Department of Sanitation",
    "final_address": "7652 Lucerne St",
    "address_councildis": "E",
    "status": "Assigned to Contractor",
    "contractor": "Waste Pro",
    "rowid": "947728",
    "final_x": "3710800.71633",
    "final_y": "565830.328419",
    "longitude": "-89.97426513185931",
    "latitude": "30.04891376414806",
    "geocoded_column": {
      "latitude": "30.04891376414806",
      "longitude": "-89.97426513185931"
    }
  },
  {
    "service_request": "2022-947727",
    "request_type": "Trash/Recycling",
    "request_reason": "MIssed Recycling Pick-Up",
    "date_created": "2022-11-29T16:40:55.000",
    "date_modified": "2022-11-29T16:40:56.000",
    "request_status": "Pending",
    "responsible_agency": "Department of Sanitation",
    "final_address": "4516 Chantilly Dr",
    "address_councildis": "E",
    "status": "Assigned to Contractor",
    "contractor": "Waste Pro",
    "rowid": "947727",
    "final_x": "3700914.16778",
    "final_y": "552986.853399",
    "longitude": "-90.00598256577835",
    "latitude": "30.013917905389018",
    "geocoded_column": {
      "latitude": "30.013917905389018",
      "longitude": "-90.00598256577835"
    }
  },
  {
    "service_request": "2022-947726",
    "request_type": "Abandoned Vehicles",
    "request_reason": "Abandoned/Junk Vehicles",
    "date_created": "2022-11-29T16:31:45.000",
    "date_modified": "2022-11-29T16:31:45.000",
    "request_status": "Pending",
    "responsible_agency": "Department of Public Works",
    "final_address": "7021 Yorktown Dr",
    "address_councildis": "E",
    "status": "Pending",
    "rowid": "947726",
    "final_x": "3706226.61015",
    "final_y": "560528.951262",
    "longitude": "-89.98891851514233",
    "latitude": "30.03448546108901",
    "geocoded_column": {
      "latitude": "30.03448546108901",
      "longitude": "-89.98891851514233"
    }
  },
  {
    "service_request": "2022-947725",
    "request_type": "Trash/Recycling",
    "request_reason": "Return Trash Cart",
    "date_created": "2022-11-29T16:28:08.000",
    "date_modified": "2022-11-29T16:28:09.000",
    "request_status": "Pending",
    "responsible_agency": "Department of Sanitation",
    "final_address": "1443 N Prieur St",
    "address_councildis": "D",
    "status": "Assigned to Contractor",
    "contractor": "IV Waste",
    "rowid": "947725",
    "final_x": "3680621.13461",
    "final_y": "537628.66068",
    "longitude": "-90.07063289916883",
    "latitude": "29.972319068051227",
    "geocoded_column": {
      "latitude": "29.972319068051227",
      "longitude": "-90.07063289916883"
    }
  },
  {
    "service_request": "2022-947724",
    "request_type": "Traffic Signals/Signs/Striping/Streetlights",
    "request_reason": "Street Light Outage/Malfunction",
    "date_created": "2022-11-29T16:26:09.000",
    "date_modified": "2022-11-29T16:26:09.000",
    "request_status": "Pending",
    "responsible_agency": "Department of Public Works",
    "final_address": "2622 N Rocheblave St",
    "address_councildis": "D",
    "status": "Pending",
    "contractor": "Legacy Professional Services",
    "rowid": "947724",
    "final_x": "3686672.0223",
    "final_y": "541218.885196",
    "longitude": "-90.05139634432379",
    "latitude": "29.982006187796664",
    "geocoded_column": {
      "latitude": "29.982006187796664",
      "longitude": "-90.05139634432379"
    }
  },
  {
    "service_request": "2022-947723",
    "request_type": "Traffic Signals/Signs/Striping/Streetlights",
    "request_reason": "Additional signage",
    "date_created": "2022-11-29T16:21:32.000",
    "date_modified": "2022-11-29T16:21:33.000",
    "request_status": "Pending",
    "responsible_agency": "Department of Public Works",
    "final_address": "2622 OReilly St",
    "address_councildis": "D",
    "status": "Pending",
    "rowid": "947723",
    "final_x": "3679812.75515",
    "final_y": "541425.880588",
    "longitude": "-90.07305400046684",
    "latitude": "29.982784577483525",
    "geocoded_column": {
      "latitude": "29.982784577483525",
      "longitude": "-90.07305400046684"
    }
  },
  {
    "service_request": "2022-947721",
    "request_type": "Trash/Recycling",
    "request_reason": "Replace Trash Cart",
    "date_created": "2022-11-29T16:20:06.000",
    "date_modified": "2022-11-29T16:20:06.000",
    "request_status": "Pending",
    "responsible_agency": "Department of Sanitation",
    "final_address": "236 Walnut Street NOLA 70118",
    "status": "Assigned to Contractor",
    "rowid": "947721",
    "longitude": "0.0",
    "latitude": "0.0",
    "geocoded_column": {
      "latitude": "0.0",
      "longitude": "0.0"
    }
  },
  {
    "service_request": "2022-947720",
    "request_type": "Trash/Recycling",
    "request_reason": "Missed Trash Pick-Up",
    "date_created": "2022-11-29T16:19:09.000",
    "date_modified": "2022-11-29T16:19:10.000",
    "request_status": "Pending",
    "responsible_agency": "Department of Sanitation",
    "final_address": "3435 Upperline St",
    "address_councildis": "B",
    "status": "Assigned to Contractor",
    "contractor": "Richards Disposal",
    "rowid": "947720",
    "final_x": "3669327.65684",
    "final_y": "527686.614655",
    "longitude": "-90.10663589884156",
    "latitude": "29.945319095464626",
    "geocoded_column": {
      "latitude": "29.945319095464626",
      "longitude": "-90.10663589884156"
    }
  },
  {
    "service_request": "2022-947719",
    "request_type": "Traffic Signals/Signs/Striping/Streetlights",
    "request_reason": "Striping/Road Surface Markings",
    "date_created": "2022-11-29T16:14:38.000",
    "date_modified": "2022-11-29T16:14:38.000",
    "request_status": "Pending",
    "responsible_agency": "Department of Public Works",
    "final_address": "1031 S Carrollton Ave",
    "address_councildis": "A",
    "status": "Pending",
    "rowid": "947719",
    "final_x": "3661802.12902",
    "final_y": "527925.366399",
    "longitude": "-90.13038859147233",
    "latitude": "29.94619497020936",
    "geocoded_column": {
      "latitude": "29.94619497020936",
      "longitude": "-90.13038859147233"
    }
  },
  {
    "service_request": "2022-947718",
    "request_type": "Trash/Recycling",
    "request_reason": "Request a Large Item Pick Up",
    "date_created": "2022-11-29T16:13:04.000",
    "date_modified": "2022-11-29T16:13:05.000",
    "request_status": "Pending",
    "responsible_agency": "Department of Sanitation",
    "final_address": "3636 Octavia St",
    "address_councildis": "A",
    "status": "Assigned to Contractor",
    "contractor": "Richards Disposal",
    "rowid": "947718",
    "final_x": "3668617.65089",
    "final_y": "528984.686848",
    "longitude": "-90.10883382265975",
    "latitude": "29.94890925309402",
    "geocoded_column": {
      "latitude": "29.94890925309402",
      "longitude": "-90.10883382265975"
    }
  },
  {
    "service_request": "2022-947717",
    "request_type": "Traffic Signals/Signs/Striping/Streetlights",
    "request_reason": "Street Light Outage/Malfunction",
    "date_created": "2022-11-29T16:10:00.000",
    "date_modified": "2022-11-29T16:10:01.000",
    "request_status": "Pending",
    "responsible_agency": "Department of Public Works",
    "final_address": "1125 Amelia St",
    "address_councildis": "B",
    "status": "Pending",
    "contractor": "Legacy Professional Services",
    "rowid": "947717",
    "final_x": "3673650.8644",
    "final_y": "519347.744119",
    "longitude": "-90.09327106945449",
    "latitude": "29.92226193674154",
    "geocoded_column": {
      "latitude": "29.92226193674154",
      "longitude": "-90.09327106945449"
    }
  },
  {
    "service_request": "2022-947716",
    "request_type": "Trash/Recycling",
    "request_reason": "MIssed Recycling Pick-Up",
    "date_created": "2022-11-29T16:09:38.000",
    "date_modified": "2022-11-29T16:09:38.000",
    "request_status": "Pending",
    "responsible_agency": "Department of Sanitation",
    "final_address": "1935 Shalett St",
    "address_councildis": "C",
    "status": "Assigned to Contractor",
    "contractor": "Richards Disposal",
    "rowid": "947716",
    "final_x": "3694189.72093",
    "final_y": "523209.485115",
    "longitude": "-90.02829980896051",
    "latitude": "29.932253246530045",
    "geocoded_column": {
      "latitude": "29.932253246530045",
      "longitude": "-90.02829980896051"
    }
  },
  {
    "service_request": "2022-947715",
    "request_type": "Trash/Recycling",
    "request_reason": "Missed Trash Pick-Up",
    "date_created": "2022-11-29T16:07:42.000",
    "date_modified": "2022-11-29T16:07:43.000",
    "request_status": "Pending",
    "responsible_agency": "Department of Sanitation",
    "final_address": "7 Marywood Ct",
    "address_councildis": "E",
    "status": "Assigned to Contractor",
    "contractor": "Waste Pro",
    "rowid": "947715",
    "final_x": "3712796.4828",
    "final_y": "566436.933283",
    "longitude": "-89.96793453627065",
    "latitude": "30.050516442446803",
    "geocoded_column": {
      "latitude": "30.050516442446803",
      "longitude": "-89.96793453627065"
    }
  },
  {
    "service_request": "2022-947714",
    "request_type": "Trash/Recycling",
    "request_reason": "Missed Trash Pick-Up",
    "date_created": "2022-11-29T16:07:37.000",
    "date_modified": "2022-11-29T16:07:38.000",
    "request_status": "Pending",
    "responsible_agency": "Department of Sanitation",
    "final_address": "1600 BLK Dufossat St",
    "address_councildis": "B",
    "status": "Assigned to Contractor",
    "contractor": "Richards Disposal",
    "rowid": "947714",
    "final_x": "3668128.84087",
    "final_y": "521330.24256",
    "longitude": "-90.11063510712879",
    "latitude": "29.92787634777468",
    "geocoded_column": {
      "latitude": "29.92787634777468",
      "longitude": "-90.11063510712879"
    }
  },
  {
    "service_request": "2022-947713",
    "request_type": "Trash/Recycling",
    "request_reason": "Order Recycling Cart",
    "date_created": "2022-11-29T16:06:18.000",
    "date_modified": "2022-11-29T16:06:18.000",
    "request_status": "Pending",
    "responsible_agency": "Department of Sanitation",
    "final_address": "1669 N Roman St",
    "address_councildis": "D",
    "status": "Pending",
    "rowid": "947713",
    "final_x": "3682093.75925",
    "final_y": "538723.393161",
    "longitude": "-90.06594385988028",
    "latitude": "29.975284498879706",
    "geocoded_column": {
      "latitude": "29.975284498879706",
      "longitude": "-90.06594385988028"
    }
  },
  {
    "service_request": "2022-947712",
    "request_type": "Traffic Signals/Signs/Striping/Streetlights",
    "request_reason": "Street Light Outage/Malfunction",
    "date_created": "2022-11-29T16:04:58.000",
    "date_modified": "2022-11-29T16:05:01.000",
    "request_status": "Pending",
    "responsible_agency": "Department of Public Works",
    "final_address": "10122 Seawood St",
    "address_councildis": "E",
    "status": "Pending",
    "contractor": "Legacy Professional Services",
    "rowid": "947712",
    "final_x": "3712890.82974",
    "final_y": "557338.186523",
    "longitude": "-89.96797901303802",
    "latitude": "30.025495445227595",
    "geocoded_column": {
      "latitude": "30.025495445227595",
      "longitude": "-89.96797901303802"
    }
  },
  {
    "service_request": "2022-947711",
    "request_type": "Trash/Recycling",
    "request_reason": "Order Trash Cart",
    "date_created": "2022-11-29T16:04:43.000",
    "date_modified": "2022-11-29T16:04:44.000",
    "request_status": "Pending",
    "responsible_agency": "Department of Sanitation",
    "final_address": "1669 N Roman St",
    "address_councildis": "D",
    "status": "Assigned to Contractor",
    "contractor": "IV Waste",
    "rowid": "947711",
    "final_x": "3682093.75925",
    "final_y": "538723.393161",
    "longitude": "-90.06594385988028",
    "latitude": "29.975284498879706",
    "geocoded_column": {
      "latitude": "29.975284498879706",
      "longitude": "-90.06594385988028"
    }
  },
  {
    "service_request": "2022-947710",
    "request_type": "Trash/Recycling",
    "request_reason": "Missed Trash Pick-Up",
    "date_created": "2022-11-29T16:04:41.000",
    "date_modified": "2022-11-29T16:04:42.000",
    "request_status": "Pending",
    "responsible_agency": "Department of Sanitation",
    "final_address": "1408 Leda St",
    "address_councildis": "A",
    "status": "Assigned to Contractor",
    "contractor": "IV Waste",
    "rowid": "947710",
    "final_x": "3675587.13301",
    "final_y": "541215.119692",
    "longitude": "-90.08640790191497",
    "latitude": "29.982332175216047",
    "geocoded_column": {
      "latitude": "29.982332175216047",
      "longitude": "-90.08640790191497"
    }
  },
  {
    "service_request": "2022-947709",
    "request_type": "Trash/Recycling",
    "request_reason": "Missed Trash Pick-Up",
    "date_created": "2022-11-29T16:02:07.000",
    "date_modified": "2022-11-29T16:02:08.000",
    "request_status": "Pending",
    "responsible_agency": "Department of Sanitation",
    "final_address": "8502 Gervais St",
    "address_councildis": "E",
    "status": "Assigned to Contractor",
    "contractor": "Waste Pro",
    "rowid": "947709",
    "final_x": "3703666.3194",
    "final_y": "562546.782048",
    "longitude": "-89.99693496289024",
    "latitude": "30.04011605386935",
    "geocoded_column": {
      "latitude": "30.04011605386935",
      "longitude": "-89.99693496289024"
    }
  },
  {
    "service_request": "2022-947708",
    "request_type": "Trash/Recycling",
    "request_reason": "Missed Trash Pick-Up",
    "date_created": "2022-11-29T16:01:36.000",
    "date_modified": "2022-11-29T16:01:37.000",
    "request_status": "Pending",
    "responsible_agency": "Department of Sanitation",
    "final_address": "7635 Benson St",
    "address_councildis": "E",
    "status": "Assigned to Contractor",
    "contractor": "Waste Pro",
    "rowid": "947708",
    "final_x": "3704426.22711",
    "final_y": "562631.582496",
    "longitude": "-89.99453029927389",
    "latitude": "30.040324830334864",
    "geocoded_column": {
      "latitude": "30.040324830334864",
      "longitude": "-89.99453029927389"
    }
  },
  {
    "service_request": "2022-947707",
    "request_type": "Trash/Recycling",
    "request_reason": "Repair Trash Cart",
    "date_created": "2022-11-29T16:00:30.000",
    "date_modified": "2022-11-29T16:00:31.000",
    "request_status": "Pending",
    "responsible_agency": "Department of Sanitation",
    "final_address": "4736 Coronado Dr",
    "address_councildis": "E",
    "status": "Assigned to Contractor",
    "contractor": "Waste Pro",
    "rowid": "947707",
    "final_x": "3714055.75154",
    "final_y": "556492.634586",
    "longitude": "-89.96432998979209",
    "latitude": "30.02313229335515",
    "geocoded_column": {
      "latitude": "30.02313229335515",
      "longitude": "-89.96432998979209"
    }
  },
  {
    "service_request": "2022-947706",
    "request_type": "Property Maintenance",
    "request_reason": "Property Maintenance",
    "date_created": "2022-11-29T15:59:47.000",
    "date_modified": "2022-11-29T15:59:48.000",
    "request_status": "Pending",
    "responsible_agency": "Department of Code Enforcement",
    "final_address": "MANDEVILLE ST & ABUNDANCE ST",
    "address_councildis": "D",
    "status": "Pending",
    "rowid": "947706",
    "final_x": "3685183.3",
    "final_y": "543731.78",
    "longitude": "-90.05600995708967",
    "latitude": "29.988961471448945",
    "geocoded_column": {
      "latitude": "29.988961471448945",
      "longitude": "-90.05600995708967"
    }
  },
  {
    "service_request": "2022-947705",
    "request_type": "Trash/Recycling",
    "request_reason": "Request a Large Item Pick Up",
    "date_created": "2022-11-29T15:59:30.000",
    "date_modified": "2022-11-29T15:59:31.000",
    "request_status": "Pending",
    "responsible_agency": "Department of Sanitation",
    "final_address": "1017 Moss St",
    "address_councildis": "A",
    "status": "Assigned to Contractor",
    "contractor": "Richards Disposal",
    "rowid": "947705",
    "final_x": "3674801.53985",
    "final_y": "539898.29537",
    "longitude": "-90.08893436203574",
    "latitude": "29.978734843836385",
    "geocoded_column": {
      "latitude": "29.978734843836385",
      "longitude": "-90.08893436203574"
    }
  },
  {
    "service_request": "2022-947704",
    "request_type": "Trash/Recycling",
    "request_reason": "Replace Trash Cart",
    "date_created": "2022-11-29T15:58:45.000",
    "date_modified": "2022-11-29T15:58:46.000",
    "request_status": "Pending",
    "responsible_agency": "Department of Sanitation",
    "final_address": "4900 Warren Dr",
    "address_councildis": "E",
    "status": "Assigned to Contractor",
    "contractor": "Waste Pro",
    "rowid": "947704",
    "final_x": "3713310.64395",
    "final_y": "557006.999514",
    "longitude": "-89.9666649565644",
    "latitude": "30.02457105052933",
    "geocoded_column": {
      "latitude": "30.02457105052933",
      "longitude": "-89.9666649565644"
    }
  },
  {
    "service_request": "2022-947703",
    "request_type": "Property Maintenance",
    "request_reason": "Property Maintenance",
    "date_created": "2022-11-29T15:56:10.000",
    "date_modified": "2022-11-29T15:56:10.000",
    "request_status": "Pending",
    "responsible_agency": "Department of Code Enforcement",
    "final_address": "7071 Yorktown Dr",
    "address_councildis": "E",
    "status": "Pending",
    "rowid": "947703",
    "final_x": "3706121.88004",
    "final_y": "560767.23619",
    "longitude": "-89.98924064131506",
    "latitude": "30.03514402921631",
    "geocoded_column": {
      "latitude": "30.03514402921631",
      "longitude": "-89.98924064131506"
    }
  },
  {
    "service_request": "2022-947700",
    "request_type": "Trash/Recycling",
    "request_reason": "MIssed Recycling Pick-Up",
    "date_created": "2022-11-29T15:55:30.000",
    "date_modified": "2022-11-29T15:55:31.000",
    "request_status": "Pending",
    "responsible_agency": "Department of Sanitation",
    "final_address": "3816 Baudin St",
    "address_councildis": "B",
    "status": "Assigned to Contractor",
    "contractor": "Richards Disposal",
    "rowid": "947700",
    "final_x": "3670994.39207",
    "final_y": "536351.771399",
    "longitude": "-90.10107925368656",
    "latitude": "29.969096238762873",
    "geocoded_column": {
      "latitude": "29.969096238762873",
      "longitude": "-90.10107925368656"
    }
  },
  {
    "service_request": "2022-947699",
    "request_type": "Traffic Signals/Signs/Striping/Streetlights",
    "request_reason": "Street Light Outage/Malfunction",
    "date_created": "2022-11-29T15:54:52.000",
    "date_modified": "2022-11-29T15:57:02.000",
    "request_status": "Pending",
    "responsible_agency": "Department of Public Works",
    "final_address": "3324 N Rampart St",
    "address_councildis": "C",
    "status": "Pending",
    "contractor": "Legacy Professional Services",
    "rowid": "947699",
    "final_x": "3689917.19792",
    "final_y": "535275.52327",
    "longitude": "-90.04135821934365",
    "latitude": "29.96556381411258",
    "geocoded_column": {
      "latitude": "29.96556381411258",
      "longitude": "-90.04135821934365"
    }
  },
  {
    "service_request": "2022-947698",
    "request_type": "Trash/Recycling",
    "request_reason": "MIssed Recycling Pick-Up",
    "date_created": "2022-11-29T15:54:37.000",
    "date_modified": "2022-11-29T15:54:38.000",
    "request_status": "Pending",
    "responsible_agency": "Department of Sanitation",
    "final_address": "725 Bartholomew St",
    "address_councildis": "C",
    "status": "Assigned to Contractor",
    "contractor": "IV Waste",
    "rowid": "947698",
    "final_x": "3691501.38608",
    "final_y": "534000.669573",
    "longitude": "-90.0364010056956",
    "latitude": "29.96200920340838",
    "geocoded_column": {
      "latitude": "29.96200920340838",
      "longitude": "-90.0364010056956"
    }
  },
  {
    "service_request": "2022-947697",
    "request_type": "Trash/Recycling",
    "request_reason": "Order Recycling Cart",
    "date_created": "2022-11-29T15:54:31.000",
    "date_modified": "2022-11-29T15:54:32.000",
    "request_status": "Pending",
    "responsible_agency": "Department of Sanitation",
    "final_address": "1429 France St",
    "address_councildis": "D",
    "status": "Pending",
    "rowid": "947697",
    "final_x": "3692754.25315",
    "final_y": "536502.606663",
    "longitude": "-90.03235495677534",
    "latitude": "29.968849596961153",
    "geocoded_column": {
      "latitude": "29.968849596961153",
      "longitude": "-90.03235495677534"
    }
  },
  {
    "service_request": "2022-947696",
    "request_type": "Traffic Signals/Signs/Striping/Streetlights",
    "request_reason": "Street Light Outage/Malfunction",
    "date_created": "2022-11-29T15:53:56.000",
    "date_modified": "2022-11-29T15:53:57.000",
    "request_status": "Pending",
    "responsible_agency": "Department of Public Works",
    "final_address": "3324 N Rampart St",
    "address_councildis": "C",
    "status": "Pending",
    "contractor": "Legacy Professional Services",
    "rowid": "947696",
    "final_x": "3689917.19792",
    "final_y": "535275.52327",
    "longitude": "-90.04135821934365",
    "latitude": "29.96556381411258",
    "geocoded_column": {
      "latitude": "29.96556381411258",
      "longitude": "-90.04135821934365"
    }
  },
  {
    "service_request": "2022-947695",
    "request_type": "Trash/Recycling",
    "request_reason": "Replace Trash Cart",
    "date_created": "2022-11-29T15:49:12.000",
    "date_modified": "2022-11-29T15:49:13.000",
    "request_status": "Pending",
    "responsible_agency": "Department of Sanitation",
    "final_address": "3113 N Derbigny St",
    "address_councildis": "D",
    "status": "Assigned to Contractor",
    "contractor": "IV Waste",
    "rowid": "947695",
    "final_x": "3689740.78582",
    "final_y": "538246.844169",
    "longitude": "-90.0418095566294",
    "latitude": "29.97373937016249",
    "geocoded_column": {
      "latitude": "29.97373937016249",
      "longitude": "-90.0418095566294"
    }
  },
  {
    "service_request": "2022-947694",
    "request_type": "Trash/Recycling",
    "request_reason": "MIssed Recycling Pick-Up",
    "date_created": "2022-11-29T15:49:07.000",
    "date_modified": "2022-11-29T15:49:07.000",
    "request_status": "Pending",
    "responsible_agency": "Department of Sanitation",
    "final_address": "1619 Horace St",
    "address_councildis": "C",
    "status": "Assigned to Contractor",
    "contractor": "Richards Disposal",
    "rowid": "947694",
    "final_x": "3696262.57399",
    "final_y": "525288.686141",
    "longitude": "-90.02168090736514",
    "latitude": "29.93790525620398",
    "geocoded_column": {
      "latitude": "29.93790525620398",
      "longitude": "-90.02168090736514"
    }
  },
  {
    "service_request": "2022-947693",
    "request_type": "Trash/Recycling",
    "request_reason": "Order Recycling Cart",
    "date_created": "2022-11-29T15:48:12.000",
    "date_modified": "2022-11-29T15:48:12.000",
    "request_status": "Pending",
    "responsible_agency": "Department of Sanitation",
    "final_address": "3113 N Derbigny St",
    "address_councildis": "D",
    "status": "Pending",
    "rowid": "947693",
    "final_x": "3689740.78582",
    "final_y": "538246.844169",
    "longitude": "-90.0418095566294",
    "latitude": "29.97373937016249",
    "geocoded_column": {
      "latitude": "29.97373937016249",
      "longitude": "-90.0418095566294"
    }
  },
  {
    "service_request": "2022-947692",
    "request_type": "Trash/Recycling",
    "request_reason": "Missed Trash Pick-Up",
    "date_created": "2022-11-29T15:46:26.000",
    "date_modified": "2022-11-29T15:46:27.000",
    "request_status": "Pending",
    "responsible_agency": "Department of Sanitation",
    "final_address": "212 Norland Ave",
    "address_councildis": "C",
    "status": "Assigned to Contractor",
    "contractor": "Richards Disposal",
    "rowid": "947692",
    "final_x": "3706613.75281",
    "final_y": "520470.194744",
    "longitude": "-89.98918010316903",
    "latitude": "29.92432623069721",
    "geocoded_column": {
      "latitude": "29.92432623069721",
      "longitude": "-89.98918010316903"
    }
  },
  {
    "service_request": "2022-947691",
    "request_type": "Trash/Recycling",
    "request_reason": "Missed Trash Pick-Up",
    "date_created": "2022-11-29T15:45:22.000",
    "date_modified": "2022-11-29T15:51:21.000",
    "request_status": "Pending",
    "responsible_agency": "Department of Sanitation",
    "final_address": "8502 Gervais St",
    "address_councildis": "E",
    "status": "Assigned to Contractor",
    "contractor": "Waste Pro",
    "rowid": "947691",
    "final_x": "3703666.3194",
    "final_y": "562546.782048",
    "longitude": "-89.99693496289024",
    "latitude": "30.04011605386935",
    "geocoded_column": {
      "latitude": "30.04011605386935",
      "longitude": "-89.99693496289024"
    }
  },
  {
    "service_request": "2022-947690",
    "request_type": "Property Maintenance",
    "request_reason": "Property Maintenance",
    "date_created": "2022-11-29T15:43:56.000",
    "date_modified": "2022-11-29T15:43:56.000",
    "request_status": "Pending",
    "responsible_agency": "Department of Code Enforcement",
    "final_address": "10921 Kinneil Rd",
    "address_councildis": "E",
    "status": "Pending",
    "rowid": "947690",
    "final_x": "3711338.14629",
    "final_y": "564312.724769",
    "longitude": "-89.97262350840509",
    "latitude": "30.04472342843068",
    "geocoded_column": {
      "latitude": "30.04472342843068",
      "longitude": "-89.97262350840509"
    }
  },
  {
    "service_request": "2022-947689",
    "request_type": "Traffic Signals/Signs/Striping/Streetlights",
    "request_reason": "Street Light Outage/Malfunction",
    "date_created": "2022-11-29T15:36:53.000",
    "date_modified": "2022-11-29T15:36:54.000",
    "request_status": "Pending",
    "responsible_agency": "Department of Public Works",
    "final_address": "10730 Dreux Ave",
    "address_councildis": "E",
    "status": "Pending",
    "contractor": "Legacy Professional Services",
    "rowid": "947689",
    "final_x": "3715345.64031",
    "final_y": "555972.798041",
    "longitude": "-89.96027395263788",
    "latitude": "30.0216605110693",
    "geocoded_column": {
      "latitude": "30.0216605110693",
      "longitude": "-89.96027395263788"
    }
  },
  {
    "service_request": "2022-947688",
    "request_type": "Trash/Recycling",
    "request_reason": "Repair Trash Cart",
    "date_created": "2022-11-29T15:34:20.000",
    "date_modified": "2022-11-29T15:34:21.000",
    "request_status": "Pending",
    "responsible_agency": "Department of Sanitation",
    "final_address": "3625 Napoleon Ave",
    "address_councildis": "B",
    "status": "Assigned to Contractor",
    "contractor": "Richards Disposal",
    "rowid": "947688",
    "final_x": "3670233.44257",
    "final_y": "528023.318143",
    "longitude": "-90.1037646300207",
    "latitude": "29.94621822555074",
    "geocoded_column": {
      "latitude": "29.94621822555074",
      "longitude": "-90.1037646300207"
    }
  },
  {
    "service_request": "2022-947687",
    "request_type": "Trash/Recycling",
    "request_reason": "Missed Trash Pick-Up",
    "date_created": "2022-11-29T15:32:33.000",
    "date_modified": "2022-11-29T15:32:34.000",
    "request_status": "Pending",
    "responsible_agency": "Department of Sanitation",
    "final_address": "5353 Perrier St",
    "address_councildis": "B",
    "status": "Assigned to Contractor",
    "contractor": "Richards Disposal",
    "rowid": "947687",
    "final_x": "3667230.41421",
    "final_y": "520102.297272",
    "longitude": "-90.11351250634239",
    "latitude": "29.924526217147832",
    "geocoded_column": {
      "latitude": "29.924526217147832",
      "longitude": "-90.11351250634239"
    }
  },
  {
    "service_request": "2022-947686",
    "request_type": "Roads/Drainage",
    "request_reason": "Pothole",
    "date_created": "2022-11-29T15:29:25.000",
    "date_modified": "2022-11-29T15:29:25.000",
    "request_status": "Pending",
    "responsible_agency": "Department of Public Works",
    "final_address": "8700 Spruce St",
    "address_councildis": "A",
    "status": "Pending",
    "rowid": "947686",
    "final_x": "3662230.15354",
    "final_y": "531884.220035",
    "longitude": "-90.12890577742411",
    "latitude": "29.95706818071898",
    "geocoded_column": {
      "latitude": "29.95706818071898",
      "longitude": "-90.12890577742411"
    }
  },
  {
    "service_request": "2022-947685",
    "request_type": "Trash/Recycling",
    "request_reason": "Repair Trash Cart",
    "date_created": "2022-11-29T15:27:39.000",
    "date_modified": "2022-11-29T15:27:40.000",
    "request_status": "Pending",
    "responsible_agency": "Department of Sanitation",
    "final_address": "320 New Orleans-Hammond Hwy",
    "address_councildis": "A",
    "status": "Assigned to Contractor",
    "contractor": "IV Waste",
    "rowid": "947685",
    "final_x": "3665678.44442",
    "final_y": "554479.276376",
    "longitude": "-90.11725988710648",
    "latitude": "30.019096807649042",
    "geocoded_column": {
      "latitude": "30.019096807649042",
      "longitude": "-90.11725988710648"
    }
  },
  {
    "service_request": "2022-947684",
    "request_type": "Trash/Recycling",
    "request_reason": "Request a Large Item Pick Up",
    "date_created": "2022-11-29T15:23:07.000",
    "date_modified": "2022-11-29T15:23:07.000",
    "request_status": "Pending",
    "responsible_agency": "Department of Sanitation",
    "final_address": "5947 Brighton Pl",
    "address_councildis": "C",
    "status": "Assigned to Contractor",
    "contractor": "Richards Disposal",
    "rowid": "947684",
    "final_x": "3705975.53495",
    "final_y": "520033.599288",
    "longitude": "-89.991210861841",
    "latitude": "29.92314631596679",
    "geocoded_column": {
      "latitude": "29.92314631596679",
      "longitude": "-89.991210861841"
    }
  },
  {
    "service_request": "2022-947683",
    "request_type": "Trash/Recycling",
    "request_reason": "Missed Trash Pick-Up",
    "date_created": "2022-11-29T15:20:57.000",
    "date_modified": "2022-11-29T15:20:58.000",
    "request_status": "Pending",
    "responsible_agency": "Department of Sanitation",
    "final_address": "13401 River Rd",
    "address_councildis": "C",
    "status": "Assigned to Contractor",
    "contractor": "Richards Disposal",
    "rowid": "947683",
    "final_x": "3731534.9296",
    "final_y": "508492.962669",
    "longitude": "-89.91098320165355",
    "latitude": "29.89056585782083",
    "geocoded_column": {
      "latitude": "29.89056585782083",
      "longitude": "-89.91098320165355"
    }
  },
  {
    "service_request": "2022-947682",
    "request_type": "Trash/Recycling",
    "request_reason": "Order Recycling Cart",
    "date_created": "2022-11-29T15:16:25.000",
    "date_modified": "2022-11-29T15:16:25.000",
    "request_status": "Pending",
    "responsible_agency": "Department of Sanitation",
    "final_address": "7111 E Laverne St",
    "address_councildis": "D",
    "status": "Pending",
    "rowid": "947682",
    "final_x": "3697172.48151",
    "final_y": "557098.219418",
    "longitude": "-90.01765516688695",
    "latitude": "30.02534125388553",
    "geocoded_column": {
      "latitude": "30.02534125388553",
      "longitude": "-90.01765516688695"
    }
  },
  {
    "service_request": "2022-947681",
    "request_type": "Trash/Recycling",
    "request_reason": "Repair Trash Cart",
    "date_created": "2022-11-29T15:15:35.000",
    "date_modified": "2022-11-29T15:15:36.000",
    "request_status": "Pending",
    "responsible_agency": "Department of Sanitation",
    "final_address": "4450 Arts St",
    "address_councildis": "D",
    "status": "Assigned to Contractor",
    "contractor": "IV Waste",
    "rowid": "947681",
    "final_x": "3685973.76572",
    "final_y": "549252.133203",
    "longitude": "-90.05331832930669",
    "latitude": "30.0041162065937",
    "geocoded_column": {
      "latitude": "30.0041162065937",
      "longitude": "-90.05331832930669"
    }
  },
  {
    "service_request": "2022-947680",
    "request_type": "Traffic Signals/Signs/Striping/Streetlights",
    "request_reason": "Street Light Outage/Malfunction",
    "date_created": "2022-11-29T15:12:33.000",
    "date_modified": "2022-11-29T15:12:34.000",
    "request_status": "Pending",
    "responsible_agency": "Department of Public Works",
    "final_address": "4324 Freret St",
    "address_councildis": "B",
    "status": "Pending",
    "contractor": "Legacy Professional Services",
    "rowid": "947680",
    "final_x": "3670751.79534",
    "final_y": "524031.686972",
    "longitude": "-90.10226341063857",
    "latitude": "29.935227231033753",
    "geocoded_column": {
      "latitude": "29.935227231033753",
      "longitude": "-90.10226341063857"
    }
  },
  {
    "service_request": "2022-947679",
    "request_type": "Trash/Recycling",
    "request_reason": "Replace Trash Cart",
    "date_created": "2022-11-29T15:09:50.000",
    "date_modified": "2022-11-29T15:09:52.000",
    "request_status": "Pending",
    "responsible_agency": "Department of Sanitation",
    "final_address": "603 Robert St",
    "address_councildis": "B",
    "status": "Assigned to Contractor",
    "contractor": "Richards Disposal",
    "rowid": "947679",
    "final_x": "3668638.77914",
    "final_y": "517585.307958",
    "longitude": "-90.1091516477135",
    "latitude": "29.917563990475188",
    "geocoded_column": {
      "latitude": "29.917563990475188",
      "longitude": "-90.1091516477135"
    }
  },
  {
    "service_request": "2022-947678",
    "request_type": "Parks & Parkways",
    "request_reason": "Trucks hitting overhead oak tree limbs",
    "date_created": "2022-11-29T15:08:08.000",
    "date_modified": "2022-11-29T15:08:08.000",
    "request_status": "Pending",
    "responsible_agency": "Department of Parks & Parkway",
    "final_address": "1330 Poland Ave",
    "address_councildis": "D",
    "status": "Pending",
    "rowid": "947678",
    "final_x": "3693228.95331",
    "final_y": "536030.455943",
    "longitude": "-90.03087277936461",
    "latitude": "29.96753652123824",
    "geocoded_column": {
      "latitude": "29.96753652123824",
      "longitude": "-90.03087277936461"
    }
  },
  {
    "service_request": "2022-947677",
    "request_type": "Trash/Recycling",
    "request_reason": "Order Recycling Cart",
    "date_created": "2022-11-29T15:07:58.000",
    "date_modified": "2022-11-29T15:07:59.000",
    "request_status": "Pending",
    "responsible_agency": "Department of Sanitation",
    "final_address": "7520 E Oak Ridge Ct",
    "address_councildis": "E",
    "status": "Pending",
    "rowid": "947677",
    "final_x": "3713794.75013",
    "final_y": "568038.740709",
    "longitude": "-89.96471892753779",
    "latitude": "30.054888012799623",
    "geocoded_column": {
      "latitude": "30.054888012799623",
      "longitude": "-89.96471892753779"
    }
  },
  {
    "service_request": "2022-947676",
    "request_type": "Trash/Recycling",
    "request_reason": "Missed Trash Pick-Up",
    "date_created": "2022-11-29T15:07:37.000",
    "date_modified": "2022-11-29T15:07:38.000",
    "request_status": "Pending",
    "responsible_agency": "Department of Sanitation",
    "final_address": "7520 E Oak Ridge Ct",
    "address_councildis": "E",
    "status": "Assigned to Contractor",
    "contractor": "Waste Pro",
    "rowid": "947676",
    "final_x": "3713794.75013",
    "final_y": "568038.740709",
    "longitude": "-89.96471892753779",
    "latitude": "30.054888012799623",
    "geocoded_column": {
      "latitude": "30.054888012799623",
      "longitude": "-89.96471892753779"
    }
  },
  {
    "service_request": "2022-947675",
    "request_type": "Traffic Signals/Signs/Striping/Streetlights",
    "request_reason": "Disabled Parking Sign ",
    "date_created": "2022-11-29T15:07:06.000",
    "date_modified": "2022-11-29T15:07:06.000",
    "request_status": "Pending",
    "responsible_agency": "Department of Public Works",
    "final_address": "1342 St Bernard Ave",
    "address_councildis": "C",
    "status": "Pending",
    "rowid": "947675",
    "final_x": "3682655.78191",
    "final_y": "536842.34356",
    "longitude": "-90.06423464369658",
    "latitude": "29.970095159800493",
    "geocoded_column": {
      "latitude": "29.970095159800493",
      "longitude": "-90.06423464369658"
    }
  },
  {
    "service_request": "2022-947674",
    "request_type": "Traffic Signals/Signs/Striping/Streetlights",
    "request_reason": "Street Light Knocked Down/Leaning",
    "date_created": "2022-11-29T15:05:25.000",
    "date_modified": "2022-11-29T15:05:26.000",
    "request_status": "Pending",
    "responsible_agency": "Department of Public Works",
    "final_address": "324 Homedale St",
    "address_councildis": "A",
    "status": "Pending",
    "contractor": "Legacy Professional Services",
    "rowid": "947674",
    "final_x": "3667014.81588",
    "final_y": "544614.093711",
    "longitude": "-90.11336927075119",
    "latitude": "29.991931917174856",
    "geocoded_column": {
      "latitude": "29.991931917174856",
      "longitude": "-90.11336927075119"
    }
  },
  {
    "service_request": "2022-947673",
    "request_type": "Trash/Recycling",
    "request_reason": "Order Recycling Cart",
    "date_created": "2022-11-29T15:02:29.000",
    "date_modified": "2022-11-29T15:02:30.000",
    "request_status": "Pending",
    "responsible_agency": "Department of Sanitation",
    "final_address": "1941 Fats Domino Ave",
    "address_councildis": "E",
    "status": "Pending",
    "rowid": "947673",
    "final_x": "3698951.7976",
    "final_y": "537042.4274",
    "longitude": "-90.01276319644795",
    "latitude": "29.970138971282754",
    "geocoded_column": {
      "latitude": "29.970138971282754",
      "longitude": "-90.01276319644795"
    }
  },
  {
    "service_request": "2022-947672",
    "request_type": "Trash/Recycling",
    "request_reason": "Request a Large Item Pick Up",
    "date_created": "2022-11-29T15:02:12.000",
    "date_modified": "2022-11-29T15:02:13.000",
    "request_status": "Pending",
    "responsible_agency": "Department of Sanitation",
    "final_address": "5622 Campus Blvd",
    "address_councildis": "D",
    "status": "Assigned to Contractor",
    "contractor": "IV Waste",
    "rowid": "947672",
    "final_x": "3689133.29199",
    "final_y": "553944.167768",
    "longitude": "-90.04316995089208",
    "latitude": "30.01692014863199",
    "geocoded_column": {
      "latitude": "30.01692014863199",
      "longitude": "-90.04316995089208"
    }
  },
  {
    "service_request": "2022-947671",
    "request_type": "Roads/Drainage",
    "request_reason": "Street Flooding / Drainage",
    "date_created": "2022-11-29T15:01:09.000",
    "date_modified": "2022-11-29T15:01:09.000",
    "request_status": "Pending",
    "responsible_agency": "Department of Public Works",
    "final_address": "1121 Carondelet St",
    "address_councildis": "B",
    "status": "Pending",
    "rowid": "947671",
    "final_x": "3679276.56303",
    "final_y": "526730.092798",
    "longitude": "-90.07525719764539",
    "latitude": "29.942392362999723",
    "geocoded_column": {
      "latitude": "29.942392362999723",
      "longitude": "-90.07525719764539"
    }
  },
  {
    "service_request": "2022-947670",
    "request_type": "Roads/Drainage",
    "request_reason": "Debris in Roadway",
    "date_created": "2022-11-29T14:58:43.000",
    "date_modified": "2022-11-29T14:58:43.000",
    "request_status": "Pending",
    "responsible_agency": "Department of Public Works",
    "final_address": "4516 Conti St",
    "address_councildis": "A",
    "status": "Pending",
    "rowid": "947670",
    "final_x": "3670240.68263",
    "final_y": "540408.996299",
    "longitude": "-90.10332198515404",
    "latitude": "29.98027450456473",
    "geocoded_column": {
      "latitude": "29.98027450456473",
      "longitude": "-90.10332198515404"
    }
  },
  {
    "service_request": "2022-947669",
    "request_type": "Parks & Parkways",
    "request_reason": "Request Tree Service (Right of Way/Public Property)",
    "date_created": "2022-11-29T14:57:24.000",
    "date_modified": "2022-11-29T14:57:25.000",
    "case_close_date": "2021-09-27T19:00:00.000",
    "request_status": "Pending",
    "responsible_agency": "Department of Parks & Parkway",
    "final_address": "4308 Bienville Ave",
    "address_councildis": "A",
    "status": "Pending",
    "rowid": "947669",
    "final_x": "3670631.12443",
    "final_y": "539585.238602",
    "longitude": "-90.10211675754222",
    "latitude": "29.97799792027038",
    "geocoded_column": {
      "latitude": "29.97799792027038",
      "longitude": "-90.10211675754222"
    }
  },
  {
    "service_request": "2022-947668",
    "request_type": "Trash/Recycling",
    "request_reason": "Missed Trash Pick-Up",
    "date_created": "2022-11-29T14:54:54.000",
    "date_modified": "2022-11-29T14:54:56.000",
    "request_status": "Pending",
    "responsible_agency": "Department of Sanitation",
    "final_address": "2634 Upperline St",
    "address_councildis": "B",
    "status": "Assigned to Contractor",
    "contractor": "Richards Disposal",
    "rowid": "947668",
    "final_x": "3669146.60993",
    "final_y": "524540.253052",
    "longitude": "-90.10731381522838",
    "latitude": "29.93667294696024",
    "geocoded_column": {
      "latitude": "29.93667294696024",
      "longitude": "-90.10731381522838"
    }
  },
  {
    "service_request": "2022-947667",
    "request_type": "Trash/Recycling",
    "request_reason": "Request a Large Item Pick Up",
    "date_created": "2022-11-29T14:53:29.000",
    "date_modified": "2022-11-29T14:55:19.000",
    "request_status": "Pending",
    "responsible_agency": "Department of Sanitation",
    "final_address": "4926 Eunice Dr",
    "address_councildis": "E",
    "status": "Assigned to Contractor",
    "contractor": "Waste Pro",
    "rowid": "947667",
    "final_x": "3710356.35281",
    "final_y": "556913.646298",
    "longitude": "-89.97600340831016",
    "latitude": "30.024410922000026",
    "geocoded_column": {
      "latitude": "30.024410922000026",
      "longitude": "-89.97600340831016"
    }
  },
  {
    "service_request": "2022-947666",
    "request_type": "Roads/Drainage",
    "request_reason": "Pothole",
    "date_created": "2022-11-29T14:53:10.000",
    "date_modified": "2022-11-29T14:54:34.000",
    "request_status": "Pending",
    "responsible_agency": "Department of Public Works",
    "final_address": "1208 N Miro St",
    "address_councildis": "D",
    "status": "Pending",
    "rowid": "947666",
    "final_x": "3679278.66434",
    "final_y": "537416.286472",
    "longitude": "-90.07488001782122",
    "latitude": "29.97177572164487",
    "geocoded_column": {
      "latitude": "29.97177572164487",
      "longitude": "-90.07488001782122"
    }
  },
  {
    "service_request": "2022-947665",
    "request_type": "Roads/Drainage",
    "request_reason": "Pothole",
    "date_created": "2022-11-29T14:52:41.000",
    "date_modified": "2022-11-29T14:52:41.000",
    "request_status": "Pending",
    "responsible_agency": "Department of Public Works",
    "final_address": "137 N Hennessey St",
    "address_councildis": "A",
    "status": "Pending",
    "rowid": "947665",
    "final_x": "3670496.89729",
    "final_y": "539290.28321",
    "longitude": "-90.10255070153374",
    "latitude": "29.97719085793684",
    "geocoded_column": {
      "latitude": "29.97719085793684",
      "longitude": "-90.10255070153374"
    }
  },
  {
    "service_request": "2022-947664",
    "request_type": "Property Maintenance",
    "request_reason": "Property Maintenance",
    "date_created": "2022-11-29T14:49:52.000",
    "date_modified": "2022-11-29T14:49:53.000",
    "request_status": "Pending",
    "responsible_agency": "Department of Code Enforcement",
    "final_address": "7526 Read Blvd",
    "address_councildis": "E",
    "status": "Pending",
    "rowid": "947664",
    "final_x": "3708514.281",
    "final_y": "564339.662561",
    "longitude": "-89.98154715125597",
    "latitude": "30.044889399839686",
    "geocoded_column": {
      "latitude": "30.044889399839686",
      "longitude": "-89.98154715125597"
    }
  },