[
  {
    "service_request": "2024-1147141",
    "request_type": "Trash/Recycling",
    "request_reason": "Illegal Dumping",
    "date_created": "2024-11-07T23:09:34.000",
    "date_modified": "2024-11-07T23:09:34.000",
    "request_status": "Pending",
    "responsible_agency": "Department of Sanitation",
    "final_address": "14449 Peltier Dr",
    "address_councildis": "E",
    "status": "Pending",
    "rowid": "1147141",
    "final_x": "3730650.5401",
    "final_y": "562628.399072",
    "longitude": "-89.91165440670444",
    "latitude": "30.03944750278593",
    "geocoded_column": {
      "latitude": "30.03944750278593",
      "longitude": "-89.91165440670444"
    }
  },
  {
    "service_request": "2024-1147140",
    "request_type": "Streetlights",
    "request_reason": "Streetlight Outage/Malfunction",
    "date_created": "2024-11-07T22:36:22.000",
    "date_modified": "2024-11-07T22:36:23.000",
    "request_status": "Pending",
    "responsible_agency": "Department of Public Works",
    "final_address": "7735 Plum St",
    "address_councildis": "A",
    "status": "Pending",
    "contractor": "Legacy Professional Services",
    "rowid": "1147140",
    "final_x": "3663090.8736",
    "final_y": "527870.011775",
    "longitude": "-90.12632140099372",
    "latitude": "29.94600549757315",
    "geocoded_column": {
      "latitude": "29.94600549757315",
      "longitude": "-90.12632140099372"
    }
  },
  {
    "service_request": "2024-1147139",
    "request_type": "Abandoned Vehicles",
    "request_reason": "Abandoned/Junk Vehicles",
    "date_created": "2024-11-07T22:26:48.000",
    "date_modified": "2024-11-07T22:26:48.000",
    "request_status": "Pending",
    "responsible_agency": "Department of Public Works",
    "final_address": "3301 Highway 406",
    "address_councildis": "C",
    "status": "Pending",
    "rowid": "1147139",
    "final_x": "3713102.66251",
    "final_y": "516013.242932",
    "longitude": "-89.96886461292684",
    "latitude": "29.91186028738021",
    "geocoded_column": {
      "latitude": "29.91186028738021",
      "longitude": "-89.96886461292684"
    }
  },
  {
    "service_request": "2024-1147138",
    "request_type": "Trash/Recycling",
    "request_reason": "Order Second Trash Cart",
    "date_created": "2024-11-07T21:24:34.000",
    "date_modified": "2024-11-07T21:24:35.000",
    "request_status": "Pending",
    "responsible_agency": "Department of Sanitation",
    "final_address": "328 State St",
    "address_councildis": "A",
    "status": "Assigned to Contractor",
    "contractor": "IV Waste",
    "rowid": "1147138",
    "final_x": "3664185.56224",
    "final_y": "517771.213046",
    "longitude": "-90.12320182579411",
    "latitude": "29.918205241652537",
    "geocoded_column": {
      "latitude": "29.918205241652537",
      "longitude": "-90.12320182579411"
    }
  },
  {
    "service_request": "2024-1147137",
    "request_type": "Streetlights",
    "request_reason": "Streetlight Outage/Malfunction",
    "date_created": "2024-11-07T20:46:55.000",
    "date_modified": "2024-11-07T20:46:56.000",
    "request_status": "Pending",
    "responsible_agency": "Department of Public Works",
    "final_address": "6700 BLK Memphis St",
    "address_councildis": "A",
    "status": "Pending",
    "contractor": "Legacy Professional Services",
    "rowid": "1147137",
    "final_x": "3669647.69676",
    "final_y": "552279.96511",
    "longitude": "-90.10479289476395",
    "latitude": "30.012933053187943",
    "geocoded_column": {
      "latitude": "30.012933053187943",
      "longitude": "-90.10479289476395"
    }
  },
  {
    "service_request": "2024-1147136",
    "request_type": "Streetlights",
    "request_reason": "Streetlight Outage/Malfunction",
    "date_created": "2024-11-07T20:39:09.000",
    "date_modified": "2024-11-07T20:39:11.000",
    "request_status": "Pending",
    "responsible_agency": "Department of Public Works",
    "final_address": "2757 Danbury Dr",
    "address_councildis": "C",
    "status": "Pending",
    "contractor": "Legacy Professional Services",
    "rowid": "1147136",
    "final_x": "3703588.9955",
    "final_y": "520521.711608",
    "longitude": "-89.99872624869938",
    "latitude": "29.924565102963733",
    "geocoded_column": {
      "latitude": "29.924565102963733",
      "longitude": "-89.99872624869938"
    }
  },
  {
    "service_request": "2024-1147135",
    "request_type": "Streetlights",
    "request_reason": "Streetlight Outage/Malfunction",
    "date_created": "2024-11-07T20:37:03.000",
    "date_modified": "2024-11-07T20:37:05.000",
    "request_status": "Pending",
    "responsible_agency": "Department of Public Works",
    "final_address": "4256 Joycelyn Dr",
    "address_councildis": "C",
    "status": "Pending",
    "contractor": "Legacy Professional Services",
    "rowid": "1147135",
    "final_x": "3708253.58347",
    "final_y": "515005.993971",
    "longitude": "-89.98420685859895",
    "latitude": "29.909248584565965",
    "geocoded_column": {
      "latitude": "29.909248584565965",
      "longitude": "-89.98420685859895"
    }
  },
  {
    "service_request": "2024-1147134",
    "request_type": "Streetlights",
    "request_reason": "Streetlight Outage/Malfunction",
    "date_created": "2024-11-07T20:13:25.000",
    "date_modified": "2024-11-07T20:13:26.000",
    "request_status": "Pending",
    "responsible_agency": "Department of Public Works",
    "final_address": "6435 Center St",
    "address_councildis": "A",
    "status": "Pending",
    "contractor": "Legacy Professional Services",
    "rowid": "1147134",
    "final_x": "3664934.59693",
    "final_y": "550892.197141",
    "longitude": "-90.11973023961914",
    "latitude": "30.009255279017122",
    "geocoded_column": {
      "latitude": "30.009255279017122",
      "longitude": "-90.11973023961914"
    }
  },
  {
    "service_request": "2024-1147133",
    "request_type": "Trash/Recycling",
    "request_reason": "Replace Trash Cart",
    "date_created": "2024-11-07T20:09:59.000",
    "date_modified": "2024-11-07T20:10:00.000",
    "request_status": "Pending",
    "responsible_agency": "Department of Sanitation",
    "final_address": "1217 Jefferson Ave",
    "address_councildis": "B",
    "status": "Assigned to Contractor",
    "contractor": "IV Waste",
    "rowid": "1147133",
    "final_x": "3667129.3145",
    "final_y": "519935.776504",
    "longitude": "-90.11383723932465",
    "latitude": "29.924071296624074",
    "geocoded_column": {
      "latitude": "29.924071296624074",
      "longitude": "-90.11383723932465"
    }
  },
  {
    "service_request": "2024-1147132",
    "request_type": "Streetlights",
    "request_reason": "Streetlight Outage/Malfunction",
    "date_created": "2024-11-07T20:09:53.000",
    "date_modified": "2024-11-07T20:09:54.000",
    "request_status": "Pending",
    "responsible_agency": "Department of Public Works",
    "final_address": "6435 Center St",
    "address_councildis": "A",
    "status": "Pending",
    "contractor": "Legacy Professional Services",
    "rowid": "1147132",
    "final_x": "3664934.59693",
    "final_y": "550892.197141",
    "longitude": "-90.11973023961914",
    "latitude": "30.009255279017122",
    "geocoded_column": {
      "latitude": "30.009255279017122",
      "longitude": "-90.11973023961914"
    }
  },
  {
    "service_request": "2024-1147131",
    "request_type": "Streetlights",
    "request_reason": "Streetlight Outage/Malfunction",
    "date_created": "2024-11-07T19:41:14.000",
    "date_modified": "2024-11-07T19:41:15.000",
    "request_status": "Pending",
    "responsible_agency": "Department of Public Works",
    "final_address": "3301 Timber Ridge Ct",
    "address_councildis": "C",
    "status": "Pending",
    "contractor": "Legacy Professional Services",
    "rowid": "1147131",
    "final_x": "3704107.92535",
    "final_y": "511742.657264",
    "longitude": "-89.99741127147867",
    "latitude": "29.90040908353209",
    "geocoded_column": {
      "latitude": "29.90040908353209",
      "longitude": "-89.99741127147867"
    }
  },
  {
    "service_request": "2024-1147130",
    "request_type": "Alley Ways",
    "request_reason": "Alley Way Regrading",
    "date_created": "2024-11-07T19:32:35.000",
    "date_modified": "2024-11-07T19:32:35.000",
    "request_status": "Pending",
    "responsible_agency": "Department of Public Works",
    "final_address": "6400 BLK Milne Blvd",
    "address_councildis": "A",
    "status": "Pending",
    "rowid": "1147130",
    "final_x": "3667349.38213",
    "final_y": "550547.431501",
    "longitude": "-90.11211268960302",
    "latitude": "30.00823674814072",
    "geocoded_column": {
      "latitude": "30.00823674814072",
      "longitude": "-90.11211268960302"
    }
  },
  {
    "service_request": "2024-1147129",
    "request_type": "Drainage",
    "request_reason": "Ditch and Culvert Maintenance",
    "date_created": "2024-11-07T19:30:57.000",
    "date_modified": "2024-11-07T19:30:57.000",
    "request_status": "Pending",
    "responsible_agency": "Department of Public Works",
    "final_address": "3619 Paul St",
    "address_councildis": "C",
    "status": "Pending",
    "rowid": "1147129",
    "final_x": "3714447.49701",
    "final_y": "517458.718646",
    "longitude": "-89.96456551417833",
    "latitude": "29.915790733501446",
    "geocoded_column": {
      "latitude": "29.915790733501446",
      "longitude": "-89.96456551417833"
    }
  },
  {
    "service_request": "2024-1147128",
    "request_type": "Trash/Recycling",
    "request_reason": "Replace Trash Cart",
    "date_created": "2024-11-07T19:25:31.000",
    "date_modified": "2024-11-07T19:25:32.000",
    "request_status": "Pending",
    "responsible_agency": "Department of Sanitation",
    "final_address": "1572 N Prieur St",
    "address_councildis": "D",
    "status": "Assigned to Contractor",
    "contractor": "IV Waste",
    "rowid": "1147128",
    "final_x": "3681331.31695",
    "final_y": "538309.045513",
    "longitude": "-90.06836630074714",
    "latitude": "29.974168352791896",
    "geocoded_column": {
      "latitude": "29.974168352791896",
      "longitude": "-90.06836630074714"
    }
  },
  {
    "service_request": "2024-1147127",
    "request_type": "Streetlights",
    "request_reason": "Streetlight Outage/Malfunction",
    "date_created": "2024-11-07T19:24:38.000",
    "date_modified": "2024-11-07T19:24:39.000",
    "request_status": "Pending",
    "responsible_agency": "Department of Public Works",
    "final_address": "2400 BLK General De Gaulle Dr",
    "address_councildis": "C",
    "status": "Pending",
    "contractor": "Legacy Professional Services",
    "rowid": "1147127",
    "final_x": "3692488.52017",
    "final_y": "522368.034448",
    "longitude": "-90.03370044473822",
    "latitude": "29.929992709294154",
    "geocoded_column": {
      "latitude": "29.929992709294154",
      "longitude": "-90.03370044473822"
    }
  },
  {
    "service_request": "2024-1147126",
    "request_type": "Mosquito, Termite & Rodent Control",
    "request_reason": "Mosquito Complaint",
    "date_created": "2024-11-07T19:20:05.000",
    "date_modified": "2024-11-07T19:20:05.000",
    "request_status": "Pending",
    "responsible_agency": "Mosquito, Termite & Rodent Control Board",
    "final_address": "3619 Paul St",
    "address_councildis": "C",
    "status": "Pending",
    "rowid": "1147126",
    "final_x": "3714447.49701",
    "final_y": "517458.718646",
    "longitude": "-89.96456551417833",
    "latitude": "29.915790733501446",
    "geocoded_column": {
      "latitude": "29.915790733501446",
      "longitude": "-89.96456551417833"
    }
  },
  {
    "service_request": "2024-1147125",
    "request_type": "Street and Traffic Signs",
    "request_reason": "Street Name Sign Damaged or Missing",
    "date_created": "2024-11-07T19:15:46.000",
    "date_modified": "2024-11-07T19:15:46.000",
    "request_status": "Pending",
    "responsible_agency": "Department of Public Works",
    "final_address": "4915 Eastview Dr",
    "address_councildis": "E",
    "status": "Pending",
    "rowid": "1147125",
    "final_x": "3705060.3075",
    "final_y": "556203.818458",
    "longitude": "-89.99276407435703",
    "latitude": "30.022630606127855",
    "geocoded_column": {
      "latitude": "30.022630606127855",
      "longitude": "-89.99276407435703"
    }
  },
  {
    "service_request": "2024-1147124",
    "request_type": "Parks & Parkways",
    "request_reason": "Park Maintenance/Clean Up",
    "date_created": "2024-11-07T19:09:01.000",
    "date_modified": "2024-11-07T19:09:01.000",
    "request_status": "Pending",
    "responsible_agency": "Department of Parks & Parkway",
    "final_address": "1 Piety St Wharf",
    "address_councildis": "C",
    "status": "Pending",
    "rowid": "1147124",
    "final_x": "3689113.05231",
    "final_y": "533436.653636",
    "longitude": "-90.04396301482579",
    "latitude": "29.960532470041095",
    "geocoded_column": {
      "latitude": "29.960532470041095",
      "longitude": "-90.04396301482579"
    }
  },
  {
    "service_request": "2024-1147123",
    "request_type": "Street and Traffic Signs",
    "request_reason": "Additional Signage Request",
    "date_created": "2024-11-07T18:45:27.000",
    "date_modified": "2024-11-07T18:45:27.000",
    "request_status": "Pending",
    "responsible_agency": "Department of Public Works",
    "final_address": "1100 BLK Teche St",
    "address_councildis": "C",
    "status": "Pending",
    "rowid": "1147123",
    "final_x": "3686605.7885",
    "final_y": "527344.903103",
    "longitude": "-90.05209552873691",
    "latitude": "29.943859579034903",
    "geocoded_column": {
      "latitude": "29.943859579034903",
      "longitude": "-90.05209552873691"
    }
  },
  {
    "service_request": "2024-1147122",
    "request_type": "Streetlights",
    "request_reason": "Streetlight Outage/Malfunction",
    "date_created": "2024-11-07T18:12:30.000",
    "date_modified": "2024-11-07T18:12:31.000",
    "request_status": "Pending",
    "responsible_agency": "Department of Public Works",
    "final_address": "1425 Joliet St",
    "address_councildis": "A",
    "status": "Pending",
    "contractor": "Legacy Professional Services",
    "rowid": "1147122",
    "final_x": "3661536.56032",
    "final_y": "529971.171073",
    "longitude": "-90.13115931916056",
    "latitude": "29.951827941241156",
    "geocoded_column": {
      "latitude": "29.951827941241156",
      "longitude": "-90.13115931916056"
    }
  },
  {
    "service_request": "2024-1147121",
    "request_type": "Street and Traffic Signs",
    "request_reason": "Street Name Sign Damaged or Missing",
    "date_created": "2024-11-07T18:11:16.000",
    "date_modified": "2024-11-07T18:11:16.000",
    "request_status": "Pending",
    "responsible_agency": "Department of Public Works",
    "final_address": "7100 BLK Walmsley Ave",
    "address_councildis": "B",
    "status": "Pending",
    "rowid": "1147121",
    "final_x": "3667451.59419",
    "final_y": "531141.683567",
    "longitude": "-90.11244301316411",
    "latitude": "29.954874502738146",
    "geocoded_column": {
      "latitude": "29.954874502738146",
      "longitude": "-90.11244301316411"
    }
  },
  {
    "service_request": "2024-1147120",
    "request_type": "General Services",
    "request_reason": "General Service Request",
    "date_created": "2024-11-07T18:11:04.000",
    "date_modified": "2024-11-07T18:11:04.000",
    "request_status": "Pending",
    "responsible_agency": "Orleans Parish Communication District",
    "final_address": "1000 BLK Newton St",
    "address_councildis": "C",
    "status": "Pending",
    "rowid": "1147120",
    "final_x": "3688574.22518",
    "final_y": "527926.369788",
    "longitude": "-90.04586002933239",
    "latitude": "29.94539774629914",
    "geocoded_column": {
      "latitude": "29.94539774629914",
      "longitude": "-90.04586002933239"
    }
  },
  {
    "service_request": "2024-1147119",
    "request_type": "Streetlights",
    "request_reason": "Streetlight Outage/Malfunction",
    "date_created": "2024-11-07T18:08:31.000",
    "date_modified": "2024-11-07T18:08:32.000",
    "request_status": "Pending",
    "responsible_agency": "Department of Public Works",
    "final_address": "7100 BLK Walmsley Ave",
    "address_councildis": "B",
    "status": "Pending",
    "contractor": "Legacy Professional Services",
    "rowid": "1147119",
    "final_x": "3667343.82046",
    "final_y": "531239.745051",
    "longitude": "-90.11278002456912",
    "latitude": "29.95514729680229",
    "geocoded_column": {
      "latitude": "29.95514729680229",
      "longitude": "-90.11278002456912"
    }
  },
  {
    "service_request": "2024-1147118",
    "request_type": "Abandoned Vehicles",
    "request_reason": "Abandoned/Junk Vehicles",
    "date_created": "2024-11-07T18:07:59.000",
    "date_modified": "2024-11-07T18:07:59.000",
    "request_status": "Pending",
    "responsible_agency": "Department of Public Works",
    "final_address": "1100 BLK Mardi Gras Blvd",
    "address_councildis": "C",
    "status": "Pending",
    "rowid": "1147118",
    "final_x": "3688896.13136",
    "final_y": "525298.258574",
    "longitude": "-90.04493697259709",
    "latitude": "29.93816138506506",
    "geocoded_column": {
      "latitude": "29.93816138506506",
      "longitude": "-90.04493697259709"
    }
  },
  {
    "service_request": "2024-1147117",
    "request_type": "Streetlights",
    "request_reason": "Streetlight Outage/Malfunction",
    "date_created": "2024-11-07T17:56:20.000",
    "date_modified": "2024-11-07T17:56:21.000",
    "request_status": "Pending",
    "responsible_agency": "Department of Public Works",
    "final_address": "72 Neron Pl",
    "address_councildis": "A",
    "status": "Pending",
    "contractor": "Legacy Professional Services",
    "rowid": "1147117",
    "final_x": "3665897.68436",
    "final_y": "529930.817601",
    "longitude": "-90.11739026354586",
    "latitude": "29.951590449771775",
    "geocoded_column": {
      "latitude": "29.951590449771775",
      "longitude": "-90.11739026354586"
    }
  },
  {
    "service_request": "2024-1147116",
    "request_type": "Traffic Signals",
    "request_reason": "Traffic Signal Malfunctioning or Damaged",
    "date_created": "2024-11-07T17:50:45.000",
    "date_modified": "2024-11-07T17:50:45.000",
    "request_status": "Pending",
    "responsible_agency": "Department of Public Works",
    "final_address": "ESPLANADE AVE & N CLAIBORNE AVE",
    "address_councildis": "D",
    "status": "Pending",
    "rowid": "1147116",
    "final_x": "3681314.4",
    "final_y": "536499.88",
    "longitude": "-90.06848280042382",
    "latitude": "29.969194285734545",
    "geocoded_column": {
      "latitude": "29.969194285734545",
      "longitude": "-90.06848280042382"
    }
  },
  {
    "service_request": "2024-1147115",
    "request_type": "Streetlights",
    "request_reason": "Streetlight Outage/Malfunction",
    "date_created": "2024-11-07T17:47:38.000",
    "date_modified": "2024-11-07T17:47:39.000",
    "request_status": "Pending",
    "responsible_agency": "Department of Public Works",
    "final_address": "1467 N Johnson St",
    "address_councildis": "D",
    "status": "Pending",
    "contractor": "Legacy Professional Services",
    "rowid": "1147115",
    "final_x": "3680474.54939",
    "final_y": "537946.817929",
    "longitude": "-90.07108477162852",
    "latitude": "29.97319833157213",
    "geocoded_column": {
      "latitude": "29.97319833157213",
      "longitude": "-90.07108477162852"
    }
  },
  {
    "service_request": "2024-1147114",
    "request_type": "Trash/Recycling",
    "request_reason": "Replace Recycling Cart",
    "date_created": "2024-11-07T17:43:06.000",
    "date_modified": "2024-11-07T17:43:06.000",
    "request_status": "Pending",
    "responsible_agency": "Department of Sanitation",
    "final_address": "332 Olivier St",
    "address_councildis": "C",
    "status": "Pending",
    "rowid": "1147114",
    "final_x": "3687280.751",
    "final_y": "530496.033154",
    "longitude": "-90.04985305349499",
    "latitude": "29.95250334210123",
    "geocoded_column": {
      "latitude": "29.95250334210123",
      "longitude": "-90.04985305349499"
    }
  },
  {
    "service_request": "2024-1147113",
    "request_type": "Trash/Recycling",
    "request_reason": "Replace Trash Cart",
    "date_created": "2024-11-07T17:41:50.000",
    "date_modified": "2024-11-07T17:41:51.000",
    "request_status": "Pending",
    "responsible_agency": "Department of Sanitation",
    "final_address": "332 Olivier St",
    "address_councildis": "C",
    "status": "Assigned to Contractor",
    "contractor": "Richards Disposal",
    "rowid": "1147113",
    "final_x": "3687280.751",
    "final_y": "530496.033154",
    "longitude": "-90.04985305349499",
    "latitude": "29.95250334210123",
    "geocoded_column": {
      "latitude": "29.95250334210123",
      "longitude": "-90.04985305349499"
    }
  },
  {
    "service_request": "2024-1147112",
    "request_type": "Streetlights",
    "request_reason": "Streetlight Outage/Malfunction",
    "date_created": "2024-11-07T17:19:43.000",
    "date_modified": "2024-11-07T17:19:44.000",
    "request_status": "Pending",
    "responsible_agency": "Department of Public Works",
    "final_address": "1802 Flanders St",
    "address_councildis": "C",
    "status": "Pending",
    "contractor": "Legacy Professional Services",
    "rowid": "1147112",
    "final_x": "3696703.91619",
    "final_y": "524667.027324",
    "longitude": "-90.02031005055906",
    "latitude": "29.93618201009904",
    "geocoded_column": {
      "latitude": "29.93618201009904",
      "longitude": "-90.02031005055906"
    }
  },
  {
    "service_request": "2024-1147111",
    "request_type": "Trash/Recycling",
    "request_reason": "Request a Large Item Pick Up",
    "date_created": "2024-11-07T17:12:16.000",
    "date_modified": "2024-11-07T17:12:17.000",
    "request_status": "Pending",
    "responsible_agency": "Department of Sanitation",
    "final_address": "121 Wilshire Pl",
    "address_councildis": "D",
    "status": "Assigned to Contractor",
    "contractor": "IV Waste",
    "rowid": "1147111",
    "final_x": "3677528.0731",
    "final_y": "544602.707279",
    "longitude": "-90.08016044130288",
    "latitude": "29.991588641333813",
    "geocoded_column": {
      "latitude": "29.991588641333813",
      "longitude": "-90.08016044130288"
    }
  },
  {
    "service_request": "2024-1147110",
    "request_type": "Abandoned Vehicles",
    "request_reason": "Abandoned/Junk Vehicles",
    "date_created": "2024-11-07T17:04:09.000",
    "date_modified": "2024-11-07T17:04:09.000",
    "request_status": "Pending",
    "responsible_agency": "Department of Public Works",
    "final_address": "2608 Chippewa St",
    "address_councildis": "B",
    "status": "Pending",
    "rowid": "1147110",
    "final_x": "3678335.1901",
    "final_y": "519835.319736",
    "longitude": "-90.07846772080597",
    "latitude": "29.923462385226948",
    "geocoded_column": {
      "latitude": "29.923462385226948",
      "longitude": "-90.07846772080597"
    }
  },
  {
    "service_request": "2024-1147109",
    "request_type": "Drainage",
    "request_reason": "Catch Basin Clogged",
    "date_created": "2024-11-07T17:02:53.000",
    "date_modified": "2024-11-07T17:02:53.000",
    "request_status": "Pending",
    "responsible_agency": "Department of Public Works",
    "final_address": "81 Neron Pl",
    "address_councildis": "A",
    "status": "Pending",
    "rowid": "1147109",
    "final_x": "3666098.25524",
    "final_y": "529983.516417",
    "longitude": "-90.1167551885446",
    "latitude": "29.95172950042253",
    "geocoded_column": {
      "latitude": "29.95172950042253",
      "longitude": "-90.1167551885446"
    }
  },
  {
    "service_request": "2024-1147108",
    "request_type": "Property Maintenance",
    "request_reason": "Property Maintenance",
    "date_created": "2024-11-07T17:02:47.000",
    "date_modified": "2024-11-07T17:02:47.000",
    "request_status": "Pending",
    "responsible_agency": "Department of Code Enforcement",
    "final_address": "2718 St Thomas St",
    "address_councildis": "B",
    "status": "Pending",
    "rowid": "1147108",
    "final_x": "3678191.43803",
    "final_y": "519355.620599",
    "longitude": "-90.07893806942859",
    "latitude": "29.92214769616893",
    "geocoded_column": {
      "latitude": "29.92214769616893",
      "longitude": "-90.07893806942859"
    }
  },
  {
    "service_request": "2024-1147107",
    "request_type": "Property Maintenance",
    "request_reason": "Property Maintenance",
    "date_created": "2024-11-07T17:01:38.000",
    "date_modified": "2024-11-07T17:01:38.000",
    "request_status": "Pending",
    "responsible_agency": "Department of Code Enforcement",
    "final_address": "708 Third St",
    "address_councildis": "B",
    "status": "Pending",
    "rowid": "1147107",
    "final_x": "3678311.37339",
    "final_y": "519976.726648",
    "longitude": "-90.0785380131594",
    "latitude": "29.923851925498916",
    "geocoded_column": {
      "latitude": "29.923851925498916",
      "longitude": "-90.0785380131594"
    }
  },
  {
    "service_request": "2024-1147106",
    "request_type": "Property Maintenance",
    "request_reason": "Property Maintenance",
    "date_created": "2024-11-07T17:00:20.000",
    "date_modified": "2024-11-07T17:00:20.000",
    "request_status": "Pending",
    "responsible_agency": "Department of Code Enforcement",
    "final_address": "514 Soraparu St A",
    "address_councildis": "B",
    "status": "Pending",
    "rowid": "1147106",
    "final_x": "3679513.68981",
    "final_y": "519926.952184",
    "longitude": "-90.074744460441",
    "latitude": "29.92367880382887",
    "geocoded_column": {
      "latitude": "29.92367880382887",
      "longitude": "-90.074744460441"
    }
  },
  {
    "service_request": "2024-1147105",
    "request_type": "Drainage",
    "request_reason": "Drainage Manhole Cover Missing or Damaged",
    "date_created": "2024-11-07T16:56:45.000",
    "date_modified": "2024-11-07T16:56:45.000",
    "request_status": "Pending",
    "responsible_agency": "Department of Public Works",
    "final_address": "3203 Hollygrove St",
    "address_councildis": "A",
    "status": "Pending",
    "rowid": "1147105",
    "final_x": "3664487.21268",
    "final_y": "535813.310791",
    "longitude": "-90.12164745580309",
    "latitude": "29.96780646443684",
    "geocoded_column": {
      "latitude": "29.96780646443684",
      "longitude": "-90.12164745580309"
    }
  },
  {
    "service_request": "2024-1147104",
    "request_type": "Trash/Recycling",
    "request_reason": "Request a Large Item Pick Up",
    "date_created": "2024-11-07T16:55:48.000",
    "date_modified": "2024-11-07T16:55:49.000",
    "request_status": "Pending",
    "responsible_agency": "Department of Sanitation",
    "final_address": "2715 Philip St",
    "address_councildis": "B",
    "status": "Assigned to Contractor",
    "contractor": "IV Waste",
    "rowid": "1147104",
    "final_x": "3674921.13576",
    "final_y": "526769.322942",
    "longitude": "-90.08900693575457",
    "latitude": "29.942631004726373",
    "geocoded_column": {
      "latitude": "29.942631004726373",
      "longitude": "-90.08900693575457"
    }
  },
  {
    "service_request": "2024-1147103",
    "request_type": "Trash/Recycling",
    "request_reason": "Dead Animal Pick Up",
    "date_created": "2024-11-07T16:55:43.000",
    "date_modified": "2024-11-07T16:55:44.000",
    "request_status": "Pending",
    "responsible_agency": "Department of Sanitation",
    "final_address": "1240 Kentucky St",
    "address_councildis": "D",
    "status": "Assigned to Contractor",
    "contractor": "IV Waste",
    "rowid": "1147103",
    "final_x": "3693457.02115",
    "final_y": "535636.23079",
    "longitude": "-90.03016669857539",
    "latitude": "29.96644541128934",
    "geocoded_column": {
      "latitude": "29.96644541128934",
      "longitude": "-90.03016669857539"
    }
  },
  {
    "service_request": "2024-1147102",
    "request_type": "Trash/Recycling",
    "request_reason": "Request a Large Item Pick Up",
    "date_created": "2024-11-07T16:52:54.000",
    "date_modified": "2024-11-07T16:52:55.000",
    "request_status": "Pending",
    "responsible_agency": "Department of Sanitation",
    "final_address": "6125 N Robertson St",
    "address_councildis": "E",
    "status": "Assigned to Contractor",
    "contractor": "Waste Pro",
    "rowid": "1147102",
    "final_x": "3700248.56298",
    "final_y": "534677.337542",
    "longitude": "-90.0087542470864",
    "latitude": "29.963594667008035",
    "geocoded_column": {
      "latitude": "29.963594667008035",
      "longitude": "-90.0087542470864"
    }
  },
  {
    "service_request": "2024-1147101",
    "request_type": "Trash/Recycling",
    "request_reason": "Request a Large Item Pick Up",
    "date_created": "2024-11-07T16:52:40.000",
    "date_modified": "2024-11-07T16:52:41.000",
    "request_status": "Pending",
    "responsible_agency": "Department of Sanitation",
    "final_address": "8732 Morrison Rd",
    "address_councildis": "E",
    "status": "Assigned to Contractor",
    "contractor": "Waste Pro",
    "rowid": "1147101",
    "final_x": "3705348.22775",
    "final_y": "561580.984031",
    "longitude": "-89.9916553771484",
    "latitude": "30.037406446042706",
    "geocoded_column": {
      "latitude": "30.037406446042706",
      "longitude": "-89.9916553771484"
    }
  },
  {
    "service_request": "2024-1147100",
    "request_type": "Property Maintenance",
    "request_reason": "Property Maintenance",
    "date_created": "2024-11-07T16:50:57.000",
    "date_modified": "2024-11-07T16:50:58.000",
    "request_status": "Pending",
    "responsible_agency": "Department of Code Enforcement",
    "final_address": "8732 Morrison Rd",
    "address_councildis": "E",
    "status": "Pending",
    "rowid": "1147100",
    "final_x": "3705348.22775",
    "final_y": "561580.984031",
    "longitude": "-89.9916553771484",
    "latitude": "30.037406446042706",
    "geocoded_column": {
      "latitude": "30.037406446042706",
      "longitude": "-89.9916553771484"
    }
  },
  {
    "service_request": "2024-1147099",
    "request_type": "Drainage",
    "request_reason": "Drainage Manhole Cover Missing or Damaged",
    "date_created": "2024-11-07T16:50:52.000",
    "date_modified": "2024-11-07T17:00:03.000",
    "request_status": "Pending",
    "responsible_agency": "Department of Public Works",
    "final_address": "731 Burgundy St",
    "address_councildis": "C",
    "rowid": "1147099",
    "final_x": "3681835.74421",
    "final_y": "533354.121988",
    "longitude": "-90.06694615526126",
    "latitude": "29.96052869579366",
    "geocoded_column": {
      "latitude": "29.96052869579366",
      "longitude": "-90.06694615526126"
    }
  },
  {
    "service_request": "2024-1147098",
    "request_type": "Abandoned Vehicles",
    "request_reason": "Abandoned/Junk Vehicles",
    "date_created": "2024-11-07T16:50:49.000",
    "date_modified": "2024-11-07T16:50:49.000",
    "request_status": "Pending",
    "responsible_agency": "Department of Public Works",
    "final_address": "1174 City Park Ave",
    "address_councildis": "A",
    "status": "Pending",
    "rowid": "1147098",
    "final_x": "3673772.69198",
    "final_y": "541401.144076",
    "longitude": "-90.0921324392487",
    "latitude": "29.98289784579432",
    "geocoded_column": {
      "latitude": "29.98289784579432",
      "longitude": "-90.0921324392487"
    }
  },
  {
    "service_request": "2024-1147097",
    "request_type": "Trash/Recycling",
    "request_reason": "Order Recycling Cart",
    "date_created": "2024-11-07T16:47:27.000",
    "date_modified": "2024-11-07T16:47:28.000",
    "request_status": "Pending",
    "responsible_agency": "Department of Sanitation",
    "final_address": "608 Lesseps St",
    "address_councildis": "C",
    "status": "Pending",
    "rowid": "1147097",
    "final_x": "3692235.59715",
    "final_y": "533331.610564",
    "longitude": "-90.03410644555746",
    "latitude": "29.960146654768106",
    "geocoded_column": {
      "latitude": "29.960146654768106",
      "longitude": "-90.03410644555746"
    }
  },
  {
    "service_request": "2024-1147096",
    "request_type": "Trash/Recycling",
    "request_reason": "Repair Trash Cart",
    "date_created": "2024-11-07T16:46:34.000",
    "date_modified": "2024-11-07T16:46:35.000",
    "request_status": "Pending",
    "responsible_agency": "Department of Sanitation",
    "final_address": "608 Lesseps St",
    "address_councildis": "C",
    "status": "Assigned to Contractor",
    "contractor": "IV Waste",
    "rowid": "1147096",
    "final_x": "3692235.59715",
    "final_y": "533331.610564",
    "longitude": "-90.03410644555746",
    "latitude": "29.960146654768106",
    "geocoded_column": {
      "latitude": "29.960146654768106",
      "longitude": "-90.03410644555746"
    }
  },
  {
    "service_request": "2024-1147095",
    "request_type": "Trash/Recycling",
    "request_reason": "Request a Large Item Pick Up",
    "date_created": "2024-11-07T16:44:22.000",
    "date_modified": "2024-11-07T16:44:23.000",
    "request_status": "Pending",
    "responsible_agency": "Department of Sanitation",
    "final_address": "5303 Wickfield Dr",
    "address_councildis": "D",
    "status": "Assigned to Contractor",
    "contractor": "IV Waste",
    "rowid": "1147095",
    "final_x": "3681227.54274",
    "final_y": "552199.334998",
    "longitude": "-90.06820968832317",
    "latitude": "30.012364881659998",
    "geocoded_column": {
      "latitude": "30.012364881659998",
      "longitude": "-90.06820968832317"
    }
  },
  {
    "service_request": "2024-1147094",
    "request_type": "Street and Traffic Signs",
    "request_reason": "Street Name Sign Damaged or Missing",
    "date_created": "2024-11-07T16:40:24.000",
    "date_modified": "2024-11-07T16:40:25.000",
    "request_status": "Pending",
    "responsible_agency": "Department of Public Works",
    "final_address": "ANDRY ST & N VILLERE ST",
    "address_councildis": "E",
    "status": "Pending",
    "rowid": "1147094",
    "final_x": "3697472.2",
    "final_y": "535078.38",
    "longitude": "-90.01750712030046",
    "latitude": "29.96478534754347",
    "geocoded_column": {
      "latitude": "29.96478534754347",
      "longitude": "-90.01750712030046"
    }
  },
  {
    "service_request": "2024-1147093",
    "request_type": "Trash/Recycling",
    "request_reason": "Request a Large Item Pick Up",
    "date_created": "2024-11-07T16:35:33.000",
    "date_modified": "2024-11-07T16:36:00.000",
    "request_status": "Pending",
    "responsible_agency": "Department of Sanitation",
    "final_address": "7630 Crestmont Rd",
    "address_councildis": "E",
    "status": "Assigned to Contractor",
    "contractor": "Waste Pro",
    "rowid": "1147093",
    "final_x": "3699549.06839",
    "final_y": "560333.527069",
    "longitude": "-90.01002748895583",
    "latitude": "30.034161856021743",
    "geocoded_column": {
      "latitude": "30.034161856021743",
      "longitude": "-90.01002748895583"
    }
  },
  {
    "service_request": "2024-1147092",
    "request_type": "Abandoned Vehicles",
    "request_reason": "Abandoned/Junk Vehicles",
    "date_created": "2024-11-07T16:32:38.000",
    "date_modified": "2024-11-07T16:37:02.000",
    "request_status": "Pending",
    "responsible_agency": "Department of Public Works",
    "final_address": "2416 George Nick Connor Dr",
    "address_councildis": "D",
    "status": "Pending",
    "rowid": "1147092",
    "final_x": "3681153.02005",
    "final_y": "540974.719435",
    "longitude": "-90.06883649704004",
    "latitude": "29.981503440616112",
    "geocoded_column": {
      "latitude": "29.981503440616112",
      "longitude": "-90.06883649704004"
    }
  },
  {
    "service_request": "2024-1147091",
    "request_type": "Trash/Recycling",
    "request_reason": "Order Trash Cart",
    "date_created": "2024-11-07T16:29:20.000",
    "date_modified": "2024-11-07T16:29:21.000",
    "request_status": "Pending",
    "responsible_agency": "Department of Sanitation",
    "final_address": "2424 Lavender St",
    "address_councildis": "D",
    "status": "Assigned to Contractor",
    "contractor": "IV Waste",
    "rowid": "1147091",
    "final_x": "3686301.74172",
    "final_y": "546788.062865",
    "longitude": "-90.05236922079462",
    "latitude": "29.997330825241825",
    "geocoded_column": {
      "latitude": "29.997330825241825",
      "longitude": "-90.05236922079462"
    }
  },
  {
    "service_request": "2024-1147090",
    "request_type": "Traffic Signals",
    "request_reason": "Traffic Signal Malfunctioning or Damaged",
    "date_created": "2024-11-07T16:28:02.000",
    "date_modified": "2024-11-07T16:28:02.000",
    "request_status": "Pending",
    "responsible_agency": "Department of Public Works",
    "final_address": "100 BLK Dauphine St",
    "address_councildis": "C",
    "status": "Pending",
    "rowid": "1147090",
    "final_x": "3680760.47998",
    "final_y": "531293.683919",
    "longitude": "-90.0704133348019",
    "latitude": "29.95489582302899",
    "geocoded_column": {
      "latitude": "29.95489582302899",
      "longitude": "-90.0704133348019"
    }
  },
  {
    "service_request": "2024-1147089",
    "request_type": "Streetlights",
    "request_reason": "Streetlight Outage/Malfunction",
    "date_created": "2024-11-07T16:24:20.000",
    "date_modified": "2024-11-07T16:24:21.000",
    "request_status": "Pending",
    "responsible_agency": "Department of Public Works",
    "final_address": "3203 Hollygrove St",
    "address_councildis": "A",
    "status": "Pending",
    "contractor": "Legacy Professional Services",
    "rowid": "1147089",
    "final_x": "3664487.21268",
    "final_y": "535813.310791",
    "longitude": "-90.12164745580309",
    "latitude": "29.96780646443684",
    "geocoded_column": {
      "latitude": "29.96780646443684",
      "longitude": "-90.12164745580309"
    }
  },
  {
    "service_request": "2024-1147088",
    "request_type": "Trash/Recycling",
    "request_reason": "Request a Large Item Pick Up",
    "date_created": "2024-11-07T16:23:35.000",
    "date_modified": "2024-11-07T16:23:36.000",
    "request_status": "Pending",
    "responsible_agency": "Department of Sanitation",
    "final_address": "4848 Rosemont Pl",
    "address_councildis": "E",
    "status": "Assigned to Contractor",
    "contractor": "Waste Pro",
    "rowid": "1147088",
    "final_x": "3702579.27601",
    "final_y": "555510.668057",
    "longitude": "-90.00062896874164",
    "latitude": "30.020804288224145",
    "geocoded_column": {
      "latitude": "30.020804288224145",
      "longitude": "-90.00062896874164"
    }
  },
  {
    "service_request": "2024-1147087",
    "request_type": "Trash/Recycling",
    "request_reason": "Request a Large Item Pick Up",
    "date_created": "2024-11-07T16:21:40.000",
    "date_modified": "2024-11-07T16:21:41.000",
    "request_status": "Pending",
    "responsible_agency": "Department of Sanitation",
    "final_address": "3120 Coliseum St",
    "address_councildis": "B",
    "status": "Assigned to Contractor",
    "contractor": "IV Waste",
    "rowid": "1147087",
    "final_x": "3675404.46197",
    "final_y": "520920.773305",
    "longitude": "-90.08768169755777",
    "latitude": "29.926534960012052",
    "geocoded_column": {
      "latitude": "29.926534960012052",
      "longitude": "-90.08768169755777"
    }
  },
  {
    "service_request": "2024-1147086",
    "request_type": "Trash/Recycling",
    "request_reason": "Request a Large Item Pick Up",
    "date_created": "2024-11-07T16:19:05.000",
    "date_modified": "2024-11-07T16:19:06.000",
    "request_status": "Pending",
    "responsible_agency": "Department of Sanitation",
    "final_address": "6200 Bellaire Dr",
    "address_councildis": "A",
    "status": "Assigned to Contractor",
    "contractor": "IV Waste",
    "rowid": "1147086",
    "final_x": "3664288.10023",
    "final_y": "549002.619091",
    "longitude": "-90.12183587181177",
    "latitude": "30.004078404369448",
    "geocoded_column": {
      "latitude": "30.004078404369448",
      "longitude": "-90.12183587181177"
    }
  },
  {
    "service_request": "2024-1147085",
    "request_type": "Roads and Streets",
    "request_reason": "Pothole",
    "date_created": "2024-11-07T16:15:31.000",
    "date_modified": "2024-11-07T16:15:31.000",
    "request_status": "Pending",
    "responsible_agency": "Department of Public Works",
    "final_address": "3281 Elmwood Park Dr",
    "address_councildis": "C",
    "status": "Pending",
    "rowid": "1147085",
    "final_x": "3695196.68445",
    "final_y": "518005.091574",
    "longitude": "-90.02530848919453",
    "latitude": "29.91791135770806",
    "geocoded_column": {
      "latitude": "29.91791135770806",
      "longitude": "-90.02530848919453"
    }
  },
  {
    "service_request": "2024-1147084",
    "request_type": "Drainage",
    "request_reason": "Drainage Manhole Cover Missing or Damaged",
    "date_created": "2024-11-07T16:15:00.000",
    "date_modified": "2024-11-07T16:15:00.000",
    "request_status": "Pending",
    "responsible_agency": "Department of Public Works",
    "final_address": "3203 Hollygrove St",
    "address_councildis": "A",
    "status": "Pending",
    "rowid": "1147084",
    "final_x": "3664487.21268",
    "final_y": "535813.310791",
    "longitude": "-90.12164745580309",
    "latitude": "29.96780646443684",
    "geocoded_column": {
      "latitude": "29.96780646443684",
      "longitude": "-90.12164745580309"
    }
  },
  {
    "service_request": "2024-1147083",
    "request_type": "Safety & Permits",
    "request_reason": "Zoning Enforcement",
    "date_created": "2024-11-07T16:14:16.000",
    "date_modified": "2024-11-07T16:14:17.000",
    "request_status": "Pending",
    "responsible_agency": "Safety and Permits",
    "final_address": "1301 Leboeuf St",
    "address_councildis": "C",
    "status": "Pending",
    "rowid": "1147083",
    "final_x": "3689673.34147",
    "final_y": "526591.04435",
    "longitude": "-90.04243727582252",
    "latitude": "29.941692053917723",
    "geocoded_column": {
      "latitude": "29.941692053917723",
      "longitude": "-90.04243727582252"
    }
  },
  {
    "service_request": "2024-1147082",
    "request_type": "Parks & Parkways",
    "request_reason": "Request Grass Cutting Service (City Owned Property)",
    "date_created": "2024-11-07T16:13:13.000",
    "date_modified": "2024-11-07T16:13:14.000",
    "request_status": "Pending",
    "responsible_agency": "Department of Parks & Parkway",
    "final_address": "2510 Orleans Ave",
    "address_councildis": "D",
    "status": "Pending",
    "rowid": "1147082",
    "final_x": "3677430.4139",
    "final_y": "536437.001287",
    "longitude": "-90.08075089095324",
    "latitude": "29.96913870756965",
    "geocoded_column": {
      "latitude": "29.96913870756965",
      "longitude": "-90.08075089095324"
    }
  },
  {
    "service_request": "2024-1147081",
    "request_type": "Trash/Recycling",
    "request_reason": "Missed Trash Pick-Up",
    "date_created": "2024-11-07T16:12:18.000",
    "date_modified": "2024-11-07T16:12:19.000",
    "request_status": "Pending",
    "responsible_agency": "Department of Sanitation",
    "final_address": "2135 Flood St",
    "address_councildis": "E",
    "status": "Assigned to Contractor",
    "contractor": "Waste Pro",
    "rowid": "1147081",
    "final_x": "3698835.92215",
    "final_y": "537876.671241",
    "longitude": "-90.01309878480016",
    "latitude": "29.972436512987052",
    "geocoded_column": {
      "latitude": "29.972436512987052",
      "longitude": "-90.01309878480016"
    }
  },
  {
    "service_request": "2024-1147080",
    "request_type": "Safety & Permits",
    "request_reason": "Zoning Enforcement",
    "date_created": "2024-11-07T16:09:23.000",
    "date_modified": "2024-11-07T16:09:24.000",
    "request_status": "Pending",
    "responsible_agency": "Safety and Permits",
    "final_address": "4943 Pecan St",
    "address_councildis": "E",
    "status": "Pending",
    "rowid": "1147080",
    "final_x": "3701758.51402",
    "final_y": "555408.019353",
    "longitude": "-90.0032260834745",
    "latitude": "30.02054826638496",
    "geocoded_column": {
      "latitude": "30.02054826638496",
      "longitude": "-90.0032260834745"
    }
  },
  {
    "service_request": "2024-1147079",
    "request_type": "Parks & Parkways",
    "request_reason": "Request Tree Service (Right of Way/Public Property)",
    "date_created": "2024-11-07T16:08:36.000",
    "date_modified": "2024-11-07T16:08:37.000",
    "request_status": "Pending",
    "responsible_agency": "Department of Parks & Parkway",
    "final_address": "DE ARMAS ST & SHIRLEY DR",
    "address_councildis": "C",
    "status": "Pending",
    "rowid": "1147079",
    "final_x": "3693104.3",
    "final_y": "526947.88",
    "longitude": "-90.03159229006702",
    "latitude": "29.942566500698607",
    "geocoded_column": {
      "latitude": "29.942566500698607",
      "longitude": "-90.03159229006702"
    }
  },
  {
    "service_request": "2024-1147078",
    "request_type": "Trash/Recycling",
    "request_reason": "Order Recycling Cart",
    "date_created": "2024-11-07T16:06:23.000",
    "date_modified": "2024-11-07T16:06:24.000",
    "request_status": "Pending",
    "responsible_agency": "Department of Sanitation",
    "final_address": "4719 Virgilian St",
    "address_councildis": "D",
    "status": "Pending",
    "rowid": "1147078",
    "final_x": "3697573.29437",
    "final_y": "553614.334103",
    "longitude": "-90.0165151768813",
    "latitude": "30.01574923102479",
    "geocoded_column": {
      "latitude": "30.01574923102479",
      "longitude": "-90.0165151768813"
    }
  },
  {
    "service_request": "2024-1147077",
    "request_type": "Trash/Recycling",
    "request_reason": "MIssed Recycling Pick-Up",
    "date_created": "2024-11-07T16:05:33.000",
    "date_modified": "2024-11-07T16:05:34.000",
    "request_status": "Pending",
    "responsible_agency": "Department of Sanitation",
    "final_address": "4719 Virgilian St",
    "address_councildis": "D",
    "status": "Assigned to Contractor",
    "contractor": "Waste Pro",
    "rowid": "1147077",
    "final_x": "3697573.29437",
    "final_y": "553614.334103",
    "longitude": "-90.0165151768813",
    "latitude": "30.01574923102479",
    "geocoded_column": {
      "latitude": "30.01574923102479",
      "longitude": "-90.0165151768813"
    }
  },
  {
    "service_request": "2024-1147076",
    "request_type": "Trash/Recycling",
    "request_reason": "Stop Trash Service",
    "date_created": "2024-11-07T16:04:40.000",
    "date_modified": "2024-11-07T16:04:54.000",
    "request_status": "Pending",
    "responsible_agency": "Department of Sanitation",
    "final_address": "9020 Lake Forest Blvd",
    "address_councildis": "E",
    "status": "Assigned to Contractor",
    "contractor": "Waste Pro",
    "rowid": "1147076",
    "final_x": "3707565.40203",
    "final_y": "558332.959388",
    "longitude": "-89.98476945526308",
    "latitude": "30.028404087661496",
    "geocoded_column": {
      "latitude": "30.028404087661496",
      "longitude": "-89.98476945526308"
    }
  },
  {
    "service_request": "2024-1147075",
    "request_type": "Trash/Recycling",
    "request_reason": "Request a Large Item Pick Up",
    "date_created": "2024-11-07T16:04:31.000",
    "date_modified": "2024-11-07T16:04:32.000",
    "request_status": "Pending",
    "responsible_agency": "Department of Sanitation",
    "final_address": "6601 Dorchester St",
    "address_councildis": "E",
    "status": "Assigned to Contractor",
    "contractor": "Waste Pro",
    "rowid": "1147075",
    "final_x": "3697666.19856",
    "final_y": "558935.165404",
    "longitude": "-90.01602837278277",
    "latitude": "30.030376555312035",
    "geocoded_column": {
      "latitude": "30.030376555312035",
      "longitude": "-90.01602837278277"
    }
  },
  {
    "service_request": "2024-1147074",
    "request_type": "Trash/Recycling",
    "request_reason": "Stop Trash Service",
    "date_created": "2024-11-07T16:04:09.000",
    "date_modified": "2024-11-07T16:04:10.000",
    "request_status": "Pending",
    "responsible_agency": "Department of Sanitation",
    "final_address": "1418 Allen Toussaint Blvd",
    "address_councildis": "D",
    "status": "Assigned to Contractor",
    "contractor": "IV Waste",
    "rowid": "1147074",
    "final_x": "3677843.5565",
    "final_y": "555168.679321",
    "longitude": "-90.07879848133366",
    "latitude": "30.020631806273798",
    "geocoded_column": {
      "latitude": "30.020631806273798",
      "longitude": "-90.07879848133366"
    }
  },
  {
    "service_request": "2024-1147073",
    "request_type": "Property Maintenance",
    "request_reason": "Property Maintenance",
    "date_created": "2024-11-07T16:03:24.000",
    "date_modified": "2024-11-07T16:03:24.000",
    "request_status": "Pending",
    "responsible_agency": "Department of Code Enforcement",
    "final_address": "8041 Wave Dr",
    "address_councildis": "E",
    "status": "Pending",
    "rowid": "1147073",
    "final_x": "3714065.3964",
    "final_y": "570122.969447",
    "longitude": "-89.96378474204845",
    "latitude": "30.060609893722436",
    "geocoded_column": {
      "latitude": "30.060609893722436",
      "longitude": "-89.96378474204845"
    }
  },
  {
    "service_request": "2024-1147072",
    "request_type": "Property Maintenance",
    "request_reason": "Property Maintenance",
    "date_created": "2024-11-07T16:01:15.000",
    "date_modified": "2024-11-07T16:01:16.000",
    "request_status": "Pending",
    "responsible_agency": "Department of Code Enforcement",
    "final_address": "1301 Leboeuf St",
    "address_councildis": "C",
    "status": "Pending",
    "rowid": "1147072",
    "final_x": "3689673.34147",
    "final_y": "526591.04435",
    "longitude": "-90.04243727582252",
    "latitude": "29.941692053917723",
    "geocoded_column": {
      "latitude": "29.941692053917723",
      "longitude": "-90.04243727582252"
    }
  },
  {
    "service_request": "2024-1147071",
    "request_type": "Trash/Recycling",
    "request_reason": "Request a Large Item Pick Up",
    "date_created": "2024-11-07T16:00:32.000",
    "date_modified": "2024-11-07T16:00:34.000",
    "request_status": "Pending",
    "responsible_agency": "Department of Sanitation",
    "final_address": "4121 Dauphine St",
    "address_councildis": "C",
    "status": "Assigned to Contractor",
    "contractor": "IV Waste",
    "rowid": "1147071",
    "final_x": "3692002.26147",
    "final_y": "534073.534085",
    "longitude": "-90.03481671703487",
    "latitude": "29.962193957376666",
    "geocoded_column": {
      "latitude": "29.962193957376666",
      "longitude": "-90.03481671703487"
    }
  },
  {
    "service_request": "2024-1147070",
    "request_type": "Streetlights",
    "request_reason": "Streetlight Outage/Malfunction",
    "date_created": "2024-11-07T15:58:53.000",
    "date_modified": "2024-11-07T15:58:54.000",
    "request_status": "Pending",
    "responsible_agency": "Department of Public Works",
    "final_address": "CHEF MENTEUR HWY & LOUISA ST",
    "address_councildis": "D",
    "status": "Pending",
    "contractor": "Legacy Professional Services",
    "rowid": "1147070",
    "final_x": "3691347.4",
    "final_y": "549732.88",
    "longitude": "-90.03632492843472",
    "latitude": "30.00527193180098",
    "geocoded_column": {
      "latitude": "30.00527193180098",
      "longitude": "-90.03632492843472"
    }
  },
  {
    "service_request": "2024-1147069",
    "request_type": "Trash/Recycling",
    "request_reason": "Order Second Trash Cart",
    "date_created": "2024-11-07T15:54:26.000",
    "date_modified": "2024-11-07T15:54:27.000",
    "request_status": "Pending",
    "responsible_agency": "Department of Sanitation",
    "final_address": "1938 Esplanade Ave",
    "address_councildis": "D",
    "status": "Assigned to Contractor",
    "contractor": "IV Waste",
    "rowid": "1147069",
    "final_x": "3680126.71675",
    "final_y": "537378.037384",
    "longitude": "-90.07220306702685",
    "latitude": "29.97164491230311",
    "geocoded_column": {
      "latitude": "29.97164491230311",
      "longitude": "-90.07220306702685"
    }
  },
  {
    "service_request": "2024-1147068",
    "request_type": "Utility Poles",
    "request_reason": "Utility Pole Down",
    "date_created": "2024-11-07T15:54:19.000",
    "date_modified": "2024-11-07T15:54:26.000",
    "request_status": "Pending",
    "responsible_agency": "Utility Company Collective",
    "final_address": "4530 Gallier Dr",
    "address_councildis": "D",
    "status": "Pending",
    "rowid": "1147068",
    "final_x": "3692122.68969",
    "final_y": "551162.648533",
    "longitude": "-90.03382440377311",
    "latitude": "30.009179114777595",
    "geocoded_column": {
      "latitude": "30.009179114777595",
      "longitude": "-90.03382440377311"
    }
  },
  {
    "service_request": "2024-1147067",
    "request_type": "Trash/Recycling",
    "request_reason": "Request a Large Item Pick Up",
    "date_created": "2024-11-07T15:53:44.000",
    "date_modified": "2024-11-07T15:53:45.000",
    "request_status": "Pending",
    "responsible_agency": "Department of Sanitation",
    "final_address": "333 S Hennessey St",
    "address_councildis": "A",
    "status": "Assigned to Contractor",
    "contractor": "IV Waste",
    "rowid": "1147067",
    "final_x": "3669617.7257",
    "final_y": "538126.844553",
    "longitude": "-90.10536679932204",
    "latitude": "29.974017730866098",
    "geocoded_column": {
      "latitude": "29.974017730866098",
      "longitude": "-90.10536679932204"
    }
  },
  {
    "service_request": "2024-1147066",
    "request_type": "Trash/Recycling",
    "request_reason": "Request a Large Item Pick Up",
    "date_created": "2024-11-07T15:42:54.000",
    "date_modified": "2024-11-07T15:42:55.000",
    "request_status": "Pending",
    "responsible_agency": "Department of Sanitation",
    "final_address": "4678 Arts St",
    "address_councildis": "D",
    "status": "Assigned to Contractor",
    "contractor": "IV Waste",
    "rowid": "1147066",
    "final_x": "3685867.02511",
    "final_y": "550175.515924",
    "longitude": "-90.05362296190805",
    "latitude": "30.00665845218508",
    "geocoded_column": {
      "latitude": "30.00665845218508",
      "longitude": "-90.05362296190805"
    }
  },
  {
    "service_request": "2024-1147065",
    "request_type": "Trash/Recycling",
    "request_reason": "Request a Large Item Pick Up",
    "date_created": "2024-11-07T15:39:44.000",
    "date_modified": "2024-11-07T15:39:45.000",
    "request_status": "Pending",
    "responsible_agency": "Department of Sanitation",
    "final_address": "8419 Beechwood Ct",
    "address_councildis": "E",
    "status": "Assigned to Contractor",
    "contractor": "Waste Pro",
    "rowid": "1147065",
    "final_x": "3704155.51671",
    "final_y": "560668.513054",
    "longitude": "-89.99545826237454",
    "latitude": "30.03493585494704",
    "geocoded_column": {
      "latitude": "30.03493585494704",
      "longitude": "-89.99545826237454"
    }
  },
  {
    "service_request": "2024-1147064",
    "request_type": "Streetlights",
    "request_reason": "Streetlight Outage/Malfunction",
    "date_created": "2024-11-07T15:34:44.000",
    "date_modified": "2024-11-07T15:34:45.000",
    "request_status": "Pending",
    "responsible_agency": "Department of Public Works",
    "final_address": "5218 Arts St",
    "address_councildis": "D",
    "status": "Pending",
    "contractor": "Legacy Professional Services",
    "rowid": "1147064",
    "final_x": "3685728.71305",
    "final_y": "552291.58863",
    "longitude": "-90.05398528326633",
    "latitude": "30.012481127287916",
    "geocoded_column": {
      "latitude": "30.012481127287916",
      "longitude": "-90.05398528326633"
    }
  },
  {
    "service_request": "2024-1147063",
    "request_type": "Trash/Recycling",
    "request_reason": "Request a Large Item Pick Up",
    "date_created": "2024-11-07T15:31:51.000",
    "date_modified": "2024-11-07T15:31:52.000",
    "request_status": "Pending",
    "responsible_agency": "Department of Sanitation",
    "final_address": "4701 Rhodes Dr",
    "address_councildis": "E",
    "status": "Assigned to Contractor",
    "contractor": "Waste Pro",
    "rowid": "1147063",
    "final_x": "3702608.77764",
    "final_y": "554093.44732",
    "longitude": "-90.00058783714707",
    "latitude": "30.016906530776254",
    "geocoded_column": {
      "latitude": "30.016906530776254",
      "longitude": "-90.00058783714707"
    }
  },
  {
    "service_request": "2024-1147062",
    "request_type": "Healthy Homes",
    "request_reason": "Healthy Homes",
    "date_created": "2024-11-07T15:29:27.000",
    "date_modified": "2024-11-07T15:29:28.000",
    "request_status": "Pending",
    "responsible_agency": "Department of Code Enforcement",
    "final_address": "9025 Chef Menteur Hwy Apt 310",
    "address_councildis": "E",
    "status": "Pending",
    "rowid": "1147062",
    "final_x": "3709043.57342",
    "final_y": "553902.886935",
    "longitude": "-89.98026385831707",
    "latitude": "30.016175200206103",
    "geocoded_column": {
      "latitude": "30.016175200206103",
      "longitude": "-89.98026385831707"
    }
  },
  {
    "service_request": "2024-1147061",
    "request_type": "Trash/Recycling",
    "request_reason": "Request a Large Item Pick Up",
    "date_created": "2024-11-07T15:28:16.000",
    "date_modified": "2024-11-07T15:28:17.000",
    "request_status": "Pending",
    "responsible_agency": "Department of Sanitation",
    "final_address": "7511 Shaw Ave",
    "address_councildis": "E",
    "status": "Assigned to Contractor",
    "contractor": "Waste Pro",
    "rowid": "1147061",
    "final_x": "3707413.1612",
    "final_y": "563939.931425",
    "longitude": "-89.98504204306923",
    "latitude": "30.043825970977785",
    "geocoded_column": {
      "latitude": "30.043825970977785",
      "longitude": "-89.98504204306923"
    }
  },
  {
    "service_request": "2024-1147060",
    "request_type": "Trash/Recycling",
    "request_reason": "Request a Large Item Pick Up",
    "date_created": "2024-11-07T15:27:34.000",
    "date_modified": "2024-11-07T15:27:36.000",
    "request_status": "Pending",
    "responsible_agency": "Department of Sanitation",
    "final_address": "7627 Stonewood St",
    "address_councildis": "E",
    "status": "Assigned to Contractor",
    "contractor": "Waste Pro",
    "rowid": "1147060",
    "final_x": "3719513.59212",
    "final_y": "572444.029033",
    "longitude": "-89.94647458353643",
    "latitude": "30.066811658755746",
    "geocoded_column": {
      "latitude": "30.066811658755746",
      "longitude": "-89.94647458353643"
    }
  },
  {
    "service_request": "2024-1147059",
    "request_type": "Parks & Parkways",
    "request_reason": "Request Tree Service (Right of Way/Public Property)",
    "date_created": "2024-11-07T15:24:03.000",
    "date_modified": "2024-11-07T15:24:04.000",
    "request_status": "Pending",
    "responsible_agency": "Department of Parks & Parkway",
    "final_address": "4842 Brittany Ct",
    "address_councildis": "E",
    "status": "Pending",
    "rowid": "1147059",
    "final_x": "3726808.13222",
    "final_y": "561628.650783",
    "longitude": "-89.92383624171923",
    "latitude": "30.036829133683327",
    "geocoded_column": {
      "latitude": "30.036829133683327",
      "longitude": "-89.92383624171923"
    }
  },
  {
    "service_request": "2024-1147058",
    "request_type": "Property Maintenance",
    "request_reason": "Property Maintenance",
    "date_created": "2024-11-07T15:21:25.000",
    "date_modified": "2024-11-07T15:21:26.000",
    "request_status": "Pending",
    "responsible_agency": "Department of Code Enforcement",
    "final_address": "2310 Frenchmen St",
    "address_councildis": "D",
    "status": "Pending",
    "rowid": "1147058",
    "final_x": "3684194.14799",
    "final_y": "540790.028619",
    "longitude": "-90.05923770777184",
    "latitude": "29.980902975643325",
    "geocoded_column": {
      "latitude": "29.980902975643325",
      "longitude": "-90.05923770777184"
    }
  },
  {
    "service_request": "2024-1147057",
    "request_type": "Trash/Recycling",
    "request_reason": "Request a Large Item Pick Up",
    "date_created": "2024-11-07T15:20:18.000",
    "date_modified": "2024-11-07T15:20:20.000",
    "request_status": "Pending",
    "responsible_agency": "Department of Sanitation",
    "final_address": "6 Plover St",
    "address_councildis": "D",
    "status": "Assigned to Contractor",
    "contractor": "IV Waste",
    "rowid": "1147057",
    "final_x": "3674369.23489",
    "final_y": "556794.774682",
    "longitude": "-90.08972055510375",
    "latitude": "30.025207117301075",
    "geocoded_column": {
      "latitude": "30.025207117301075",
      "longitude": "-90.08972055510375"
    }
  },
  {
    "service_request": "2024-1147056",
    "request_type": "Abandoned Vehicles",
    "request_reason": "Abandoned/Junk Vehicles",
    "date_created": "2024-11-07T15:12:51.000",
    "date_modified": "2024-11-07T15:31:07.000",
    "request_status": "Pending",
    "responsible_agency": "Department of Public Works",
    "final_address": "7601 Inlet Ln",
    "address_councildis": "E",
    "status": "Pending",
    "rowid": "1147056",
    "final_x": "3714716.71935",
    "final_y": "568443.847589",
    "longitude": "-89.96178948441074",
    "latitude": "30.055971578942003",
    "geocoded_column": {
      "latitude": "30.055971578942003",
      "longitude": "-89.96178948441074"
    }
  },
  {
    "service_request": "2024-1147055",
    "request_type": "Trash/Recycling",
    "request_reason": "Replace Recycling Cart",
    "date_created": "2024-11-07T15:06:39.000",
    "date_modified": "2024-11-07T15:06:39.000",
    "request_status": "Pending",
    "responsible_agency": "Department of Sanitation",
    "final_address": "3054 Royal St",
    "address_councildis": "C",
    "status": "Pending",
    "rowid": "1147055",
    "final_x": "3688474.94435",
    "final_y": "534513.033029",
    "longitude": "-90.045939837101",
    "latitude": "29.963511867512317",
    "geocoded_column": {
      "latitude": "29.963511867512317",
      "longitude": "-90.045939837101"
    }
  },
  {
    "service_request": "2024-1147054",
    "request_type": "Trash/Recycling",
    "request_reason": "Request a Large Item Pick Up",
    "date_created": "2024-11-07T15:02:52.000",
    "date_modified": "2024-11-07T15:02:53.000",
    "request_status": "Pending",
    "responsible_agency": "Department of Sanitation",
    "final_address": "4708 Perlita St",
    "address_councildis": "D",
    "status": "Assigned to Contractor",
    "contractor": "IV Waste",
    "rowid": "1147054",
    "final_x": "3678608.25928",
    "final_y": "549899.547412",
    "longitude": "-90.07656485434157",
    "latitude": "30.006120548498366",
    "geocoded_column": {
      "latitude": "30.006120548498366",
      "longitude": "-90.07656485434157"
    }
  },
  {
    "service_request": "2024-1147053",
    "request_type": "Safety & Permits",
    "request_reason": "Licenses & Permits",
    "date_created": "2024-11-07T15:00:05.000",
    "date_modified": "2024-11-07T15:00:05.000",
    "request_status": "Pending",
    "responsible_agency": "Safety and Permits",
    "final_address": "7237 Gem St",
    "address_councildis": "D",
    "status": "Pending",
    "rowid": "1147053",
    "final_x": "3669812.7417",
    "final_y": "555112.435993",
    "longitude": "-90.10417544272518",
    "latitude": "30.02071647723332",
    "geocoded_column": {
      "latitude": "30.02071647723332",
      "longitude": "-90.10417544272518"
    }
  },
  {
    "service_request": "2024-1147052",
    "request_type": "Trash/Recycling",
    "request_reason": "Request a Large Item Pick Up",
    "date_created": "2024-11-07T14:56:58.000",
    "date_modified": "2024-11-07T14:56:59.000",
    "request_status": "Pending",
    "responsible_agency": "Department of Sanitation",
    "final_address": "37 Curtis Dr",
    "address_councildis": "E",
    "status": "Assigned to Contractor",
    "contractor": "Waste Pro",
    "rowid": "1147052",
    "final_x": "3697804.54967",
    "final_y": "560738.177246",
    "longitude": "-90.01552565818882",
    "latitude": "30.035329769258666",
    "geocoded_column": {
      "latitude": "30.035329769258666",
      "longitude": "-90.01552565818882"
    }
  },
  {
    "service_request": "2024-1147051",
    "request_type": "Trash/Recycling",
    "request_reason": "Request a Large Item Pick Up",
    "date_created": "2024-11-07T14:51:40.000",
    "date_modified": "2024-11-07T14:51:41.000",
    "request_status": "Pending",
    "responsible_agency": "Department of Sanitation",
    "final_address": "2453 N Robertson St",
    "address_councildis": "C",
    "status": "Assigned to Contractor",
    "contractor": "IV Waste",
    "rowid": "1147051",
    "final_x": "3686862.4989",
    "final_y": "537970.171977",
    "longitude": "-90.0509095702533",
    "latitude": "29.973067509926345",
    "geocoded_column": {
      "latitude": "29.973067509926345",
      "longitude": "-90.0509095702533"
    }
  },
  {
    "service_request": "2024-1147050",
    "request_type": "Trash/Recycling",
    "request_reason": "Repair Recycling Cart",
    "date_created": "2024-11-07T14:51:33.000",
    "date_modified": "2024-11-07T14:51:34.000",
    "request_status": "Pending",
    "responsible_agency": "Department of Sanitation",
    "final_address": "35 Versailles Blvd",
    "address_councildis": "A",
    "status": "Pending",
    "rowid": "1147050",
    "final_x": "3667411.88532",
    "final_y": "529461.700289",
    "longitude": "-90.11262491276037",
    "latitude": "29.950256260356355",
    "geocoded_column": {
      "latitude": "29.950256260356355",
      "longitude": "-90.11262491276037"
    }
  },
  {
    "service_request": "2024-1147049",
    "request_type": "Parks & Parkways",
    "request_reason": "Request Tree Service (Right of Way/Public Property)",
    "date_created": "2024-11-07T14:44:34.000",
    "date_modified": "2024-11-07T14:44:35.000",
    "request_status": "Pending",
    "responsible_agency": "Department of Parks & Parkway",
    "final_address": "2743 Gallinghouse St",
    "address_councildis": "C",
    "status": "Pending",
    "rowid": "1147049",
    "final_x": "3700015.36996",
    "final_y": "520720.056825",
    "longitude": "-90.00999967119817",
    "latitude": "29.925224451185628",
    "geocoded_column": {
      "latitude": "29.925224451185628",
      "longitude": "-90.00999967119817"
    }
  },
  {
    "service_request": "2024-1147048",
    "request_type": "Tax and Revenue",
    "request_reason": "General Tax Question",
    "date_created": "2024-11-07T14:43:25.000",
    "date_modified": "2024-11-07T14:43:25.000",
    "request_status": "Pending",
    "responsible_agency": "Bureau of Revenue",
    "final_address": "0 BLK Poydras St",
    "address_councildis": "B",
    "status": "Pending",
    "rowid": "1147048",
    "final_x": "3682820.46766",
    "final_y": "528816.972666",
    "longitude": "-90.06399531569016",
    "latitude": "29.948023114681554",
    "geocoded_column": {
      "latitude": "29.948023114681554",
      "longitude": "-90.06399531569016"
    }
  },
  {
    "service_request": "2024-1147047",
    "request_type": "Trash/Recycling",
    "request_reason": "Request a Large Item Pick Up",
    "date_created": "2024-11-07T14:34:34.000",
    "date_modified": "2024-11-07T14:34:35.000",
    "request_status": "Pending",
    "responsible_agency": "Department of Sanitation",
    "final_address": "1135 Philip St",
    "address_councildis": "B",
    "status": "Assigned to Contractor",
    "contractor": "IV Waste",
    "rowid": "1147047",
    "final_x": "3678404.33051",
    "final_y": "522111.522682",
    "longitude": "-90.0781707638938",
    "latitude": "29.92971911958499",
    "geocoded_column": {
      "latitude": "29.92971911958499",
      "longitude": "-90.0781707638938"
    }
  },
  {
    "service_request": "2024-1147046",
    "request_type": "Abandoned Vehicles",
    "request_reason": "Abandoned/Junk Vehicles",
    "date_created": "2024-11-07T14:33:56.000",
    "date_modified": "2024-11-07T14:37:20.000",
    "request_status": "Pending",
    "responsible_agency": "Department of Public Works",
    "final_address": "1602 Chimney Wood Ln",
    "address_councildis": "E",
    "status": "Pending",
    "rowid": "1147046",
    "final_x": "3695874.57936",
    "final_y": "557922.788251",
    "longitude": "-90.02172649927583",
    "latitude": "30.027649417546737",
    "geocoded_column": {
      "latitude": "30.027649417546737",
      "longitude": "-90.02172649927583"
    }
  },
  {
    "service_request": "2024-1147045",
    "request_type": "Roads and Streets",
    "request_reason": "Pothole",
    "date_created": "2024-11-07T14:33:28.000",
    "date_modified": "2024-11-07T14:35:00.000",
    "case_close_date": "2024-11-07T08:35:00.000",
    "request_status": "Closed",
    "responsible_agency": "Department of Public Works",
    "final_address": "1017 Moss St",
    "address_councildis": "A",
    "status": "Resolved",
    "rowid": "1147045",
    "final_x": "3674801.53985",
    "final_y": "539898.29537",
    "longitude": "-90.08893436203574",
    "latitude": "29.978734843836385",
    "geocoded_column": {
      "latitude": "29.978734843836385",
      "longitude": "-90.08893436203574"
    }
  },
  {
    "service_request": "2024-1147044",
    "request_type": "Safety & Permits",
    "request_reason": "Licenses & Permits",
    "date_created": "2024-11-07T14:33:00.000",
    "date_modified": "2024-11-07T14:33:00.000",
    "request_status": "Pending",
    "responsible_agency": "Safety and Permits",
    "final_address": "3640 Constance St",
    "address_councildis": "B",
    "status": "Pending",
    "rowid": "1147044",
    "final_x": "3673931.39163",
    "final_y": "518778.064375",
    "longitude": "-90.09240503369915",
    "latitude": "29.9206871490348",
    "geocoded_column": {
      "latitude": "29.9206871490348",
      "longitude": "-90.09240503369915"
    }
  },
  {
    "service_request": "2024-1147043",
    "request_type": "Roads and Streets",
    "request_reason": "Street Subsidence (Sinking)",
    "date_created": "2024-11-07T14:32:46.000",
    "date_modified": "2024-11-07T14:32:46.000",
    "request_status": "Pending",
    "responsible_agency": "Department of Public Works",
    "final_address": "7706 Burthe St",
    "address_councildis": "A",
    "status": "Pending",
    "rowid": "1147043",
    "final_x": "3662251.59872",
    "final_y": "526633.522686",
    "longitude": "-90.12901232289202",
    "latitude": "29.9426298297996",
    "geocoded_column": {
      "latitude": "29.9426298297996",
      "longitude": "-90.12901232289202"
    }
  },
  {
    "service_request": "2024-1147042",
    "request_type": "Trash/Recycling",
    "request_reason": "Repair Trash Cart",
    "date_created": "2024-11-07T14:30:06.000",
    "date_modified": "2024-11-07T14:30:07.000",
    "request_status": "Pending",
    "responsible_agency": "Department of Sanitation",
    "final_address": "4227 Baudin St",
    "address_councildis": "A",
    "status": "Assigned to Contractor",
    "contractor": "IV Waste",
    "rowid": "1147042",
    "final_x": "3669458.29857",
    "final_y": "537609.041544",
    "longitude": "-90.10588782577902",
    "latitude": "29.972598643564286",
    "geocoded_column": {
      "latitude": "29.972598643564286",
      "longitude": "-90.10588782577902"
    }
  },
  {
    "service_request": "2024-1147041",
    "request_type": "Street and Traffic Signs",
    "request_reason": "Street Name Sign Damaged or Missing",
    "date_created": "2024-11-07T14:28:23.000",
    "date_modified": "2024-11-07T14:28:24.000",
    "request_status": "Pending",
    "responsible_agency": "Department of Public Works",
    "final_address": "CLIO ST & S WHITE ST",
    "address_councildis": "B",
    "status": "Pending",
    "rowid": "1147041",
    "final_x": "3671893.2",
    "final_y": "531284.98",
    "longitude": "-90.09841320143282",
    "latitude": "29.95513764459101",
    "geocoded_column": {
      "latitude": "29.95513764459101",
      "longitude": "-90.09841320143282"
    }
  },
  {
    "service_request": "2024-1147040",
    "request_type": "Trash/Recycling",
    "request_reason": "Request a Large Item Pick Up",
    "date_created": "2024-11-07T14:25:10.000",
    "date_modified": "2024-11-07T14:25:10.000",
    "request_status": "Pending",
    "responsible_agency": "Department of Sanitation",
    "final_address": "7721 Alabama St",
    "address_councildis": "D",
    "status": "Assigned to Contractor",
    "contractor": "Waste Pro",
    "rowid": "1147040",
    "final_x": "3694833.8689",
    "final_y": "558921.358492",
    "longitude": "-90.02497902065419",
    "latitude": "30.030427819723226",
    "geocoded_column": {
      "latitude": "30.030427819723226",
      "longitude": "-90.02497902065419"
    }
  },
  {
    "service_request": "2024-1147039",
    "request_type": "Trash/Recycling",
    "request_reason": "Request a Large Item Pick Up",
    "date_created": "2024-11-07T14:22:21.000",
    "date_modified": "2024-11-07T14:22:22.000",
    "request_status": "Pending",
    "responsible_agency": "Department of Sanitation",
    "final_address": "2022 Stephen Girard St",
    "address_councildis": "D",
    "status": "Assigned to Contractor",
    "contractor": "IV Waste",
    "rowid": "1147039",
    "final_x": "3682725.95055",
    "final_y": "548687.823187",
    "longitude": "-90.0635985032073",
    "latitude": "30.002663917495155",
    "geocoded_column": {
      "latitude": "30.002663917495155",
      "longitude": "-90.0635985032073"
    }
  },
  {
    "service_request": "2024-1147038",
    "request_type": "Trash/Recycling",
    "request_reason": "Request a Large Item Pick Up",
    "date_created": "2024-11-07T14:16:42.000",
    "date_modified": "2024-11-07T14:16:43.000",
    "request_status": "Pending",
    "responsible_agency": "Department of Sanitation",
    "final_address": "1728 Pine St",
    "address_councildis": "A",
    "status": "Assigned to Contractor",
    "contractor": "IV Waste",
    "rowid": "1147038",
    "final_x": "3664998.68231",
    "final_y": "528339.679424",
    "longitude": "-90.12028207664875",
    "latitude": "29.947241535419447",
    "geocoded_column": {
      "latitude": "29.947241535419447",
      "longitude": "-90.12028207664875"
    }
  },
  {
    "service_request": "2024-1147037",
    "request_type": "Roads and Streets",
    "request_reason": "Debris in Driving Lanes",
    "date_created": "2024-11-07T14:16:16.000",
    "date_modified": "2024-11-07T14:16:16.000",
    "request_status": "Pending",
    "responsible_agency": "Department of Public Works",
    "final_address": "5400 BLK Freret St",
    "address_councildis": "A",
    "status": "Pending",
    "rowid": "1147037",
    "final_x": "3667742.48338",
    "final_y": "524032.887746",
    "longitude": "-90.11176379669168",
    "latitude": "29.935319090783143",
    "geocoded_column": {
      "latitude": "29.935319090783143",
      "longitude": "-90.11176379669168"
    }
  },
  {
    "service_request": "2024-1147036",
    "request_type": "Trash/Recycling",
    "request_reason": "Missed Trash Pick-Up",
    "date_created": "2024-11-07T14:14:51.000",
    "date_modified": "2024-11-07T16:12:27.000",
    "case_close_date": "2024-11-07T10:12:27.000",
    "request_status": "Closed",
    "responsible_agency": "Department of Sanitation",
    "final_address": "1329 St Roch Ave",
    "address_councildis": "C",
    "status": "Invalid Request",
    "contractor": "IV Waste",
    "contractor_action": "Invalid",
    "rowid": "1147036",
    "final_x": "3686493.87542",
    "final_y": "537392.09908",
    "longitude": "-90.05209416682838",
    "latitude": "29.971489350601413",
    "geocoded_column": {
      "latitude": "29.971489350601413",
      "longitude": "-90.05209416682838"
    }
  },
  {
    "service_request": "2024-1147035",
    "request_type": "Safety & Permits",
    "request_reason": "Licenses & Permits",
    "date_created": "2024-11-07T14:14:31.000",
    "date_modified": "2024-11-07T14:14:31.000",
    "request_status": "Pending",
    "responsible_agency": "Safety and Permits",
    "final_address": "3426 Laurel St",
    "address_councildis": "B",
    "status": "Pending",
    "rowid": "1147035",
    "final_x": "3675085.34267",
    "final_y": "518810.352759",
    "longitude": "-90.08876143081532",
    "latitude": "29.920741518255483",
    "geocoded_column": {
      "latitude": "29.920741518255483",
      "longitude": "-90.08876143081532"
    }
  },
  {
    "service_request": "2024-1147034",
    "request_type": "Roads and Streets",
    "request_reason": "Debris in Driving Lanes",
    "date_created": "2024-11-07T14:14:29.000",
    "date_modified": "2024-11-07T14:18:07.000",
    "request_status": "Pending",
    "responsible_agency": "Department of Public Works",
    "final_address": "JEFFERSON AVE & S ROBERTSON ST",
    "address_councildis": "A",
    "status": "Pending",
    "rowid": "1147034",
    "final_x": "3667974.2",
    "final_y": "524341.38",
    "longitude": "-90.11102187541314",
    "latitude": "29.93616055101834",
    "geocoded_column": {
      "latitude": "29.93616055101834",
      "longitude": "-90.11102187541314"
    }
  },
  {
    "service_request": "2024-1147033",
    "request_type": "Abandoned Vehicles",
    "request_reason": "Abandoned/Junk Vehicles",
    "date_created": "2024-11-07T14:06:40.000",
    "date_modified": "2024-11-07T14:06:40.000",
    "request_status": "Pending",
    "responsible_agency": "Department of Public Works",
    "final_address": "2300 BLK N Peters St",
    "address_councildis": "C",
    "status": "Pending",
    "rowid": "1147033",
    "final_x": "3685793.33409",
    "final_y": "533909.442467",
    "longitude": "-90.0544293340899",
    "latitude": "29.961934773610217",
    "geocoded_column": {
      "latitude": "29.961934773610217",
      "longitude": "-90.0544293340899"
    }
  },
  {
    "service_request": "2024-1147032",
    "request_type": "Abandoned Vehicles",
    "request_reason": "Abandoned/Junk Vehicles",
    "date_created": "2024-11-07T14:04:57.000",
    "date_modified": "2024-11-07T14:04:57.000",
    "request_status": "Pending",
    "responsible_agency": "Department of Public Works",
    "final_address": "2300 BLK N Peters St",
    "address_councildis": "C",
    "status": "Pending",
    "rowid": "1147032",
    "final_x": "3685793.33409",
    "final_y": "533909.442467",
    "longitude": "-90.0544293340899",
    "latitude": "29.961934773610217",
    "geocoded_column": {
      "latitude": "29.961934773610217",
      "longitude": "-90.0544293340899"
    }
  },
  {
    "service_request": "2024-1147031",
    "request_type": "Abandoned Vehicles",
    "request_reason": "Abandoned/Junk Vehicles",
    "date_created": "2024-11-07T14:04:21.000",
    "date_modified": "2024-11-07T14:04:22.000",
    "request_status": "Pending",
    "responsible_agency": "Department of Public Works",
    "final_address": "7500 Lafourche St",
    "address_councildis": "E",
    "status": "Pending",
    "rowid": "1147031",
    "final_x": "3710557.68926",
    "final_y": "564896.332002",
    "longitude": "-89.97506822766219",
    "latitude": "30.046353574166666",
    "geocoded_column": {
      "latitude": "30.046353574166666",
      "longitude": "-89.97506822766219"
    }
  },
  {
    "service_request": "2024-1147030",
    "request_type": "Trash/Recycling",
    "request_reason": "Repair Trash Cart",
    "date_created": "2024-11-07T14:03:54.000",
    "date_modified": "2024-11-07T14:03:55.000",
    "request_status": "Pending",
    "responsible_agency": "Department of Sanitation",
    "final_address": "5521 S Tonti St",
    "address_councildis": "A",
    "status": "Assigned to Contractor",
    "contractor": "IV Waste",
    "rowid": "1147030",
    "final_x": "3668316.64647",
    "final_y": "528134.816447",
    "longitude": "-90.10981287986135",
    "latitude": "29.94658122730512",
    "geocoded_column": {
      "latitude": "29.94658122730512",
      "longitude": "-90.10981287986135"
    }
  },
  {
    "service_request": "2024-1147029",
    "request_type": "Traffic Signals",
    "request_reason": "Traffic Signal Malfunctioning or Damaged",
    "date_created": "2024-11-07T13:58:10.000",
    "date_modified": "2024-11-07T13:58:11.000",
    "request_status": "Pending",
    "responsible_agency": "Department of Public Works",
    "final_address": "AMERICA ST & CHEF MENTEUR HWY",
    "address_councildis": "E",
    "status": "Pending",
    "rowid": "1147029",
    "final_x": "3700013.5",
    "final_y": "551973.98",
    "longitude": "-90.00886518816738",
    "latitude": "30.011161543888043",
    "geocoded_column": {
      "latitude": "30.011161543888043",
      "longitude": "-90.00886518816738"
    }
  },
  {
    "service_request": "2024-1147028",
    "request_type": "Trash/Recycling",
    "request_reason": "Request a Large Item Pick Up",
    "date_created": "2024-11-07T13:53:51.000",
    "date_modified": "2024-11-07T13:53:52.000",
    "request_status": "Pending",
    "responsible_agency": "Department of Sanitation",
    "final_address": "4945 Major Dr",
    "address_councildis": "E",
    "status": "Assigned to Contractor",
    "contractor": "Waste Pro",
    "rowid": "1147028",
    "final_x": "3718220.02143",
    "final_y": "558160.066843",
    "longitude": "-89.95110841399502",
    "latitude": "30.02757960551485",
    "geocoded_column": {
      "latitude": "30.02757960551485",
      "longitude": "-89.95110841399502"
    }
  },
  {
    "service_request": "2024-1147027",
    "request_type": "Trash/Recycling",
    "request_reason": "Return Trash Cart",
    "date_created": "2024-11-07T13:48:22.000",
    "date_modified": "2024-11-07T13:48:22.000",
    "request_status": "Closed",
    "responsible_agency": "Department of Sanitation",
    "final_address": "4300 S Carrollton Ave",
    "address_councildis": "A",
    "status": "Invalid Request",
    "rowid": "1147027",
    "final_x": "3669876.34311",
    "final_y": "536840.007368",
    "longitude": "-90.104593606373",
    "latitude": "29.970471737717265",
    "geocoded_column": {
      "latitude": "29.970471737717265",
      "longitude": "-90.104593606373"
    }
  },
  {
    "service_request": "2024-1147026",
    "request_type": "Trash/Recycling",
    "request_reason": "Request a Large Item Pick Up",
    "date_created": "2024-11-07T13:46:30.000",
    "date_modified": "2024-11-07T13:47:04.000",
    "request_status": "Pending",
    "responsible_agency": "Department of Sanitation",
    "final_address": "4121 Dauphine St",
    "address_councildis": "C",
    "status": "Assigned to Contractor",
    "contractor": "IV Waste",
    "rowid": "1147026",
    "final_x": "3692002.26147",
    "final_y": "534073.534085",
    "longitude": "-90.03481671703487",
    "latitude": "29.962193957376666",
    "geocoded_column": {
      "latitude": "29.962193957376666",
      "longitude": "-90.03481671703487"
    }
  },
  {
    "service_request": "2024-1147025",
    "request_type": "Trash/Recycling",
    "request_reason": "Request a Large Item Pick Up",
    "date_created": "2024-11-07T13:45:36.000",
    "date_modified": "2024-11-07T13:45:37.000",
    "request_status": "Pending",
    "responsible_agency": "Department of Sanitation",
    "final_address": "8519 Oleander St",
    "address_councildis": "A",
    "status": "Assigned to Contractor",
    "contractor": "IV Waste",
    "rowid": "1147025",
    "final_x": "3665629.74234",
    "final_y": "534753.937478",
    "longitude": "-90.118074781057",
    "latitude": "29.964860267232265",
    "geocoded_column": {
      "latitude": "29.964860267232265",
      "longitude": "-90.118074781057"
    }
  },
  {
    "service_request": "2024-1147024",
    "request_type": "Trash/Recycling",
    "request_reason": "Request a Large Item Pick Up",
    "date_created": "2024-11-07T13:45:29.000",
    "date_modified": "2024-11-07T13:45:31.000",
    "request_status": "Pending",
    "responsible_agency": "Department of Sanitation",
    "final_address": "6718 Lake Willow Dr",
    "address_councildis": "E",
    "status": "Assigned to Contractor",
    "contractor": "Waste Pro",
    "rowid": "1147024",
    "final_x": "3704093.68612",
    "final_y": "559481.657053",
    "longitude": "-89.99569743950792",
    "latitude": "30.03167444979784",
    "geocoded_column": {
      "latitude": "30.03167444979784",
      "longitude": "-89.99569743950792"
    }
  },
  {
    "service_request": "2024-1147023",
    "request_type": "Trash/Recycling",
    "request_reason": "Request a Large Item Pick Up",
    "date_created": "2024-11-07T13:42:56.000",
    "date_modified": "2024-11-07T13:42:57.000",
    "request_status": "Pending",
    "responsible_agency": "Department of Sanitation",
    "final_address": "8852 Gervais St",
    "address_councildis": "E",
    "status": "Assigned to Contractor",
    "contractor": "Waste Pro",
    "rowid": "1147023",
    "final_x": "3704857.05969",
    "final_y": "563157.565792",
    "longitude": "-89.99314929658064",
    "latitude": "30.041757228348104",
    "geocoded_column": {
      "latitude": "30.041757228348104",
      "longitude": "-89.99314929658064"
    }
  },
  {
    "service_request": "2024-1147022",
    "request_type": "Streetlights",
    "request_reason": "Streetlight Outage/Malfunction",
    "date_created": "2024-11-07T13:41:13.000",
    "date_modified": "2024-11-07T13:41:14.000",
    "request_status": "Pending",
    "responsible_agency": "Department of Public Works",
    "final_address": "5055 St Ferdinand Dr",
    "address_councildis": "D",
    "status": "Pending",
    "contractor": "Legacy Professional Services",
    "rowid": "1147022",
    "final_x": "3689223.64534",
    "final_y": "551752.377109",
    "longitude": "-90.04296245913963",
    "latitude": "30.010890736430554",
    "geocoded_column": {
      "latitude": "30.010890736430554",
      "longitude": "-90.04296245913963"
    }
  },
  {
    "service_request": "2024-1147021",
    "request_type": "Streetlights",
    "request_reason": "Streetlight Outage/Malfunction",
    "date_created": "2024-11-07T13:38:52.000",
    "date_modified": "2024-11-07T13:38:53.000",
    "request_status": "Pending",
    "responsible_agency": "Department of Public Works",
    "final_address": "13720 Granville St",
    "address_councildis": "E",
    "status": "Pending",
    "contractor": "Legacy Professional Services",
    "rowid": "1147021",
    "final_x": "3726955.74201",
    "final_y": "562630.44656",
    "longitude": "-89.92333081277833",
    "latitude": "30.039578663979974",
    "geocoded_column": {
      "latitude": "30.039578663979974",
      "longitude": "-89.92333081277833"
    }
  },
  {
    "service_request": "2024-1147020",
    "request_type": "Trash/Recycling",
    "request_reason": "Request a Large Item Pick Up",
    "date_created": "2024-11-07T13:38:28.000",
    "date_modified": "2024-11-07T13:38:29.000",
    "request_status": "Pending",
    "responsible_agency": "Department of Sanitation",
    "final_address": "620 Gallier St",
    "address_councildis": "C",
    "status": "Assigned to Contractor",
    "contractor": "IV Waste",
    "rowid": "1147020",
    "final_x": "3690011.15888",
    "final_y": "533968.947141",
    "longitude": "-90.0411080278378",
    "latitude": "29.961968272940652",
    "geocoded_column": {
      "latitude": "29.961968272940652",
      "longitude": "-90.0411080278378"
    }
  },
  {
    "service_request": "2024-1147019",
    "request_type": "Trash/Recycling",
    "request_reason": "Request a Large Item Pick Up",
    "date_created": "2024-11-07T13:35:28.000",
    "date_modified": "2024-11-07T13:35:29.000",
    "request_status": "Pending",
    "responsible_agency": "Department of Sanitation",
    "final_address": "4644 Lonely Oak Dr",
    "address_councildis": "E",
    "status": "Assigned to Contractor",
    "contractor": "Waste Pro",
    "rowid": "1147019",
    "final_x": "3702318.45284",
    "final_y": "553955.31036",
    "longitude": "-90.00151020915037",
    "latitude": "30.01653598870647",
    "geocoded_column": {
      "latitude": "30.01653598870647",
      "longitude": "-90.00151020915037"
    }
  },
  {
    "service_request": "2024-1147018",
    "request_type": "Trash/Recycling",
    "request_reason": "Illegal Dumping",
    "date_created": "2024-11-07T13:30:02.000",
    "date_modified": "2024-11-07T13:30:04.000",
    "request_status": "Pending",
    "responsible_agency": "Department of Sanitation",
    "final_address": "7601 Shorewood Blvd",
    "address_councildis": "E",
    "status": "Pending",
    "rowid": "1147018",
    "final_x": "3719939.36018",
    "final_y": "572776.319209",
    "longitude": "-89.94511595136021",
    "latitude": "30.06771114059429",
    "geocoded_column": {
      "latitude": "30.06771114059429",
      "longitude": "-89.94511595136021"
    }
  },
  {
    "service_request": "2024-1147017",
    "request_type": "Drainage",
    "request_reason": "Catch Basin Clogged",
    "date_created": "2024-11-07T13:27:10.000",
    "date_modified": "2024-11-07T13:27:10.000",
    "request_status": "Pending",
    "responsible_agency": "Department of Public Works",
    "final_address": "2230 State St",
    "address_councildis": "A",
    "status": "Pending",
    "rowid": "1147017",
    "final_x": "3666486.97837",
    "final_y": "524982.232381",
    "longitude": "-90.11569559422773",
    "latitude": "29.937966229206932",
    "geocoded_column": {
      "latitude": "29.937966229206932",
      "longitude": "-90.11569559422773"
    }
  },
  {
    "service_request": "2024-1147016",
    "request_type": "Trash/Recycling",
    "request_reason": "Request a Large Item Pick Up",
    "date_created": "2024-11-07T13:26:01.000",
    "date_modified": "2024-11-07T13:26:01.000",
    "request_status": "Pending",
    "responsible_agency": "Department of Sanitation",
    "final_address": "5028 Annunciation St",
    "address_councildis": "B",
    "status": "Assigned to Contractor",
    "contractor": "IV Waste",
    "rowid": "1147016",
    "final_x": "3668375.25114",
    "final_y": "517470.279478",
    "longitude": "-90.10998733716238",
    "latitude": "29.917255437276086",
    "geocoded_column": {
      "latitude": "29.917255437276086",
      "longitude": "-90.10998733716238"
    }
  },
  {
    "service_request": "2024-1147015",
    "request_type": "Trash/Recycling",
    "request_reason": "Order Recycling Cart",
    "date_created": "2024-11-07T13:24:11.000",
    "date_modified": "2024-11-07T13:24:11.000",
    "request_status": "Pending",
    "responsible_agency": "Department of Sanitation",
    "final_address": "5417 Clara St",
    "address_councildis": "A",
    "status": "Pending",
    "rowid": "1147015",
    "final_x": "3667967.77287",
    "final_y": "525064.122173",
    "longitude": "-90.11101782605976",
    "latitude": "29.93814804846412",
    "geocoded_column": {
      "latitude": "29.93814804846412",
      "longitude": "-90.11101782605976"
    }
  },
  {
    "service_request": "2024-1147014",
    "request_type": "Trash/Recycling",
    "request_reason": "Request a Large Item Pick Up",
    "date_created": "2024-11-07T13:20:09.000",
    "date_modified": "2024-11-07T13:20:10.000",
    "request_status": "Pending",
    "responsible_agency": "Department of Sanitation",
    "final_address": "7521 Farwood Dr",
    "address_councildis": "E",
    "status": "Assigned to Contractor",
    "contractor": "Waste Pro",
    "rowid": "1147014",
    "final_x": "3701954.87434",
    "final_y": "557059.533466",
    "longitude": "-90.00254504277464",
    "latitude": "30.02508302650678",
    "geocoded_column": {
      "latitude": "30.02508302650678",
      "longitude": "-90.00254504277464"
    }
  },
  {
    "service_request": "2024-1147013",
    "request_type": "Trash/Recycling",
    "request_reason": "Illegal Dumping",
    "date_created": "2024-11-07T13:18:14.000",
    "date_modified": "2024-11-07T13:18:14.000",
    "request_status": "Pending",
    "responsible_agency": "Department of Sanitation",
    "final_address": "5228 Dauphine St",
    "address_councildis": "E",
    "status": "Pending",
    "rowid": "1147013",
    "final_x": "3696457.18525",
    "final_y": "532904.736004",
    "longitude": "-90.02079108114809",
    "latitude": "29.958840607353952",
    "geocoded_column": {
      "latitude": "29.958840607353952",
      "longitude": "-90.02079108114809"
    }
  },
  {
    "service_request": "2024-1147012",
    "request_type": "Trash/Recycling",
    "request_reason": "Return Trash Cart",
    "date_created": "2024-11-07T13:15:48.000",
    "date_modified": "2024-11-07T13:15:49.000",
    "request_status": "Pending",
    "responsible_agency": "Department of Sanitation",
    "final_address": "3063 Orleans Ave",
    "address_councildis": "A",
    "status": "Assigned to Contractor",
    "contractor": "IV Waste",
    "rowid": "1147012",
    "final_x": "3675369.69601",
    "final_y": "538146.209865",
    "longitude": "-90.08720009054029",
    "latitude": "29.97390022986265",
    "geocoded_column": {
      "latitude": "29.97390022986265",
      "longitude": "-90.08720009054029"
    }
  },
  {
    "service_request": "2024-1147011",
    "request_type": "Trash/Recycling",
    "request_reason": "Request a Large Item Pick Up",
    "date_created": "2024-11-07T13:07:09.000",
    "date_modified": "2024-11-07T13:07:10.000",
    "request_status": "Pending",
    "responsible_agency": "Department of Sanitation",
    "final_address": "103 Larchmont Pl",
    "address_councildis": "C",
    "status": "Assigned to Contractor",
    "contractor": "Richards Disposal",
    "rowid": "1147011",
    "final_x": "3707275.89348",
    "final_y": "521066.200377",
    "longitude": "-89.98706786796512",
    "latitude": "29.925943663213673",
    "geocoded_column": {
      "latitude": "29.925943663213673",
      "longitude": "-89.98706786796512"
    }
  },
  {
    "service_request": "2024-1147010",
    "request_type": "Roads and Streets",
    "request_reason": "Street Subsidence (Sinking)",
    "date_created": "2024-11-07T13:05:55.000",
    "date_modified": "2024-11-07T13:05:56.000",
    "request_status": "Pending",
    "responsible_agency": "Department of Public Works",
    "final_address": "13618 Dwyer Blvd",
    "address_councildis": "E",
    "status": "Pending",
    "rowid": "1147010",
    "final_x": "3726555.83974",
    "final_y": "562091.909407",
    "longitude": "-89.92461552963579",
    "latitude": "30.038111434345478",
    "geocoded_column": {
      "latitude": "30.038111434345478",
      "longitude": "-89.92461552963579"
    }
  },
  {
    "service_request": "2024-1147009",
    "request_type": "Streetlights",
    "request_reason": "Streetlight Outage/Malfunction",
    "date_created": "2024-11-07T13:05:36.000",
    "date_modified": "2024-11-07T13:05:37.000",
    "request_status": "Pending",
    "responsible_agency": "Department of Public Works",
    "final_address": "2503 Delery St",
    "address_councildis": "E",
    "status": "Pending",
    "contractor": "Legacy Professional Services",
    "rowid": "1147009",
    "final_x": "3702567.93866",
    "final_y": "537956.309321",
    "longitude": "-90.00130958174988",
    "latitude": "29.972536725455473",
    "geocoded_column": {
      "latitude": "29.972536725455473",
      "longitude": "-90.00130958174988"
    }
  },
  {
    "service_request": "2024-1147008",
    "request_type": "Abandoned Vehicles",
    "request_reason": "Abandoned/Junk Vehicles",
    "date_created": "2024-11-07T13:01:53.000",
    "date_modified": "2024-11-07T13:01:54.000",
    "request_status": "Pending",
    "responsible_agency": "Department of Public Works",
    "final_address": "1234 Mandeville St",
    "address_councildis": "C",
    "status": "Pending",
    "rowid": "1147008",
    "final_x": "3685690.5814",
    "final_y": "537023.93236",
    "longitude": "-90.05464405693739",
    "latitude": "29.970501693859482",
    "geocoded_column": {
      "latitude": "29.970501693859482",
      "longitude": "-90.05464405693739"
    }
  },
  {
    "service_request": "2024-1147007",
    "request_type": "Abandoned Vehicles",
    "request_reason": "Abandoned/Junk Vehicles",
    "date_created": "2024-11-07T12:59:45.000",
    "date_modified": "2024-11-07T13:01:25.000",
    "request_status": "Pending",
    "responsible_agency": "Department of Public Works",
    "final_address": "GENERAL PERSHING ST & S DORGENOIS ST",
    "address_councildis": "B",
    "status": "Pending",
    "rowid": "1147007",
    "final_x": "3670457.3",
    "final_y": "528867.28",
    "longitude": "-90.10302922168007",
    "latitude": "29.94853223776373",
    "geocoded_column": {
      "latitude": "29.94853223776373",
      "longitude": "-90.10302922168007"
    }
  },
  {
    "service_request": "2024-1147005",
    "request_type": "Safety & Permits",
    "request_reason": "Licenses & Permits",
    "date_created": "2024-11-07T12:59:21.000",
    "date_modified": "2024-11-07T13:00:55.000",
    "request_status": "Pending",
    "responsible_agency": "Safety and Permits",
    "final_address": "7630 Burthe St",
    "address_councildis": "A",
    "rowid": "1147005",
    "final_x": "3662375.91194",
    "final_y": "526528.131262",
    "longitude": "-90.12862333356446",
    "latitude": "29.94233644370853",
    "geocoded_column": {
      "latitude": "29.94233644370853",
      "longitude": "-90.12862333356446"
    }
  },
  {
    "service_request": "2024-1147006",
    "request_type": "Abandoned Vehicles",
    "request_reason": "Abandoned/Junk Vehicles",
    "date_created": "2024-11-07T12:59:21.000",
    "date_modified": "2024-11-07T15:48:40.000",
    "request_status": "Pending",
    "responsible_agency": "Department of Public Works",
    "final_address": "3300 Delachaise St",
    "address_councildis": "B",
    "status": "Pending",
    "rowid": "1147006",
    "final_x": "3671516.77089",
    "final_y": "527092.598271",
    "longitude": "-90.09974434510853",
    "latitude": "29.943621121920764",
    "geocoded_column": {
      "latitude": "29.943621121920764",
      "longitude": "-90.09974434510853"
    }
  },
  {
    "service_request": "2024-1147004",
    "request_type": "Trash/Recycling",
    "request_reason": "Request a Large Item Pick Up",
    "date_created": "2024-11-07T12:56:29.000",
    "date_modified": "2024-11-07T12:56:30.000",
    "request_status": "Pending",
    "responsible_agency": "Department of Sanitation",
    "final_address": "2018 Shalett St",
    "address_councildis": "C",
    "status": "Assigned to Contractor",
    "contractor": "Richards Disposal",
    "rowid": "1147004",
    "final_x": "3694255.69603",
    "final_y": "523034.714683",
    "longitude": "-90.02809781765497",
    "latitude": "29.931770621170113",
    "geocoded_column": {
      "latitude": "29.931770621170113",
      "longitude": "-90.02809781765497"
    }
  },
  {
    "service_request": "2024-1147003",
    "request_type": "Property Maintenance",
    "request_reason": "Property Maintenance",
    "date_created": "2024-11-07T12:55:39.000",
    "date_modified": "2024-11-07T12:55:39.000",
    "request_status": "Pending",
    "responsible_agency": "Department of Code Enforcement",
    "final_address": "7501 Vanderkloot Ave",
    "address_councildis": "E",
    "status": "Pending",
    "rowid": "1147003",
    "final_x": "3706203.53879",
    "final_y": "562845.255584",
    "longitude": "-89.98890553889072",
    "latitude": "30.040855127879937",
    "geocoded_column": {
      "latitude": "30.040855127879937",
      "longitude": "-89.98890553889072"
    }
  },