[
  {
    "service_request": "2024-1109059",
    "request_type": "Trash/Recycling",
    "request_reason": "Missed Trash Pick-Up",
    "date_created": "2024-07-02T23:50:43.000",
    "date_modified": "2024-07-02T23:50:44.000",
    "request_status": "Pending",
    "responsible_agency": "Department of Sanitation",
    "final_address": "4754 Tulip St, New Orleans, Louisiana, 70126",
    "address_councildis": "E",
    "status": "Assigned to Contractor",
    "contractor": "Waste Pro",
    "rowid": "1109059",
    "final_x": "3701997.62935",
    "final_y": "554348.247448",
    "longitude": "-90.00250944763184",
    "latitude": "30.017626665021382",
    "geocoded_column": {
      "latitude": "30.017626665021382",
      "longitude": "-90.00250944763184"
    }
  },
  {
    "service_request": "2024-1109058",
    "request_type": "Roads/Drainage",
    "request_reason": "Pothole",
    "date_created": "2024-07-02T23:49:54.000",
    "date_modified": "2024-07-02T23:49:54.000",
    "request_status": "Pending",
    "responsible_agency": "Department of Public Works",
    "final_address": "1100 BLK Constantinople St",
    "address_councildis": "B",
    "status": "Pending",
    "rowid": "1109058",
    "final_x": "3672431.76698",
    "final_y": "519818.358445",
    "longitude": "-90.09710323917102",
    "latitude": "29.92359219713162",
    "geocoded_column": {
      "latitude": "29.92359219713162",
      "longitude": "-90.09710323917102"
    }
  },
  {
    "service_request": "2024-1109057",
    "request_type": "Traffic Signals/Signs/Striping/Streetlights",
    "request_reason": "Street Light Outage/Malfunction",
    "date_created": "2024-07-02T23:01:24.000",
    "date_modified": "2024-07-02T23:01:25.000",
    "request_status": "Pending",
    "responsible_agency": "Department of Public Works",
    "final_address": "4644 Crowder Blvd",
    "address_councildis": "E",
    "status": "Assigned to Contractor",
    "contractor": "Legacy Professional Services",
    "rowid": "1109057",
    "final_x": "3706376.05284",
    "final_y": "555152.142105",
    "longitude": "-89.98864566007819",
    "latitude": "30.019696511743522",
    "geocoded_column": {
      "latitude": "30.019696511743522",
      "longitude": "-89.98864566007819"
    }
  },
  {
    "service_request": "2024-1109055",
    "request_type": "Healthy Homes",
    "request_reason": "Healthy Homes",
    "date_created": "2024-07-02T22:20:43.000",
    "date_modified": "2024-07-02T22:20:43.000",
    "request_status": "Pending",
    "responsible_agency": "Department of Code Enforcement",
    "final_address": "5421 Constance St",
    "address_councildis": "A",
    "status": "Pending",
    "rowid": "1109055",
    "final_x": "3666502.20205",
    "final_y": "518534.904567",
    "longitude": "-90.11586380372046",
    "latitude": "29.920237676435452",
    "geocoded_column": {
      "latitude": "29.920237676435452",
      "longitude": "-90.11586380372046"
    }
  },
  {
    "service_request": "2024-1109054",
    "request_type": "Traffic Signals/Signs/Striping/Streetlights",
    "request_reason": "Striping/Road Surface Markings",
    "date_created": "2024-07-02T22:02:23.000",
    "date_modified": "2024-07-02T22:02:23.000",
    "request_status": "Pending",
    "responsible_agency": "Department of Public Works",
    "final_address": "1111 Poland Ave",
    "address_councildis": "D",
    "status": "Pending",
    "rowid": "1109054",
    "final_x": "3693198.2847",
    "final_y": "535193.421126",
    "longitude": "-90.03099967493971",
    "latitude": "29.965235929674588",
    "geocoded_column": {
      "latitude": "29.965235929674588",
      "longitude": "-90.03099967493971"
    }
  },
  {
    "service_request": "2024-1109053",
    "request_type": "Traffic Signals/Signs/Striping/Streetlights",
    "request_reason": "Street Light Outage/Malfunction",
    "date_created": "2024-07-02T21:58:30.000",
    "date_modified": "2024-07-02T21:58:31.000",
    "request_status": "Pending",
    "responsible_agency": "Department of Public Works",
    "final_address": "4719 Baronne St",
    "address_councildis": "B",
    "status": "Assigned to Contractor",
    "contractor": "Legacy Professional Services",
    "rowid": "1109053",
    "final_x": "3669474.16462",
    "final_y": "521504.860473",
    "longitude": "-90.10638231970947",
    "latitude": "29.928316949482163",
    "geocoded_column": {
      "latitude": "29.928316949482163",
      "longitude": "-90.10638231970947"
    }
  },
  {
    "service_request": "2024-1109052",
    "request_type": "Trash/Recycling",
    "request_reason": "Request a Large Item Pick Up",
    "date_created": "2024-07-02T21:30:03.000",
    "date_modified": "2024-07-02T21:30:04.000",
    "request_status": "Pending",
    "responsible_agency": "Department of Sanitation",
    "final_address": "428 Wagner St, New Orleans, Louisiana, 70114",
    "address_councildis": "C",
    "status": "Assigned to Contractor",
    "contractor": "Richards Disposal",
    "rowid": "1109052",
    "final_x": "3690647.55894",
    "final_y": "529952.327617",
    "longitude": "-90.03924163138679",
    "latitude": "29.95090421406172",
    "geocoded_column": {
      "latitude": "29.95090421406172",
      "longitude": "-90.03924163138679"
    }
  },
  {
    "service_request": "2024-1109051",
    "request_type": "Property Maintenance",
    "request_reason": "Property Maintenance",
    "date_created": "2024-07-02T21:29:14.000",
    "date_modified": "2024-07-02T21:29:14.000",
    "request_status": "Pending",
    "responsible_agency": "Department of Code Enforcement",
    "final_address": "6300 St Claude Ave",
    "address_councildis": "E",
    "status": "Pending",
    "rowid": "1109051",
    "final_x": "3700146.28816",
    "final_y": "532977.506564",
    "longitude": "-90.00913925230147",
    "latitude": "29.95892398960287",
    "geocoded_column": {
      "latitude": "29.95892398960287",
      "longitude": "-90.00913925230147"
    }
  },
  {
    "service_request": "2024-1109050",
    "request_type": "Trash/Recycling",
    "request_reason": "Request a Large Item Pick Up",
    "date_created": "2024-07-02T21:26:28.000",
    "date_modified": "2024-07-02T21:26:29.000",
    "request_status": "Pending",
    "responsible_agency": "Department of Sanitation",
    "final_address": "428 Wagner St",
    "address_councildis": "C",
    "status": "Assigned to Contractor",
    "contractor": "Richards Disposal",
    "rowid": "1109050",
    "final_x": "3690647.55894",
    "final_y": "529952.327617",
    "longitude": "-90.03924163138679",
    "latitude": "29.95090421406172",
    "geocoded_column": {
      "latitude": "29.95090421406172",
      "longitude": "-90.03924163138679"
    }
  },
  {
    "service_request": "2024-1109049",
    "request_type": "Trash/Recycling",
    "request_reason": "Request a Large Item Pick Up",
    "date_created": "2024-07-02T21:07:17.000",
    "date_modified": "2024-07-02T21:07:18.000",
    "request_status": "Pending",
    "responsible_agency": "Department of Sanitation",
    "final_address": "4926 Gabriel Dr",
    "address_councildis": "E",
    "status": "Assigned to Contractor",
    "contractor": "Waste Pro",
    "rowid": "1109049",
    "final_x": "3708726.73336",
    "final_y": "556737.294106",
    "longitude": "-89.9811592437263",
    "latitude": "30.023979000539597",
    "geocoded_column": {
      "latitude": "30.023979000539597",
      "longitude": "-89.9811592437263"
    }
  },
  {
    "service_request": "2024-1109048",
    "request_type": "Trash/Recycling",
    "request_reason": "Request a Large Item Pick Up",
    "date_created": "2024-07-02T21:07:12.000",
    "date_modified": "2024-07-02T21:07:13.000",
    "request_status": "Pending",
    "responsible_agency": "Department of Sanitation",
    "final_address": "5436 N Derbigny St",
    "address_councildis": "E",
    "status": "Assigned to Contractor",
    "contractor": "Waste Pro",
    "rowid": "1109048",
    "final_x": "3698099.97181",
    "final_y": "536078.119367",
    "longitude": "-90.01548835981241",
    "latitude": "29.967514436265095",
    "geocoded_column": {
      "latitude": "29.967514436265095",
      "longitude": "-90.01548835981241"
    }
  },
  {
    "service_request": "2024-1109047",
    "request_type": "Trash/Recycling",
    "request_reason": "Request a Large Item Pick Up",
    "date_created": "2024-07-02T21:05:12.000",
    "date_modified": "2024-07-02T21:05:25.000",
    "request_status": "Pending",
    "responsible_agency": "Department of Sanitation",
    "final_address": "5436 N Derbigny St",
    "address_councildis": "E",
    "status": "Assigned to Contractor",
    "contractor": "Waste Pro",
    "rowid": "1109047",
    "final_x": "3698099.97181",
    "final_y": "536078.119367",
    "longitude": "-90.01548835981241",
    "latitude": "29.967514436265095",
    "geocoded_column": {
      "latitude": "29.967514436265095",
      "longitude": "-90.01548835981241"
    }
  },
  {
    "service_request": "2024-1109046",
    "request_type": "Traffic Signals/Signs/Striping/Streetlights",
    "request_reason": "Street Light Outage/Malfunction",
    "date_created": "2024-07-02T20:57:11.000",
    "date_modified": "2024-07-02T20:57:12.000",
    "request_status": "Pending",
    "responsible_agency": "Department of Public Works",
    "final_address": "0 BLK Interstate 10",
    "status": "Assigned to Contractor",
    "contractor": "Legacy Professional Services",
    "rowid": "1109046",
    "final_x": "3749078.15502",
    "final_y": "605653.561774",
    "longitude": "-89.85166076471643",
    "latitude": "30.157105189447982",
    "geocoded_column": {
      "latitude": "30.157105189447982",
      "longitude": "-89.85166076471643"
    }
  },
  {
    "service_request": "2024-1109045",
    "request_type": "Trash/Recycling",
    "request_reason": "Request a Large Item Pick Up",
    "date_created": "2024-07-02T20:35:37.000",
    "date_modified": "2024-07-02T20:36:42.000",
    "request_status": "Pending",
    "responsible_agency": "Department of Sanitation",
    "final_address": "7124 Grey Oaks Dr",
    "address_councildis": "E",
    "status": "Assigned to Contractor",
    "contractor": "Waste Pro",
    "rowid": "1109045",
    "final_x": "3701985.49476",
    "final_y": "559562.477149",
    "longitude": "-90.00235642021707",
    "latitude": "30.031964175315462",
    "geocoded_column": {
      "latitude": "30.031964175315462",
      "longitude": "-90.00235642021707"
    }
  },
  {
    "service_request": "2024-1109044",
    "request_type": "Parks & Parkways",
    "request_reason": "Request Grass Cutting Service (City Owned Property)",
    "date_created": "2024-07-02T20:28:32.000",
    "date_modified": "2024-07-02T20:28:32.000",
    "request_status": "Pending",
    "responsible_agency": "Department of Parks & Parkway",
    "final_address": "5200 Edenboro Rd",
    "address_councildis": "E",
    "status": "Pending",
    "rowid": "1109044",
    "final_x": "3708331.18609",
    "final_y": "557428.491355",
    "longitude": "-89.98238333587254",
    "latitude": "30.02589235135751",
    "geocoded_column": {
      "latitude": "30.02589235135751",
      "longitude": "-89.98238333587254"
    }
  },
  {
    "service_request": "2024-1109043",
    "request_type": "Roads/Drainage",
    "request_reason": "Catch Basin - Clogged",
    "date_created": "2024-07-02T20:26:43.000",
    "date_modified": "2024-07-02T20:26:44.000",
    "request_status": "Pending",
    "responsible_agency": "Department of Public Works",
    "final_address": "1900 BLK Bordeaux St",
    "address_councildis": "B",
    "status": "Pending",
    "rowid": "1109043",
    "final_x": "3669256.48396",
    "final_y": "521970.161228",
    "longitude": "-90.10705377205589",
    "latitude": "29.9296027854821",
    "geocoded_column": {
      "latitude": "29.9296027854821",
      "longitude": "-90.10705377205589"
    }
  },
  {
    "service_request": "2024-1109042",
    "request_type": "Roads/Drainage",
    "request_reason": "Catch Basin - Clogged",
    "date_created": "2024-07-02T20:24:47.000",
    "date_modified": "2024-07-02T20:24:48.000",
    "request_status": "Pending",
    "responsible_agency": "Department of Public Works",
    "final_address": "1900 BLK Upperline St",
    "address_councildis": "B",
    "status": "Pending",
    "rowid": "1109042",
    "final_x": "3669102.65356",
    "final_y": "521955.810207",
    "longitude": "-90.1075398731804",
    "latitude": "29.929567850634058",
    "geocoded_column": {
      "latitude": "29.929567850634058",
      "longitude": "-90.1075398731804"
    }
  },
  {
    "service_request": "2024-1109041",
    "request_type": "Trash/Recycling",
    "request_reason": "Replace Recycling Cart",
    "date_created": "2024-07-02T20:22:47.000",
    "date_modified": "2024-07-02T20:22:48.000",
    "request_status": "Pending",
    "responsible_agency": "Department of Sanitation",
    "final_address": "1935 Upperline St",
    "address_councildis": "B",
    "status": "Pending",
    "rowid": "1109041",
    "final_x": "3669146.17255",
    "final_y": "522062.307706",
    "longitude": "-90.10739889422558",
    "latitude": "29.929859404551312",
    "geocoded_column": {
      "latitude": "29.929859404551312",
      "longitude": "-90.10739889422558"
    }
  },
  {
    "service_request": "2024-1109040",
    "request_type": "Trash/Recycling",
    "request_reason": "Request a Large Item Pick Up",
    "date_created": "2024-07-02T19:51:37.000",
    "date_modified": "2024-07-02T19:51:38.000",
    "request_status": "Pending",
    "responsible_agency": "Department of Sanitation",
    "final_address": "421 Vallette St",
    "address_councildis": "C",
    "status": "Assigned to Contractor",
    "contractor": "Richards Disposal",
    "rowid": "1109040",
    "final_x": "3687504.76175",
    "final_y": "530175.863873",
    "longitude": "-90.04915706120079",
    "latitude": "29.95161608501182",
    "geocoded_column": {
      "latitude": "29.95161608501182",
      "longitude": "-90.04915706120079"
    }
  },
  {
    "service_request": "2024-1109038",
    "request_type": "Property Maintenance",
    "request_reason": "Property Maintenance",
    "date_created": "2024-07-02T19:37:00.000",
    "date_modified": "2024-07-02T19:37:00.000",
    "request_status": "Pending",
    "responsible_agency": "Department of Code Enforcement",
    "final_address": "4640 Touro St",
    "address_councildis": "D",
    "status": "Pending",
    "rowid": "1109038",
    "final_x": "3683057.61308",
    "final_y": "549817.446996",
    "longitude": "-90.06251115960966",
    "latitude": "30.0057598664854",
    "geocoded_column": {
      "latitude": "30.0057598664854",
      "longitude": "-90.06251115960966"
    }
  },
  {
    "service_request": "2024-1109036",
    "request_type": "Trash/Recycling",
    "request_reason": "Replace Recycling Cart",
    "date_created": "2024-07-02T19:31:07.000",
    "date_modified": "2024-07-02T19:31:07.000",
    "request_status": "Pending",
    "responsible_agency": "Department of Sanitation",
    "final_address": "4751 Elysian Fields Ave",
    "address_councildis": "D",
    "status": "Pending",
    "rowid": "1109036",
    "final_x": "3683978.56501",
    "final_y": "550513.263508",
    "longitude": "-90.0595772274006",
    "latitude": "30.00764499298776",
    "geocoded_column": {
      "latitude": "30.00764499298776",
      "longitude": "-90.0595772274006"
    }
  },
  {
    "service_request": "2024-1109035",
    "request_type": "Roads/Drainage",
    "request_reason": "Pothole",
    "date_created": "2024-07-02T19:28:48.000",
    "date_modified": "2024-07-02T19:28:48.000",
    "request_status": "Pending",
    "responsible_agency": "Department of Public Works",
    "final_address": "7110 Beauvoir Ct",
    "address_councildis": "E",
    "status": "Pending",
    "rowid": "1109035",
    "final_x": "3716493.86988",
    "final_y": "567396.409828",
    "longitude": "-89.95621208390502",
    "latitude": "30.05303294672596",
    "geocoded_column": {
      "latitude": "30.05303294672596",
      "longitude": "-89.95621208390502"
    }
  },
  {
    "service_request": "2024-1109033",
    "request_type": "Parks & Parkways",
    "request_reason": "Request Tree Service (Right of Way/Public Property)",
    "date_created": "2024-07-02T19:04:57.000",
    "date_modified": "2024-07-02T19:04:57.000",
    "request_status": "Pending",
    "responsible_agency": "Department of Parks & Parkway",
    "final_address": "1235 Annunciation St",
    "address_councildis": "B",
    "status": "Pending",
    "rowid": "1109033",
    "final_x": "3681311.94402",
    "final_y": "525145.822269",
    "longitude": "-90.06888624172376",
    "latitude": "29.937974541770746",
    "geocoded_column": {
      "latitude": "29.937974541770746",
      "longitude": "-90.06888624172376"
    }
  },
  {
    "service_request": "2024-1109031",
    "request_type": "Trash/Recycling",
    "request_reason": "Request a Large Item Pick Up",
    "date_created": "2024-07-02T18:40:48.000",
    "date_modified": "2024-07-02T18:40:49.000",
    "request_status": "Pending",
    "responsible_agency": "Department of Sanitation",
    "final_address": "4329 Baudin St",
    "address_councildis": "A",
    "status": "Assigned to Contractor",
    "contractor": "IV Waste",
    "rowid": "1109031",
    "final_x": "3669128.93281",
    "final_y": "537859.337673",
    "longitude": "-90.10691956498127",
    "latitude": "29.973296571203473",
    "geocoded_column": {
      "latitude": "29.973296571203473",
      "longitude": "-90.10691956498127"
    }
  },
  {
    "service_request": "2024-1109030",
    "request_type": "Roads/Drainage",
    "request_reason": "Street Subsidence (Sinking)",
    "date_created": "2024-07-02T18:32:15.000",
    "date_modified": "2024-07-02T18:32:15.000",
    "request_status": "Pending",
    "responsible_agency": "Department of Public Works",
    "final_address": "7110 W Renaissance Ct",
    "address_councildis": "E",
    "status": "Pending",
    "rowid": "1109030",
    "final_x": "3716660.06764",
    "final_y": "567529.502692",
    "longitude": "-89.95568172631957",
    "latitude": "30.0533934041351",
    "geocoded_column": {
      "latitude": "30.0533934041351",
      "longitude": "-89.95568172631957"
    }
  },
  {
    "service_request": "2024-1109028",
    "request_type": "Traffic Signals/Signs/Striping/Streetlights",
    "request_reason": "Traffic Signal Malfunctioning/Damaged",
    "date_created": "2024-07-02T18:02:25.000",
    "date_modified": "2024-07-02T18:02:25.000",
    "request_status": "Pending",
    "responsible_agency": "Department of Public Works",
    "final_address": "NAPOLEON AVE & TCHOUPITOULAS ST",
    "address_councildis": "B",
    "status": "Pending",
    "rowid": "1109028",
    "final_x": "3671152.2",
    "final_y": "517462.38",
    "longitude": "-90.10122233833027",
    "latitude": "29.91715190210986",
    "geocoded_column": {
      "latitude": "29.91715190210986",
      "longitude": "-90.10122233833027"
    }
  },
  {
    "service_request": "2024-1109027",
    "request_type": "Trash/Recycling",
    "request_reason": "Request a Large Item Pick Up",
    "date_created": "2024-07-02T17:59:12.000",
    "date_modified": "2024-07-02T17:59:12.000",
    "request_status": "Pending",
    "responsible_agency": "Department of Sanitation",
    "final_address": "1721 Louisiana Ave, New Orleans, Louisiana, 70115",
    "address_councildis": "B",
    "status": "Assigned to Contractor",
    "contractor": "IV Waste",
    "rowid": "1109027",
    "final_x": "3674031.18926",
    "final_y": "522105.119674",
    "longitude": "-90.0919762438695",
    "latitude": "29.929832508606207",
    "geocoded_column": {
      "latitude": "29.929832508606207",
      "longitude": "-90.0919762438695"
    }
  },
  {
    "service_request": "2024-1109026",
    "request_type": "Trash/Recycling",
    "request_reason": "Request a Large Item Pick Up",
    "date_created": "2024-07-02T17:57:42.000",
    "date_modified": "2024-07-02T17:57:43.000",
    "request_status": "Pending",
    "responsible_agency": "Department of Sanitation",
    "final_address": "4674 Gabriel Dr",
    "address_councildis": "E",
    "status": "Assigned to Contractor",
    "contractor": "Waste Pro",
    "rowid": "1109026",
    "final_x": "3708855.1386",
    "final_y": "555325.052057",
    "longitude": "-89.98080618484539",
    "latitude": "30.020091718825757",
    "geocoded_column": {
      "latitude": "30.020091718825757",
      "longitude": "-89.98080618484539"
    }
  },
  {
    "service_request": "2024-1109025",
    "request_type": "Trash/Recycling",
    "request_reason": "Order Trash Cart",
    "date_created": "2024-07-02T17:52:08.000",
    "date_modified": "2024-07-02T17:52:09.000",
    "request_status": "Pending",
    "responsible_agency": "Department of Sanitation",
    "final_address": "2613 Chippewa St",
    "address_councildis": "B",
    "status": "Assigned to Contractor",
    "contractor": "IV Waste",
    "rowid": "1109025",
    "final_x": "3678267.31016",
    "final_y": "519889.789496",
    "longitude": "-90.07868010980728",
    "latitude": "29.92361420328351",
    "geocoded_column": {
      "latitude": "29.92361420328351",
      "longitude": "-90.07868010980728"
    }
  },
  {
    "service_request": "2024-1109024",
    "request_type": "Trash/Recycling",
    "request_reason": "Request a Large Item Pick Up",
    "date_created": "2024-07-02T17:51:06.000",
    "date_modified": "2024-07-02T17:51:07.000",
    "request_status": "Pending",
    "responsible_agency": "Department of Sanitation",
    "final_address": "2613 Chippewa St",
    "address_councildis": "B",
    "status": "Assigned to Contractor",
    "contractor": "IV Waste",
    "rowid": "1109024",
    "final_x": "3678267.31016",
    "final_y": "519889.789496",
    "longitude": "-90.07868010980728",
    "latitude": "29.92361420328351",
    "geocoded_column": {
      "latitude": "29.92361420328351",
      "longitude": "-90.07868010980728"
    }
  },
  {
    "service_request": "2024-1109023",
    "request_type": "Roads/Drainage",
    "request_reason": "Pothole",
    "date_created": "2024-07-02T17:40:02.000",
    "date_modified": "2024-07-02T17:40:02.000",
    "request_status": "Pending",
    "responsible_agency": "Department of Public Works",
    "final_address": "7110 Beauvoir Ct",
    "address_councildis": "E",
    "status": "Pending",
    "rowid": "1109023",
    "final_x": "3716493.86988",
    "final_y": "567396.409828",
    "longitude": "-89.95621208390502",
    "latitude": "30.05303294672596",
    "geocoded_column": {
      "latitude": "30.05303294672596",
      "longitude": "-89.95621208390502"
    }
  },
  {
    "service_request": "2024-1109022",
    "request_type": "Trash/Recycling",
    "request_reason": "Repair Trash Cart",
    "date_created": "2024-07-02T17:31:42.000",
    "date_modified": "2024-07-02T17:31:43.000",
    "request_status": "Pending",
    "responsible_agency": "Department of Sanitation",
    "final_address": "4413 Elba St",
    "address_councildis": "B",
    "status": "Assigned to Contractor",
    "contractor": "IV Waste",
    "rowid": "1109022",
    "final_x": "3669733.89722",
    "final_y": "530470.213122",
    "longitude": "-90.10525907063196",
    "latitude": "29.952961116360285",
    "geocoded_column": {
      "latitude": "29.952961116360285",
      "longitude": "-90.10525907063196"
    }
  },
  {
    "service_request": "2024-1109021",
    "request_type": "Property Maintenance",
    "request_reason": "Property Maintenance",
    "date_created": "2024-07-02T17:31:08.000",
    "date_modified": "2024-07-02T17:31:08.000",
    "request_status": "Pending",
    "responsible_agency": "Department of Code Enforcement",
    "final_address": "7999 Lucerne St",
    "address_councildis": "E",
    "status": "Pending",
    "rowid": "1109021",
    "final_x": "3710232.54309",
    "final_y": "566973.124004",
    "longitude": "-89.97601809666634",
    "latitude": "30.05207450755234",
    "geocoded_column": {
      "latitude": "30.05207450755234",
      "longitude": "-89.97601809666634"
    }
  },
  {
    "service_request": "2024-1109020",
    "request_type": "Trash/Recycling",
    "request_reason": "Request a Large Item Pick Up",
    "date_created": "2024-07-02T17:19:29.000",
    "date_modified": "2024-07-02T17:19:30.000",
    "request_status": "Pending",
    "responsible_agency": "Department of Sanitation",
    "final_address": "3172 Toulouse St",
    "address_councildis": "A",
    "status": "Assigned to Contractor",
    "contractor": "IV Waste",
    "rowid": "1109020",
    "final_x": "3674717.28276",
    "final_y": "537824.869704",
    "longitude": "-90.08927157801492",
    "latitude": "29.97303614699609",
    "geocoded_column": {
      "latitude": "29.97303614699609",
      "longitude": "-90.08927157801492"
    }
  },
  {
    "service_request": "2024-1109019",
    "request_type": "Traffic Signals/Signs/Striping/Streetlights",
    "request_reason": "Street Light Outage/Malfunction",
    "date_created": "2024-07-02T16:58:59.000",
    "date_modified": "2024-07-02T16:59:00.000",
    "request_status": "Pending",
    "responsible_agency": "Department of Public Works",
    "final_address": "9120 Quince St",
    "address_councildis": "A",
    "status": "Assigned to Contractor",
    "contractor": "Legacy Professional Services",
    "rowid": "1109019",
    "final_x": "3666809.29543",
    "final_y": "539193.104714",
    "longitude": "-90.11420066083184",
    "latitude": "29.977032047380952",
    "geocoded_column": {
      "latitude": "29.977032047380952",
      "longitude": "-90.11420066083184"
    }
  },
  {
    "service_request": "2024-1109018",
    "request_type": "Trash/Recycling",
    "request_reason": "Return Trash Cart",
    "date_created": "2024-07-02T16:58:08.000",
    "date_modified": "2024-07-02T16:58:09.000",
    "request_status": "Pending",
    "responsible_agency": "Department of Sanitation",
    "final_address": "5216 Tchoupitoulas St",
    "address_councildis": "B",
    "status": "Assigned to Contractor",
    "contractor": "IV Waste",
    "rowid": "1109018",
    "final_x": "3667830.80052",
    "final_y": "517150.772725",
    "longitude": "-90.11171661543776",
    "latitude": "29.916392865969858",
    "geocoded_column": {
      "latitude": "29.916392865969858",
      "longitude": "-90.11171661543776"
    }
  },
  {
    "service_request": "2024-1109017",
    "request_type": "Traffic Signals/Signs/Striping/Streetlights",
    "request_reason": "Street Light Outage/Malfunction",
    "date_created": "2024-07-02T16:58:02.000",
    "date_modified": "2024-07-02T16:58:03.000",
    "request_status": "Pending",
    "responsible_agency": "Department of Public Works",
    "final_address": "GALLATIN ST & BRISTOL PL",
    "address_councildis": "C",
    "status": "Assigned to Contractor",
    "contractor": "Legacy Professional Services",
    "rowid": "1109017",
    "final_x": "3702645.3",
    "final_y": "522322.78",
    "longitude": "-90.00163907916973",
    "latitude": "29.92954760617918",
    "geocoded_column": {
      "latitude": "29.92954760617918",
      "longitude": "-90.00163907916973"
    }
  },
  {
    "service_request": "2024-1109016",
    "request_type": "Property Maintenance",
    "request_reason": "Property Maintenance",
    "date_created": "2024-07-02T16:49:09.000",
    "date_modified": "2024-07-02T16:49:09.000",
    "request_status": "Pending",
    "responsible_agency": "Department of Code Enforcement",
    "final_address": "9600 Morrison Rd",
    "address_councildis": "E",
    "status": "Pending",
    "rowid": "1109016",
    "final_x": "3707444.31",
    "final_y": "562632.200736",
    "longitude": "-89.98499223409763",
    "latitude": "30.0402292240253",
    "geocoded_column": {
      "latitude": "30.0402292240253",
      "longitude": "-89.98499223409763"
    }
  },
  {
    "service_request": "2024-1109014",
    "request_type": "Trash/Recycling",
    "request_reason": "Order Trash Cart",
    "date_created": "2024-07-02T16:48:22.000",
    "date_modified": "2024-07-02T16:48:23.000",
    "request_status": "Pending",
    "responsible_agency": "Department of Sanitation",
    "final_address": "8911 Edinburgh St",
    "address_councildis": "A",
    "status": "Assigned to Contractor",
    "contractor": "IV Waste",
    "rowid": "1109014",
    "final_x": "3665342.96922",
    "final_y": "536434.379911",
    "longitude": "-90.11892415301212",
    "latitude": "29.96948928865117",
    "geocoded_column": {
      "latitude": "29.96948928865117",
      "longitude": "-90.11892415301212"
    }
  },
  {
    "service_request": "2024-1109013",
    "request_type": "Abandoned Vehicles",
    "request_reason": "Abandoned/Junk Vehicles",
    "date_created": "2024-07-02T16:47:44.000",
    "date_modified": "2024-07-02T16:47:44.000",
    "request_status": "Pending",
    "responsible_agency": "Department of Public Works",
    "final_address": "7640 Morrison Rd",
    "address_councildis": "E",
    "status": "Pending",
    "rowid": "1109013",
    "final_x": "3701631.15946",
    "final_y": "559759.055197",
    "longitude": "-90.00346892404156",
    "latitude": "30.032516000937527",
    "geocoded_column": {
      "latitude": "30.032516000937527",
      "longitude": "-90.00346892404156"
    }
  },
  {
    "service_request": "2024-1109012",
    "request_type": "Property Maintenance",
    "request_reason": "Property Maintenance",
    "date_created": "2024-07-02T16:46:42.000",
    "date_modified": "2024-07-02T16:46:42.000",
    "request_status": "Pending",
    "responsible_agency": "Department of Code Enforcement",
    "final_address": "9500 Morrison Rd",
    "address_councildis": "E",
    "status": "Pending",
    "rowid": "1109012",
    "final_x": "3707382.40657",
    "final_y": "562232.983583",
    "longitude": "-89.98520271109204",
    "latitude": "30.039133538004673",
    "geocoded_column": {
      "latitude": "30.039133538004673",
      "longitude": "-89.98520271109204"
    }
  },
  {
    "service_request": "2024-1109011",
    "request_type": "Property Maintenance",
    "request_reason": "Property Maintenance",
    "date_created": "2024-07-02T16:46:36.000",
    "date_modified": "2024-07-02T16:46:36.000",
    "request_status": "Pending",
    "responsible_agency": "Department of Code Enforcement",
    "final_address": "9962 E Wheaton Cir",
    "address_councildis": "E",
    "status": "Pending",
    "rowid": "1109011",
    "final_x": "3708750.00849",
    "final_y": "562207.309919",
    "longitude": "-89.98088169222179",
    "latitude": "30.03901863216912",
    "geocoded_column": {
      "latitude": "30.03901863216912",
      "longitude": "-89.98088169222179"
    }
  },
  {
    "service_request": "2024-1109010",
    "request_type": "Trash/Recycling",
    "request_reason": "Request a Large Item Pick Up",
    "date_created": "2024-07-02T16:46:25.000",
    "date_modified": "2024-07-02T16:46:25.000",
    "request_status": "Pending",
    "responsible_agency": "Department of Sanitation",
    "final_address": "3415 Fern St",
    "address_councildis": "B",
    "status": "Assigned to Contractor",
    "contractor": "IV Waste",
    "rowid": "1109010",
    "final_x": "3667958.21338",
    "final_y": "533700.364293",
    "longitude": "-90.11075709262828",
    "latitude": "29.96189518033477",
    "geocoded_column": {
      "latitude": "29.96189518033477",
      "longitude": "-90.11075709262828"
    }
  },
  {
    "service_request": "2024-1109009",
    "request_type": "Traffic Signals/Signs/Striping/Streetlights",
    "request_reason": "Traffic Sign Missing/Damaged",
    "date_created": "2024-07-02T16:45:15.000",
    "date_modified": "2024-07-02T16:45:15.000",
    "request_status": "Pending",
    "responsible_agency": "Department of Public Works",
    "final_address": "600 N Broad St",
    "address_councildis": "D",
    "status": "Pending",
    "rowid": "1109009",
    "final_x": "3676514.68328",
    "final_y": "536431.051079",
    "longitude": "-90.0836430411453",
    "latitude": "29.969149839828454",
    "geocoded_column": {
      "latitude": "29.969149839828454",
      "longitude": "-90.0836430411453"
    }
  },
  {
    "service_request": "2024-1109008",
    "request_type": "Trash/Recycling",
    "request_reason": "Request a Large Item Pick Up",
    "date_created": "2024-07-02T16:45:04.000",
    "date_modified": "2024-07-02T16:45:05.000",
    "request_status": "Pending",
    "responsible_agency": "Department of Sanitation",
    "final_address": "11297 Fernley Dr",
    "address_councildis": "E",
    "status": "Assigned to Contractor",
    "contractor": "Waste Pro",
    "rowid": "1109008",
    "final_x": "3717984.4293",
    "final_y": "560330.701469",
    "longitude": "-89.95177015718939",
    "latitude": "30.03355578988373",
    "geocoded_column": {
      "latitude": "30.03355578988373",
      "longitude": "-89.95177015718939"
    }
  },
  {
    "service_request": "2024-1109007",
    "request_type": "Traffic Signals/Signs/Striping/Streetlights",
    "request_reason": "Traffic Signal Malfunctioning/Damaged",
    "date_created": "2024-07-02T16:43:44.000",
    "date_modified": "2024-07-02T16:43:44.000",
    "request_status": "Pending",
    "responsible_agency": "Department of Public Works",
    "final_address": "336 N Norman C Francis Prkwy",
    "address_councildis": "B",
    "status": "Pending",
    "rowid": "1109007",
    "final_x": "3673998.46228",
    "final_y": "537533.114312",
    "longitude": "-90.09155174253101",
    "latitude": "29.972255358519124",
    "geocoded_column": {
      "latitude": "29.972255358519124",
      "longitude": "-90.09155174253101"
    }
  },
  {
    "service_request": "2024-1109006",
    "request_type": "Property Maintenance",
    "request_reason": "Property Maintenance",
    "date_created": "2024-07-02T16:41:23.000",
    "date_modified": "2024-07-02T16:41:23.000",
    "request_status": "Pending",
    "responsible_agency": "Department of Code Enforcement",
    "final_address": "7628 Burke Ave",
    "address_councildis": "E",
    "status": "Pending",
    "rowid": "1109006",
    "final_x": "3705371.88721",
    "final_y": "562966.870304",
    "longitude": "-89.99152932094871",
    "latitude": "30.041216324441642",
    "geocoded_column": {
      "latitude": "30.041216324441642",
      "longitude": "-89.99152932094871"
    }
  },
  {
    "service_request": "2024-1109005",
    "request_type": "Trash/Recycling",
    "request_reason": "Request a Large Item Pick Up",
    "date_created": "2024-07-02T16:40:16.000",
    "date_modified": "2024-07-02T16:40:17.000",
    "request_status": "Pending",
    "responsible_agency": "Department of Sanitation",
    "final_address": "3241 Vincennes Pl",
    "address_councildis": "A",
    "status": "Assigned to Contractor",
    "contractor": "IV Waste",
    "rowid": "1109005",
    "final_x": "3667760.62791",
    "final_y": "528176.918976",
    "longitude": "-90.11156701801136",
    "latitude": "29.94671330902512",
    "geocoded_column": {
      "latitude": "29.94671330902512",
      "longitude": "-90.11156701801136"
    }
  },
  {
    "service_request": "2024-1109004",
    "request_type": "Trash/Recycling",
    "request_reason": "Request a Large Item Pick Up",
    "date_created": "2024-07-02T16:38:40.000",
    "date_modified": "2024-07-02T16:38:41.000",
    "request_status": "Pending",
    "responsible_agency": "Department of Sanitation",
    "final_address": "4217 General Pershing St",
    "address_councildis": "B",
    "status": "Assigned to Contractor",
    "contractor": "IV Waste",
    "rowid": "1109004",
    "final_x": "3669824.46586",
    "final_y": "529563.706945",
    "longitude": "-90.1050037780477",
    "latitude": "29.95046585234671",
    "geocoded_column": {
      "latitude": "29.95046585234671",
      "longitude": "-90.1050037780477"
    }
  },
  {
    "service_request": "2024-1109003",
    "request_type": "Trash/Recycling",
    "request_reason": "Missed Trash Pick-Up",
    "date_created": "2024-07-02T16:37:29.000",
    "date_modified": "2024-07-02T16:37:30.000",
    "request_status": "Pending",
    "responsible_agency": "Department of Sanitation",
    "final_address": " & BALDWIN ST",
    "address_councildis": "D",
    "status": "Assigned to Contractor",
    "contractor": "IV Waste",
    "rowid": "1109003",
    "final_x": "3687880.8",
    "final_y": "560035.64",
    "longitude": "-90.04691121641319",
    "latitude": "30.03370814054373",
    "geocoded_column": {
      "latitude": "30.03370814054373",
      "longitude": "-90.04691121641319"
    }
  },
  {
    "service_request": "2024-1109002",
    "request_type": "Trash/Recycling",
    "request_reason": "Request a Large Item Pick Up",
    "date_created": "2024-07-02T16:35:40.000",
    "date_modified": "2024-07-02T16:35:40.000",
    "request_status": "Pending",
    "responsible_agency": "Department of Sanitation",
    "final_address": "2323 Lowerline St",
    "address_councildis": "A",
    "status": "Assigned to Contractor",
    "contractor": "IV Waste",
    "rowid": "1109002",
    "final_x": "3666034.26912",
    "final_y": "530191.873153",
    "longitude": "-90.11695024289656",
    "latitude": "29.952304281583853",
    "geocoded_column": {
      "latitude": "29.952304281583853",
      "longitude": "-90.11695024289656"
    }
  },
  {
    "service_request": "2024-1109001",
    "request_type": "Trash/Recycling",
    "request_reason": "Request a Large Item Pick Up",
    "date_created": "2024-07-02T16:34:48.000",
    "date_modified": "2024-07-02T16:34:49.000",
    "request_status": "Pending",
    "responsible_agency": "Department of Sanitation",
    "final_address": "5932 Mandeville St",
    "address_councildis": "D",
    "status": "Assigned to Contractor",
    "contractor": "IV Waste",
    "rowid": "1109001",
    "final_x": "3684233.18293",
    "final_y": "554901.965208",
    "longitude": "-90.05861857043861",
    "latitude": "30.019704535234624",
    "geocoded_column": {
      "latitude": "30.019704535234624",
      "longitude": "-90.05861857043861"
    }
  },
  {
    "service_request": "2024-1109000",
    "request_type": "Property Maintenance",
    "request_reason": "Property Maintenance",
    "date_created": "2024-07-02T16:29:22.000",
    "date_modified": "2024-07-02T16:29:23.000",
    "request_status": "Pending",
    "responsible_agency": "Department of Code Enforcement",
    "final_address": "13901 Explorers Ave",
    "address_councildis": "E",
    "status": "Pending",
    "rowid": "1109000",
    "final_x": "3726146.93516",
    "final_y": "570178.768615",
    "longitude": "-89.92559377609403",
    "latitude": "30.06036073130042",
    "geocoded_column": {
      "latitude": "30.06036073130042",
      "longitude": "-89.92559377609403"
    }
  },
  {
    "service_request": "2024-1108999",
    "request_type": "Trash/Recycling",
    "request_reason": "Request a Large Item Pick Up",
    "date_created": "2024-07-02T16:28:27.000",
    "date_modified": "2024-07-02T16:28:28.000",
    "request_status": "Pending",
    "responsible_agency": "Department of Sanitation",
    "final_address": "4745 Raymond Joseph Dr",
    "address_councildis": "E",
    "status": "Assigned to Contractor",
    "contractor": "Waste Pro",
    "rowid": "1108999",
    "final_x": "3703730.3978",
    "final_y": "555471.330457",
    "longitude": "-89.99699323780784",
    "latitude": "30.020659261405886",
    "geocoded_column": {
      "latitude": "30.020659261405886",
      "longitude": "-89.99699323780784"
    }
  },
  {
    "service_request": "2024-1108998",
    "request_type": "Traffic Signals/Signs/Striping/Streetlights",
    "request_reason": "Street Light Outage/Malfunction",
    "date_created": "2024-07-02T16:26:02.000",
    "date_modified": "2024-07-02T16:26:03.000",
    "request_status": "Pending",
    "responsible_agency": "Department of Public Works",
    "final_address": "6155 Memphis St",
    "address_councildis": "A",
    "status": "Assigned to Contractor",
    "contractor": "Legacy Professional Services",
    "rowid": "1108998",
    "final_x": "3669359.4331",
    "final_y": "548280.802642",
    "longitude": "-90.10583901046749",
    "latitude": "30.001945251701805",
    "geocoded_column": {
      "latitude": "30.001945251701805",
      "longitude": "-90.10583901046749"
    }
  },
  {
    "service_request": "2024-1108997",
    "request_type": "Property Maintenance",
    "request_reason": "Property Maintenance",
    "date_created": "2024-07-02T16:19:34.000",
    "date_modified": "2024-07-02T16:19:34.000",
    "request_status": "Pending",
    "responsible_agency": "Department of Code Enforcement",
    "final_address": "8138 Hayne Blvd",
    "address_councildis": "E",
    "status": "Pending",
    "rowid": "1108997",
    "final_x": "3702315.20145",
    "final_y": "563005.578656",
    "longitude": "-90.00118803984837",
    "latitude": "30.04142082405483",
    "geocoded_column": {
      "latitude": "30.04142082405483",
      "longitude": "-90.00118803984837"
    }
  },
  {
    "service_request": "2024-1108996",
    "request_type": "Trash/Recycling",
    "request_reason": "Request a Large Item Pick Up",
    "date_created": "2024-07-02T16:17:10.000",
    "date_modified": "2024-07-02T16:17:11.000",
    "request_status": "Pending",
    "responsible_agency": "Department of Sanitation",
    "final_address": "7920 Oneida St",
    "address_councildis": "E",
    "status": "Assigned to Contractor",
    "contractor": "Waste Pro",
    "rowid": "1108996",
    "final_x": "3713253.97662",
    "final_y": "568902.311653",
    "longitude": "-89.96639561712253",
    "latitude": "30.05728022813565",
    "geocoded_column": {
      "latitude": "30.05728022813565",
      "longitude": "-89.96639561712253"
    }
  },
  {
    "service_request": "2024-1108995",
    "request_type": "Healthy Homes",
    "request_reason": "Healthy Homes",
    "date_created": "2024-07-02T16:16:45.000",
    "date_modified": "2024-07-02T16:16:46.000",
    "request_status": "Pending",
    "responsible_agency": "Department of Code Enforcement",
    "final_address": "4010 Gibson St Apt 8613",
    "address_councildis": "D",
    "status": "Pending",
    "rowid": "1108995",
    "final_x": "3678733.71246",
    "final_y": "546999.544401",
    "longitude": "-90.0762690285353",
    "latitude": "29.99814278729304",
    "geocoded_column": {
      "latitude": "29.99814278729304",
      "longitude": "-90.0762690285353"
    }
  },
  {
    "service_request": "2024-1108994",
    "request_type": "Trash/Recycling",
    "request_reason": "Request a Large Item Pick Up",
    "date_created": "2024-07-02T16:13:58.000",
    "date_modified": "2024-07-02T16:13:59.000",
    "request_status": "Pending",
    "responsible_agency": "Department of Sanitation",
    "final_address": "3808 State Street Dr",
    "address_councildis": "A",
    "status": "Assigned to Contractor",
    "contractor": "IV Waste",
    "rowid": "1108994",
    "final_x": "3668007.37639",
    "final_y": "529542.012225",
    "longitude": "-90.11074195314579",
    "latitude": "29.950459634674576",
    "geocoded_column": {
      "latitude": "29.950459634674576",
      "longitude": "-90.11074195314579"
    }
  },
  {
    "service_request": "2024-1108993",
    "request_type": "Trash/Recycling",
    "request_reason": "Request a Large Item Pick Up",
    "date_created": "2024-07-02T16:13:41.000",
    "date_modified": "2024-07-02T16:13:41.000",
    "request_status": "Pending",
    "responsible_agency": "Department of Sanitation",
    "final_address": "7538 Forum Blvd",
    "address_councildis": "E",
    "status": "Assigned to Contractor",
    "contractor": "Waste Pro",
    "rowid": "1108993",
    "final_x": "3720602.11686",
    "final_y": "572780.145897",
    "longitude": "-89.94302072944572",
    "latitude": "30.067699567831244",
    "geocoded_column": {
      "latitude": "30.067699567831244",
      "longitude": "-89.94302072944572"
    }
  },
  {
    "service_request": "2024-1108992",
    "request_type": "Trash/Recycling",
    "request_reason": "Return Trash Cart",
    "date_created": "2024-07-02T16:11:22.000",
    "date_modified": "2024-07-02T16:11:23.000",
    "request_status": "Pending",
    "responsible_agency": "Department of Sanitation",
    "final_address": "910 Audubon St",
    "address_councildis": "A",
    "status": "Assigned to Contractor",
    "contractor": "IV Waste",
    "rowid": "1108992",
    "final_x": "3663857.72007",
    "final_y": "525569.498429",
    "longitude": "-90.12397685661266",
    "latitude": "29.939657588003634",
    "geocoded_column": {
      "latitude": "29.939657588003634",
      "longitude": "-90.12397685661266"
    }
  },
  {
    "service_request": "2024-1108991",
    "request_type": "Trash/Recycling",
    "request_reason": "Request a Large Item Pick Up",
    "date_created": "2024-07-02T16:11:12.000",
    "date_modified": "2024-07-02T16:11:12.000",
    "request_status": "Pending",
    "responsible_agency": "Department of Sanitation",
    "final_address": "1911 Rivertree Ct",
    "address_councildis": "C",
    "status": "Assigned to Contractor",
    "contractor": "Richards Disposal",
    "rowid": "1108991",
    "final_x": "3701369.95306",
    "final_y": "523810.035899",
    "longitude": "-90.00561068863573",
    "latitude": "29.93367773763556",
    "geocoded_column": {
      "latitude": "29.93367773763556",
      "longitude": "-90.00561068863573"
    }
  },
  {
    "service_request": "2024-1108990",
    "request_type": "Trash/Recycling",
    "request_reason": "Repair Trash Cart",
    "date_created": "2024-07-02T16:06:09.000",
    "date_modified": "2024-07-02T16:06:10.000",
    "request_status": "Pending",
    "responsible_agency": "Department of Sanitation",
    "final_address": "852 Bartholomew St",
    "address_councildis": "C",
    "status": "Assigned to Contractor",
    "contractor": "IV Waste",
    "rowid": "1108990",
    "final_x": "3691565.63817",
    "final_y": "534488.543301",
    "longitude": "-90.03618066752627",
    "latitude": "29.963348685387462",
    "geocoded_column": {
      "latitude": "29.963348685387462",
      "longitude": "-90.03618066752627"
    }
  },
  {
    "service_request": "2024-1108989",
    "request_type": "Trash/Recycling",
    "request_reason": "Repair Trash Cart",
    "date_created": "2024-07-02T16:04:53.000",
    "date_modified": "2024-07-02T16:04:54.000",
    "request_status": "Pending",
    "responsible_agency": "Department of Sanitation",
    "final_address": "840 Bartholomew St",
    "address_councildis": "C",
    "status": "Assigned to Contractor",
    "contractor": "IV Waste",
    "rowid": "1108989",
    "final_x": "3691554.24643",
    "final_y": "534442.763653",
    "longitude": "-90.03621827775976",
    "latitude": "29.96322316199877",
    "geocoded_column": {
      "latitude": "29.96322316199877",
      "longitude": "-90.03621827775976"
    }
  },
  {
    "service_request": "2024-1108988",
    "request_type": "Trash/Recycling",
    "request_reason": "Request a Large Item Pick Up",
    "date_created": "2024-07-02T16:03:29.000",
    "date_modified": "2024-07-02T16:03:30.000",
    "request_status": "Pending",
    "responsible_agency": "Department of Sanitation",
    "final_address": "925 Royal St",
    "address_councildis": "C",
    "status": "Assigned to Contractor",
    "contractor": "Empire Services",
    "rowid": "1108988",
    "final_x": "3683107.04764",
    "final_y": "533229.977732",
    "longitude": "-90.06293598548595",
    "latitude": "29.9601486462677",
    "geocoded_column": {
      "latitude": "29.9601486462677",
      "longitude": "-90.06293598548595"
    }
  },
  {
    "service_request": "2024-1108987",
    "request_type": "Trash/Recycling",
    "request_reason": "MIssed Recycling Pick-Up",
    "date_created": "2024-07-02T16:01:58.000",
    "date_modified": "2024-07-02T16:01:59.000",
    "request_status": "Pending",
    "responsible_agency": "Department of Sanitation",
    "final_address": "8520 Bill St",
    "address_councildis": "E",
    "status": "Assigned to Contractor",
    "contractor": "Waste Pro",
    "rowid": "1108987",
    "final_x": "3703539.41911",
    "final_y": "563044.233632",
    "longitude": "-89.99731767508419",
    "latitude": "30.041487918765867",
    "geocoded_column": {
      "latitude": "30.041487918765867",
      "longitude": "-89.99731767508419"
    }
  },
  {
    "service_request": "2024-1108986",
    "request_type": "Healthy Homes",
    "request_reason": "Healthy Homes",
    "date_created": "2024-07-02T16:01:32.000",
    "date_modified": "2024-07-02T16:01:32.000",
    "request_status": "Pending",
    "responsible_agency": "Department of Code Enforcement",
    "final_address": "316 Delery St",
    "address_councildis": "E",
    "status": "Pending",
    "rowid": "1108986",
    "final_x": "3699385.72381",
    "final_y": "530439.203586",
    "longitude": "-90.01163336278957",
    "latitude": "29.951968702051612",
    "geocoded_column": {
      "latitude": "29.951968702051612",
      "longitude": "-90.01163336278957"
    }
  },
  {
    "service_request": "2024-1108985",
    "request_type": "Healthy Homes",
    "request_reason": "Healthy Homes",
    "date_created": "2024-07-02T15:57:40.000",
    "date_modified": "2024-07-02T15:57:40.000",
    "request_status": "Pending",
    "responsible_agency": "Department of Code Enforcement",
    "final_address": "4601 Flake Ave",
    "address_councildis": "E",
    "status": "Pending",
    "rowid": "1108985",
    "final_x": "3706243.09099",
    "final_y": "554521.40988",
    "longitude": "-89.98908915218836",
    "latitude": "30.017966531584463",
    "geocoded_column": {
      "latitude": "30.017966531584463",
      "longitude": "-89.98908915218836"
    }
  },
  {
    "service_request": "2024-1108984",
    "request_type": "Property Maintenance",
    "request_reason": "Property Maintenance",
    "date_created": "2024-07-02T15:56:21.000",
    "date_modified": "2024-07-02T15:56:21.000",
    "request_status": "Pending",
    "responsible_agency": "Department of Code Enforcement",
    "final_address": "6500 Hayne Blvd",
    "address_councildis": "E",
    "status": "Pending",
    "rowid": "1108984",
    "final_x": "3696612.29853",
    "final_y": "560577.78883",
    "longitude": "-90.01929916428138",
    "latitude": "30.034926411399354",
    "geocoded_column": {
      "latitude": "30.034926411399354",
      "longitude": "-90.01929916428138"
    }
  },
  {
    "service_request": "2024-1108983",
    "request_type": "Trash/Recycling",
    "request_reason": "MIssed Recycling Pick-Up",
    "date_created": "2024-07-02T15:52:36.000",
    "date_modified": "2024-07-02T16:53:15.000",
    "case_close_date": "2024-07-02T11:53:15.000",
    "request_status": "Closed",
    "responsible_agency": "Department of Sanitation",
    "final_address": "8428 Willow St",
    "address_councildis": "A",
    "status": "Invalid Request",
    "contractor": "IV Waste",
    "contractor_action": "Invalid Request",
    "rowid": "1108983",
    "final_x": "3661423.52947",
    "final_y": "529759.880897",
    "longitude": "-90.13152321607059",
    "latitude": "29.951250221411694",
    "geocoded_column": {
      "latitude": "29.951250221411694",
      "longitude": "-90.13152321607059"
    }
  },
  {
    "service_request": "2024-1108982",
    "request_type": "Trash/Recycling",
    "request_reason": "Illegal Dumping",
    "date_created": "2024-07-02T15:48:18.000",
    "date_modified": "2024-07-02T15:48:18.000",
    "request_status": "Pending",
    "responsible_agency": "Department of Sanitation",
    "final_address": "2100 BLK Painters St",
    "address_councildis": "D",
    "status": "Pending",
    "rowid": "1108982",
    "final_x": "3687255.10675",
    "final_y": "540376.51057",
    "longitude": "-90.04958449730245",
    "latitude": "29.9796720057512",
    "geocoded_column": {
      "latitude": "29.9796720057512",
      "longitude": "-90.04958449730245"
    }
  },
  {
    "service_request": "2024-1108981",
    "request_type": "Trash/Recycling",
    "request_reason": "Replace Trash Cart",
    "date_created": "2024-07-02T15:48:05.000",
    "date_modified": "2024-07-02T15:48:06.000",
    "request_status": "Pending",
    "responsible_agency": "Department of Sanitation",
    "final_address": "214 Berkley Dr",
    "address_councildis": "C",
    "status": "Assigned to Contractor",
    "contractor": "Richards Disposal",
    "rowid": "1108981",
    "final_x": "3706652.87895",
    "final_y": "518230.028278",
    "longitude": "-89.98913955176734",
    "latitude": "29.918165290720882",
    "geocoded_column": {
      "latitude": "29.918165290720882",
      "longitude": "-89.98913955176734"
    }
  },
  {
    "service_request": "2024-1108980",
    "request_type": "Roads/Drainage",
    "request_reason": "Man hole cover issue",
    "date_created": "2024-07-02T15:47:29.000",
    "date_modified": "2024-07-02T15:47:29.000",
    "request_status": "Pending",
    "responsible_agency": "Department of Public Works",
    "final_address": "6124 Louis Xiv St",
    "address_councildis": "A",
    "status": "Pending",
    "rowid": "1108980",
    "final_x": "3668090.10657",
    "final_y": "548153.192594",
    "longitude": "-90.10985327080552",
    "latitude": "30.0016316963946",
    "geocoded_column": {
      "latitude": "30.0016316963946",
      "longitude": "-90.10985327080552"
    }
  },
  {
    "service_request": "2024-1108979",
    "request_type": "Property Maintenance",
    "request_reason": "Property Maintenance",
    "date_created": "2024-07-02T15:47:23.000",
    "date_modified": "2024-07-02T15:47:23.000",
    "request_status": "Pending",
    "responsible_agency": "Department of Code Enforcement",
    "final_address": "7701 Crowder Blvd",
    "address_councildis": "E",
    "status": "Pending",
    "rowid": "1108979",
    "final_x": "3703374.28298",
    "final_y": "562569.534688",
    "longitude": "-89.99785704631019",
    "latitude": "30.04018797674248",
    "geocoded_column": {
      "latitude": "30.04018797674248",
      "longitude": "-89.99785704631019"
    }
  },
  {
    "service_request": "2024-1108978",
    "request_type": "Property Maintenance",
    "request_reason": "Property Maintenance",
    "date_created": "2024-07-02T15:42:31.000",
    "date_modified": "2024-07-02T15:42:31.000",
    "request_status": "Pending",
    "responsible_agency": "Department of Code Enforcement",
    "final_address": "8400 Lomond Rd",
    "address_councildis": "E",
    "status": "Pending",
    "rowid": "1108978",
    "final_x": "3703563.94839",
    "final_y": "561914.763231",
    "longitude": "-89.99728177498447",
    "latitude": "30.03838153312315",
    "geocoded_column": {
      "latitude": "30.03838153312315",
      "longitude": "-89.99728177498447"
    }
  },
  {
    "service_request": "2024-1108977",
    "request_type": "Roads/Drainage",
    "request_reason": "Damaged Sidewalk",
    "date_created": "2024-07-02T15:42:08.000",
    "date_modified": "2024-07-02T15:42:08.000",
    "request_status": "Pending",
    "responsible_agency": "Department of Public Works",
    "final_address": "DANNEEL ST & DUFOSSAT ST",
    "address_councildis": "B",
    "status": "Pending",
    "rowid": "1108977",
    "final_x": "3668157.4",
    "final_y": "522156.38",
    "longitude": "-90.11051712111585",
    "latitude": "29.930147124825734",
    "geocoded_column": {
      "latitude": "29.930147124825734",
      "longitude": "-90.11051712111585"
    }
  },
  {
    "service_request": "2024-1108976",
    "request_type": "Property Maintenance",
    "request_reason": "Property Maintenance",
    "date_created": "2024-07-02T15:42:07.000",
    "date_modified": "2024-07-02T15:42:07.000",
    "request_status": "Pending",
    "responsible_agency": "Department of Code Enforcement",
    "final_address": "4642 Perelli Dr",
    "address_councildis": "E",
    "status": "Pending",
    "rowid": "1108976",
    "final_x": "3711692.18021",
    "final_y": "555407.116313",
    "longitude": "-89.97183903751684",
    "latitude": "30.020224979066633",
    "geocoded_column": {
      "latitude": "30.020224979066633",
      "longitude": "-89.97183903751684"
    }
  },
  {
    "service_request": "2024-1108975",
    "request_type": "Property Maintenance",
    "request_reason": "Property Maintenance",
    "date_created": "2024-07-02T15:41:25.000",
    "date_modified": "2024-07-02T15:41:25.000",
    "request_status": "Pending",
    "responsible_agency": "Department of Public Works",
    "final_address": "202 Warrington Dr",
    "address_councildis": "D",
    "status": "Pending",
    "rowid": "1108975",
    "final_x": "3682628.09256",
    "final_y": "546902.919505",
    "longitude": "-90.06397011538964",
    "latitude": "29.9977590526982",
    "geocoded_column": {
      "latitude": "29.9977590526982",
      "longitude": "-90.06397011538964"
    }
  },
  {
    "service_request": "2024-1108974",
    "request_type": "Trash/Recycling",
    "request_reason": "MIssed Recycling Pick-Up",
    "date_created": "2024-07-02T15:40:26.000",
    "date_modified": "2024-07-02T16:54:12.000",
    "case_close_date": "2024-07-02T11:54:12.000",
    "request_status": "Closed",
    "responsible_agency": "Department of Sanitation",
    "final_address": "5950 Canal Blvd",
    "address_councildis": "A",
    "status": "Invalid Request",
    "contractor": "IV Waste",
    "contractor_action": "Invalid Request",
    "rowid": "1108974",
    "final_x": "3668293.45466",
    "final_y": "547063.742289",
    "longitude": "-90.10924763875028",
    "latitude": "29.998630113384607",
    "geocoded_column": {
      "latitude": "29.998630113384607",
      "longitude": "-90.10924763875028"
    }
  },
  {
    "service_request": "2024-1108973",
    "request_type": "Trash/Recycling",
    "request_reason": "Request a Large Item Pick Up",
    "date_created": "2024-07-02T15:38:27.000",
    "date_modified": "2024-07-02T15:38:28.000",
    "request_status": "Pending",
    "responsible_agency": "Department of Sanitation",
    "final_address": "1487 Filmore Ave",
    "address_councildis": "D",
    "status": "Assigned to Contractor",
    "contractor": "IV Waste",
    "rowid": "1108973",
    "final_x": "3678417.06261",
    "final_y": "551948.093142",
    "longitude": "-90.07709793735373",
    "latitude": "30.011759080264568",
    "geocoded_column": {
      "latitude": "30.011759080264568",
      "longitude": "-90.07709793735373"
    }
  },
  {
    "service_request": "2024-1108972",
    "request_type": "Trash/Recycling",
    "request_reason": "Illegal Dumping",
    "date_created": "2024-07-02T15:35:37.000",
    "date_modified": "2024-07-02T15:35:38.000",
    "request_status": "Pending",
    "responsible_agency": "Department of Sanitation",
    "final_address": "4437 Gawain Dr",
    "address_councildis": "E",
    "status": "Pending",
    "rowid": "1108972",
    "final_x": "3707301.30641",
    "final_y": "553665.659863",
    "longitude": "-89.98577742359072",
    "latitude": "30.01557937210517",
    "geocoded_column": {
      "latitude": "30.01557937210517",
      "longitude": "-89.98577742359072"
    }
  },
  {
    "service_request": "2024-1108971",
    "request_type": "Graffiti Removal",
    "request_reason": "Graffiti Removal",
    "date_created": "2024-07-02T15:28:50.000",
    "date_modified": "2024-07-02T15:28:50.000",
    "request_status": "Pending",
    "responsible_agency": "Department of Code Enforcement",
    "final_address": "8454 Morrison Rd",
    "address_councildis": "E",
    "status": "Pending",
    "rowid": "1108971",
    "final_x": "3704153.11594",
    "final_y": "560889.20963",
    "longitude": "-89.99545770593257",
    "latitude": "30.035542761128102",
    "geocoded_column": {
      "latitude": "30.035542761128102",
      "longitude": "-89.99545770593257"
    }
  },
  {
    "service_request": "2024-1108970",
    "request_type": "Roads/Drainage",
    "request_reason": "Pothole",
    "date_created": "2024-07-02T15:25:22.000",
    "date_modified": "2024-07-02T15:25:22.000",
    "request_status": "Pending",
    "responsible_agency": "Department of Public Works",
    "final_address": "1312 Milan St",
    "address_councildis": "B",
    "status": "Pending",
    "rowid": "1108970",
    "final_x": "3671625.82823",
    "final_y": "520286.919608",
    "longitude": "-90.09963137110304",
    "latitude": "29.92490447494246",
    "geocoded_column": {
      "latitude": "29.92490447494246",
      "longitude": "-90.09963137110304"
    }
  },
  {
    "service_request": "2024-1108969",
    "request_type": "Property Maintenance",
    "request_reason": "Property Maintenance",
    "date_created": "2024-07-02T15:25:05.000",
    "date_modified": "2024-07-02T15:25:05.000",
    "request_status": "Pending",
    "responsible_agency": "Department of Code Enforcement",
    "final_address": "8454 Morrison Rd",
    "address_councildis": "E",
    "status": "Pending",
    "rowid": "1108969",
    "final_x": "3704153.11594",
    "final_y": "560889.20963",
    "longitude": "-89.99545770593257",
    "latitude": "30.035542761128102",
    "geocoded_column": {
      "latitude": "30.035542761128102",
      "longitude": "-89.99545770593257"
    }
  },
  {
    "service_request": "2024-1108968",
    "request_type": "Roads/Drainage",
    "request_reason": "Pothole",
    "date_created": "2024-07-02T15:24:53.000",
    "date_modified": "2024-07-02T15:24:53.000",
    "request_status": "Pending",
    "responsible_agency": "Department of Public Works",
    "final_address": "4216 Chestnut St",
    "address_councildis": "B",
    "status": "Pending",
    "rowid": "1108968",
    "final_x": "3671574.31393",
    "final_y": "519539.203703",
    "longitude": "-90.09981939416457",
    "latitude": "29.922850019854593",
    "geocoded_column": {
      "latitude": "29.922850019854593",
      "longitude": "-90.09981939416457"
    }
  },
  {
    "service_request": "2024-1108967",
    "request_type": "Trash/Recycling",
    "request_reason": "MIssed Recycling Pick-Up",
    "date_created": "2024-07-02T15:11:44.000",
    "date_modified": "2024-07-02T15:11:45.000",
    "request_status": "Pending",
    "responsible_agency": "Department of Sanitation",
    "final_address": "308 Maumus Ave",
    "address_councildis": "C",
    "status": "Assigned to Contractor",
    "contractor": "Richards Disposal",
    "rowid": "1108967",
    "final_x": "3707227.89406",
    "final_y": "516826.313013",
    "longitude": "-89.98737660165979",
    "latitude": "29.914287000130724",
    "geocoded_column": {
      "latitude": "29.914287000130724",
      "longitude": "-89.98737660165979"
    }
  },
  {
    "service_request": "2024-1108966",
    "request_type": "Trash/Recycling",
    "request_reason": "Request a Large Item Pick Up",
    "date_created": "2024-07-02T15:11:42.000",
    "date_modified": "2024-07-02T15:11:43.000",
    "request_status": "Pending",
    "responsible_agency": "Department of Sanitation",
    "final_address": "5827 Tchoupitoulas St",
    "address_councildis": "A",
    "status": "Assigned to Contractor",
    "contractor": "IV Waste",
    "rowid": "1108966",
    "final_x": "3664916.34247",
    "final_y": "517356.285621",
    "longitude": "-90.12090899521898",
    "latitude": "29.917043078728508",
    "geocoded_column": {
      "latitude": "29.917043078728508",
      "longitude": "-90.12090899521898"
    }
  },
  {
    "service_request": "2024-1108965",
    "request_type": "Trash/Recycling",
    "request_reason": "Replace Trash Cart",
    "date_created": "2024-07-02T15:10:28.000",
    "date_modified": "2024-07-02T15:10:29.000",
    "request_status": "Pending",
    "responsible_agency": "Department of Sanitation",
    "final_address": "335 S Alexander St",
    "address_councildis": "A",
    "status": "Assigned to Contractor",
    "contractor": "IV Waste",
    "rowid": "1108965",
    "final_x": "3669302.22849",
    "final_y": "538328.033865",
    "longitude": "-90.10635640983945",
    "latitude": "29.97458022689269",
    "geocoded_column": {
      "latitude": "29.97458022689269",
      "longitude": "-90.10635640983945"
    }
  },
  {
    "service_request": "2024-1108964",
    "request_type": "Roads/Drainage",
    "request_reason": "Damaged Sidewalk",
    "date_created": "2024-07-02T15:09:29.000",
    "date_modified": "2024-07-02T15:09:29.000",
    "request_status": "Pending",
    "responsible_agency": "Department of Public Works",
    "final_address": "626 Delaronde St",
    "address_councildis": "C",
    "status": "Pending",
    "rowid": "1108964",
    "final_x": "3687432.65276",
    "final_y": "531278.410498",
    "longitude": "-90.04934573572714",
    "latitude": "29.95464993179056",
    "geocoded_column": {
      "latitude": "29.95464993179056",
      "longitude": "-90.04934573572714"
    }
  },
  {
    "service_request": "2024-1108963",
    "request_type": "Roads/Drainage",
    "request_reason": "Damaged Sidewalk",
    "date_created": "2024-07-02T15:07:07.000",
    "date_modified": "2024-07-02T15:07:07.000",
    "request_status": "Pending",
    "responsible_agency": "Department of Public Works",
    "final_address": "626 Delaronde St",
    "address_councildis": "C",
    "status": "Pending",
    "rowid": "1108963",
    "final_x": "3687432.65276",
    "final_y": "531278.410498",
    "longitude": "-90.04934573572714",
    "latitude": "29.95464993179056",
    "geocoded_column": {
      "latitude": "29.95464993179056",
      "longitude": "-90.04934573572714"
    }
  },
  {
    "service_request": "2024-1108962",
    "request_type": "Roads/Drainage",
    "request_reason": "Damaged Sidewalk",
    "date_created": "2024-07-02T15:05:50.000",
    "date_modified": "2024-07-02T15:05:50.000",
    "request_status": "Pending",
    "responsible_agency": "Department of Public Works",
    "final_address": "626 Delaronde St",
    "address_councildis": "C",
    "status": "Pending",
    "rowid": "1108962",
    "final_x": "3687432.65276",
    "final_y": "531278.410498",
    "longitude": "-90.04934573572714",
    "latitude": "29.95464993179056",
    "geocoded_column": {
      "latitude": "29.95464993179056",
      "longitude": "-90.04934573572714"
    }
  },
  {
    "service_request": "2024-1108961",
    "request_type": "Roads/Drainage",
    "request_reason": "Damaged Sidewalk",
    "date_created": "2024-07-02T15:05:44.000",
    "date_modified": "2024-07-02T15:05:44.000",
    "request_status": "Pending",
    "responsible_agency": "Department of Public Works",
    "final_address": "626 Delaronde St",
    "address_councildis": "C",
    "status": "Pending",
    "rowid": "1108961",
    "final_x": "3687432.65276",
    "final_y": "531278.410498",
    "longitude": "-90.04934573572714",
    "latitude": "29.95464993179056",
    "geocoded_column": {
      "latitude": "29.95464993179056",
      "longitude": "-90.04934573572714"
    }
  },
  {
    "service_request": "2024-1108960",
    "request_type": "Property Maintenance",
    "request_reason": "Property Maintenance",
    "date_created": "2024-07-02T15:05:29.000",
    "date_modified": "2024-07-02T15:05:29.000",
    "request_status": "Pending",
    "responsible_agency": "Department of Code Enforcement",
    "final_address": "1700 Mazant St",
    "address_councildis": "D",
    "status": "Pending",
    "rowid": "1108960",
    "final_x": "3692639.27145",
    "final_y": "537558.531976",
    "longitude": "-90.03268022250784",
    "latitude": "29.97175660660829",
    "geocoded_column": {
      "latitude": "29.97175660660829",
      "longitude": "-90.03268022250784"
    }
  },
  {
    "service_request": "2024-1108959",
    "request_type": "Roads/Drainage",
    "request_reason": "Ditch Issue",
    "date_created": "2024-07-02T15:04:32.000",
    "date_modified": "2024-07-02T15:04:32.000",
    "request_status": "Pending",
    "responsible_agency": "Department of Public Works",
    "final_address": "7938 s claiborne",
    "address_councildis": "A",
    "status": "Pending",
    "rowid": "1108959",
    "final_x": "3665155.04967",
    "final_y": "531119.175234",
    "longitude": "-90.11969541170811",
    "latitude": "29.954879695646213",
    "geocoded_column": {
      "latitude": "29.954879695646213",
      "longitude": "-90.11969541170811"
    }
  },
  {
    "service_request": "2024-1108958",
    "request_type": "Traffic Signals/Signs/Striping/Streetlights",
    "request_reason": "Additional signage",
    "date_created": "2024-07-02T15:04:07.000",
    "date_modified": "2024-07-02T15:04:07.000",
    "request_status": "Pending",
    "responsible_agency": "Department of Public Works",
    "final_address": "NAPOLEON AVE & MAGNOLIA ST",
    "address_councildis": "B",
    "status": "Pending",
    "rowid": "1108958",
    "final_x": "3670505.2",
    "final_y": "524746.48",
    "longitude": "-90.10301768416616",
    "latitude": "29.937199963751222",
    "geocoded_column": {
      "latitude": "29.937199963751222",
      "longitude": "-90.10301768416616"
    }
  },
  {
    "service_request": "2024-1108957",
    "request_type": "Trash/Recycling",
    "request_reason": "Replace Trash Cart",
    "date_created": "2024-07-02T14:58:18.000",
    "date_modified": "2024-07-02T14:58:19.000",
    "request_status": "Pending",
    "responsible_agency": "Department of Sanitation",
    "final_address": "1722 Mazant St",
    "address_councildis": "D",
    "status": "Assigned to Contractor",
    "contractor": "IV Waste",
    "rowid": "1108957",
    "final_x": "3692685.87625",
    "final_y": "537676.179592",
    "longitude": "-90.03252881998688",
    "latitude": "29.972078641099703",
    "geocoded_column": {
      "latitude": "29.972078641099703",
      "longitude": "-90.03252881998688"
    }
  },
  {
    "service_request": "2024-1108956",
    "request_type": "Roads/Drainage",
    "request_reason": "Unpermitted work in ROW",
    "date_created": "2024-07-02T14:55:30.000",
    "date_modified": "2024-07-02T14:55:31.000",
    "request_status": "Pending",
    "responsible_agency": "Department of Public Works",
    "final_address": "4978 De Montluzin St",
    "address_councildis": "D",
    "status": "Pending",
    "rowid": "1108956",
    "final_x": "3687023.66191",
    "final_y": "551565.239509",
    "longitude": "-90.0499196784599",
    "latitude": "30.010444114761707",
    "geocoded_column": {
      "latitude": "30.010444114761707",
      "longitude": "-90.0499196784599"
    }
  },
  {
    "service_request": "2024-1108955",
    "request_type": "Trash/Recycling",
    "request_reason": "Request a Large Item Pick Up",
    "date_created": "2024-07-02T14:55:20.000",
    "date_modified": "2024-07-02T14:55:21.000",
    "request_status": "Pending",
    "responsible_agency": "Department of Sanitation",
    "final_address": "711 Joseph St",
    "address_councildis": "A",
    "status": "Assigned to Contractor",
    "contractor": "IV Waste",
    "rowid": "1108955",
    "final_x": "3666103.10509",
    "final_y": "518638.366903",
    "longitude": "-90.11712010164734",
    "latitude": "29.920533819278106",
    "geocoded_column": {
      "latitude": "29.920533819278106",
      "longitude": "-90.11712010164734"
    }
  },
  {
    "service_request": "2024-1108954",
    "request_type": "Trash/Recycling",
    "request_reason": "Replace Trash Cart",
    "date_created": "2024-07-02T14:54:18.000",
    "date_modified": "2024-07-02T14:54:19.000",
    "request_status": "Pending",
    "responsible_agency": "Department of Sanitation",
    "final_address": "1716 Mazant St",
    "address_councildis": "D",
    "status": "Assigned to Contractor",
    "contractor": "IV Waste",
    "rowid": "1108954",
    "final_x": "3692672.04617",
    "final_y": "537633.317",
    "longitude": "-90.0325740341631",
    "latitude": "29.97196121588946",
    "geocoded_column": {
      "latitude": "29.97196121588946",
      "longitude": "-90.0325740341631"
    }
  },
  {
    "service_request": "2024-1108953",
    "request_type": "Abandoned Vehicles",
    "request_reason": "Abandoned/Junk Vehicles",
    "date_created": "2024-07-02T14:54:15.000",
    "date_modified": "2024-07-02T15:10:50.000",
    "request_status": "Closed",
    "responsible_agency": "Department of Public Works",
    "final_address": "9222 Colapissa St",
    "address_councildis": "A",
    "status": "Inspected",
    "rowid": "1108953",
    "final_x": "3663509.54727",
    "final_y": "536106.507783",
    "longitude": "-90.12472519988887",
    "latitude": "29.968641050684788",
    "geocoded_column": {
      "latitude": "29.968641050684788",
      "longitude": "-90.12472519988887"
    }
  },
  {
    "service_request": "2024-1108952",
    "request_type": "Traffic Signals/Signs/Striping/Streetlights",
    "request_reason": "Street Light Outage/Malfunction",
    "date_created": "2024-07-02T14:52:09.000",
    "date_modified": "2024-07-02T14:52:10.000",
    "request_status": "Pending",
    "responsible_agency": "Department of Public Works",
    "final_address": "7514 Dominique Pl",
    "address_councildis": "E",
    "status": "Assigned to Contractor",
    "contractor": "Legacy Professional Services",
    "rowid": "1108952",
    "final_x": "3725483.30867",
    "final_y": "569860.015142",
    "longitude": "-89.92770380272081",
    "latitude": "30.059506695009446",
    "geocoded_column": {
      "latitude": "30.059506695009446",
      "longitude": "-89.92770380272081"
    }
  },
  {
    "service_request": "2024-1108951",
    "request_type": "Trash/Recycling",
    "request_reason": "Order Trash Cart",
    "date_created": "2024-07-02T14:41:39.000",
    "date_modified": "2024-07-02T14:41:41.000",
    "request_status": "Pending",
    "responsible_agency": "Department of Sanitation",
    "final_address": "5800 Peoples Ave",
    "address_councildis": "D",
    "status": "Assigned to Contractor",
    "contractor": "IV Waste",
    "rowid": "1108951",
    "final_x": "3687821.23241",
    "final_y": "554606.36284",
    "longitude": "-90.04729202063969",
    "latitude": "30.018781495699415",
    "geocoded_column": {
      "latitude": "30.018781495699415",
      "longitude": "-90.04729202063969"
    }
  },
  {
    "service_request": "2024-1108950",
    "request_type": "Parks & Parkways",
    "request_reason": "Request Grass Cutting Service (City Owned Property)",
    "date_created": "2024-07-02T14:40:28.000",
    "date_modified": "2024-07-02T14:40:29.000",
    "request_status": "Pending",
    "responsible_agency": "Department of Parks & Parkway",
    "final_address": "DWYER RD & WILSON AVE",
    "address_councildis": "E",
    "status": "Pending",
    "rowid": "1108950",
    "final_x": "3702878.9",
    "final_y": "555963.48",
    "longitude": "-89.99966559870833",
    "latitude": "30.022039761434662",
    "geocoded_column": {
      "latitude": "30.022039761434662",
      "longitude": "-89.99966559870833"
    }
  },
  {
    "service_request": "2024-1108949",
    "request_type": "Trash/Recycling",
    "request_reason": "Return Trash Cart",
    "date_created": "2024-07-02T14:35:13.000",
    "date_modified": "2024-07-02T14:35:14.000",
    "request_status": "Pending",
    "responsible_agency": "Department of Sanitation",
    "final_address": "332 Walnut St",
    "address_councildis": "A",
    "status": "Assigned to Contractor",
    "contractor": "IV Waste",
    "rowid": "1108949",
    "final_x": "3661977.76403",
    "final_y": "522246.935546",
    "longitude": "-90.13002232852594",
    "latitude": "29.930576012618694",
    "geocoded_column": {
      "latitude": "29.930576012618694",
      "longitude": "-90.13002232852594"
    }
  },
  {
    "service_request": "2024-1108948",
    "request_type": "Trash/Recycling",
    "request_reason": "Request a Large Item Pick Up",
    "date_created": "2024-07-02T14:32:08.000",
    "date_modified": "2024-07-02T14:32:09.000",
    "request_status": "Pending",
    "responsible_agency": "Department of Sanitation",
    "final_address": "1433 Lesseps St",
    "address_councildis": "D",
    "status": "Assigned to Contractor",
    "contractor": "IV Waste",
    "rowid": "1108948",
    "final_x": "3693080.78051",
    "final_y": "536457.707847",
    "longitude": "-90.03132537855474",
    "latitude": "29.96871594310104",
    "geocoded_column": {
      "latitude": "29.96871594310104",
      "longitude": "-90.03132537855474"
    }
  },
  {
    "service_request": "2024-1108947",
    "request_type": "Trash/Recycling",
    "request_reason": "Request a Large Item Pick Up",
    "date_created": "2024-07-02T14:31:20.000",
    "date_modified": "2024-07-02T14:31:21.000",
    "request_status": "Pending",
    "responsible_agency": "Department of Sanitation",
    "final_address": "2624 N Derbigny St",
    "address_councildis": "D",
    "status": "Assigned to Contractor",
    "contractor": "IV Waste",
    "rowid": "1108947",
    "final_x": "3687843.61027",
    "final_y": "538634.809161",
    "longitude": "-90.04778748667871",
    "latitude": "29.974864799165026",
    "geocoded_column": {
      "latitude": "29.974864799165026",
      "longitude": "-90.04778748667871"
    }
  },
  {
    "service_request": "2024-1108946",
    "request_type": "Trash/Recycling",
    "request_reason": "Request a Large Item Pick Up",
    "date_created": "2024-07-02T14:31:09.000",
    "date_modified": "2024-07-02T14:31:09.000",
    "request_status": "Pending",
    "responsible_agency": "Department of Sanitation",
    "final_address": "4949 Chrysler St",
    "address_councildis": "E",
    "status": "Assigned to Contractor",
    "contractor": "Waste Pro",
    "rowid": "1108946",
    "final_x": "3715285.84504",
    "final_y": "557820.083547",
    "longitude": "-89.96039295010296",
    "latitude": "30.026741783059006",
    "geocoded_column": {
      "latitude": "30.026741783059006",
      "longitude": "-89.96039295010296"
    }
  },
  {
    "service_request": "2024-1108945",
    "request_type": "Trash/Recycling",
    "request_reason": "Request a Large Item Pick Up",
    "date_created": "2024-07-02T14:30:34.000",
    "date_modified": "2024-07-02T14:30:35.000",
    "request_status": "Pending",
    "responsible_agency": "Department of Sanitation",
    "final_address": "4700 Cardenas Dr",
    "address_councildis": "E",
    "status": "Assigned to Contractor",
    "contractor": "Waste Pro",
    "rowid": "1108945",
    "final_x": "3713644.22271",
    "final_y": "556044.230809",
    "longitude": "-89.965647228498",
    "latitude": "30.021912872819005",
    "geocoded_column": {
      "latitude": "30.021912872819005",
      "longitude": "-89.965647228498"
    }
  },
  {
    "service_request": "2024-1108944",
    "request_type": "Property Maintenance",
    "request_reason": "Property Maintenance",
    "date_created": "2024-07-02T14:22:35.000",
    "date_modified": "2024-07-02T14:22:35.000",
    "request_status": "Pending",
    "responsible_agency": "Department of Code Enforcement",
    "final_address": "2000 BLK Alabo St",
    "address_councildis": "E",
    "status": "Pending",
    "rowid": "1108944",
    "final_x": "3699866.70686",
    "final_y": "537094.095219",
    "longitude": "-90.00987195237407",
    "latitude": "29.970252014451408",
    "geocoded_column": {
      "latitude": "29.970252014451408",
      "longitude": "-90.00987195237407"
    }
  },
  {
    "service_request": "2024-1108943",
    "request_type": "Utility Poles",
    "request_reason": "Utility Pole Leaning",
    "date_created": "2024-07-02T14:22:20.000",
    "date_modified": "2024-07-02T14:22:27.000",
    "request_status": "Pending",
    "responsible_agency": "Utility Company Collective",
    "final_address": "GRANT ST & BONITA DR",
    "address_councildis": "E",
    "status": "Pending",
    "rowid": "1108943",
    "final_x": "3704578.0",
    "final_y": "554299.28",
    "longitude": "-89.99435836300233",
    "latitude": "30.017409366073917",
    "geocoded_column": {
      "latitude": "30.017409366073917",
      "longitude": "-89.99435836300233"
    }
  },
  {
    "service_request": "2024-1108942",
    "request_type": "Trash/Recycling",
    "request_reason": "Request a Large Item Pick Up",
    "date_created": "2024-07-02T14:20:32.000",
    "date_modified": "2024-07-02T14:20:33.000",
    "request_status": "Pending",
    "responsible_agency": "Department of Sanitation",
    "final_address": "4822 Nottingham Dr",
    "address_councildis": "E",
    "status": "Assigned to Contractor",
    "contractor": "Waste Pro",
    "rowid": "1108942",
    "final_x": "3716281.04607",
    "final_y": "557266.235803",
    "longitude": "-89.95726927273842",
    "latitude": "30.025186097226108",
    "geocoded_column": {
      "latitude": "30.025186097226108",
      "longitude": "-89.95726927273842"
    }
  },
  {
    "service_request": "2024-1108941",
    "request_type": "Trash/Recycling",
    "request_reason": "Request a Large Item Pick Up",
    "date_created": "2024-07-02T14:16:42.000",
    "date_modified": "2024-07-02T14:16:43.000",
    "request_status": "Pending",
    "responsible_agency": "Department of Sanitation",
    "final_address": "1507 N Miro St",
    "address_councildis": "D",
    "status": "Assigned to Contractor",
    "contractor": "IV Waste",
    "rowid": "1108941",
    "final_x": "3680032.04623",
    "final_y": "538605.750665",
    "longitude": "-90.07245938519726",
    "latitude": "29.975023565167284",
    "geocoded_column": {
      "latitude": "29.975023565167284",
      "longitude": "-90.07245938519726"
    }
  },
  {
    "service_request": "2024-1108940",
    "request_type": "Roads/Drainage",
    "request_reason": "Street Subsidence (Sinking)",
    "date_created": "2024-07-02T14:14:17.000",
    "date_modified": "2024-07-02T14:14:18.000",
    "request_status": "Pending",
    "responsible_agency": "Department of Public Works",
    "final_address": "CHANELLE CT & BEAUVOIR CT",
    "address_councildis": "E",
    "status": "Pending",
    "rowid": "1108940",
    "final_x": "3716559.3",
    "final_y": "567366.68",
    "longitude": "-89.95600640898256",
    "latitude": "30.05294903955383",
    "geocoded_column": {
      "latitude": "30.05294903955383",
      "longitude": "-89.95600640898256"
    }
  },
  {
    "service_request": "2024-1108939",
    "request_type": "Traffic Signals/Signs/Striping/Streetlights",
    "request_reason": "Traffic Signal Malfunctioning/Damaged",
    "date_created": "2024-07-02T14:11:30.000",
    "date_modified": "2024-07-02T14:11:30.000",
    "request_status": "Pending",
    "responsible_agency": "Department of Public Works",
    "final_address": "ST CHARLES AVE & CALLIOPE ST",
    "address_councildis": "B",
    "status": "Pending",
    "rowid": "1108939",
    "final_x": "3679819.05",
    "final_y": "526554.96",
    "longitude": "-90.07355052352129",
    "latitude": "29.941894417235446",
    "geocoded_column": {
      "latitude": "29.941894417235446",
      "longitude": "-90.07355052352129"
    }
  },
  {
    "service_request": "2024-1108938",
    "request_type": "Mosquito, Termite & Rodent Control",
    "request_reason": "Mosquito Complaint",
    "date_created": "2024-07-02T14:10:43.000",
    "date_modified": "2024-07-02T14:13:16.000",
    "request_status": "Pending",
    "responsible_agency": "Mosquito, Termite & Rodent Control Board",
    "final_address": "7501 Afton Dr",
    "address_councildis": "E",
    "status": "Pending",
    "rowid": "1108938",
    "final_x": "3705027.35959",
    "final_y": "562487.582431",
    "longitude": "-89.99263586460351",
    "latitude": "30.03990956094457",
    "geocoded_column": {
      "latitude": "30.03990956094457",
      "longitude": "-89.99263586460351"
    }
  },
  {
    "service_request": "2024-1108937",
    "request_type": "Parks & Parkways",
    "request_reason": "Request Grass Cutting Service (City Owned Property)",
    "date_created": "2024-07-02T14:09:33.000",
    "date_modified": "2024-07-02T14:09:33.000",
    "request_status": "Pending",
    "responsible_agency": "Department of Parks & Parkway",
    "final_address": "8700 BLK Morrison Rd",
    "address_councildis": "E",
    "status": "Pending",
    "rowid": "1108937",
    "final_x": "3705460.00177",
    "final_y": "561694.257633",
    "longitude": "-89.99129795538632",
    "latitude": "30.0377143047036",
    "geocoded_column": {
      "latitude": "30.0377143047036",
      "longitude": "-89.99129795538632"
    }
  },
  {
    "service_request": "2024-1108936",
    "request_type": "Parks & Parkways",
    "request_reason": "Request Grass Cutting Service (City Owned Property)",
    "date_created": "2024-07-02T14:09:11.000",
    "date_modified": "2024-07-02T14:09:11.000",
    "request_status": "Pending",
    "responsible_agency": "Department of Parks & Parkway",
    "final_address": "8900 BLK Morrison Rd",
    "address_councildis": "E",
    "status": "Pending",
    "rowid": "1108936",
    "final_x": "3705822.6605",
    "final_y": "561987.654684",
    "longitude": "-89.99014100604003",
    "latitude": "30.03850934668907",
    "geocoded_column": {
      "latitude": "30.03850934668907",
      "longitude": "-89.99014100604003"
    }
  },
  {
    "service_request": "2024-1108935",
    "request_type": "Parks & Parkways",
    "request_reason": "Request Grass Cutting Service (City Owned Property)",
    "date_created": "2024-07-02T14:08:39.000",
    "date_modified": "2024-07-02T14:08:40.000",
    "request_status": "Pending",
    "responsible_agency": "Department of Parks & Parkway",
    "final_address": "8800 BLK Morrison Rd",
    "address_councildis": "E",
    "status": "Pending",
    "rowid": "1108935",
    "final_x": "3705436.77282",
    "final_y": "561790.18559",
    "longitude": "-89.99136781348606",
    "latitude": "30.037978816824147",
    "geocoded_column": {
      "latitude": "30.037978816824147",
      "longitude": "-89.99136781348606"
    }
  },
  {
    "service_request": "2024-1108934",
    "request_type": "Trash/Recycling",
    "request_reason": "Missed Trash Pick-Up",
    "date_created": "2024-07-02T14:07:02.000",
    "date_modified": "2024-07-02T14:49:24.000",
    "case_close_date": "2024-07-02T09:49:24.000",
    "request_status": "Closed",
    "responsible_agency": "Department of Sanitation",
    "final_address": "3721 DHemecourt St",
    "address_councildis": "B",
    "status": "Invalid Request",
    "contractor": "IV Waste",
    "contractor_action": "Invalid",
    "rowid": "1108934",
    "final_x": "3671039.04295",
    "final_y": "536001.315655",
    "longitude": "-90.1009501462857",
    "latitude": "29.968131282645125",
    "geocoded_column": {
      "latitude": "29.968131282645125",
      "longitude": "-90.1009501462857"
    }
  },
  {
    "service_request": "2024-1108933",
    "request_type": "Trash/Recycling",
    "request_reason": "Request a Large Item Pick Up",
    "date_created": "2024-07-02T14:06:53.000",
    "date_modified": "2024-07-02T14:06:54.000",
    "request_status": "Pending",
    "responsible_agency": "Department of Sanitation",
    "final_address": "4911 Magnolia St",
    "address_councildis": "B",
    "status": "Assigned to Contractor",
    "contractor": "IV Waste",
    "rowid": "1108933",
    "final_x": "3669089.46644",
    "final_y": "524648.525436",
    "longitude": "-90.10749056344149",
    "latitude": "29.936972342251075",
    "geocoded_column": {
      "latitude": "29.936972342251075",
      "longitude": "-90.10749056344149"
    }
  },
  {
    "service_request": "2024-1108931",
    "request_type": "Roads/Drainage",
    "request_reason": "Man hole cover issue",
    "date_created": "2024-07-02T14:02:52.000",
    "date_modified": "2024-07-02T14:02:52.000",
    "request_status": "Pending",
    "responsible_agency": "Department of Public Works",
    "final_address": "1319 Mithra St",
    "address_councildis": "D",
    "status": "Pending",
    "rowid": "1108931",
    "final_x": "3677163.18958",
    "final_y": "552151.81935",
    "longitude": "-90.0810524182833",
    "latitude": "30.012356993356377",
    "geocoded_column": {
      "latitude": "30.012356993356377",
      "longitude": "-90.0810524182833"
    }
  },
  {
    "service_request": "2024-1108930",
    "request_type": "Roads/Drainage",
    "request_reason": "Catch Basin - Broken/Damage",
    "date_created": "2024-07-02T14:01:31.000",
    "date_modified": "2024-07-02T14:01:31.000",
    "request_status": "Pending",
    "responsible_agency": "Department of Public Works",
    "final_address": "5401 St Bernard Ave",
    "address_councildis": "D",
    "status": "Pending",
    "rowid": "1108930",
    "final_x": "3677058.09838",
    "final_y": "552125.981142",
    "longitude": "-90.08138533978725",
    "latitude": "30.012289105185406",
    "geocoded_column": {
      "latitude": "30.012289105185406",
      "longitude": "-90.08138533978725"
    }
  },
  {
    "service_request": "2024-1108929",
    "request_type": "Healthy Homes",
    "request_reason": "Healthy Homes",
    "date_created": "2024-07-02T14:01:14.000",
    "date_modified": "2024-07-02T14:41:24.000",
    "case_close_date": "2024-07-02T09:41:24.000",
    "request_status": "Closed",
    "responsible_agency": "Department of Code Enforcement",
    "final_address": "2543 Martin Luther King, Jr. Blvd",
    "address_councildis": "B",
    "status": "Referred to Code Enforcement",
    "rowid": "1108929",
    "final_x": "3676251.92462",
    "final_y": "527496.723903",
    "longitude": "-90.08478029726297",
    "latitude": "29.94459131265866",
    "geocoded_column": {
      "latitude": "29.94459131265866",
      "longitude": "-90.08478029726297"
    }
  },
  {
    "service_request": "2024-1108928",
    "request_type": "Trash/Recycling",
    "request_reason": "Order Recycling Cart",
    "date_created": "2024-07-02T13:58:23.000",
    "date_modified": "2024-07-02T13:58:24.000",
    "request_status": "Pending",
    "responsible_agency": "Department of Sanitation",
    "final_address": "4 Virginia Ct",
    "address_councildis": "A",
    "status": "Pending",
    "rowid": "1108928",
    "final_x": "3668784.8361",
    "final_y": "542357.785869",
    "longitude": "-90.10785435120131",
    "latitude": "29.985675905357756",
    "geocoded_column": {
      "latitude": "29.985675905357756",
      "longitude": "-90.10785435120131"
    }
  },
  {
    "service_request": "2024-1108927",
    "request_type": "Trash/Recycling",
    "request_reason": "Request a Large Item Pick Up",
    "date_created": "2024-07-02T13:53:29.000",
    "date_modified": "2024-07-02T13:53:30.000",
    "request_status": "Pending",
    "responsible_agency": "Department of Sanitation",
    "final_address": "5310 Bullard Ave",
    "address_councildis": "E",
    "status": "Assigned to Contractor",
    "contractor": "Waste Pro",
    "rowid": "1108927",
    "final_x": "3717884.13983",
    "final_y": "560789.253086",
    "longitude": "-89.9520696112999",
    "latitude": "30.034819946189344",
    "geocoded_column": {
      "latitude": "30.034819946189344",
      "longitude": "-89.9520696112999"
    }
  },
  {
    "service_request": "2024-1108926",
    "request_type": "Trash/Recycling",
    "request_reason": "Request a Large Item Pick Up",
    "date_created": "2024-07-02T13:52:34.000",
    "date_modified": "2024-07-02T14:29:15.000",
    "request_status": "Pending",
    "responsible_agency": "Department of Sanitation",
    "final_address": "3126 Marais Street ",
    "address_councildis": "C",
    "status": "Assigned to Contractor",
    "contractor": "IV Waste",
    "rowid": "1108926",
    "final_x": "3689314.39567",
    "final_y": "536260.339207",
    "longitude": "-90.04322682225798",
    "latitude": "29.968290388239776",
    "geocoded_column": {
      "latitude": "29.968290388239776",
      "longitude": "-90.04322682225798"
    }
  },
  {
    "service_request": "2024-1108925",
    "request_type": "Trash/Recycling",
    "request_reason": "Request a Large Item Pick Up",
    "date_created": "2024-07-02T13:51:28.000",
    "date_modified": "2024-07-02T13:51:29.000",
    "request_status": "Pending",
    "responsible_agency": "Department of Sanitation",
    "final_address": "7922 Arcadia Ln",
    "address_councildis": "E",
    "status": "Assigned to Contractor",
    "contractor": "Waste Pro",
    "rowid": "1108925",
    "final_x": "3711799.78846",
    "final_y": "567881.948709",
    "longitude": "-89.97103040553964",
    "latitude": "30.054522266104446",
    "geocoded_column": {
      "latitude": "30.054522266104446",
      "longitude": "-89.97103040553964"
    }
  },
  {
    "service_request": "2024-1108924",
    "request_type": "Trash/Recycling",
    "request_reason": "Request a Large Item Pick Up",
    "date_created": "2024-07-02T13:50:34.000",
    "date_modified": "2024-07-02T15:59:39.000",
    "case_close_date": "2024-07-02T10:59:22.000",
    "request_status": "Pending",
    "responsible_agency": "Department of Sanitation",
    "final_address": "2220 Fern St",
    "address_councildis": "A",
    "status": "Assigned to Contractor",
    "contractor": "IV Waste",
    "rowid": "1108924",
    "final_x": "3664986.82087",
    "final_y": "530606.46381",
    "longitude": "-90.12024375630753",
    "latitude": "29.95347480424071",
    "geocoded_column": {
      "latitude": "29.95347480424071",
      "longitude": "-90.12024375630753"
    }
  },
  {
    "service_request": "2024-1108923",
    "request_type": "Property Maintenance",
    "request_reason": "Property Maintenance",
    "date_created": "2024-07-02T13:48:07.000",
    "date_modified": "2024-07-02T13:48:07.000",
    "request_status": "Pending",
    "responsible_agency": "Department of Code Enforcement",
    "final_address": "1409 Gallier St",
    "address_councildis": "C",
    "status": "Pending",
    "rowid": "1108923",
    "final_x": "3690795.36252",
    "final_y": "536834.393032",
    "longitude": "-90.03852939358873",
    "latitude": "29.969822902482342",
    "geocoded_column": {
      "latitude": "29.969822902482342",
      "longitude": "-90.03852939358873"
    }
  },
  {
    "service_request": "2024-1108922",
    "request_type": "Trash/Recycling",
    "request_reason": "Order Recycling Cart",
    "date_created": "2024-07-02T13:47:00.000",
    "date_modified": "2024-07-02T13:47:01.000",
    "request_status": "Pending",
    "responsible_agency": "Department of Sanitation",
    "final_address": "7632 Ebbtide Dr",
    "address_councildis": "E",
    "status": "Pending",
    "rowid": "1108922",
    "final_x": "3702096.62647",
    "final_y": "561526.568927",
    "longitude": "-90.00193312219432",
    "latitude": "30.037361112279243",
    "geocoded_column": {
      "latitude": "30.037361112279243",
      "longitude": "-90.00193312219432"
    }
  },
  {
    "service_request": "2024-1108921",
    "request_type": "Trash/Recycling",
    "request_reason": "Order Recycling Cart",
    "date_created": "2024-07-02T13:45:25.000",
    "date_modified": "2024-07-02T13:45:26.000",
    "request_status": "Pending",
    "responsible_agency": "Department of Sanitation",
    "final_address": "2257 Odin St",
    "address_councildis": "D",
    "status": "Pending",
    "rowid": "1108921",
    "final_x": "3684270.46735",
    "final_y": "553132.264023",
    "longitude": "-90.0585629725401",
    "latitude": "30.014837365368642",
    "geocoded_column": {
      "latitude": "30.014837365368642",
      "longitude": "-90.0585629725401"
    }
  },
  {
    "service_request": "2024-1108920",
    "request_type": "Trash/Recycling",
    "request_reason": "Replace Trash Cart",
    "date_created": "2024-07-02T13:42:32.000",
    "date_modified": "2024-07-02T13:42:33.000",
    "request_status": "Pending",
    "responsible_agency": "Department of Sanitation",
    "final_address": "8823 Olive St",
    "address_councildis": "A",
    "status": "Assigned to Contractor",
    "contractor": "IV Waste",
    "rowid": "1108920",
    "final_x": "3665297.68967",
    "final_y": "535998.758663",
    "longitude": "-90.11908172883172",
    "latitude": "29.96829279387254",
    "geocoded_column": {
      "latitude": "29.96829279387254",
      "longitude": "-90.11908172883172"
    }
  },
  {
    "service_request": "2024-1108919",
    "request_type": "Abandoned Vehicles",
    "request_reason": "Abandoned/Junk Vehicles",
    "date_created": "2024-07-02T13:41:39.000",
    "date_modified": "2024-07-02T13:41:39.000",
    "request_status": "Pending",
    "responsible_agency": "Department of Public Works",
    "final_address": "1218 Marais St",
    "address_councildis": "C",
    "status": "Pending",
    "rowid": "1108919",
    "final_x": "3681853.93032",
    "final_y": "535582.503366",
    "longitude": "-90.06681094817715",
    "latitude": "29.96665542866525",
    "geocoded_column": {
      "latitude": "29.96665542866525",
      "longitude": "-90.06681094817715"
    }
  },
  {
    "service_request": "2024-1108918",
    "request_type": "Property Maintenance",
    "request_reason": "Property Maintenance",
    "date_created": "2024-07-02T13:40:29.000",
    "date_modified": "2024-07-02T13:40:29.000",
    "request_status": "Pending",
    "responsible_agency": "Department of Code Enforcement",
    "final_address": "2733 Baronne St",
    "address_councildis": "B",
    "status": "Pending",
    "rowid": "1108918",
    "final_x": "3675536.63201",
    "final_y": "523200.872123",
    "longitude": "-90.08718619553441",
    "latitude": "29.932800540360336",
    "geocoded_column": {
      "latitude": "29.932800540360336",
      "longitude": "-90.08718619553441"
    }
  },
  {
    "service_request": "2024-1108917",
    "request_type": "Traffic Signals/Signs/Striping/Streetlights",
    "request_reason": "Traffic Signal Malfunctioning/Damaged",
    "date_created": "2024-07-02T13:39:22.000",
    "date_modified": "2024-07-02T13:39:22.000",
    "request_status": "Pending",
    "responsible_agency": "Department of Public Works",
    "final_address": "ESPLANADE AVE & N CLAIBORNE AVE",
    "address_councildis": "D",
    "status": "Pending",
    "rowid": "1108917",
    "final_x": "3681314.4",
    "final_y": "536499.88",
    "longitude": "-90.06848280042382",
    "latitude": "29.969194285734545",
    "geocoded_column": {
      "latitude": "29.969194285734545",
      "longitude": "-90.06848280042382"
    }
  },
  {
    "service_request": "2024-1108916",
    "request_type": "Trash/Recycling",
    "request_reason": "Order Recycling Cart",
    "date_created": "2024-07-02T13:39:21.000",
    "date_modified": "2024-07-02T13:39:22.000",
    "request_status": "Pending",
    "responsible_agency": "Department of Sanitation",
    "final_address": "3606 Baronne St",
    "address_councildis": "B",
    "status": "Pending",
    "rowid": "1108916",
    "final_x": "3673180.46177",
    "final_y": "521912.417914",
    "longitude": "-90.09466842524515",
    "latitude": "29.92932795570393",
    "geocoded_column": {
      "latitude": "29.92932795570393",
      "longitude": "-90.09466842524515"
    }
  },
  {
    "service_request": "2024-1108915",
    "request_type": "Parks & Parkways",
    "request_reason": "Request Tree Service (Right of Way/Public Property)",
    "date_created": "2024-07-02T13:38:20.000",
    "date_modified": "2024-07-02T13:38:20.000",
    "request_status": "Pending",
    "responsible_agency": "Department of Parks & Parkway",
    "final_address": "TOLEDANO ST & LOYOLA AVE",
    "address_councildis": "B",
    "status": "Pending",
    "rowid": "1108915",
    "final_x": "3673719.4",
    "final_y": "523668.88",
    "longitude": "-90.09290707037438",
    "latitude": "29.93414162722122",
    "geocoded_column": {
      "latitude": "29.93414162722122",
      "longitude": "-90.09290707037438"
    }
  },
  {
    "service_request": "2024-1108914",
    "request_type": "Traffic Signals/Signs/Striping/Streetlights",
    "request_reason": "Request for Stop Sign",
    "date_created": "2024-07-02T13:38:05.000",
    "date_modified": "2024-07-02T13:38:05.000",
    "request_status": "Pending",
    "responsible_agency": "Department of Public Works",
    "final_address": "1215 N Broad St",
    "address_councildis": "A",
    "status": "Pending",
    "rowid": "1108914",
    "final_x": "3677912.37896",
    "final_y": "538802.925449",
    "longitude": "-90.07914702761227",
    "latitude": "29.97562969252081",
    "geocoded_column": {
      "latitude": "29.97562969252081",
      "longitude": "-90.07914702761227"
    }
  },