[
  {
    "service_request": "2023-1003764",
    "request_type": "Property Maintenance",
    "request_reason": "Property Maintenance",
    "date_created": "2023-05-30T00:35:28.000",
    "date_modified": "2023-05-30T00:35:28.000",
    "request_status": "Pending",
    "responsible_agency": "Department of Code Enforcement",
    "final_address": "9701 Lake Forest Blvd Ste 122",
    "address_councildis": "E",
    "status": "Pending",
    "rowid": "1003764",
    "final_x": "3708862.75537",
    "final_y": "559124.643996",
    "longitude": "-89.98064039085281",
    "latitude": "30.030538861503278",
    "geocoded_column": {
      "latitude": "30.030538861503278",
      "longitude": "-89.98064039085281"
    }
  },
  {
    "service_request": "2023-1003763",
    "request_type": "Health Related Request",
    "request_reason": "Noise Ordinance Complaint",
    "date_created": "2023-05-30T00:33:38.000",
    "date_modified": "2023-05-30T00:33:38.000",
    "request_status": "Pending",
    "responsible_agency": "Health Department",
    "final_address": "1328 St Bernard Ave",
    "address_councildis": "C",
    "status": "Pending",
    "rowid": "1003763",
    "final_x": "3682712.52284",
    "final_y": "536735.540615",
    "longitude": "-90.06405918653729",
    "latitude": "29.96979976049472",
    "geocoded_column": {
      "latitude": "29.96979976049472",
      "longitude": "-90.06405918653729"
    }
  },
  {
    "service_request": "2023-1003762",
    "request_type": "Property Maintenance",
    "request_reason": "Property Maintenance",
    "date_created": "2023-05-30T00:29:02.000",
    "date_modified": "2023-05-30T00:29:02.000",
    "request_status": "Pending",
    "responsible_agency": "Department of Code Enforcement",
    "final_address": "2009 Jourdan Ave",
    "address_councildis": "E",
    "status": "Pending",
    "rowid": "1003762",
    "final_x": "3696063.52048",
    "final_y": "537937.878793",
    "longitude": "-90.0218522591785",
    "latitude": "29.972692354177244",
    "geocoded_column": {
      "latitude": "29.972692354177244",
      "longitude": "-90.0218522591785"
    }
  },
  {
    "service_request": "2023-1003761",
    "request_type": "Property Maintenance",
    "request_reason": "Property Maintenance",
    "date_created": "2023-05-30T00:21:21.000",
    "date_modified": "2023-05-30T00:21:21.000",
    "request_status": "Pending",
    "responsible_agency": "Department of Code Enforcement",
    "final_address": "9701 Lake Forest Blvd Ste 121",
    "address_councildis": "E",
    "status": "Pending",
    "rowid": "1003761",
    "final_x": "3708830.04702",
    "final_y": "559135.685724",
    "longitude": "-89.98074333692817",
    "latitude": "30.030570283577802",
    "geocoded_column": {
      "latitude": "30.030570283577802",
      "longitude": "-89.98074333692817"
    }
  },
  {
    "service_request": "2023-1003760",
    "request_type": "Safety & Permits",
    "request_reason": "Licenses & Permits",
    "date_created": "2023-05-29T23:16:34.000",
    "date_modified": "2023-05-29T23:16:34.000",
    "request_status": "Pending",
    "responsible_agency": "Safety and Permits",
    "status": "Pending",
    "rowid": "1003760",
    "longitude": "0.0",
    "latitude": "0.0",
    "geocoded_column": {
      "latitude": "0.0",
      "longitude": "0.0"
    }
  },
  {
    "service_request": "2023-1003759",
    "request_type": "Health Related Request",
    "request_reason": "Noise Ordinance Complaint",
    "date_created": "2023-05-29T23:13:43.000",
    "date_modified": "2023-05-29T23:13:43.000",
    "request_status": "Pending",
    "responsible_agency": "Health Department",
    "final_address": "1775 Joseph Guillaume Pl",
    "address_councildis": "C",
    "status": "Pending",
    "rowid": "1003759",
    "final_x": "3683462.43785",
    "final_y": "536121.270855",
    "longitude": "-90.06171241725919",
    "latitude": "29.96808786850646",
    "geocoded_column": {
      "latitude": "29.96808786850646",
      "longitude": "-90.06171241725919"
    }
  },
  {
    "service_request": "2023-1003757",
    "request_type": "Property Maintenance",
    "request_reason": "Property Maintenance",
    "date_created": "2023-05-29T22:31:19.000",
    "date_modified": "2023-05-29T22:31:20.000",
    "request_status": "Pending",
    "responsible_agency": "Department of Code Enforcement",
    "final_address": "7511 Poitevent Ave",
    "address_councildis": "E",
    "status": "Pending",
    "rowid": "1003757",
    "final_x": "3707202.90763",
    "final_y": "563807.331105",
    "longitude": "-89.98571145917262",
    "latitude": "30.043468173851384",
    "geocoded_column": {
      "latitude": "30.043468173851384",
      "longitude": "-89.98571145917262"
    }
  },
  {
    "service_request": "2023-1003756",
    "request_type": "Property Maintenance",
    "request_reason": "Property Maintenance",
    "date_created": "2023-05-29T22:28:50.000",
    "date_modified": "2023-05-29T22:28:51.000",
    "request_status": "Pending",
    "responsible_agency": "Department of Code Enforcement",
    "final_address": "9200 Morrison Rd",
    "address_councildis": "E",
    "status": "Pending",
    "rowid": "1003756",
    "final_x": "3706638.78475",
    "final_y": "562136.046047",
    "longitude": "-89.98755634843394",
    "latitude": "30.03889103368737",
    "geocoded_column": {
      "latitude": "30.03889103368737",
      "longitude": "-89.98755634843394"
    }
  },
  {
    "service_request": "2023-1003755",
    "request_type": "Traffic Signals/Signs/Striping/Streetlights",
    "request_reason": "Street Light Outage/Malfunction",
    "date_created": "2023-05-29T22:26:07.000",
    "date_modified": "2023-05-29T22:26:08.000",
    "request_status": "Pending",
    "responsible_agency": "Department of Public Works",
    "final_address": "1741 Abundance St",
    "address_councildis": "D",
    "status": "Assigned to Contractor",
    "contractor": "Legacy Professional Services",
    "rowid": "1003755",
    "final_x": "3681053.0509",
    "final_y": "543432.347534",
    "longitude": "-90.06906659985174",
    "latitude": "29.98826408996832",
    "geocoded_column": {
      "latitude": "29.98826408996832",
      "longitude": "-90.06906659985174"
    }
  },
  {
    "service_request": "2023-1003754",
    "request_type": "Property Maintenance",
    "request_reason": "Property Maintenance",
    "date_created": "2023-05-29T22:23:37.000",
    "date_modified": "2023-05-29T22:23:37.000",
    "request_status": "Pending",
    "responsible_agency": "Department of Code Enforcement",
    "final_address": "9200 Morrison Rd",
    "address_councildis": "E",
    "status": "Pending",
    "rowid": "1003754",
    "final_x": "3706638.78475",
    "final_y": "562136.046047",
    "longitude": "-89.98755634843394",
    "latitude": "30.03889103368737",
    "geocoded_column": {
      "latitude": "30.03889103368737",
      "longitude": "-89.98755634843394"
    }
  },
  {
    "service_request": "2023-1003753",
    "request_type": "Roads/Drainage",
    "request_reason": "Accessibility Ramps, Curbs and Sidewalk Repair",
    "date_created": "2023-05-29T22:21:46.000",
    "date_modified": "2023-05-29T22:21:46.000",
    "request_status": "Pending",
    "responsible_agency": "Department of Public Works",
    "final_address": "1775 N Tonti St",
    "address_councildis": "D",
    "status": "Pending",
    "rowid": "1003753",
    "final_x": "3681176.03765",
    "final_y": "540480.465803",
    "longitude": "-90.06878102497835",
    "latitude": "29.980143717053533",
    "geocoded_column": {
      "latitude": "29.980143717053533",
      "longitude": "-90.06878102497835"
    }
  },
  {
    "service_request": "2023-1003752",
    "request_type": "Property Maintenance",
    "request_reason": "Property Maintenance",
    "date_created": "2023-05-29T21:58:51.000",
    "date_modified": "2023-05-29T21:58:51.000",
    "request_status": "Pending",
    "responsible_agency": "Department of Code Enforcement",
    "final_address": "1600 S Saratoga St",
    "address_councildis": "B",
    "status": "Pending",
    "rowid": "1003752",
    "final_x": "3677384.10862",
    "final_y": "526271.997822",
    "longitude": "-90.08124791012656",
    "latitude": "29.94118975073034",
    "geocoded_column": {
      "latitude": "29.94118975073034",
      "longitude": "-90.08124791012656"
    }
  },
  {
    "service_request": "2023-1003751",
    "request_type": "Property Maintenance",
    "request_reason": "Property Maintenance",
    "date_created": "2023-05-29T21:56:12.000",
    "date_modified": "2023-05-29T21:56:12.000",
    "request_status": "Pending",
    "responsible_agency": "Department of Code Enforcement",
    "final_address": "1600 S Saratoga St",
    "address_councildis": "B",
    "status": "Pending",
    "rowid": "1003751",
    "final_x": "3677384.10862",
    "final_y": "526271.997822",
    "longitude": "-90.08124791012656",
    "latitude": "29.94118975073034",
    "geocoded_column": {
      "latitude": "29.94118975073034",
      "longitude": "-90.08124791012656"
    }
  },
  {
    "service_request": "2023-1003750",
    "request_type": "Property Maintenance",
    "request_reason": "Property Maintenance",
    "date_created": "2023-05-29T21:52:43.000",
    "date_modified": "2023-05-29T21:52:43.000",
    "request_status": "Pending",
    "responsible_agency": "Department of Code Enforcement",
    "final_address": "1600 S Saratoga St",
    "address_councildis": "B",
    "status": "Pending",
    "rowid": "1003750",
    "final_x": "3677384.10862",
    "final_y": "526271.997822",
    "longitude": "-90.08124791012656",
    "latitude": "29.94118975073034",
    "geocoded_column": {
      "latitude": "29.94118975073034",
      "longitude": "-90.08124791012656"
    }
  },
  {
    "service_request": "2023-1003749",
    "request_type": "Health Related Request",
    "request_reason": "Noise Ordinance Complaint",
    "date_created": "2023-05-29T21:35:31.000",
    "date_modified": "2023-05-29T21:35:31.000",
    "request_status": "Pending",
    "responsible_agency": "Health Department",
    "final_address": "1775 Joseph Guillaume Pl",
    "address_councildis": "C",
    "status": "Pending",
    "rowid": "1003749",
    "final_x": "3683462.43785",
    "final_y": "536121.270855",
    "longitude": "-90.06171241725919",
    "latitude": "29.96808786850646",
    "geocoded_column": {
      "latitude": "29.96808786850646",
      "longitude": "-90.06171241725919"
    }
  },
  {
    "service_request": "2023-1003748",
    "request_type": "Health Related Request",
    "request_reason": "Noise Ordinance Complaint",
    "date_created": "2023-05-29T21:33:12.000",
    "date_modified": "2023-05-29T21:33:12.000",
    "request_status": "Pending",
    "responsible_agency": "Health Department",
    "final_address": "1775 Joseph Guillaume Pl",
    "address_councildis": "C",
    "status": "Pending",
    "rowid": "1003748",
    "final_x": "3683462.43785",
    "final_y": "536121.270855",
    "longitude": "-90.06171241725919",
    "latitude": "29.96808786850646",
    "geocoded_column": {
      "latitude": "29.96808786850646",
      "longitude": "-90.06171241725919"
    }
  },
  {
    "service_request": "2023-1003746",
    "request_type": "Roads/Drainage",
    "request_reason": "Catch Basin - Broken/Damage",
    "date_created": "2023-05-29T21:22:26.000",
    "date_modified": "2023-05-29T21:22:26.000",
    "request_status": "Pending",
    "responsible_agency": "Department of Public Works",
    "final_address": "1935 Valence St",
    "address_councildis": "B",
    "status": "Pending",
    "rowid": "1003746",
    "final_x": "3669656.69108",
    "final_y": "522110.792122",
    "longitude": "-90.10578563023937",
    "latitude": "29.929977692493143",
    "geocoded_column": {
      "latitude": "29.929977692493143",
      "longitude": "-90.10578563023937"
    }
  },
  {
    "service_request": "2023-1003745",
    "request_type": "Trash/Recycling",
    "request_reason": "Order Recycling Cart",
    "date_created": "2023-05-29T21:20:33.000",
    "date_modified": "2023-05-29T21:20:33.000",
    "request_status": "Pending",
    "responsible_agency": "Department of Sanitation",
    "final_address": "1935 Valence St",
    "address_councildis": "B",
    "status": "Pending",
    "rowid": "1003745",
    "final_x": "3669656.69108",
    "final_y": "522110.792122",
    "longitude": "-90.10578563023937",
    "latitude": "29.929977692493143",
    "geocoded_column": {
      "latitude": "29.929977692493143",
      "longitude": "-90.10578563023937"
    }
  },
  {
    "service_request": "2023-1003744",
    "request_type": "Property Maintenance",
    "request_reason": "Property Maintenance",
    "date_created": "2023-05-29T21:19:23.000",
    "date_modified": "2023-05-29T21:19:23.000",
    "request_status": "Pending",
    "responsible_agency": "Department of Code Enforcement",
    "final_address": "4835 Arthur Dr",
    "address_councildis": "E",
    "status": "Pending",
    "rowid": "1003744",
    "final_x": "3707682.51339",
    "final_y": "556249.467802",
    "longitude": "-89.98447689454935",
    "latitude": "30.02267150935646",
    "geocoded_column": {
      "latitude": "30.02267150935646",
      "longitude": "-89.98447689454935"
    }
  },
  {
    "service_request": "2023-1003743",
    "request_type": "Property Maintenance",
    "request_reason": "Property Maintenance",
    "date_created": "2023-05-29T20:57:13.000",
    "date_modified": "2023-05-29T20:57:13.000",
    "request_status": "Pending",
    "responsible_agency": "Department of Code Enforcement",
    "final_address": "7801 Trapier Ave",
    "address_councildis": "E",
    "status": "Pending",
    "rowid": "1003743",
    "final_x": "3706400.37975",
    "final_y": "564042.783969",
    "longitude": "-89.98823903218256",
    "latitude": "30.04414150349065",
    "geocoded_column": {
      "latitude": "30.04414150349065",
      "longitude": "-89.98823903218256"
    }
  },
  {
    "service_request": "2023-1003742",
    "request_type": "Property Maintenance",
    "request_reason": "Property Maintenance",
    "date_created": "2023-05-29T20:49:16.000",
    "date_modified": "2023-05-29T20:49:16.000",
    "request_status": "Pending",
    "responsible_agency": "Department of Code Enforcement",
    "final_address": "4835 Arthur Dr",
    "address_councildis": "E",
    "status": "Pending",
    "rowid": "1003742",
    "final_x": "3707682.51339",
    "final_y": "556249.467802",
    "longitude": "-89.98447689454935",
    "latitude": "30.02267150935646",
    "geocoded_column": {
      "latitude": "30.02267150935646",
      "longitude": "-89.98447689454935"
    }
  },
  {
    "service_request": "2023-1003741",
    "request_type": "Trash/Recycling",
    "request_reason": "Replace Recycling Cart",
    "date_created": "2023-05-29T20:20:10.000",
    "date_modified": "2023-05-29T20:20:10.000",
    "request_status": "Pending",
    "responsible_agency": "Department of Sanitation",
    "final_address": "425 State St",
    "address_councildis": "A",
    "status": "Pending",
    "rowid": "1003741",
    "final_x": "3664378.72941",
    "final_y": "518043.569398",
    "longitude": "-90.12258301475471",
    "latitude": "29.91894852587222",
    "geocoded_column": {
      "latitude": "29.91894852587222",
      "longitude": "-90.12258301475471"
    }
  },
  {
    "service_request": "2023-1003740",
    "request_type": "Property Maintenance",
    "request_reason": "Property Maintenance",
    "date_created": "2023-05-29T20:05:57.000",
    "date_modified": "2023-05-29T20:05:57.000",
    "request_status": "Pending",
    "responsible_agency": "Department of Code Enforcement",
    "final_address": "4835 Arthur Dr",
    "address_councildis": "E",
    "status": "Pending",
    "rowid": "1003740",
    "final_x": "3707682.51339",
    "final_y": "556249.467802",
    "longitude": "-89.98447689454935",
    "latitude": "30.02267150935646",
    "geocoded_column": {
      "latitude": "30.02267150935646",
      "longitude": "-89.98447689454935"
    }
  },
  {
    "service_request": "2023-1003739",
    "request_type": "Trash/Recycling",
    "request_reason": "Request a Large Item Pick Up",
    "date_created": "2023-05-29T20:05:06.000",
    "date_modified": "2023-05-29T20:05:07.000",
    "request_status": "Pending",
    "responsible_agency": "Department of Sanitation",
    "final_address": "3816 Nashville Ave",
    "address_councildis": "A",
    "status": "Assigned to Contractor",
    "contractor": "Richards Disposal",
    "rowid": "1003739",
    "final_x": "3668432.86298",
    "final_y": "529638.164865",
    "longitude": "-90.10939524025837",
    "latitude": "29.950711533063096",
    "geocoded_column": {
      "latitude": "29.950711533063096",
      "longitude": "-90.10939524025837"
    }
  },
  {
    "service_request": "2023-1003738",
    "request_type": "Trash/Recycling",
    "request_reason": "Illegal Dumping",
    "date_created": "2023-05-29T19:58:50.000",
    "date_modified": "2023-05-29T19:58:50.000",
    "request_status": "Pending",
    "responsible_agency": "Department of Sanitation",
    "final_address": "12500 Morrison Rd",
    "address_councildis": "E",
    "status": "Pending",
    "rowid": "1003738",
    "final_x": "3715819.41887",
    "final_y": "568570.992165",
    "longitude": "-89.95829926500231",
    "latitude": "30.056284835798667",
    "geocoded_column": {
      "latitude": "30.056284835798667",
      "longitude": "-89.95829926500231"
    }
  },
  {
    "service_request": "2023-1003737",
    "request_type": "Trash/Recycling",
    "request_reason": "Illegal Dumping",
    "date_created": "2023-05-29T19:57:27.000",
    "date_modified": "2023-05-29T19:57:27.000",
    "request_status": "Pending",
    "responsible_agency": "Department of Sanitation",
    "final_address": "BAUDIN ST & S NORMAN C FRANCIS PKWY",
    "address_councildis": "B",
    "status": "Pending",
    "rowid": "1003737",
    "final_x": "3672170.8",
    "final_y": "535509.28",
    "longitude": "-90.09739276551453",
    "latitude": "29.966744831526487",
    "geocoded_column": {
      "latitude": "29.966744831526487",
      "longitude": "-90.09739276551453"
    }
  },
  {
    "service_request": "2023-1003736",
    "request_type": "Trash/Recycling",
    "request_reason": "Illegal Dumping",
    "date_created": "2023-05-29T19:55:33.000",
    "date_modified": "2023-05-29T19:55:33.000",
    "request_status": "Pending",
    "responsible_agency": "Department of Sanitation",
    "final_address": "4807 Wilson Ave",
    "address_councildis": "E",
    "status": "Pending",
    "rowid": "1003736",
    "final_x": "3703042.41975",
    "final_y": "555253.923545",
    "longitude": "-89.9991750263978",
    "latitude": "30.0200835198258",
    "geocoded_column": {
      "latitude": "30.0200835198258",
      "longitude": "-89.9991750263978"
    }
  },
  {
    "service_request": "2023-1003735",
    "request_type": "Trash/Recycling",
    "request_reason": "Replace Trash Cart",
    "date_created": "2023-05-29T19:54:18.000",
    "date_modified": "2023-05-29T19:54:19.000",
    "request_status": "Pending",
    "responsible_agency": "Department of Sanitation",
    "final_address": "914 Delachaise St",
    "address_councildis": "B",
    "status": "Assigned to Contractor",
    "contractor": "Richards Disposal",
    "rowid": "1003735",
    "final_x": "3674829.93723",
    "final_y": "518882.833271",
    "longitude": "-90.08956514611516",
    "latitude": "29.92094844188893",
    "geocoded_column": {
      "latitude": "29.92094844188893",
      "longitude": "-90.08956514611516"
    }
  },
  {
    "service_request": "2023-1003734",
    "request_type": "Traffic Signals/Signs/Striping/Streetlights",
    "request_reason": "Traffic Signal Malfunctioning/Damaged",
    "date_created": "2023-05-29T19:47:31.000",
    "date_modified": "2023-05-29T19:47:32.000",
    "request_status": "Pending",
    "responsible_agency": "Department of Public Works",
    "final_address": "ST ROCH AVE & N ROBERTSON ST",
    "address_councildis": "C",
    "status": "Pending",
    "rowid": "1003734",
    "final_x": "3686336.8",
    "final_y": "537892.38",
    "longitude": "-90.05257257290373",
    "latitude": "29.972869776656633",
    "geocoded_column": {
      "latitude": "29.972869776656633",
      "longitude": "-90.05257257290373"
    }
  },
  {
    "service_request": "2023-1003733",
    "request_type": "Trash/Recycling",
    "request_reason": "Request a Large Item Pick Up",
    "date_created": "2023-05-29T19:31:30.000",
    "date_modified": "2023-05-29T19:31:30.000",
    "request_status": "Pending",
    "responsible_agency": "Department of Sanitation",
    "final_address": "3102 Prytania St, New Orleans, Louisiana, 70115",
    "address_councildis": "B",
    "status": "Assigned to Contractor",
    "contractor": "Richards Disposal",
    "rowid": "1003733",
    "final_x": "3675254.62344",
    "final_y": "521383.729657",
    "longitude": "-90.08813881553748",
    "latitude": "29.927812418378046",
    "geocoded_column": {
      "latitude": "29.927812418378046",
      "longitude": "-90.08813881553748"
    }
  },
  {
    "service_request": "2023-1003732",
    "request_type": "Trash/Recycling",
    "request_reason": "Illegal Dumping",
    "date_created": "2023-05-29T19:27:05.000",
    "date_modified": "2023-05-29T19:27:05.000",
    "request_status": "Pending",
    "responsible_agency": "Department of Sanitation",
    "final_address": "3310 Socrates St",
    "address_councildis": "C",
    "status": "Pending",
    "rowid": "1003732",
    "final_x": "3696446.20631",
    "final_y": "526280.757246",
    "longitude": "-90.02106529830823",
    "latitude": "29.940627327557547",
    "geocoded_column": {
      "latitude": "29.940627327557547",
      "longitude": "-90.02106529830823"
    }
  },
  {
    "service_request": "2023-1003731",
    "request_type": "Trash/Recycling",
    "request_reason": "Order Trash Cart",
    "date_created": "2023-05-29T19:25:58.000",
    "date_modified": "2023-05-29T19:25:58.000",
    "request_status": "Pending",
    "responsible_agency": "Department of Sanitation",
    "final_address": "810 Sumner St",
    "address_councildis": "C",
    "status": "Assigned to Contractor",
    "contractor": "Richards Disposal",
    "rowid": "1003731",
    "final_x": "3691207.81948",
    "final_y": "528462.17312",
    "longitude": "-90.03752582781847",
    "latitude": "29.946789392630578",
    "geocoded_column": {
      "latitude": "29.946789392630578",
      "longitude": "-90.03752582781847"
    }
  },
  {
    "service_request": "2023-1003730",
    "request_type": "Abandoned Vehicles",
    "request_reason": "Abandoned/Junk Vehicles",
    "date_created": "2023-05-29T19:14:06.000",
    "date_modified": "2023-05-29T19:14:06.000",
    "request_status": "Pending",
    "responsible_agency": "Department of Public Works",
    "final_address": "2400 BLK Peete St",
    "address_councildis": "B",
    "status": "Pending",
    "rowid": "1003730",
    "final_x": "3674004.54205",
    "final_y": "524965.354713",
    "longitude": "-90.09196254408077",
    "latitude": "29.937698019883136",
    "geocoded_column": {
      "latitude": "29.937698019883136",
      "longitude": "-90.09196254408077"
    }
  },
  {
    "service_request": "2023-1003729",
    "request_type": "Traffic Signals/Signs/Striping/Streetlights",
    "request_reason": "Additional signage",
    "date_created": "2023-05-29T19:10:47.000",
    "date_modified": "2023-05-29T19:10:47.000",
    "request_status": "Pending",
    "responsible_agency": "Department of Public Works",
    "final_address": "1600 BLK Independence St",
    "address_councildis": "D",
    "status": "Pending",
    "rowid": "1003729",
    "final_x": "3691466.32996",
    "final_y": "537571.86362",
    "longitude": "-90.03638406243601",
    "latitude": "29.971829821089386",
    "geocoded_column": {
      "latitude": "29.971829821089386",
      "longitude": "-90.03638406243601"
    }
  },
  {
    "service_request": "2023-1003728",
    "request_type": "Trash/Recycling",
    "request_reason": "Request a Large Item Pick Up",
    "date_created": "2023-05-29T18:36:32.000",
    "date_modified": "2023-05-29T18:36:33.000",
    "request_status": "Pending",
    "responsible_agency": "Department of Sanitation",
    "final_address": "1469 N Prieur St",
    "address_councildis": "D",
    "status": "Assigned to Contractor",
    "contractor": "IV Waste",
    "rowid": "1003728",
    "final_x": "3680728.66274",
    "final_y": "537758.062472",
    "longitude": "-90.0702888022154",
    "latitude": "29.972671619696584",
    "geocoded_column": {
      "latitude": "29.972671619696584",
      "longitude": "-90.0702888022154"
    }
  },
  {
    "service_request": "2023-1003727",
    "request_type": "Trash/Recycling",
    "request_reason": "Order Recycling Cart",
    "date_created": "2023-05-29T18:36:07.000",
    "date_modified": "2023-05-29T18:36:07.000",
    "request_status": "Pending",
    "responsible_agency": "Department of Sanitation",
    "final_address": "4814 Carondelet St",
    "address_councildis": "B",
    "status": "Pending",
    "rowid": "1003727",
    "final_x": "3669197.38612",
    "final_y": "520978.964665",
    "longitude": "-90.10727381483886",
    "latitude": "29.926879049888193",
    "geocoded_column": {
      "latitude": "29.926879049888193",
      "longitude": "-90.10727381483886"
    }
  },
  {
    "service_request": "2023-1003726",
    "request_type": "Abandoned Vehicles",
    "request_reason": "Abandoned/Junk Vehicles",
    "date_created": "2023-05-29T18:27:58.000",
    "date_modified": "2023-05-29T18:27:58.000",
    "request_status": "Pending",
    "responsible_agency": "Department of Public Works",
    "final_address": "900 Fern St",
    "address_councildis": "A",
    "status": "Pending",
    "rowid": "1003726",
    "final_x": "3661824.45798",
    "final_y": "527138.327743",
    "longitude": "-90.13034417980818",
    "latitude": "29.94403022045248",
    "geocoded_column": {
      "latitude": "29.94403022045248",
      "longitude": "-90.13034417980818"
    }
  },
  {
    "service_request": "2023-1003725",
    "request_type": "Property Maintenance",
    "request_reason": "Property Maintenance",
    "date_created": "2023-05-29T18:25:48.000",
    "date_modified": "2023-05-29T18:25:48.000",
    "request_status": "Pending",
    "responsible_agency": "Department of Code Enforcement",
    "final_address": "5937 Vicksburg St",
    "address_councildis": "A",
    "status": "Pending",
    "rowid": "1003725",
    "final_x": "3668928.68097",
    "final_y": "546907.149713",
    "longitude": "-90.10724624250403",
    "latitude": "29.998180863463748",
    "geocoded_column": {
      "latitude": "29.998180863463748",
      "longitude": "-90.10724624250403"
    }
  },
  {
    "service_request": "2023-1003724",
    "request_type": "Trash/Recycling",
    "request_reason": "Request a Large Item Pick Up",
    "date_created": "2023-05-29T18:16:15.000",
    "date_modified": "2023-05-29T18:16:16.000",
    "request_status": "Pending",
    "responsible_agency": "Department of Sanitation",
    "final_address": "1715 Burdette St",
    "address_councildis": "A",
    "status": "Assigned to Contractor",
    "contractor": "Richards Disposal",
    "rowid": "1003724",
    "final_x": "3664100.68583",
    "final_y": "528981.02784",
    "longitude": "-90.1230960164797",
    "latitude": "29.9490311467467",
    "geocoded_column": {
      "latitude": "29.9490311467467",
      "longitude": "-90.1230960164797"
    }
  },
  {
    "service_request": "2023-1003723",
    "request_type": "Roads/Drainage",
    "request_reason": "Catch Basin - Broken/Damage",
    "date_created": "2023-05-29T18:15:13.000",
    "date_modified": "2023-05-29T18:15:13.000",
    "request_status": "Pending",
    "responsible_agency": "Department of Public Works",
    "final_address": "7407 St Charles Ave",
    "address_councildis": "A",
    "status": "Pending",
    "rowid": "1003723",
    "final_x": "3662511.61133",
    "final_y": "525187.071357",
    "longitude": "-90.12823942795234",
    "latitude": "29.938645031628575",
    "geocoded_column": {
      "latitude": "29.938645031628575",
      "longitude": "-90.12823942795234"
    }
  },
  {
    "service_request": "2023-1003722",
    "request_type": "Roads/Drainage",
    "request_reason": "Ditch Issue",
    "date_created": "2023-05-29T18:06:42.000",
    "date_modified": "2023-05-29T18:06:42.000",
    "request_status": "Pending",
    "responsible_agency": "Department of Public Works",
    "final_address": "3017 Wabash St",
    "address_councildis": "C",
    "status": "Pending",
    "rowid": "1003722",
    "final_x": "3694734.51933",
    "final_y": "520584.214392",
    "longitude": "-90.02667444952127",
    "latitude": "29.925017572933786",
    "geocoded_column": {
      "latitude": "29.925017572933786",
      "longitude": "-90.02667444952127"
    }
  },
  {
    "service_request": "2023-1003721",
    "request_type": "Trash/Recycling",
    "request_reason": "Request a Large Item Pick Up",
    "date_created": "2023-05-29T17:48:19.000",
    "date_modified": "2023-05-29T17:48:19.000",
    "request_status": "Pending",
    "responsible_agency": "Department of Sanitation",
    "final_address": "615 Henry Clay Ave",
    "address_councildis": "A",
    "status": "Assigned to Contractor",
    "contractor": "Richards Disposal",
    "rowid": "1003721",
    "final_x": "3663642.46701",
    "final_y": "519055.358647",
    "longitude": "-90.12487334355423",
    "latitude": "29.92175200226555",
    "geocoded_column": {
      "latitude": "29.92175200226555",
      "longitude": "-90.12487334355423"
    }
  },
  {
    "service_request": "2023-1003720",
    "request_type": "Trash/Recycling",
    "request_reason": "Request a Large Item Pick Up",
    "date_created": "2023-05-29T17:45:22.000",
    "date_modified": "2023-05-29T17:45:22.000",
    "request_status": "Pending",
    "responsible_agency": "Department of Sanitation",
    "final_address": "4532 Marais St",
    "address_councildis": "D",
    "status": "Assigned to Contractor",
    "contractor": "IV Waste",
    "rowid": "1003720",
    "final_x": "3693664.95325",
    "final_y": "535127.238086",
    "longitude": "-90.02952834458507",
    "latitude": "29.96503935715986",
    "geocoded_column": {
      "latitude": "29.96503935715986",
      "longitude": "-90.02952834458507"
    }
  },
  {
    "service_request": "2023-1003719",
    "request_type": "Traffic Signals/Signs/Striping/Streetlights",
    "request_reason": "Request for Stop Sign",
    "date_created": "2023-05-29T17:39:52.000",
    "date_modified": "2023-05-29T17:39:52.000",
    "request_status": "Pending",
    "responsible_agency": "Department of Public Works",
    "final_address": "REPUBLIC ST & HUMANITY ST",
    "address_councildis": "D",
    "status": "Pending",
    "rowid": "1003719",
    "final_x": "3680546.6",
    "final_y": "544465.68",
    "longitude": "-90.07063034554373",
    "latitude": "29.99112074579677",
    "geocoded_column": {
      "latitude": "29.99112074579677",
      "longitude": "-90.07063034554373"
    }
  },
  {
    "service_request": "2023-1003718",
    "request_type": "Trash/Recycling",
    "request_reason": "Return Recycling Cart",
    "date_created": "2023-05-29T17:27:49.000",
    "date_modified": "2023-05-29T17:27:49.000",
    "request_status": "Pending",
    "responsible_agency": "Department of Sanitation",
    "final_address": "1450 N Roman St",
    "address_councildis": "D",
    "status": "Pending",
    "rowid": "1003718",
    "final_x": "3681016.49608",
    "final_y": "537392.719496",
    "longitude": "-90.06939249964725",
    "latitude": "29.971658325517353",
    "geocoded_column": {
      "latitude": "29.971658325517353",
      "longitude": "-90.06939249964725"
    }
  },
  {
    "service_request": "2023-1003717",
    "request_type": "Trash/Recycling",
    "request_reason": "Request a Large Item Pick Up",
    "date_created": "2023-05-29T17:26:03.000",
    "date_modified": "2023-05-29T17:26:04.000",
    "request_status": "Pending",
    "responsible_agency": "Department of Sanitation",
    "final_address": "1450 N Roman St",
    "address_councildis": "D",
    "status": "Assigned to Contractor",
    "contractor": "IV Waste",
    "rowid": "1003717",
    "final_x": "3681016.49608",
    "final_y": "537392.719496",
    "longitude": "-90.06939249964725",
    "latitude": "29.971658325517353",
    "geocoded_column": {
      "latitude": "29.971658325517353",
      "longitude": "-90.06939249964725"
    }
  },
  {
    "service_request": "2023-1003716",
    "request_type": "Property Maintenance",
    "request_reason": "Property Maintenance",
    "date_created": "2023-05-29T17:16:20.000",
    "date_modified": "2023-05-29T17:16:20.000",
    "request_status": "Pending",
    "responsible_agency": "Department of Code Enforcement",
    "final_address": "4774 Flake Ave",
    "address_councildis": "E",
    "status": "Pending",
    "rowid": "1003716",
    "final_x": "3705999.94871",
    "final_y": "555703.811097",
    "longitude": "-89.98981357797443",
    "latitude": "30.02122551876965",
    "geocoded_column": {
      "latitude": "30.02122551876965",
      "longitude": "-89.98981357797443"
    }
  },
  {
    "service_request": "2023-1003715",
    "request_type": "Trash/Recycling",
    "request_reason": "Illegal Dumping",
    "date_created": "2023-05-29T17:07:13.000",
    "date_modified": "2023-05-29T17:07:13.000",
    "request_status": "Pending",
    "responsible_agency": "Department of Sanitation",
    "final_address": "600 BLK Washington Ave",
    "address_councildis": "B",
    "status": "Pending",
    "rowid": "1003715",
    "final_x": "3677955.98788",
    "final_y": "519459.641643",
    "longitude": "-90.07967769567368",
    "latitude": "29.92244080571123",
    "geocoded_column": {
      "latitude": "29.92244080571123",
      "longitude": "-90.07967769567368"
    }
  },
  {
    "service_request": "2023-1003714",
    "request_type": "Trash/Recycling",
    "request_reason": "Missed Trash Pick-Up",
    "date_created": "2023-05-29T17:05:52.000",
    "date_modified": "2023-05-29T17:21:49.000",
    "case_close_date": "2023-05-29T12:21:49.000",
    "request_status": "Closed",
    "responsible_agency": "Department of Sanitation",
    "final_address": "6900 Edgefield Dr",
    "address_councildis": "E",
    "status": "Assigned to Contractor",
    "contractor": "Waste Pro",
    "contractor_action": "Trash Cart Not Curbside",
    "rowid": "1003714",
    "final_x": "3719216.80876",
    "final_y": "568413.605221",
    "longitude": "-89.94756683869356",
    "latitude": "30.055739549275785",
    "geocoded_column": {
      "latitude": "30.055739549275785",
      "longitude": "-89.94756683869356"
    }
  },
  {
    "service_request": "2023-1003713",
    "request_type": "Traffic Signals/Signs/Striping/Streetlights",
    "request_reason": "Street Light Outage/Malfunction",
    "date_created": "2023-05-29T16:51:43.000",
    "date_modified": "2023-05-29T16:51:44.000",
    "request_status": "Pending",
    "responsible_agency": "Department of Public Works",
    "final_address": "1501 St Roch Ave",
    "address_councildis": "C",
    "status": "Assigned to Contractor",
    "contractor": "Legacy Professional Services",
    "rowid": "1003713",
    "final_x": "3686454.49647",
    "final_y": "537936.210889",
    "longitude": "-90.05219931823717",
    "latitude": "29.97298667842607",
    "geocoded_column": {
      "latitude": "29.97298667842607",
      "longitude": "-90.05219931823717"
    }
  },
  {
    "service_request": "2023-1003712",
    "request_type": "Trash/Recycling",
    "request_reason": "Replace Trash Cart",
    "date_created": "2023-05-29T16:48:23.000",
    "date_modified": "2023-05-29T16:48:24.000",
    "request_status": "Pending",
    "responsible_agency": "Department of Sanitation",
    "final_address": "921 Pine St",
    "address_councildis": "A",
    "status": "Assigned to Contractor",
    "contractor": "Richards Disposal",
    "rowid": "1003712",
    "final_x": "3663459.79795",
    "final_y": "525909.695037",
    "longitude": "-90.12522183366815",
    "latitude": "29.940604562377427",
    "geocoded_column": {
      "latitude": "29.940604562377427",
      "longitude": "-90.12522183366815"
    }
  },
  {
    "service_request": "2023-1003711",
    "request_type": "Trash/Recycling",
    "request_reason": "Replace Trash Cart",
    "date_created": "2023-05-29T16:47:39.000",
    "date_modified": "2023-05-29T16:47:39.000",
    "request_status": "Pending",
    "responsible_agency": "Department of Sanitation",
    "final_address": "3419 River Oaks Dr",
    "address_councildis": "C",
    "status": "Assigned to Contractor",
    "contractor": "Richards Disposal",
    "rowid": "1003711",
    "final_x": "3701354.91409",
    "final_y": "518538.333431",
    "longitude": "-90.00585097229646",
    "latitude": "29.919182855430797",
    "geocoded_column": {
      "latitude": "29.919182855430797",
      "longitude": "-90.00585097229646"
    }
  },
  {
    "service_request": "2023-1003710",
    "request_type": "Trash/Recycling",
    "request_reason": "Replace Trash Cart",
    "date_created": "2023-05-29T16:22:16.000",
    "date_modified": "2023-05-29T16:22:17.000",
    "request_status": "Pending",
    "responsible_agency": "Department of Sanitation",
    "final_address": "8722 Oleander St",
    "address_councildis": "A",
    "status": "Assigned to Contractor",
    "contractor": "Richards Disposal",
    "rowid": "1003710",
    "final_x": "3665028.85447",
    "final_y": "535200.212038",
    "longitude": "-90.11995743090111",
    "latitude": "29.966104884927326",
    "geocoded_column": {
      "latitude": "29.966104884927326",
      "longitude": "-90.11995743090111"
    }
  },
  {
    "service_request": "2023-1003709",
    "request_type": "Abandoned Vehicles",
    "request_reason": "Abandoned/Junk Vehicles",
    "date_created": "2023-05-29T16:21:17.000",
    "date_modified": "2023-05-29T16:21:17.000",
    "request_status": "Pending",
    "responsible_agency": "Department of Public Works",
    "final_address": "900 Fern St",
    "address_councildis": "A",
    "status": "Pending",
    "rowid": "1003709",
    "final_x": "3661824.45798",
    "final_y": "527138.327743",
    "longitude": "-90.13034417980818",
    "latitude": "29.94403022045248",
    "geocoded_column": {
      "latitude": "29.94403022045248",
      "longitude": "-90.13034417980818"
    }
  },
  {
    "service_request": "2023-1003708",
    "request_type": "Trash/Recycling",
    "request_reason": "Request a Large Item Pick Up",
    "date_created": "2023-05-29T16:16:54.000",
    "date_modified": "2023-05-29T16:16:55.000",
    "request_status": "Pending",
    "responsible_agency": "Department of Sanitation",
    "final_address": "305 Olivier St",
    "address_councildis": "C",
    "status": "Assigned to Contractor",
    "contractor": "Richards Disposal",
    "rowid": "1003708",
    "final_x": "3687193.09122",
    "final_y": "530704.153538",
    "longitude": "-90.05012248321836",
    "latitude": "29.953078301394314",
    "geocoded_column": {
      "latitude": "29.953078301394314",
      "longitude": "-90.05012248321836"
    }
  },
  {
    "service_request": "2023-1003707",
    "request_type": "Trash/Recycling",
    "request_reason": "Request a Large Item Pick Up",
    "date_created": "2023-05-29T16:13:43.000",
    "date_modified": "2023-05-29T16:13:43.000",
    "request_status": "Pending",
    "responsible_agency": "Department of Sanitation",
    "final_address": "325 S Genois St",
    "address_councildis": "B",
    "status": "Assigned to Contractor",
    "contractor": "Richards Disposal",
    "rowid": "1003707",
    "final_x": "3671917.72193",
    "final_y": "536445.565511",
    "longitude": "-90.09816011369082",
    "latitude": "29.969326805607377",
    "geocoded_column": {
      "latitude": "29.969326805607377",
      "longitude": "-90.09816011369082"
    }
  },
  {
    "service_request": "2023-1003706",
    "request_type": "Property Maintenance",
    "request_reason": "Property Maintenance",
    "date_created": "2023-05-29T16:11:45.000",
    "date_modified": "2023-05-29T16:11:45.000",
    "request_status": "Pending",
    "responsible_agency": "Department of Code Enforcement",
    "final_address": "7640 Pineridge St",
    "address_councildis": "E",
    "status": "Pending",
    "rowid": "1003706",
    "final_x": "3718840.63621",
    "final_y": "572076.896808",
    "longitude": "-89.9486159071268",
    "latitude": "30.065824577679592",
    "geocoded_column": {
      "latitude": "30.065824577679592",
      "longitude": "-89.9486159071268"
    }
  },
  {
    "service_request": "2023-1003705",
    "request_type": "Trash/Recycling",
    "request_reason": "Request a Large Item Pick Up",
    "date_created": "2023-05-29T16:05:50.000",
    "date_modified": "2023-05-29T16:05:51.000",
    "request_status": "Pending",
    "responsible_agency": "Department of Sanitation",
    "final_address": "4500 S Galvez St",
    "address_councildis": "B",
    "status": "Assigned to Contractor",
    "contractor": "Richards Disposal",
    "rowid": "1003705",
    "final_x": "3669740.6114",
    "final_y": "527376.406143",
    "longitude": "-90.10534256278521",
    "latitude": "29.944453960378453",
    "geocoded_column": {
      "latitude": "29.944453960378453",
      "longitude": "-90.10534256278521"
    }
  },
  {
    "service_request": "2023-1003704",
    "request_type": "Trash/Recycling",
    "request_reason": "Start Trash Service",
    "date_created": "2023-05-29T16:03:43.000",
    "date_modified": "2023-05-29T16:03:43.000",
    "request_status": "Pending",
    "responsible_agency": "Department of Sanitation",
    "final_address": "4500 S Galvez St",
    "address_councildis": "B",
    "status": "Assigned to Contractor",
    "contractor": "Richards Disposal",
    "rowid": "1003704",
    "final_x": "3669740.6114",
    "final_y": "527376.406143",
    "longitude": "-90.10534256278521",
    "latitude": "29.944453960378453",
    "geocoded_column": {
      "latitude": "29.944453960378453",
      "longitude": "-90.10534256278521"
    }
  },
  {
    "service_request": "2023-1003703",
    "request_type": "Abandoned Vehicles",
    "request_reason": "Abandoned/Junk Vehicles",
    "date_created": "2023-05-29T16:03:31.000",
    "date_modified": "2023-05-29T16:03:31.000",
    "request_status": "Pending",
    "responsible_agency": "Department of Public Works",
    "final_address": "7640 Pineridge St",
    "address_councildis": "E",
    "status": "Pending",
    "rowid": "1003703",
    "final_x": "3718840.63621",
    "final_y": "572076.896808",
    "longitude": "-89.9486159071268",
    "latitude": "30.065824577679592",
    "geocoded_column": {
      "latitude": "30.065824577679592",
      "longitude": "-89.9486159071268"
    }
  },
  {
    "service_request": "2023-1003702",
    "request_type": "Traffic Signals/Signs/Striping/Streetlights",
    "request_reason": "Street Light Outage/Malfunction",
    "date_created": "2023-05-29T16:01:14.000",
    "date_modified": "2023-05-29T16:01:15.000",
    "request_status": "Pending",
    "responsible_agency": "Department of Public Works",
    "final_address": "4130 Iberville St",
    "address_councildis": "A",
    "status": "Assigned to Contractor",
    "contractor": "Legacy Professional Services",
    "rowid": "1003702",
    "final_x": "3671091.5835",
    "final_y": "538828.983049",
    "longitude": "-90.10068815684232",
    "latitude": "29.975904861345192",
    "geocoded_column": {
      "latitude": "29.975904861345192",
      "longitude": "-90.10068815684232"
    }
  },
  {
    "service_request": "2023-1003701",
    "request_type": "Trash/Recycling",
    "request_reason": "Order Recycling Cart",
    "date_created": "2023-05-29T16:00:22.000",
    "date_modified": "2023-05-29T16:00:22.000",
    "request_status": "Pending",
    "responsible_agency": "Department of Sanitation",
    "final_address": "2515 Calhoun St",
    "address_councildis": "A",
    "status": "Pending",
    "rowid": "1003701",
    "final_x": "3666276.50311",
    "final_y": "526129.388542",
    "longitude": "-90.11632161887643",
    "latitude": "29.941126689223726",
    "geocoded_column": {
      "latitude": "29.941126689223726",
      "longitude": "-90.11632161887643"
    }
  },
  {
    "service_request": "2023-1003700",
    "request_type": "Trash/Recycling",
    "request_reason": "Replace Trash Cart",
    "date_created": "2023-05-29T15:55:28.000",
    "date_modified": "2023-05-29T15:55:28.000",
    "request_status": "Pending",
    "responsible_agency": "Department of Sanitation",
    "final_address": "5424 Camp St",
    "address_councildis": "A",
    "status": "Assigned to Contractor",
    "contractor": "Richards Disposal",
    "rowid": "1003700",
    "final_x": "3666621.80237",
    "final_y": "519118.777271",
    "longitude": "-90.11546669234053",
    "latitude": "29.921839648192975",
    "geocoded_column": {
      "latitude": "29.921839648192975",
      "longitude": "-90.11546669234053"
    }
  },
  {
    "service_request": "2023-1003699",
    "request_type": "Trash/Recycling",
    "request_reason": "Order Trash Cart",
    "date_created": "2023-05-29T15:15:21.000",
    "date_modified": "2023-05-29T15:15:22.000",
    "request_status": "Pending",
    "responsible_agency": "Department of Sanitation",
    "final_address": "2307 Ursulines Ave",
    "address_councildis": "D",
    "status": "Assigned to Contractor",
    "contractor": "Richards Disposal",
    "rowid": "1003699",
    "final_x": "3678954.97339",
    "final_y": "537206.29076",
    "longitude": "-90.075909561947",
    "latitude": "29.971208076653554",
    "geocoded_column": {
      "latitude": "29.971208076653554",
      "longitude": "-90.075909561947"
    }
  },
  {
    "service_request": "2023-1003698",
    "request_type": "Property Maintenance",
    "request_reason": "Property Maintenance",
    "date_created": "2023-05-29T15:03:01.000",
    "date_modified": "2023-05-29T15:03:01.000",
    "request_status": "Pending",
    "responsible_agency": "Department of Code Enforcement",
    "final_address": "2710 Touro St",
    "address_councildis": "D",
    "status": "Pending",
    "rowid": "1003698",
    "final_x": "3683687.63919",
    "final_y": "542555.192717",
    "longitude": "-90.06077556805384",
    "latitude": "29.985772032113747",
    "geocoded_column": {
      "latitude": "29.985772032113747",
      "longitude": "-90.06077556805384"
    }
  },
  {
    "service_request": "2023-1003697",
    "request_type": "Trash/Recycling",
    "request_reason": "Order Recycling Cart",
    "date_created": "2023-05-29T15:00:07.000",
    "date_modified": "2023-05-29T15:00:07.000",
    "request_status": "Pending",
    "responsible_agency": "Department of Sanitation",
    "final_address": "2101 Duels St",
    "address_councildis": "D",
    "status": "Pending",
    "rowid": "1003697",
    "final_x": "3683770.40386",
    "final_y": "542541.302093",
    "longitude": "-90.06051463545137",
    "latitude": "29.985731310131087",
    "geocoded_column": {
      "latitude": "29.985731310131087",
      "longitude": "-90.06051463545137"
    }
  },
  {
    "service_request": "2023-1003696",
    "request_type": "Trash/Recycling",
    "request_reason": "Request a Large Item Pick Up",
    "date_created": "2023-05-29T14:50:46.000",
    "date_modified": "2023-05-29T14:50:46.000",
    "request_status": "Pending",
    "responsible_agency": "Department of Sanitation",
    "final_address": "2611 Comet St",
    "address_councildis": "C",
    "status": "Assigned to Contractor",
    "contractor": "Richards Disposal",
    "rowid": "1003696",
    "final_x": "3699789.75524",
    "final_y": "521343.296697",
    "longitude": "-90.01068915134397",
    "latitude": "29.92694530923933",
    "geocoded_column": {
      "latitude": "29.92694530923933",
      "longitude": "-90.01068915134397"
    }
  },
  {
    "service_request": "2023-1003695",
    "request_type": "Trash/Recycling",
    "request_reason": "Request a Large Item Pick Up",
    "date_created": "2023-05-29T14:45:30.000",
    "date_modified": "2023-05-29T14:45:30.000",
    "request_status": "Pending",
    "responsible_agency": "Department of Sanitation",
    "final_address": "Baudin St, New Orleans, Louisiana, 70119",
    "address_councildis": "A",
    "status": "Assigned to Contractor",
    "contractor": "Richards Disposal",
    "rowid": "1003695",
    "final_x": "3670350.77102",
    "final_y": "536935.629576",
    "longitude": "-90.10309206275873",
    "latitude": "29.970720669211495",
    "geocoded_column": {
      "latitude": "29.970720669211495",
      "longitude": "-90.10309206275873"
    }
  },
  {
    "service_request": "2023-1003694",
    "request_type": "Trash/Recycling",
    "request_reason": "Request a Large Item Pick Up",
    "date_created": "2023-05-29T14:45:01.000",
    "date_modified": "2023-05-29T14:45:01.000",
    "request_status": "Pending",
    "responsible_agency": "Department of Sanitation",
    "final_address": "7824 Michigan St",
    "address_councildis": "E",
    "status": "Assigned to Contractor",
    "contractor": "Waste Pro",
    "rowid": "1003694",
    "final_x": "3711273.24274",
    "final_y": "567211.6465",
    "longitude": "-89.97271983982452",
    "latitude": "30.052696410095237",
    "geocoded_column": {
      "latitude": "30.052696410095237",
      "longitude": "-89.97271983982452"
    }
  },
  {
    "service_request": "2023-1003693",
    "request_type": "Property Maintenance",
    "request_reason": "Property Maintenance",
    "date_created": "2023-05-29T14:36:59.000",
    "date_modified": "2023-05-29T14:36:59.000",
    "request_status": "Pending",
    "responsible_agency": "Department of Code Enforcement",
    "final_address": "232 28Th St",
    "address_councildis": "A",
    "status": "Pending",
    "rowid": "1003693",
    "final_x": "3665528.8752",
    "final_y": "550170.05538",
    "longitude": "-90.11787690485842",
    "latitude": "30.007252319739372",
    "geocoded_column": {
      "latitude": "30.007252319739372",
      "longitude": "-90.11787690485842"
    }
  },
  {
    "service_request": "2023-1003692",
    "request_type": "Trash/Recycling",
    "request_reason": "Replace Trash Cart",
    "date_created": "2023-05-29T14:35:34.000",
    "date_modified": "2023-05-29T14:35:35.000",
    "request_status": "Pending",
    "responsible_agency": "Department of Sanitation",
    "final_address": "2616 N Villere St",
    "address_councildis": "C",
    "status": "Assigned to Contractor",
    "contractor": "IV Waste",
    "rowid": "1003692",
    "final_x": "3687539.6838",
    "final_y": "537505.851272",
    "longitude": "-90.04878733232448",
    "latitude": "29.97176993372525",
    "geocoded_column": {
      "latitude": "29.97176993372525",
      "longitude": "-90.04878733232448"
    }
  },
  {
    "service_request": "2023-1003691",
    "request_type": "Trash/Recycling",
    "request_reason": "Request a Large Item Pick Up",
    "date_created": "2023-05-29T14:25:15.000",
    "date_modified": "2023-05-29T14:25:15.000",
    "request_status": "Pending",
    "responsible_agency": "Department of Sanitation",
    "final_address": "7231 Chadbourne Dr",
    "address_councildis": "E",
    "status": "Assigned to Contractor",
    "contractor": "Waste Pro",
    "rowid": "1003691",
    "final_x": "3700973.11044",
    "final_y": "557540.181275",
    "longitude": "-90.00562964358878",
    "latitude": "30.026435938521832",
    "geocoded_column": {
      "latitude": "30.026435938521832",
      "longitude": "-90.00562964358878"
    }
  },
  {
    "service_request": "2023-1003690",
    "request_type": "Trash/Recycling",
    "request_reason": "Request a Large Item Pick Up",
    "date_created": "2023-05-29T14:23:12.000",
    "date_modified": "2023-05-29T14:23:13.000",
    "request_status": "Pending",
    "responsible_agency": "Department of Sanitation",
    "final_address": "7642 Devine Ave",
    "address_councildis": "E",
    "status": "Assigned to Contractor",
    "contractor": "Waste Pro",
    "rowid": "1003690",
    "final_x": "3705555.84651",
    "final_y": "563097.905184",
    "longitude": "-89.99094309763407",
    "latitude": "30.041570693965774",
    "geocoded_column": {
      "latitude": "30.041570693965774",
      "longitude": "-89.99094309763407"
    }
  },
  {
    "service_request": "2023-1003689",
    "request_type": "Trash/Recycling",
    "request_reason": "Start Trash Service",
    "date_created": "2023-05-29T14:22:16.000",
    "date_modified": "2023-05-29T14:22:16.000",
    "request_status": "Pending",
    "responsible_agency": "Department of Sanitation",
    "final_address": "3901 Constance St",
    "address_councildis": "B",
    "status": "Assigned to Contractor",
    "contractor": "Richards Disposal",
    "rowid": "1003689",
    "final_x": "3673112.46132",
    "final_y": "518652.151863",
    "longitude": "-90.09499431913332",
    "latitude": "29.920365291021263",
    "geocoded_column": {
      "latitude": "29.920365291021263",
      "longitude": "-90.09499431913332"
    }
  },
  {
    "service_request": "2023-1003688",
    "request_type": "Trash/Recycling",
    "request_reason": "Return Recycling Cart",
    "date_created": "2023-05-29T14:22:06.000",
    "date_modified": "2023-05-29T14:22:07.000",
    "request_status": "Pending",
    "responsible_agency": "Department of Sanitation",
    "final_address": "729 S Salcedo St",
    "address_councildis": "B",
    "status": "Pending",
    "rowid": "1003688",
    "final_x": "3672346.32219",
    "final_y": "533912.451333",
    "longitude": "-90.0968928810933",
    "latitude": "29.962348880715187",
    "geocoded_column": {
      "latitude": "29.962348880715187",
      "longitude": "-90.0968928810933"
    }
  },
  {
    "service_request": "2023-1003687",
    "request_type": "Trash/Recycling",
    "request_reason": "Replace Trash Cart",
    "date_created": "2023-05-29T14:21:14.000",
    "date_modified": "2023-05-29T14:21:15.000",
    "request_status": "Pending",
    "responsible_agency": "Department of Sanitation",
    "final_address": "729 S Salcedo St",
    "address_councildis": "B",
    "status": "Assigned to Contractor",
    "contractor": "Richards Disposal",
    "rowid": "1003687",
    "final_x": "3672346.32219",
    "final_y": "533912.451333",
    "longitude": "-90.0968928810933",
    "latitude": "29.962348880715187",
    "geocoded_column": {
      "latitude": "29.962348880715187",
      "longitude": "-90.0968928810933"
    }
  },
  {
    "service_request": "2023-1003686",
    "request_type": "Trash/Recycling",
    "request_reason": "Request a Large Item Pick Up",
    "date_created": "2023-05-29T14:05:13.000",
    "date_modified": "2023-05-29T14:05:14.000",
    "request_status": "Pending",
    "responsible_agency": "Department of Sanitation",
    "final_address": "928 N Dupre St",
    "address_councildis": "A",
    "status": "Assigned to Contractor",
    "contractor": "Richards Disposal",
    "rowid": "1003686",
    "final_x": "3676620.36501",
    "final_y": "538242.121609",
    "longitude": "-90.08324689198383",
    "latitude": "29.974126495958878",
    "geocoded_column": {
      "latitude": "29.974126495958878",
      "longitude": "-90.08324689198383"
    }
  },
  {
    "service_request": "2023-1003685",
    "request_type": "Trash/Recycling",
    "request_reason": "Request a Large Item Pick Up",
    "date_created": "2023-05-29T14:05:06.000",
    "date_modified": "2023-05-29T14:05:07.000",
    "request_status": "Pending",
    "responsible_agency": "Department of Sanitation",
    "final_address": "2314 State St",
    "address_councildis": "A",
    "status": "Assigned to Contractor",
    "contractor": "Richards Disposal",
    "rowid": "1003685",
    "final_x": "3666556.93466",
    "final_y": "525188.014845",
    "longitude": "-90.11546783031146",
    "latitude": "29.938530020781233",
    "geocoded_column": {
      "latitude": "29.938530020781233",
      "longitude": "-90.11546783031146"
    }
  },
  {
    "service_request": "2023-1003684",
    "request_type": "Trash/Recycling",
    "request_reason": "Request a Large Item Pick Up",
    "date_created": "2023-05-29T14:00:43.000",
    "date_modified": "2023-05-29T14:00:44.000",
    "request_status": "Pending",
    "responsible_agency": "Department of Sanitation",
    "final_address": "3105 Jena St",
    "address_councildis": "B",
    "status": "Assigned to Contractor",
    "contractor": "Richards Disposal",
    "rowid": "1003684",
    "final_x": "3669948.39546",
    "final_y": "526272.78387",
    "longitude": "-90.10472388788274",
    "latitude": "29.94141323296593",
    "geocoded_column": {
      "latitude": "29.94141323296593",
      "longitude": "-90.10472388788274"
    }
  },
  {
    "service_request": "2023-1003683",
    "request_type": "Trash/Recycling",
    "request_reason": "Request a Large Item Pick Up",
    "date_created": "2023-05-29T13:56:30.000",
    "date_modified": "2023-05-29T13:56:31.000",
    "request_status": "Pending",
    "responsible_agency": "Department of Sanitation",
    "final_address": "5681 New England Dr",
    "address_councildis": "E",
    "status": "Assigned to Contractor",
    "contractor": "Waste Pro",
    "rowid": "1003683",
    "final_x": "3723701.63654",
    "final_y": "564522.241249",
    "longitude": "-89.9335415878868",
    "latitude": "30.044890020007163",
    "geocoded_column": {
      "latitude": "30.044890020007163",
      "longitude": "-89.9335415878868"
    }
  },
  {
    "service_request": "2023-1003682",
    "request_type": "Trash/Recycling",
    "request_reason": "MIssed Recycling Pick-Up",
    "date_created": "2023-05-29T13:56:17.000",
    "date_modified": "2023-05-29T17:07:18.000",
    "case_close_date": "2023-05-29T12:07:18.000",
    "request_status": "Closed",
    "responsible_agency": "Department of Sanitation",
    "final_address": "4435 Francesco Rd",
    "address_councildis": "E",
    "status": "Assigned to Contractor",
    "contractor": "Waste Pro",
    "contractor_action": "Completed",
    "rowid": "1003682",
    "final_x": "3762110.48323",
    "final_y": "572911.255401",
    "longitude": "-89.81180283302427",
    "latitude": "30.066609892641107",
    "geocoded_column": {
      "latitude": "30.066609892641107",
      "longitude": "-89.81180283302427"
    }
  },
  {
    "service_request": "2023-1003681",
    "request_type": "Trash/Recycling",
    "request_reason": "Request a Large Item Pick Up",
    "date_created": "2023-05-29T13:55:01.000",
    "date_modified": "2023-05-29T13:55:02.000",
    "request_status": "Pending",
    "responsible_agency": "Department of Sanitation",
    "final_address": "7531 Willow St",
    "address_councildis": "A",
    "status": "Assigned to Contractor",
    "contractor": "Richards Disposal",
    "rowid": "1003681",
    "final_x": "3663904.9849",
    "final_y": "527633.273023",
    "longitude": "-90.12375885384918",
    "latitude": "29.945330936440897",
    "geocoded_column": {
      "latitude": "29.945330936440897",
      "longitude": "-90.12375885384918"
    }
  },
  {
    "service_request": "2023-1003680",
    "request_type": "Trash/Recycling",
    "request_reason": "Order Trash Cart",
    "date_created": "2023-05-29T13:52:10.000",
    "date_modified": "2023-05-29T13:52:11.000",
    "request_status": "Pending",
    "responsible_agency": "Department of Sanitation",
    "final_address": "2309 Ursulines Ave",
    "address_councildis": "D",
    "status": "Assigned to Contractor",
    "contractor": "Richards Disposal",
    "rowid": "1003680",
    "final_x": "3678944.77928",
    "final_y": "537210.96308",
    "longitude": "-90.07594159442337",
    "latitude": "29.971221231525945",
    "geocoded_column": {
      "latitude": "29.971221231525945",
      "longitude": "-90.07594159442337"
    }
  },
  {
    "service_request": "2023-1003679",
    "request_type": "Trash/Recycling",
    "request_reason": "Missed Trash Pick-Up",
    "date_created": "2023-05-29T13:43:34.000",
    "date_modified": "2023-05-29T13:43:35.000",
    "request_status": "Pending",
    "responsible_agency": "Department of Sanitation",
    "final_address": "5830 Florida Ave",
    "address_councildis": "E",
    "status": "Assigned to Contractor",
    "contractor": "Waste Pro",
    "rowid": "1003679",
    "final_x": "3700476.52445",
    "final_y": "539515.88737",
    "longitude": "-90.0078576230775",
    "latitude": "29.976891684002737",
    "geocoded_column": {
      "latitude": "29.976891684002737",
      "longitude": "-90.0078576230775"
    }
  },
  {
    "service_request": "2023-1003678",
    "request_type": "Roads/Drainage",
    "request_reason": "Ditch Issue",
    "date_created": "2023-05-29T13:28:50.000",
    "date_modified": "2023-05-29T13:28:50.000",
    "request_status": "Pending",
    "responsible_agency": "Department of Public Works",
    "final_address": "619 Decatur St",
    "address_councildis": "C",
    "status": "Pending",
    "rowid": "1003678",
    "final_x": "3682989.6445",
    "final_y": "531932.363395",
    "longitude": "-90.06335213440941",
    "latitude": "29.956584228472078",
    "geocoded_column": {
      "latitude": "29.956584228472078",
      "longitude": "-90.06335213440941"
    }
  },
  {
    "service_request": "2023-1003677",
    "request_type": "Trash/Recycling",
    "request_reason": "Return Recycling Cart",
    "date_created": "2023-05-29T13:22:25.000",
    "date_modified": "2023-05-29T13:22:25.000",
    "request_status": "Pending",
    "responsible_agency": "Department of Sanitation",
    "final_address": "5209 Magazine St",
    "address_councildis": "B",
    "status": "Pending",
    "rowid": "1003677",
    "final_x": "3667955.14087",
    "final_y": "518658.602999",
    "longitude": "-90.11127338677258",
    "latitude": "29.92053527961522",
    "geocoded_column": {
      "latitude": "29.92053527961522",
      "longitude": "-90.11127338677258"
    }
  },
  {
    "service_request": "2023-1003676",
    "request_type": "Trash/Recycling",
    "request_reason": "Request a Large Item Pick Up",
    "date_created": "2023-05-29T13:21:27.000",
    "date_modified": "2023-05-29T13:21:28.000",
    "request_status": "Pending",
    "responsible_agency": "Department of Sanitation",
    "final_address": "5211 Magazine St",
    "address_councildis": "B",
    "status": "Assigned to Contractor",
    "contractor": "Richards Disposal",
    "rowid": "1003676",
    "final_x": "3667942.2242",
    "final_y": "518659.436343",
    "longitude": "-90.11131413076522",
    "latitude": "29.920537949834422",
    "geocoded_column": {
      "latitude": "29.920537949834422",
      "longitude": "-90.11131413076522"
    }
  },
  {
    "service_request": "2023-1003675",
    "request_type": "Trash/Recycling",
    "request_reason": "Request a Large Item Pick Up",
    "date_created": "2023-05-29T13:16:20.000",
    "date_modified": "2023-05-29T13:16:21.000",
    "request_status": "Pending",
    "responsible_agency": "Department of Sanitation",
    "final_address": "1131 Fourth St",
    "address_councildis": "B",
    "status": "Assigned to Contractor",
    "contractor": "Richards Disposal",
    "rowid": "1003675",
    "final_x": "3677218.12718",
    "final_y": "521233.383801",
    "longitude": "-90.08194567671121",
    "latitude": "29.927340198795825",
    "geocoded_column": {
      "latitude": "29.927340198795825",
      "longitude": "-90.08194567671121"
    }
  },
  {
    "service_request": "2023-1003674",
    "request_type": "Trash/Recycling",
    "request_reason": "Request a Large Item Pick Up",
    "date_created": "2023-05-29T13:15:55.000",
    "date_modified": "2023-05-29T13:15:56.000",
    "request_status": "Pending",
    "responsible_agency": "Department of Sanitation",
    "final_address": "1229 Desire St",
    "address_councildis": "C",
    "status": "Assigned to Contractor",
    "contractor": "IV Waste",
    "rowid": "1003674",
    "final_x": "3690366.02371",
    "final_y": "536306.137223",
    "longitude": "-90.03990411256612",
    "latitude": "29.968383717974188",
    "geocoded_column": {
      "latitude": "29.968383717974188",
      "longitude": "-90.03990411256612"
    }
  },
  {
    "service_request": "2023-1003673",
    "request_type": "Trash/Recycling",
    "request_reason": "Request a Large Item Pick Up",
    "date_created": "2023-05-29T13:14:59.000",
    "date_modified": "2023-05-29T13:21:58.000",
    "case_close_date": "2023-05-29T08:21:58.000",
    "request_status": "Closed",
    "responsible_agency": "Department of Sanitation",
    "final_address": "1229 Desire St",
    "address_councildis": "C",
    "status": "Duplicate Request",
    "contractor": "IV Waste",
    "contractor_action": "duplicate",
    "rowid": "1003673",
    "final_x": "3690366.02371",
    "final_y": "536306.137223",
    "longitude": "-90.03990411256612",
    "latitude": "29.968383717974188",
    "geocoded_column": {
      "latitude": "29.968383717974188",
      "longitude": "-90.03990411256612"
    }
  },
  {
    "service_request": "2023-1003672",
    "request_type": "Trash/Recycling",
    "request_reason": "Request a Large Item Pick Up",
    "date_created": "2023-05-29T13:13:14.000",
    "date_modified": "2023-05-29T13:13:14.000",
    "request_status": "Pending",
    "responsible_agency": "Department of Sanitation",
    "final_address": "5308 Douglass St",
    "address_councildis": "E",
    "status": "Assigned to Contractor",
    "contractor": "Waste Pro",
    "rowid": "1003672",
    "final_x": "3696306.09667",
    "final_y": "531847.039171",
    "longitude": "-90.02130642132083",
    "latitude": "29.955937071780358",
    "geocoded_column": {
      "latitude": "29.955937071780358",
      "longitude": "-90.02130642132083"
    }
  },
  {
    "service_request": "2023-1003671",
    "request_type": "Trash/Recycling",
    "request_reason": "Missed Trash Pick-Up",
    "date_created": "2023-05-29T13:07:50.000",
    "date_modified": "2023-05-29T13:07:50.000",
    "request_status": "Pending",
    "responsible_agency": "Department of Sanitation",
    "final_address": "4355 General Meyer Ave",
    "address_councildis": "C",
    "status": "Assigned to Contractor",
    "contractor": "Richards Disposal",
    "rowid": "1003671",
    "final_x": "3699953.95274",
    "final_y": "524186.90854",
    "longitude": "-90.01006716171995",
    "latitude": "29.934759046262933",
    "geocoded_column": {
      "latitude": "29.934759046262933",
      "longitude": "-90.01006716171995"
    }
  },
  {
    "service_request": "2023-1003670",
    "request_type": "Abandoned Vehicles",
    "request_reason": "Abandoned/Junk Vehicles",
    "date_created": "2023-05-29T13:04:56.000",
    "date_modified": "2023-05-29T13:04:56.000",
    "request_status": "Pending",
    "responsible_agency": "Department of Public Works",
    "final_address": "936 St Philip St",
    "address_councildis": "C",
    "status": "Pending",
    "rowid": "1003670",
    "final_x": "3682423.22869",
    "final_y": "533937.758405",
    "longitude": "-90.06507059994318",
    "latitude": "29.96211562993305",
    "geocoded_column": {
      "latitude": "29.96211562993305",
      "longitude": "-90.06507059994318"
    }
  },
  {
    "service_request": "2023-1003669",
    "request_type": "Trash/Recycling",
    "request_reason": "Illegal Dumping",
    "date_created": "2023-05-29T13:03:01.000",
    "date_modified": "2023-05-29T13:03:01.000",
    "request_status": "Pending",
    "responsible_agency": "Department of Code Enforcement",
    "final_address": "4606 Stemway Dr",
    "address_councildis": "D",
    "status": "Pending",
    "rowid": "1003669",
    "final_x": "3696915.69975",
    "final_y": "553436.735575",
    "longitude": "-90.01859930534782",
    "latitude": "30.015281665072667",
    "geocoded_column": {
      "latitude": "30.015281665072667",
      "longitude": "-90.01859930534782"
    }
  },
  {
    "service_request": "2023-1003668",
    "request_type": "Abandoned Vehicles",
    "request_reason": "Abandoned/Junk Vehicles",
    "date_created": "2023-05-29T13:02:53.000",
    "date_modified": "2023-05-29T13:02:53.000",
    "request_status": "Pending",
    "responsible_agency": "Department of Public Works",
    "final_address": "936 St Philip St",
    "address_councildis": "C",
    "status": "Pending",
    "rowid": "1003668",
    "final_x": "3682423.22869",
    "final_y": "533937.758405",
    "longitude": "-90.06507059994318",
    "latitude": "29.96211562993305",
    "geocoded_column": {
      "latitude": "29.96211562993305",
      "longitude": "-90.06507059994318"
    }
  },
  {
    "service_request": "2023-1003667",
    "request_type": "Trash/Recycling",
    "request_reason": "Order Trash Cart",
    "date_created": "2023-05-29T13:01:25.000",
    "date_modified": "2023-05-29T13:01:26.000",
    "request_status": "Pending",
    "responsible_agency": "Department of Sanitation",
    "final_address": "2633 New Orleans St",
    "address_councildis": "D",
    "status": "Assigned to Contractor",
    "contractor": "IV Waste",
    "rowid": "1003667",
    "final_x": "3681977.72924",
    "final_y": "541954.204044",
    "longitude": "-90.0661974742372",
    "latitude": "29.9841716295432",
    "geocoded_column": {
      "latitude": "29.9841716295432",
      "longitude": "-90.0661974742372"
    }
  },
  {
    "service_request": "2023-1003666",
    "request_type": "Traffic Signals/Signs/Striping/Streetlights",
    "request_reason": "Traffic Sign Missing/Damaged",
    "date_created": "2023-05-29T12:59:44.000",
    "date_modified": "2023-05-29T12:59:45.000",
    "request_status": "Pending",
    "responsible_agency": "Department of Public Works",
    "final_address": "2400 St Claude Ave",
    "address_councildis": "C",
    "status": "Pending",
    "rowid": "1003666",
    "final_x": "3686528.18959",
    "final_y": "536392.173063",
    "longitude": "-90.05202111058153",
    "latitude": "29.96873884798031",
    "geocoded_column": {
      "latitude": "29.96873884798031",
      "longitude": "-90.05202111058153"
    }
  },
  {
    "service_request": "2023-1003665",
    "request_type": "Trash/Recycling",
    "request_reason": "Order Trash Cart",
    "date_created": "2023-05-29T12:56:28.000",
    "date_modified": "2023-05-29T12:56:28.000",
    "request_status": "Pending",
    "responsible_agency": "Department of Sanitation",
    "final_address": "5819 Elysian Fields Ave",
    "address_councildis": "D",
    "status": "Assigned to Contractor",
    "contractor": "IV Waste",
    "rowid": "1003665",
    "final_x": "3683676.48687",
    "final_y": "554449.982424",
    "longitude": "-90.06039341075079",
    "latitude": "30.01847876542588",
    "geocoded_column": {
      "latitude": "30.01847876542588",
      "longitude": "-90.06039341075079"
    }
  },
  {
    "service_request": "2023-1003664",
    "request_type": "Traffic Signals/Signs/Striping/Streetlights",
    "request_reason": "Additional signage",
    "date_created": "2023-05-29T12:53:38.000",
    "date_modified": "2023-05-29T12:53:38.000",
    "request_status": "Pending",
    "responsible_agency": "Department of Public Works",
    "final_address": "S RAMPART ST & JULIA ST",
    "address_councildis": "B",
    "status": "Pending",
    "rowid": "1003664",
    "final_x": "3679015.5",
    "final_y": "528373.38",
    "longitude": "-90.07602450307112",
    "latitude": "29.946918734653103",
    "geocoded_column": {
      "latitude": "29.946918734653103",
      "longitude": "-90.07602450307112"
    }
  },
  {
    "service_request": "2023-1003663",
    "request_type": "Trash/Recycling",
    "request_reason": "Missed Trash Pick-Up",
    "date_created": "2023-05-29T12:50:35.000",
    "date_modified": "2023-05-29T12:50:36.000",
    "request_status": "Pending",
    "responsible_agency": "Department of Sanitation",
    "final_address": "2361 Cypress Acres Dr",
    "address_councildis": "C",
    "status": "Assigned to Contractor",
    "contractor": "Richards Disposal",
    "rowid": "1003663",
    "final_x": "3696124.14864",
    "final_y": "521894.709626",
    "longitude": "-90.02224052911556",
    "latitude": "29.928577341965664",
    "geocoded_column": {
      "latitude": "29.928577341965664",
      "longitude": "-90.02224052911556"
    }
  },
  {
    "service_request": "2023-1003662",
    "request_type": "Trash/Recycling",
    "request_reason": "Report a Missed Trash/Recycling Pick Up",
    "date_created": "2023-05-29T12:39:56.000",
    "date_modified": "2023-05-29T12:39:57.000",
    "request_status": "Pending",
    "responsible_agency": "Department of Sanitation",
    "final_address": "2842 Coliseum St",
    "address_councildis": "B",
    "contractor": "Richards Disposal",
    "rowid": "1003662",
    "final_x": "3676192.35784",
    "final_y": "521461.933625",
    "longitude": "-90.08517591729483",
    "latitude": "29.927999400227893",
    "geocoded_column": {
      "latitude": "29.927999400227893",
      "longitude": "-90.08517591729483"
    }
  },
  {
    "service_request": "2023-1003661",
    "request_type": "Trash/Recycling",
    "request_reason": "Request a Large Item Pick Up",
    "date_created": "2023-05-29T12:26:01.000",
    "date_modified": "2023-05-29T12:26:01.000",
    "request_status": "Pending",
    "responsible_agency": "Department of Sanitation",
    "final_address": "1324 Leonidas St",
    "address_councildis": "A",
    "status": "Assigned to Contractor",
    "contractor": "Richards Disposal",
    "rowid": "1003661",
    "final_x": "3660984.30342",
    "final_y": "530005.845761",
    "longitude": "-90.13290194586322",
    "latitude": "29.951939205745518",
    "geocoded_column": {
      "latitude": "29.951939205745518",
      "longitude": "-90.13290194586322"
    }
  },
  {
    "service_request": "2023-1003660",
    "request_type": "Parks & Parkways",
    "request_reason": "Request Tree Service (Right of Way/Public Property)",
    "date_created": "2023-05-29T12:24:52.000",
    "date_modified": "2023-05-29T12:24:53.000",
    "request_status": "Pending",
    "responsible_agency": "Department of Parks & Parkway",
    "final_address": "7530 Crowder Blvd",
    "address_councildis": "E",
    "status": "Pending",
    "rowid": "1003660",
    "final_x": "3703386.05303",
    "final_y": "561826.899679",
    "longitude": "-89.9978472034477",
    "latitude": "30.038145645080466",
    "geocoded_column": {
      "latitude": "30.038145645080466",
      "longitude": "-89.9978472034477"
    }
  },
  {
    "service_request": "2023-1003659",
    "request_type": "Trash/Recycling",
    "request_reason": "Order Trash Cart",
    "date_created": "2023-05-29T12:22:57.000",
    "date_modified": "2023-05-29T12:22:57.000",
    "request_status": "Pending",
    "responsible_agency": "Department of Sanitation",
    "final_address": "5012 Westlake Dr",
    "address_councildis": "E",
    "status": "Assigned to Contractor",
    "contractor": "Waste Pro",
    "rowid": "1003659",
    "final_x": "3699579.11671",
    "final_y": "555750.493657",
    "longitude": "-90.01009978425294",
    "latitude": "30.021559322173914",
    "geocoded_column": {
      "latitude": "30.021559322173914",
      "longitude": "-90.01009978425294"
    }
  },
  {
    "service_request": "2023-1003658",
    "request_type": "Trash/Recycling",
    "request_reason": "Missed Trash Pick-Up",
    "date_created": "2023-05-29T12:22:44.000",
    "date_modified": "2023-05-29T12:22:45.000",
    "request_status": "Pending",
    "responsible_agency": "Department of Sanitation",
    "final_address": "1540 Steeple Chase Ln",
    "address_councildis": "C",
    "status": "Assigned to Contractor",
    "contractor": "Richards Disposal",
    "rowid": "1003658",
    "final_x": "3700032.18013",
    "final_y": "525450.180285",
    "longitude": "-90.00977413397226",
    "latitude": "29.938230119892502",
    "geocoded_column": {
      "latitude": "29.938230119892502",
      "longitude": "-90.00977413397226"
    }
  },
  {
    "service_request": "2023-1003657",
    "request_type": "Trash/Recycling",
    "request_reason": "Missed Trash Pick-Up",
    "date_created": "2023-05-29T12:18:14.000",
    "date_modified": "2023-05-29T12:18:15.000",
    "request_status": "Pending",
    "responsible_agency": "Department of Sanitation",
    "final_address": "103 Brunswick Ct",
    "address_councildis": "C",
    "status": "Assigned to Contractor",
    "contractor": "Richards Disposal",
    "rowid": "1003657",
    "final_x": "3705644.50187",
    "final_y": "516978.327925",
    "longitude": "-89.99236866388182",
    "latitude": "29.91475603556388",
    "geocoded_column": {
      "latitude": "29.91475603556388",
      "longitude": "-89.99236866388182"
    }
  },
  {
    "service_request": "2023-1003655",
    "request_type": "Trash/Recycling",
    "request_reason": "Request a Large Item Pick Up",
    "date_created": "2023-05-29T12:12:58.000",
    "date_modified": "2023-05-29T12:12:58.000",
    "request_status": "Pending",
    "responsible_agency": "Department of Sanitation",
    "final_address": "2026 Broadway St",
    "address_councildis": "A",
    "status": "Assigned to Contractor",
    "contractor": "Richards Disposal",
    "rowid": "1003655",
    "final_x": "3665827.96141",
    "final_y": "529064.588608",
    "longitude": "-90.11763943454487",
    "latitude": "29.949210635201986",
    "geocoded_column": {
      "latitude": "29.949210635201986",
      "longitude": "-90.11763943454487"
    }
  },
  {
    "service_request": "2023-1003654",
    "request_type": "Trash/Recycling",
    "request_reason": "Replace Trash Cart",
    "date_created": "2023-05-29T12:10:16.000",
    "date_modified": "2023-05-29T12:10:17.000",
    "request_status": "Pending",
    "responsible_agency": "Department of Sanitation",
    "final_address": "7340 Dalewood Rd",
    "address_councildis": "E",
    "status": "Assigned to Contractor",
    "contractor": "Waste Pro",
    "rowid": "1003654",
    "final_x": "3700159.73725",
    "final_y": "559630.707805",
    "longitude": "-90.00812339465638",
    "latitude": "30.032209969503874",
    "geocoded_column": {
      "latitude": "30.032209969503874",
      "longitude": "-90.00812339465638"
    }
  },
  {
    "service_request": "2023-1003653",
    "request_type": "Trash/Recycling",
    "request_reason": "Missed Trash Pick-Up",
    "date_created": "2023-05-29T12:02:07.000",
    "date_modified": "2023-05-29T13:26:01.000",
    "case_close_date": "2023-05-29T08:26:01.000",
    "request_status": "Closed",
    "responsible_agency": "Department of Sanitation",
    "final_address": "7554 Stonewood St",
    "address_councildis": "E",
    "status": "Duplicate Request",
    "contractor": "Waste Pro",
    "contractor_action": "duplicate",
    "rowid": "1003653",
    "final_x": "3719793.04773",
    "final_y": "572168.033",
    "longitude": "-89.94560175584549",
    "latitude": "30.06604348256588",
    "geocoded_column": {
      "latitude": "30.06604348256588",
      "longitude": "-89.94560175584549"
    }
  },
  {
    "service_request": "2023-1003652",
    "request_type": "Trash/Recycling",
    "request_reason": "Request a Large Item Pick Up",
    "date_created": "2023-05-29T11:54:39.000",
    "date_modified": "2023-05-29T11:54:39.000",
    "request_status": "Pending",
    "responsible_agency": "Department of Sanitation",
    "final_address": "4638 Arts St",
    "address_councildis": "D",
    "status": "Assigned to Contractor",
    "contractor": "IV Waste",
    "rowid": "1003652",
    "final_x": "3685888.77705",
    "final_y": "549876.960084",
    "longitude": "-90.05356477661928",
    "latitude": "30.00583686409909",
    "geocoded_column": {
      "latitude": "30.00583686409909",
      "longitude": "-90.05356477661928"
    }
  },
  {
    "service_request": "2023-1003651",
    "request_type": "Trash/Recycling",
    "request_reason": "Dead Animal Pick Up",
    "date_created": "2023-05-29T11:48:50.000",
    "date_modified": "2023-05-29T11:48:51.000",
    "request_status": "Pending",
    "responsible_agency": "Department of Sanitation",
    "final_address": "708 Thayer St",
    "address_councildis": "C",
    "status": "Assigned to Contractor",
    "contractor": "Richards Disposal",
    "rowid": "1003651",
    "final_x": "3689534.17615",
    "final_y": "528912.367808",
    "longitude": "-90.04279410376016",
    "latitude": "29.94807921014022",
    "geocoded_column": {
      "latitude": "29.94807921014022",
      "longitude": "-90.04279410376016"
    }
  },
  {
    "service_request": "2023-1003650",
    "request_type": "Trash/Recycling",
    "request_reason": "Missed Trash Pick-Up",
    "date_created": "2023-05-29T11:48:48.000",
    "date_modified": "2023-05-29T13:31:26.000",
    "case_close_date": "2023-05-29T08:31:26.000",
    "request_status": "Closed",
    "responsible_agency": "Department of Sanitation",
    "final_address": "7554 Stonewood St",
    "address_councildis": "E",
    "status": "Assigned to Contractor",
    "contractor": "Waste Pro",
    "contractor_action": "Trash Cart Not Curbside",
    "rowid": "1003650",
    "final_x": "3719793.04773",
    "final_y": "572168.033",
    "longitude": "-89.94560175584549",
    "latitude": "30.06604348256588",
    "geocoded_column": {
      "latitude": "30.06604348256588",
      "longitude": "-89.94560175584549"
    }
  },
  {
    "service_request": "2023-1003649",
    "request_type": "Trash/Recycling",
    "request_reason": "Replace Trash Cart",
    "date_created": "2023-05-29T11:39:46.000",
    "date_modified": "2023-05-29T11:39:47.000",
    "request_status": "Pending",
    "responsible_agency": "Department of Sanitation",
    "final_address": "917 Leontine St",
    "address_councildis": "B",
    "status": "Assigned to Contractor",
    "contractor": "Richards Disposal",
    "rowid": "1003649",
    "final_x": "3667228.90055",
    "final_y": "518845.794039",
    "longitude": "-90.11355950727835",
    "latitude": "29.921071273714446",
    "geocoded_column": {
      "latitude": "29.921071273714446",
      "longitude": "-90.11355950727835"
    }
  },
  {
    "service_request": "2023-1003648",
    "request_type": "Trash/Recycling",
    "request_reason": "Request a Large Item Pick Up",
    "date_created": "2023-05-29T11:33:35.000",
    "date_modified": "2023-05-29T11:33:36.000",
    "request_status": "Pending",
    "responsible_agency": "Department of Sanitation",
    "final_address": "4502 Pitt St",
    "address_councildis": "B",
    "status": "Assigned to Contractor",
    "contractor": "Richards Disposal",
    "rowid": "1003648",
    "final_x": "3670438.0386",
    "final_y": "520482.882104",
    "longitude": "-90.10337420348836",
    "latitude": "29.92547842063275",
    "geocoded_column": {
      "latitude": "29.92547842063275",
      "longitude": "-90.10337420348836"
    }
  },
  {
    "service_request": "2023-1003647",
    "request_type": "Roads/Drainage",
    "request_reason": "Drainage Issue (Catch Basins, Culverts, Ditches, and Manhole Covers)",
    "date_created": "2023-05-29T11:14:45.000",
    "date_modified": "2023-05-29T11:14:45.000",
    "request_status": "Pending",
    "responsible_agency": "Department of Public Works",
    "final_address": "538 Topaz St",
    "address_councildis": "D",
    "status": "Pending",
    "rowid": "1003647",
    "final_x": "3668658.29031",
    "final_y": "556467.854042",
    "longitude": "-90.10777737322118",
    "latitude": "30.024477395049047",
    "geocoded_column": {
      "latitude": "30.024477395049047",
      "longitude": "-90.10777737322118"
    }
  },
  {
    "service_request": "2023-1003646",
    "request_type": "Trash/Recycling",
    "request_reason": "Request a Large Item Pick Up",
    "date_created": "2023-05-29T11:10:24.000",
    "date_modified": "2023-05-29T12:58:26.000",
    "request_status": "Pending",
    "responsible_agency": "Department of Sanitation",
    "final_address": "5419 Press Dr.",
    "address_councildis": "D",
    "status": "Assigned to Contractor",
    "contractor": "IV Waste",
    "rowid": "1003646",
    "final_x": "3689261.77236",
    "final_y": "553391.7224",
    "longitude": "-90.04278366690373",
    "latitude": "30.015397150190687",
    "geocoded_column": {
      "latitude": "30.015397150190687",
      "longitude": "-90.04278366690373"
    }
  },
  {
    "service_request": "2023-1003644",
    "request_type": "Trash/Recycling",
    "request_reason": "Order Trash Cart",
    "date_created": "2023-05-29T10:58:05.000",
    "date_modified": "2023-05-29T10:58:05.000",
    "request_status": "Pending",
    "responsible_agency": "Department of Sanitation",
    "final_address": "1404 Cadiz St",
    "address_councildis": "B",
    "status": "Assigned to Contractor",
    "contractor": "Richards Disposal",
    "rowid": "1003644",
    "final_x": "3670099.79534",
    "final_y": "520347.993208",
    "longitude": "-90.10444650228499",
    "latitude": "29.925117498168905",
    "geocoded_column": {
      "latitude": "29.925117498168905",
      "longitude": "-90.10444650228499"
    }
  },
  {
    "service_request": "2023-1003643",
    "request_type": "Property Maintenance",
    "request_reason": "Property Maintenance",
    "date_created": "2023-05-29T10:47:30.000",
    "date_modified": "2023-05-29T10:47:30.000",
    "request_status": "Pending",
    "responsible_agency": "Department of Code Enforcement",
    "final_address": " & BALDWIN ST",
    "address_councildis": "D",
    "status": "Pending",
    "rowid": "1003643",
    "final_x": "3687880.8",
    "final_y": "560035.64",
    "longitude": "-90.04691121641319",
    "latitude": "30.03370814054373",
    "geocoded_column": {
      "latitude": "30.03370814054373",
      "longitude": "-90.04691121641319"
    }
  },
  {
    "service_request": "2023-1003642",
    "request_type": "Trash/Recycling",
    "request_reason": "Request a Large Item Pick Up",
    "date_created": "2023-05-29T10:46:41.000",
    "date_modified": "2023-05-29T10:46:42.000",
    "request_status": "Pending",
    "responsible_agency": "Department of Sanitation",
    "final_address": "4516 S Roman St",
    "address_councildis": "B",
    "status": "Assigned to Contractor",
    "contractor": "Richards Disposal",
    "rowid": "1003642",
    "final_x": "3669735.46894",
    "final_y": "526464.347838",
    "longitude": "-90.1053896587823",
    "latitude": "29.941946247754846",
    "geocoded_column": {
      "latitude": "29.941946247754846",
      "longitude": "-90.1053896587823"
    }
  },
  {
    "service_request": "2023-1003641",
    "request_type": "Trash/Recycling",
    "request_reason": "Replace Trash Cart",
    "date_created": "2023-05-29T10:36:35.000",
    "date_modified": "2023-05-29T10:36:35.000",
    "request_status": "Pending",
    "responsible_agency": "Department of Sanitation",
    "final_address": "441 Whitney Ave",
    "address_councildis": "C",
    "status": "Assigned to Contractor",
    "contractor": "Richards Disposal",
    "rowid": "1003641",
    "final_x": "3690164.1208",
    "final_y": "529910.859073",
    "longitude": "-90.04076955661476",
    "latitude": "29.950805193780074",
    "geocoded_column": {
      "latitude": "29.950805193780074",
      "longitude": "-90.04076955661476"
    }
  },
  {
    "service_request": "2023-1003640",
    "request_type": "Trash/Recycling",
    "request_reason": "Request a Large Item Pick Up",
    "date_created": "2023-05-29T10:25:21.000",
    "date_modified": "2023-05-29T10:25:21.000",
    "request_status": "Pending",
    "responsible_agency": "Department of Sanitation",
    "final_address": "3814 Dryades St",
    "address_councildis": "B",
    "status": "Assigned to Contractor",
    "contractor": "Richards Disposal",
    "rowid": "1003640",
    "final_x": "3672498.06318",
    "final_y": "522076.870906",
    "longitude": "-90.09681703143092",
    "latitude": "29.929800414629455",
    "geocoded_column": {
      "latitude": "29.929800414629455",
      "longitude": "-90.09681703143092"
    }
  },
  {
    "service_request": "2023-1003639",
    "request_type": "Trash/Recycling",
    "request_reason": "Replace Trash Cart",
    "date_created": "2023-05-29T10:19:44.000",
    "date_modified": "2023-05-29T10:19:45.000",
    "request_status": "Pending",
    "responsible_agency": "Department of Sanitation",
    "final_address": "2240 St Nick Dr",
    "address_councildis": "C",
    "status": "Assigned to Contractor",
    "contractor": "Richards Disposal",
    "rowid": "1003639",
    "final_x": "3699777.42711",
    "final_y": "522673.468282",
    "longitude": "-90.01067959841663",
    "latitude": "29.930603213768542",
    "geocoded_column": {
      "latitude": "29.930603213768542",
      "longitude": "-90.01067959841663"
    }
  },
  {
    "service_request": "2023-1003638",
    "request_type": "Trash/Recycling",
    "request_reason": "Request a Large Item Pick Up",
    "date_created": "2023-05-29T10:14:33.000",
    "date_modified": "2023-05-29T10:14:33.000",
    "request_status": "Pending",
    "responsible_agency": "Department of Sanitation",
    "final_address": "7620 Weaver Ave",
    "address_councildis": "E",
    "status": "Assigned to Contractor",
    "contractor": "Waste Pro",
    "rowid": "1003638",
    "final_x": "3707354.56369",
    "final_y": "564384.512609",
    "longitude": "-89.9852107040684",
    "latitude": "30.04505028765451",
    "geocoded_column": {
      "latitude": "30.04505028765451",
      "longitude": "-89.9852107040684"
    }
  },
  {
    "service_request": "2023-1003637",
    "request_type": "Trash/Recycling",
    "request_reason": "Request a Large Item Pick Up",
    "date_created": "2023-05-29T10:11:00.000",
    "date_modified": "2023-05-29T10:11:01.000",
    "request_status": "Pending",
    "responsible_agency": "Department of Sanitation",
    "final_address": "7730 Berg Rd",
    "address_councildis": "E",
    "status": "Assigned to Contractor",
    "contractor": "Waste Pro",
    "rowid": "1003637",
    "final_x": "3711597.63896",
    "final_y": "567192.472676",
    "longitude": "-89.97169524534424",
    "latitude": "30.05263309437182",
    "geocoded_column": {
      "latitude": "30.05263309437182",
      "longitude": "-89.97169524534424"
    }
  },
  {
    "service_request": "2023-1003636",
    "request_type": "Trash/Recycling",
    "request_reason": "Replace Recycling Cart",
    "date_created": "2023-05-29T10:07:59.000",
    "date_modified": "2023-05-29T10:08:00.000",
    "request_status": "Pending",
    "responsible_agency": "Department of Sanitation",
    "final_address": "1319 Kentucky St",
    "address_councildis": "D",
    "status": "Pending",
    "rowid": "1003636",
    "final_x": "3693628.44169",
    "final_y": "535806.251655",
    "longitude": "-90.02961924824854",
    "latitude": "29.966907546772642",
    "geocoded_column": {
      "latitude": "29.966907546772642",
      "longitude": "-90.02961924824854"
    }
  },
  {
    "service_request": "2023-1003635",
    "request_type": "Trash/Recycling",
    "request_reason": "Order Recycling Cart",
    "date_created": "2023-05-29T09:48:42.000",
    "date_modified": "2023-05-29T09:48:42.000",
    "request_status": "Pending",
    "responsible_agency": "Department of Sanitation",
    "final_address": "3110 Esplanade Ave",
    "address_councildis": "A",
    "status": "Pending",
    "rowid": "1003635",
    "final_x": "3676441.47067",
    "final_y": "540209.007819",
    "longitude": "-90.08374413856582",
    "latitude": "29.97954012319789",
    "geocoded_column": {
      "latitude": "29.97954012319789",
      "longitude": "-90.08374413856582"
    }
  },
  {
    "service_request": "2023-1003634",
    "request_type": "Trash/Recycling",
    "request_reason": "Request a Large Item Pick Up",
    "date_created": "2023-05-29T09:42:19.000",
    "date_modified": "2023-05-29T09:42:19.000",
    "request_status": "Pending",
    "responsible_agency": "Department of Sanitation",
    "final_address": "2327 Peniston St",
    "address_councildis": "B",
    "status": "Assigned to Contractor",
    "contractor": "Richards Disposal",
    "rowid": "1003634",
    "final_x": "3672278.30561",
    "final_y": "523815.567419",
    "longitude": "-90.09745156870869",
    "latitude": "29.934587787832125",
    "geocoded_column": {
      "latitude": "29.934587787832125",
      "longitude": "-90.09745156870869"
    }
  },
  {
    "service_request": "2023-1003633",
    "request_type": "Trash/Recycling",
    "request_reason": "Order Trash Cart",
    "date_created": "2023-05-29T09:40:17.000",
    "date_modified": "2023-05-29T09:40:17.000",
    "request_status": "Pending",
    "responsible_agency": "Department of Sanitation",
    "final_address": "4739 Dauphine St",
    "address_councildis": "E",
    "status": "Assigned to Contractor",
    "contractor": "Waste Pro",
    "rowid": "1003633",
    "final_x": "3694648.04022",
    "final_y": "533420.658884",
    "longitude": "-90.02648529323626",
    "latitude": "29.96031607217896",
    "geocoded_column": {
      "latitude": "29.96031607217896",
      "longitude": "-90.02648529323626"
    }
  },
  {
    "service_request": "2023-1003632",
    "request_type": "Trash/Recycling",
    "request_reason": "Replace Trash Cart",
    "date_created": "2023-05-29T09:35:02.000",
    "date_modified": "2023-05-29T09:35:03.000",
    "request_status": "Pending",
    "responsible_agency": "Department of Sanitation",
    "final_address": "129 N Johnson St",
    "address_councildis": "B",
    "status": "Assigned to Contractor",
    "contractor": "Richards Disposal",
    "rowid": "1003632",
    "final_x": "3677406.51835",
    "final_y": "533937.470533",
    "longitude": "-90.08091263415633",
    "latitude": "29.962266565144233",
    "geocoded_column": {
      "latitude": "29.962266565144233",
      "longitude": "-90.08091263415633"
    }
  },
  {
    "service_request": "2023-1003631",
    "request_type": "Trash/Recycling",
    "request_reason": "Replace Trash Cart",
    "date_created": "2023-05-29T09:29:02.000",
    "date_modified": "2023-05-29T09:29:03.000",
    "request_status": "Pending",
    "responsible_agency": "Department of Sanitation",
    "final_address": "823 N Tonti St",
    "address_councildis": "D",
    "status": "Assigned to Contractor",
    "contractor": "Richards Disposal",
    "rowid": "1003631",
    "final_x": "3678049.81352",
    "final_y": "536628.674567",
    "longitude": "-90.0787881544575",
    "latitude": "29.969647111128552",
    "geocoded_column": {
      "latitude": "29.969647111128552",
      "longitude": "-90.0787881544575"
    }
  },
  {
    "service_request": "2023-1003630",
    "request_type": "Trash/Recycling",
    "request_reason": "Missed Trash Pick-Up",
    "date_created": "2023-05-29T09:27:19.000",
    "date_modified": "2023-05-29T09:27:19.000",
    "request_status": "Pending",
    "responsible_agency": "Department of Sanitation",
    "final_address": "222 City Park Ave",
    "address_councildis": "A",
    "status": "Assigned to Contractor",
    "contractor": "Richards Disposal",
    "rowid": "1003630",
    "final_x": "3668428.13492",
    "final_y": "541142.723532",
    "longitude": "-90.10902203669625",
    "latitude": "29.98234538145913",
    "geocoded_column": {
      "latitude": "29.98234538145913",
      "longitude": "-90.10902203669625"
    }
  },
  {
    "service_request": "2023-1003629",
    "request_type": "Trash/Recycling",
    "request_reason": "Missed Trash Pick-Up",
    "date_created": "2023-05-29T09:21:40.000",
    "date_modified": "2023-05-29T09:21:41.000",
    "request_status": "Pending",
    "responsible_agency": "Department of Sanitation",
    "final_address": "222 City Park Ave",
    "address_councildis": "A",
    "status": "Assigned to Contractor",
    "contractor": "Richards Disposal",
    "rowid": "1003629",
    "final_x": "3668428.13492",
    "final_y": "541142.723532",
    "longitude": "-90.10902203669625",
    "latitude": "29.98234538145913",
    "geocoded_column": {
      "latitude": "29.98234538145913",
      "longitude": "-90.10902203669625"
    }
  },
  {
    "service_request": "2023-1003628",
    "request_type": "Abandoned Vehicles",
    "request_reason": "Abandoned/Junk Vehicles",
    "date_created": "2023-05-29T09:21:35.000",
    "date_modified": "2023-05-29T09:21:35.000",
    "request_status": "Pending",
    "responsible_agency": "Department of Public Works",
    "final_address": "877 Roosevelt Pl",
    "address_councildis": "A",
    "status": "Pending",
    "rowid": "1003628",
    "final_x": "3673545.21665",
    "final_y": "540206.518987",
    "longitude": "-90.09289177047617",
    "latitude": "29.979619809493773",
    "geocoded_column": {
      "latitude": "29.979619809493773",
      "longitude": "-90.09289177047617"
    }
  },
  {
    "service_request": "2023-1003627",
    "request_type": "Trash/Recycling",
    "request_reason": "Order Trash Cart",
    "date_created": "2023-05-29T09:17:01.000",
    "date_modified": "2023-05-29T09:17:01.000",
    "request_status": "Pending",
    "responsible_agency": "Department of Sanitation",
    "final_address": "2809 Octavia St",
    "address_councildis": "A",
    "status": "Assigned to Contractor",
    "contractor": "Richards Disposal",
    "rowid": "1003627",
    "final_x": "3668013.50362",
    "final_y": "525771.571133",
    "longitude": "-90.11084962066434",
    "latitude": "29.940091963979494",
    "geocoded_column": {
      "latitude": "29.940091963979494",
      "longitude": "-90.11084962066434"
    }
  },
  {
    "service_request": "2023-1003626",
    "request_type": "Traffic Signals/Signs/Striping/Streetlights",
    "request_reason": "Request for Stop Sign",
    "date_created": "2023-05-29T09:16:14.000",
    "date_modified": "2023-05-29T09:16:14.000",
    "request_status": "Pending",
    "responsible_agency": "Department of Public Works",
    "final_address": "JOURDAN AVE & URQUHART ST",
    "address_councildis": "E",
    "status": "Pending",
    "rowid": "1003626",
    "final_x": "3695195.0",
    "final_y": "535238.58",
    "longitude": "-90.02469255401716",
    "latitude": "29.965297548377787",
    "geocoded_column": {
      "latitude": "29.965297548377787",
      "longitude": "-90.02469255401716"
    }
  },
  {
    "service_request": "2023-1003625",
    "request_type": "Trash/Recycling",
    "request_reason": "Missed Trash Pick-Up",
    "date_created": "2023-05-29T09:09:13.000",
    "date_modified": "2023-05-29T09:09:13.000",
    "request_status": "Pending",
    "responsible_agency": "Department of Sanitation",
    "final_address": "8301 Palm St",
    "address_councildis": "A",
    "status": "Assigned to Contractor",
    "contractor": "Richards Disposal",
    "rowid": "1003625",
    "final_x": "3667175.05831",
    "final_y": "535260.380486",
    "longitude": "-90.11317772384159",
    "latitude": "29.96620766209988",
    "geocoded_column": {
      "latitude": "29.96620766209988",
      "longitude": "-90.11317772384159"
    }
  },
  {
    "service_request": "2023-1003624",
    "request_type": "Trash/Recycling",
    "request_reason": "Missed Trash Pick-Up",
    "date_created": "2023-05-29T09:05:13.000",
    "date_modified": "2023-05-29T09:05:13.000",
    "request_status": "Pending",
    "responsible_agency": "Department of Sanitation",
    "final_address": "2809 Octavia St",
    "address_councildis": "A",
    "status": "Assigned to Contractor",
    "contractor": "Richards Disposal",
    "rowid": "1003624",
    "final_x": "3668013.50362",
    "final_y": "525771.571133",
    "longitude": "-90.11084962066434",
    "latitude": "29.940091963979494",
    "geocoded_column": {
      "latitude": "29.940091963979494",
      "longitude": "-90.11084962066434"
    }
  },