[
  {
    "service_request": "2024-1069239",
    "request_type": "Trash/Recycling",
    "request_reason": "MIssed Recycling Pick-Up",
    "date_created": "2024-02-20T22:31:33.000",
    "date_modified": "2024-02-20T22:31:33.000",
    "request_status": "Pending",
    "responsible_agency": "Department of Sanitation",
    "final_address": "1528 St Philip St",
    "address_councildis": "C",
    "status": "Assigned to Contractor",
    "contractor": "Richards Disposal",
    "rowid": "1069239",
    "final_x": "3680772.24552",
    "final_y": "535182.214022",
    "longitude": "-90.07024083428946",
    "latitude": "29.96558760095176",
    "geocoded_column": {
      "latitude": "29.96558760095176",
      "longitude": "-90.07024083428946"
    }
  },
  {
    "service_request": "2024-1069238",
    "request_type": "Trash/Recycling",
    "request_reason": "Request a Large Item Pick Up",
    "date_created": "2024-02-20T22:04:07.000",
    "date_modified": "2024-02-20T22:04:08.000",
    "request_status": "Pending",
    "responsible_agency": "Department of Sanitation",
    "final_address": "4443 Shalimar Dr",
    "address_councildis": "D",
    "status": "Assigned to Contractor",
    "contractor": "Waste Pro",
    "rowid": "1069238",
    "final_x": "3697390.06883",
    "final_y": "552722.754902",
    "longitude": "-90.01712644160338",
    "latitude": "30.013303512635044",
    "geocoded_column": {
      "latitude": "30.013303512635044",
      "longitude": "-90.01712644160338"
    }
  },
  {
    "service_request": "2024-1069236",
    "request_type": "Trash/Recycling",
    "request_reason": "Request a Large Item Pick Up",
    "date_created": "2024-02-20T21:19:08.000",
    "date_modified": "2024-02-20T21:19:09.000",
    "request_status": "Pending",
    "responsible_agency": "Department of Sanitation",
    "final_address": "617 Cadiz St",
    "address_councildis": "B",
    "status": "Assigned to Contractor",
    "contractor": "Richards Disposal",
    "rowid": "1069236",
    "final_x": "3670433.88212",
    "final_y": "517838.781878",
    "longitude": "-90.10347691032283",
    "latitude": "29.9182081072897",
    "geocoded_column": {
      "latitude": "29.9182081072897",
      "longitude": "-90.10347691032283"
    }
  },
  {
    "service_request": "2024-1069235",
    "request_type": "Mosquito, Termite & Rodent Control",
    "request_reason": "Mosquito Complaint",
    "date_created": "2024-02-20T20:43:18.000",
    "date_modified": "2024-02-20T20:43:18.000",
    "request_status": "Pending",
    "responsible_agency": "Mosquito, Termite & Rodent Control Board",
    "final_address": "7320 General Haig St",
    "address_councildis": "D",
    "status": "Pending",
    "rowid": "1069235",
    "final_x": "3671193.68219",
    "final_y": "555325.569177",
    "longitude": "-90.09980481803319",
    "latitude": "30.02126171316125",
    "geocoded_column": {
      "latitude": "30.02126171316125",
      "longitude": "-90.09980481803319"
    }
  },
  {
    "service_request": "2024-1069234",
    "request_type": "Trash/Recycling",
    "request_reason": "Request a Large Item Pick Up",
    "date_created": "2024-02-20T20:06:13.000",
    "date_modified": "2024-02-20T20:06:14.000",
    "request_status": "Pending",
    "responsible_agency": "Department of Sanitation",
    "final_address": "4801 Coronado Dr",
    "address_councildis": "E",
    "status": "Assigned to Contractor",
    "contractor": "Waste Pro",
    "rowid": "1069234",
    "final_x": "3714182.00376",
    "final_y": "556601.501274",
    "longitude": "-89.96392695367543",
    "latitude": "30.0234274855252",
    "geocoded_column": {
      "latitude": "30.0234274855252",
      "longitude": "-89.96392695367543"
    }
  },
  {
    "service_request": "2024-1069233",
    "request_type": "Trash/Recycling",
    "request_reason": "Request a Large Item Pick Up",
    "date_created": "2024-02-20T20:05:26.000",
    "date_modified": "2024-02-20T20:05:27.000",
    "request_status": "Pending",
    "responsible_agency": "Department of Sanitation",
    "final_address": "4801 Coronado Dr",
    "address_councildis": "E",
    "status": "Assigned to Contractor",
    "contractor": "Waste Pro",
    "rowid": "1069233",
    "final_x": "3714182.00376",
    "final_y": "556601.501274",
    "longitude": "-89.96392695367543",
    "latitude": "30.0234274855252",
    "geocoded_column": {
      "latitude": "30.0234274855252",
      "longitude": "-89.96392695367543"
    }
  },
  {
    "service_request": "2024-1069232",
    "request_type": "Trash/Recycling",
    "request_reason": "Repair Trash Cart",
    "date_created": "2024-02-20T19:58:02.000",
    "date_modified": "2024-02-20T19:58:02.000",
    "request_status": "Pending",
    "responsible_agency": "Department of Sanitation",
    "final_address": "929 Pine St",
    "address_councildis": "A",
    "status": "Assigned to Contractor",
    "contractor": "Richards Disposal",
    "rowid": "1069232",
    "final_x": "3663492.36723",
    "final_y": "525960.118141",
    "longitude": "-90.12511732786955",
    "latitude": "29.940742265582553",
    "geocoded_column": {
      "latitude": "29.940742265582553",
      "longitude": "-90.12511732786955"
    }
  },
  {
    "service_request": "2024-1069231",
    "request_type": "Traffic Signals/Signs/Striping/Streetlights",
    "request_reason": "Street Light Outage/Malfunction",
    "date_created": "2024-02-20T19:47:37.000",
    "date_modified": "2024-02-20T19:47:38.000",
    "request_status": "Pending",
    "responsible_agency": "Department of Public Works",
    "final_address": "2472 Bedford Dr",
    "address_councildis": "C",
    "status": "Assigned to Contractor",
    "contractor": "Legacy Professional Services",
    "rowid": "1069231",
    "final_x": "3705275.6387",
    "final_y": "521779.81849",
    "longitude": "-89.99335568763448",
    "latitude": "29.92797033317305",
    "geocoded_column": {
      "latitude": "29.92797033317305",
      "longitude": "-89.99335568763448"
    }
  },
  {
    "service_request": "2024-1069230",
    "request_type": "Trash/Recycling",
    "request_reason": "Replace Trash Cart",
    "date_created": "2024-02-20T19:47:02.000",
    "date_modified": "2024-02-20T19:47:02.000",
    "request_status": "Pending",
    "responsible_agency": "Department of Sanitation",
    "final_address": "1751 Holiday Dr",
    "address_councildis": "C",
    "status": "Assigned to Contractor",
    "contractor": "Richards Disposal",
    "rowid": "1069230",
    "final_x": "3698854.54839",
    "final_y": "524161.329468",
    "longitude": "-90.01353887254537",
    "latitude": "29.93472357772218",
    "geocoded_column": {
      "latitude": "29.93472357772218",
      "longitude": "-90.01353887254537"
    }
  },
  {
    "service_request": "2024-1069229",
    "request_type": "Trash/Recycling",
    "request_reason": "Repair Trash Cart",
    "date_created": "2024-02-20T19:46:16.000",
    "date_modified": "2024-02-20T19:46:16.000",
    "request_status": "Pending",
    "responsible_agency": "Department of Sanitation",
    "final_address": "506 Vallette St",
    "address_councildis": "C",
    "status": "Assigned to Contractor",
    "contractor": "Richards Disposal",
    "rowid": "1069229",
    "final_x": "3687569.19202",
    "final_y": "529855.495041",
    "longitude": "-90.04896496068037",
    "latitude": "29.950733194809374",
    "geocoded_column": {
      "latitude": "29.950733194809374",
      "longitude": "-90.04896496068037"
    }
  },
  {
    "service_request": "2024-1069228",
    "request_type": "Abandoned Vehicles",
    "request_reason": "Abandoned/Junk Vehicles",
    "date_created": "2024-02-20T19:26:58.000",
    "date_modified": "2024-02-20T19:26:58.000",
    "request_status": "Pending",
    "responsible_agency": "Department of Public Works",
    "final_address": "1276 Foy St",
    "address_councildis": "D",
    "status": "Pending",
    "rowid": "1069228",
    "final_x": "3677268.49717",
    "final_y": "546393.49352",
    "longitude": "-90.08091855730306",
    "latitude": "29.996520478444438",
    "geocoded_column": {
      "latitude": "29.996520478444438",
      "longitude": "-90.08091855730306"
    }
  },
  {
    "service_request": "2024-1069227",
    "request_type": "Safety & Permits",
    "request_reason": "Safety & Permits Request (Cyber Incident Back Up)",
    "date_created": "2024-02-20T19:24:24.000",
    "date_modified": "2024-02-20T19:24:24.000",
    "request_status": "Pending",
    "responsible_agency": "Safety and Permits",
    "final_address": "2472 Bedford Dr",
    "address_councildis": "C",
    "status": "Pending",
    "rowid": "1069227",
    "final_x": "3705275.6387",
    "final_y": "521779.81849",
    "longitude": "-89.99335568763448",
    "latitude": "29.92797033317305",
    "geocoded_column": {
      "latitude": "29.92797033317305",
      "longitude": "-89.99335568763448"
    }
  },
  {
    "service_request": "2024-1069226",
    "request_type": "Roads/Drainage",
    "request_reason": "Ditch Issue",
    "date_created": "2024-02-20T19:14:51.000",
    "date_modified": "2024-02-20T19:14:51.000",
    "request_status": "Pending",
    "responsible_agency": "Department of Public Works",
    "final_address": "2472 Bedford Dr",
    "address_councildis": "C",
    "status": "Pending",
    "rowid": "1069226",
    "final_x": "3705275.6387",
    "final_y": "521779.81849",
    "longitude": "-89.99335568763448",
    "latitude": "29.92797033317305",
    "geocoded_column": {
      "latitude": "29.92797033317305",
      "longitude": "-89.99335568763448"
    }
  },
  {
    "service_request": "2024-1069225",
    "request_type": "Roads/Drainage",
    "request_reason": "Catch Basin - Clogged",
    "date_created": "2024-02-20T19:11:58.000",
    "date_modified": "2024-02-20T19:11:58.000",
    "request_status": "Pending",
    "responsible_agency": "Department of Public Works",
    "final_address": "2472 Bedford Dr",
    "address_councildis": "C",
    "status": "Pending",
    "rowid": "1069225",
    "final_x": "3705275.6387",
    "final_y": "521779.81849",
    "longitude": "-89.99335568763448",
    "latitude": "29.92797033317305",
    "geocoded_column": {
      "latitude": "29.92797033317305",
      "longitude": "-89.99335568763448"
    }
  },
  {
    "service_request": "2024-1069224",
    "request_type": "Roads/Drainage",
    "request_reason": "Pothole",
    "date_created": "2024-02-20T19:09:13.000",
    "date_modified": "2024-02-20T19:09:13.000",
    "request_status": "Pending",
    "responsible_agency": "Department of Public Works",
    "final_address": "8941 Dwyer Rd",
    "address_councildis": "E",
    "status": "Pending",
    "rowid": "1069224",
    "final_x": "3708088.03998",
    "final_y": "557100.579546",
    "longitude": "-89.9831638479898",
    "latitude": "30.02499860219977",
    "geocoded_column": {
      "latitude": "30.02499860219977",
      "longitude": "-89.9831638479898"
    }
  },
  {
    "service_request": "2024-1069223",
    "request_type": "Abandoned Vehicles",
    "request_reason": "Abandoned/Junk Vehicles",
    "date_created": "2024-02-20T19:03:48.000",
    "date_modified": "2024-02-20T22:04:15.000",
    "request_status": "Pending",
    "responsible_agency": "Department of Public Works",
    "final_address": "425 Manassas Pl",
    "address_councildis": "B",
    "status": "Pending",
    "rowid": "1069223",
    "final_x": "3674713.45288",
    "final_y": "533781.670725",
    "longitude": "-90.08942229466605",
    "latitude": "29.961918831168433",
    "geocoded_column": {
      "latitude": "29.961918831168433",
      "longitude": "-90.08942229466605"
    }
  },
  {
    "service_request": "2024-1069222",
    "request_type": "Abandoned Vehicles",
    "request_reason": "Abandoned/Junk Vehicles",
    "date_created": "2024-02-20T18:22:29.000",
    "date_modified": "2024-02-20T18:22:29.000",
    "request_status": "Pending",
    "responsible_agency": "Department of Public Works",
    "final_address": "3470 Laurel St",
    "address_councildis": "B",
    "status": "Pending",
    "rowid": "1069222",
    "final_x": "3674793.90382",
    "final_y": "518690.451703",
    "longitude": "-90.08968547839225",
    "latitude": "29.920420529702405",
    "geocoded_column": {
      "latitude": "29.920420529702405",
      "longitude": "-90.08968547839225"
    }
  },
  {
    "service_request": "2024-1069221",
    "request_type": "Abandoned Vehicles",
    "request_reason": "Abandoned/Junk Vehicles",
    "date_created": "2024-02-20T18:20:00.000",
    "date_modified": "2024-02-20T18:20:00.000",
    "request_status": "Pending",
    "responsible_agency": "Department of Public Works",
    "final_address": "3470 Laurel St",
    "address_councildis": "B",
    "status": "Pending",
    "rowid": "1069221",
    "final_x": "3674793.90382",
    "final_y": "518690.451703",
    "longitude": "-90.08968547839225",
    "latitude": "29.920420529702405",
    "geocoded_column": {
      "latitude": "29.920420529702405",
      "longitude": "-90.08968547839225"
    }
  },
  {
    "service_request": "2024-1069220",
    "request_type": "Trash/Recycling",
    "request_reason": "Repair Trash Cart",
    "date_created": "2024-02-20T18:17:18.000",
    "date_modified": "2024-02-20T18:17:19.000",
    "request_status": "Pending",
    "responsible_agency": "Department of Sanitation",
    "final_address": "2439 Peniston St",
    "address_councildis": "B",
    "status": "Assigned to Contractor",
    "contractor": "Richards Disposal",
    "rowid": "1069220",
    "final_x": "3672222.02945",
    "final_y": "524201.036988",
    "longitude": "-90.097616107987",
    "latitude": "29.935649373228085",
    "geocoded_column": {
      "latitude": "29.935649373228085",
      "longitude": "-90.097616107987"
    }
  },
  {
    "service_request": "2024-1069219",
    "request_type": "Trash/Recycling",
    "request_reason": "Start Trash Service",
    "date_created": "2024-02-20T18:13:15.000",
    "date_modified": "2024-02-20T18:13:16.000",
    "request_status": "Pending",
    "responsible_agency": "Department of Sanitation",
    "final_address": "502 Polk St",
    "address_councildis": "A",
    "status": "Assigned to Contractor",
    "contractor": "IV Waste",
    "rowid": "1069219",
    "final_x": "3667794.3986",
    "final_y": "547281.980049",
    "longitude": "-90.11081680938074",
    "latitude": "29.99924484177188",
    "geocoded_column": {
      "latitude": "29.99924484177188",
      "longitude": "-90.11081680938074"
    }
  },
  {
    "service_request": "2024-1069218",
    "request_type": "Mosquito, Termite & Rodent Control",
    "request_reason": "Mosquito Complaint",
    "date_created": "2024-02-20T18:12:51.000",
    "date_modified": "2024-02-20T18:12:51.000",
    "request_status": "Pending",
    "responsible_agency": "Mosquito, Termite & Rodent Control Board",
    "final_address": "3337 Montegut St",
    "address_councildis": "D",
    "status": "Pending",
    "rowid": "1069218",
    "final_x": "3690767.75478",
    "final_y": "545113.800719",
    "longitude": "-90.038321070243",
    "latitude": "29.992589174988456",
    "geocoded_column": {
      "latitude": "29.992589174988456",
      "longitude": "-90.038321070243"
    }
  },
  {
    "service_request": "2024-1069217",
    "request_type": "Trash/Recycling",
    "request_reason": "Missed Trash Pick-Up",
    "date_created": "2024-02-20T17:49:42.000",
    "date_modified": "2024-02-20T17:49:43.000",
    "request_status": "Pending",
    "responsible_agency": "Department of Sanitation",
    "final_address": "4713 Annunciation St",
    "address_councildis": "B",
    "status": "Assigned to Contractor",
    "contractor": "Richards Disposal",
    "rowid": "1069217",
    "final_x": "3669877.44097",
    "final_y": "517657.96543",
    "longitude": "-90.10523941685088",
    "latitude": "29.917727329623556",
    "geocoded_column": {
      "latitude": "29.917727329623556",
      "longitude": "-90.10523941685088"
    }
  },
  {
    "service_request": "2024-1069215",
    "request_type": "Trash/Recycling",
    "request_reason": "MIssed Recycling Pick-Up",
    "date_created": "2024-02-20T17:32:37.000",
    "date_modified": "2024-02-20T17:32:38.000",
    "request_status": "Pending",
    "responsible_agency": "Department of Sanitation",
    "final_address": "6104 Bellaire Dr",
    "address_councildis": "A",
    "status": "Assigned to Contractor",
    "contractor": "IV Waste",
    "rowid": "1069215",
    "final_x": "3664232.60186",
    "final_y": "548271.081618",
    "longitude": "-90.12203563263493",
    "latitude": "30.002068541386844",
    "geocoded_column": {
      "latitude": "30.002068541386844",
      "longitude": "-90.12203563263493"
    }
  },
  {
    "service_request": "2024-1069214",
    "request_type": "Trash/Recycling",
    "request_reason": "Request a Large Item Pick Up",
    "date_created": "2024-02-20T17:23:15.000",
    "date_modified": "2024-02-20T17:23:15.000",
    "request_status": "Pending",
    "responsible_agency": "Department of Sanitation",
    "final_address": "4427 S Tonti St",
    "address_councildis": "B",
    "status": "Assigned to Contractor",
    "contractor": "Richards Disposal",
    "rowid": "1069214",
    "final_x": "3669813.03572",
    "final_y": "528170.579072",
    "longitude": "-90.10508701986817",
    "latitude": "29.94663554288904",
    "geocoded_column": {
      "latitude": "29.94663554288904",
      "longitude": "-90.10508701986817"
    }
  },
  {
    "service_request": "2024-1069213",
    "request_type": "Trash/Recycling",
    "request_reason": "Request a Large Item Pick Up",
    "date_created": "2024-02-20T17:10:20.000",
    "date_modified": "2024-02-20T17:10:20.000",
    "request_status": "Pending",
    "responsible_agency": "Department of Sanitation",
    "final_address": "2925 St Peter St",
    "address_councildis": "A",
    "status": "Assigned to Contractor",
    "contractor": "Richards Disposal",
    "rowid": "1069213",
    "final_x": "3675778.77429",
    "final_y": "537577.6482",
    "longitude": "-90.08592767711137",
    "latitude": "29.97232464015782",
    "geocoded_column": {
      "latitude": "29.97232464015782",
      "longitude": "-90.08592767711137"
    }
  },
  {
    "service_request": "2024-1069212",
    "request_type": "Trash/Recycling",
    "request_reason": "Request a Large Item Pick Up",
    "date_created": "2024-02-20T17:05:25.000",
    "date_modified": "2024-02-20T17:05:25.000",
    "request_status": "Pending",
    "responsible_agency": "Department of Sanitation",
    "final_address": "1512 General Pershing St",
    "address_councildis": "B",
    "status": "Assigned to Contractor",
    "contractor": "Richards Disposal",
    "rowid": "1069212",
    "final_x": "3671215.61991",
    "final_y": "520705.571577",
    "longitude": "-90.10091205336771",
    "latitude": "29.92606777202637",
    "geocoded_column": {
      "latitude": "29.92606777202637",
      "longitude": "-90.10091205336771"
    }
  },
  {
    "service_request": "2024-1069211",
    "request_type": "Trash/Recycling",
    "request_reason": "Missed Trash Pick-Up",
    "date_created": "2024-02-20T16:59:53.000",
    "date_modified": "2024-02-20T16:59:54.000",
    "request_status": "Pending",
    "responsible_agency": "Department of Sanitation",
    "final_address": "8451 Aberdeen Rd",
    "address_councildis": "E",
    "status": "Assigned to Contractor",
    "contractor": "Waste Pro",
    "rowid": "1069211",
    "final_x": "3703854.73028",
    "final_y": "561937.428895",
    "longitude": "-89.9963619985466",
    "latitude": "30.03843452893687",
    "geocoded_column": {
      "latitude": "30.03843452893687",
      "longitude": "-89.9963619985466"
    }
  },
  {
    "service_request": "2024-1069209",
    "request_type": "Trash/Recycling",
    "request_reason": "Replace Recycling Cart",
    "date_created": "2024-02-20T16:52:41.000",
    "date_modified": "2024-02-20T16:52:41.000",
    "request_status": "Pending",
    "responsible_agency": "Department of Sanitation",
    "final_address": "3450 Vincennes Pl",
    "address_councildis": "A",
    "status": "Pending",
    "rowid": "1069209",
    "final_x": "3668027.68461",
    "final_y": "528905.06304",
    "longitude": "-90.11069928955678",
    "latitude": "29.94870763607298",
    "geocoded_column": {
      "latitude": "29.94870763607298",
      "longitude": "-90.11069928955678"
    }
  },
  {
    "service_request": "2024-1069208",
    "request_type": "Trash/Recycling",
    "request_reason": "Request a Large Item Pick Up",
    "date_created": "2024-02-20T16:52:28.000",
    "date_modified": "2024-02-20T16:52:28.000",
    "request_status": "Pending",
    "responsible_agency": "Department of Sanitation",
    "final_address": "42 Yosemite Dr",
    "address_councildis": "C",
    "status": "Assigned to Contractor",
    "contractor": "Richards Disposal",
    "rowid": "1069208",
    "final_x": "3700020.79114",
    "final_y": "517030.085173",
    "longitude": "-90.010117069936",
    "latitude": "29.915078118624486",
    "geocoded_column": {
      "latitude": "29.915078118624486",
      "longitude": "-90.010117069936"
    }
  },
  {
    "service_request": "2024-1069207",
    "request_type": "Traffic Signals/Signs/Striping/Streetlights",
    "request_reason": "Traffic Signal Malfunctioning/Damaged",
    "date_created": "2024-02-20T16:48:14.000",
    "date_modified": "2024-02-20T16:48:14.000",
    "request_status": "Pending",
    "responsible_agency": "Department of Public Works",
    "final_address": "4600 Earhart Blvd, New Orleans, Louisiana, 70125",
    "address_councildis": "B",
    "status": "Pending",
    "rowid": "1069207",
    "final_x": "3670094.97786",
    "final_y": "531863.155075",
    "longitude": "-90.10407174872266",
    "latitude": "29.9567806018558",
    "geocoded_column": {
      "latitude": "29.9567806018558",
      "longitude": "-90.10407174872266"
    }
  },
  {
    "service_request": "2024-1069206",
    "request_type": "Property Maintenance",
    "request_reason": "Property Maintenance",
    "date_created": "2024-02-20T16:47:05.000",
    "date_modified": "2024-02-20T16:50:01.000",
    "request_status": "Pending",
    "responsible_agency": "Department of Code Enforcement",
    "final_address": "3721 N Robertson St",
    "address_councildis": "D",
    "status": "Pending",
    "rowid": "1069206",
    "final_x": "3691496.16374",
    "final_y": "536996.77588",
    "longitude": "-90.03631040150445",
    "latitude": "29.970247604621463",
    "geocoded_column": {
      "latitude": "29.970247604621463",
      "longitude": "-90.03631040150445"
    }
  },
  {
    "service_request": "2024-1069205",
    "request_type": "Trash/Recycling",
    "request_reason": "Order Recycling Cart",
    "date_created": "2024-02-20T16:45:25.000",
    "date_modified": "2024-02-20T16:45:25.000",
    "request_status": "Closed",
    "responsible_agency": "Department of Sanitation",
    "final_address": "1439 N Claiborne Ave",
    "address_councildis": "D",
    "status": "Resolved",
    "rowid": "1069205",
    "final_x": "3681375.98709",
    "final_y": "536921.434376",
    "longitude": "-90.06827360585392",
    "latitude": "29.970351545566505",
    "geocoded_column": {
      "latitude": "29.970351545566505",
      "longitude": "-90.06827360585392"
    }
  },
  {
    "service_request": "2024-1069204",
    "request_type": "Trash/Recycling",
    "request_reason": "Request a Large Item Pick Up",
    "date_created": "2024-02-20T16:42:23.000",
    "date_modified": "2024-02-20T16:42:23.000",
    "request_status": "Pending",
    "responsible_agency": "Department of Sanitation",
    "final_address": "1439 N Claiborne Ave",
    "address_councildis": "D",
    "status": "Assigned to Contractor",
    "contractor": "IV Waste",
    "rowid": "1069204",
    "final_x": "3681375.98709",
    "final_y": "536921.434376",
    "longitude": "-90.06827360585392",
    "latitude": "29.970351545566505",
    "geocoded_column": {
      "latitude": "29.970351545566505",
      "longitude": "-90.06827360585392"
    }
  },
  {
    "service_request": "2024-1069203",
    "request_type": "Trash/Recycling",
    "request_reason": "Request a Large Item Pick Up",
    "date_created": "2024-02-20T16:37:08.000",
    "date_modified": "2024-02-20T16:37:09.000",
    "request_status": "Pending",
    "responsible_agency": "Department of Sanitation",
    "final_address": "4950 Longfellow Dr",
    "address_councildis": "E",
    "status": "Assigned to Contractor",
    "contractor": "Waste Pro",
    "rowid": "1069203",
    "final_x": "3709450.1116",
    "final_y": "556988.016666",
    "longitude": "-89.97886416412743",
    "latitude": "30.024644897676225",
    "geocoded_column": {
      "latitude": "30.024644897676225",
      "longitude": "-89.97886416412743"
    }
  },
  {
    "service_request": "2024-1069202",
    "request_type": "Trash/Recycling",
    "request_reason": "Request a Large Item Pick Up",
    "date_created": "2024-02-20T16:33:35.000",
    "date_modified": "2024-02-20T16:33:36.000",
    "request_status": "Pending",
    "responsible_agency": "Department of Sanitation",
    "final_address": "7064 E Tamaron Blvd",
    "address_councildis": "E",
    "status": "Assigned to Contractor",
    "contractor": "Waste Pro",
    "rowid": "1069202",
    "final_x": "3718766.26873",
    "final_y": "568555.849061",
    "longitude": "-89.94898546252163",
    "latitude": "30.0561456351878",
    "geocoded_column": {
      "latitude": "30.0561456351878",
      "longitude": "-89.94898546252163"
    }
  },
  {
    "service_request": "2024-1069201",
    "request_type": "Traffic Signals/Signs/Striping/Streetlights",
    "request_reason": "Traffic Sign Missing/Damaged",
    "date_created": "2024-02-20T16:32:25.000",
    "date_modified": "2024-02-20T16:32:25.000",
    "request_status": "Pending",
    "responsible_agency": "Department of Public Works",
    "final_address": "3701 Delgado Dr",
    "address_councildis": "A",
    "status": "Pending",
    "rowid": "1069201",
    "final_x": "3674311.29409",
    "final_y": "540561.876555",
    "longitude": "-90.09046001124534",
    "latitude": "29.980574095172003",
    "geocoded_column": {
      "latitude": "29.980574095172003",
      "longitude": "-90.09046001124534"
    }
  },
  {
    "service_request": "2024-1069200",
    "request_type": "Traffic Signals/Signs/Striping/Streetlights",
    "request_reason": "Traffic Sign Missing/Damaged",
    "date_created": "2024-02-20T16:30:41.000",
    "date_modified": "2024-02-20T16:30:41.000",
    "request_status": "Pending",
    "responsible_agency": "Department of Public Works",
    "final_address": "2544 Tulane Ave",
    "address_councildis": "B",
    "status": "Pending",
    "rowid": "1069200",
    "final_x": "3674834.17768",
    "final_y": "533400.706948",
    "longitude": "-90.08905412793908",
    "latitude": "29.960867704530123",
    "geocoded_column": {
      "latitude": "29.960867704530123",
      "longitude": "-90.08905412793908"
    }
  },
  {
    "service_request": "2024-1069199",
    "request_type": "Traffic Signals/Signs/Striping/Streetlights",
    "request_reason": "Request for Stop Sign",
    "date_created": "2024-02-20T16:21:37.000",
    "date_modified": "2024-02-20T16:21:37.000",
    "request_status": "Pending",
    "responsible_agency": "Department of Public Works",
    "final_address": "SHORT ST & PLUM ST",
    "address_councildis": "A",
    "status": "Pending",
    "rowid": "1069199",
    "final_x": "3662536.4",
    "final_y": "528323.88",
    "longitude": "-90.12805699761114",
    "latitude": "29.94726953832913",
    "geocoded_column": {
      "latitude": "29.94726953832913",
      "longitude": "-90.12805699761114"
    }
  },
  {
    "service_request": "2024-1069198",
    "request_type": "Trash/Recycling",
    "request_reason": "Replace Recycling Cart",
    "date_created": "2024-02-20T16:16:30.000",
    "date_modified": "2024-02-20T16:16:30.000",
    "request_status": "Pending",
    "responsible_agency": "Department of Sanitation",
    "final_address": "1315 Allen Toussaint Blvd",
    "address_councildis": "D",
    "status": "Pending",
    "rowid": "1069198",
    "final_x": "3677140.5572",
    "final_y": "555349.692313",
    "longitude": "-90.08101350021316",
    "latitude": "30.021150671244854",
    "geocoded_column": {
      "latitude": "30.021150671244854",
      "longitude": "-90.08101350021316"
    }
  },
  {
    "service_request": "2024-1069197",
    "request_type": "Trash/Recycling",
    "request_reason": "Request a Large Item Pick Up",
    "date_created": "2024-02-20T16:01:51.000",
    "date_modified": "2024-02-20T16:01:52.000",
    "request_status": "Pending",
    "responsible_agency": "Department of Sanitation",
    "final_address": "6700 BLK Dorchester St",
    "address_councildis": "E",
    "status": "Assigned to Contractor",
    "contractor": "Waste Pro",
    "rowid": "1069197",
    "final_x": "3698395.19602",
    "final_y": "559321.902141",
    "longitude": "-90.01371067214181",
    "latitude": "30.031416868150114",
    "geocoded_column": {
      "latitude": "30.031416868150114",
      "longitude": "-90.01371067214181"
    }
  },
  {
    "service_request": "2024-1069196",
    "request_type": "Safety & Permits",
    "request_reason": "Licenses & Permits",
    "date_created": "2024-02-20T16:01:28.000",
    "date_modified": "2024-02-20T16:01:28.000",
    "request_status": "Pending",
    "responsible_agency": "Safety and Permits",
    "final_address": "7532 Hurst St",
    "address_councildis": "A",
    "status": "Pending",
    "rowid": "1069196",
    "final_x": "3660948.57312",
    "final_y": "524510.942076",
    "longitude": "-90.13319649084279",
    "latitude": "29.936830997936326",
    "geocoded_column": {
      "latitude": "29.936830997936326",
      "longitude": "-90.13319649084279"
    }
  },
  {
    "service_request": "2024-1069195",
    "request_type": "Parks & Parkways",
    "request_reason": "Request Tree Service (Right of Way/Public Property)",
    "date_created": "2024-02-20T16:01:15.000",
    "date_modified": "2024-02-20T16:02:33.000",
    "request_status": "Pending",
    "responsible_agency": "Department of Parks & Parkway",
    "final_address": "1936 Esplanade Ave",
    "address_councildis": "D",
    "status": "Pending",
    "rowid": "1069195",
    "final_x": "3680138.00149",
    "final_y": "537369.790856",
    "longitude": "-90.07216771477441",
    "latitude": "29.97162189567321",
    "geocoded_column": {
      "latitude": "29.97162189567321",
      "longitude": "-90.07216771477441"
    }
  },
  {
    "service_request": "2024-1069194",
    "request_type": "Trash/Recycling",
    "request_reason": "Order Trash Cart",
    "date_created": "2024-02-20T16:00:25.000",
    "date_modified": "2024-02-20T16:00:25.000",
    "request_status": "Pending",
    "responsible_agency": "Department of Sanitation",
    "final_address": "2520 Alvar St",
    "address_councildis": "D",
    "status": "Assigned to Contractor",
    "contractor": "IV Waste",
    "rowid": "1069194",
    "final_x": "3692810.27286",
    "final_y": "540914.576203",
    "longitude": "-90.0320198059115",
    "latitude": "29.980979192244707",
    "geocoded_column": {
      "latitude": "29.980979192244707",
      "longitude": "-90.0320198059115"
    }
  },
  {
    "service_request": "2024-1069193",
    "request_type": "Trash/Recycling",
    "request_reason": "MIssed Recycling Pick-Up",
    "date_created": "2024-02-20T16:00:04.000",
    "date_modified": "2024-02-20T16:00:05.000",
    "request_status": "Pending",
    "responsible_agency": "Department of Sanitation",
    "final_address": "4668 Francisco Verrett Dr",
    "address_councildis": "E",
    "status": "Assigned to Contractor",
    "contractor": "Waste Pro",
    "rowid": "1069193",
    "final_x": "3704225.39236",
    "final_y": "554817.277016",
    "longitude": "-89.99545334385458",
    "latitude": "30.018844983673084",
    "geocoded_column": {
      "latitude": "30.018844983673084",
      "longitude": "-89.99545334385458"
    }
  },
  {
    "service_request": "2024-1069192",
    "request_type": "Trash/Recycling",
    "request_reason": "Replace Recycling Cart",
    "date_created": "2024-02-20T15:53:51.000",
    "date_modified": "2024-02-20T15:53:51.000",
    "request_status": "Pending",
    "responsible_agency": "Department of Sanitation",
    "final_address": "5222 Music St",
    "address_councildis": "D",
    "status": "Pending",
    "rowid": "1069192",
    "final_x": "3685402.88809",
    "final_y": "552309.050454",
    "longitude": "-90.05501409155889",
    "latitude": "30.012539139761046",
    "geocoded_column": {
      "latitude": "30.012539139761046",
      "longitude": "-90.05501409155889"
    }
  },
  {
    "service_request": "2024-1069191",
    "request_type": "Trash/Recycling",
    "request_reason": "Order Recycling Cart",
    "date_created": "2024-02-20T15:52:09.000",
    "date_modified": "2024-02-20T15:52:10.000",
    "request_status": "Pending",
    "responsible_agency": "Department of Sanitation",
    "final_address": "7351 Weaver Ave",
    "address_councildis": "E",
    "status": "Pending",
    "rowid": "1069191",
    "final_x": "3707899.29457",
    "final_y": "563583.128673",
    "longitude": "-89.98351894674416",
    "latitude": "30.04282916825636",
    "geocoded_column": {
      "latitude": "30.04282916825636",
      "longitude": "-89.98351894674416"
    }
  },
  {
    "service_request": "2024-1069190",
    "request_type": "Trash/Recycling",
    "request_reason": "Request a Large Item Pick Up",
    "date_created": "2024-02-20T15:50:46.000",
    "date_modified": "2024-02-20T15:50:47.000",
    "request_status": "Pending",
    "responsible_agency": "Department of Sanitation",
    "final_address": "7351 Weaver Ave",
    "address_councildis": "E",
    "status": "Assigned to Contractor",
    "contractor": "Waste Pro",
    "rowid": "1069190",
    "final_x": "3707899.29457",
    "final_y": "563583.128673",
    "longitude": "-89.98351894674416",
    "latitude": "30.04282916825636",
    "geocoded_column": {
      "latitude": "30.04282916825636",
      "longitude": "-89.98351894674416"
    }
  },
  {
    "service_request": "2024-1069189",
    "request_type": "Traffic Signals/Signs/Striping/Streetlights",
    "request_reason": "Crosswalks and Signage",
    "date_created": "2024-02-20T15:50:10.000",
    "date_modified": "2024-02-20T15:50:11.000",
    "request_status": "Pending",
    "responsible_agency": "Department of Public Works",
    "final_address": "CONGRESS DR & STEPHEN GIRARD AVE",
    "address_councildis": "D",
    "status": "Pending",
    "rowid": "1069189",
    "final_x": "3692540.6",
    "final_y": "551051.28",
    "longitude": "-90.03250808308961",
    "latitude": "30.008859853840168",
    "geocoded_column": {
      "latitude": "30.008859853840168",
      "longitude": "-90.03250808308961"
    }
  },
  {
    "service_request": "2024-1069188",
    "request_type": "Trash/Recycling",
    "request_reason": "Return Recycling Cart",
    "date_created": "2024-02-20T15:49:24.000",
    "date_modified": "2024-02-20T15:49:24.000",
    "request_status": "Pending",
    "responsible_agency": "Department of Sanitation",
    "final_address": "5210 Chestnut St",
    "address_councildis": "B",
    "status": "Pending",
    "rowid": "1069188",
    "final_x": "3667961.73172",
    "final_y": "519316.222519",
    "longitude": "-90.11123044288567",
    "latitude": "29.922343332606122",
    "geocoded_column": {
      "latitude": "29.922343332606122",
      "longitude": "-90.11123044288567"
    }
  },
  {
    "service_request": "2024-1069187",
    "request_type": "Trash/Recycling",
    "request_reason": "Repair Trash Cart",
    "date_created": "2024-02-20T15:44:01.000",
    "date_modified": "2024-02-20T15:44:01.000",
    "request_status": "Pending",
    "responsible_agency": "Department of Sanitation",
    "final_address": "4939 Dryades St",
    "address_councildis": "B",
    "status": "Assigned to Contractor",
    "contractor": "Richards Disposal",
    "rowid": "1069187",
    "final_x": "3668804.29556",
    "final_y": "521871.44889",
    "longitude": "-90.10848458529235",
    "latitude": "29.9293446568623",
    "geocoded_column": {
      "latitude": "29.9293446568623",
      "longitude": "-90.10848458529235"
    }
  },
  {
    "service_request": "2024-1069186",
    "request_type": "Roads/Drainage",
    "request_reason": "Pothole",
    "date_created": "2024-02-20T15:42:38.000",
    "date_modified": "2024-02-20T15:42:38.000",
    "request_status": "Pending",
    "responsible_agency": "Department of Public Works",
    "final_address": "1312 Milan St",
    "address_councildis": "B",
    "status": "Pending",
    "rowid": "1069186",
    "final_x": "3671625.82823",
    "final_y": "520286.919608",
    "longitude": "-90.09963137110304",
    "latitude": "29.92490447494246",
    "geocoded_column": {
      "latitude": "29.92490447494246",
      "longitude": "-90.09963137110304"
    }
  },
  {
    "service_request": "2024-1069185",
    "request_type": "Trash/Recycling",
    "request_reason": "Repair Recycling Cart",
    "date_created": "2024-02-20T15:36:43.000",
    "date_modified": "2024-02-20T15:36:44.000",
    "request_status": "Pending",
    "responsible_agency": "Department of Sanitation",
    "final_address": "4764 Sherwood Dr",
    "address_councildis": "E",
    "status": "Pending",
    "rowid": "1069185",
    "final_x": "3717909.96588",
    "final_y": "557156.445595",
    "longitude": "-89.95212638120326",
    "latitude": "30.0248303291882",
    "geocoded_column": {
      "latitude": "30.0248303291882",
      "longitude": "-89.95212638120326"
    }
  },
  {
    "service_request": "2024-1069184",
    "request_type": "Roads/Drainage",
    "request_reason": "Pothole",
    "date_created": "2024-02-20T15:36:15.000",
    "date_modified": "2024-02-20T15:36:15.000",
    "request_status": "Pending",
    "responsible_agency": "Department of Public Works",
    "final_address": "1301 Constantinople St",
    "address_councildis": "B",
    "status": "Pending",
    "rowid": "1069184",
    "final_x": "3672430.66305",
    "final_y": "520250.7726",
    "longitude": "-90.09709199725775",
    "latitude": "29.924781230435865",
    "geocoded_column": {
      "latitude": "29.924781230435865",
      "longitude": "-90.09709199725775"
    }
  },
  {
    "service_request": "2024-1069183",
    "request_type": "Abandoned Vehicles",
    "request_reason": "Abandoned/Junk Vehicles",
    "date_created": "2024-02-20T15:30:32.000",
    "date_modified": "2024-02-20T15:30:32.000",
    "request_status": "Pending",
    "responsible_agency": "Department of Public Works",
    "final_address": "1498 Mandolin St",
    "address_councildis": "D",
    "status": "Pending",
    "rowid": "1069183",
    "final_x": "3678791.11464",
    "final_y": "547974.947474",
    "longitude": "-90.07605388600615",
    "latitude": "30.0008230682824",
    "geocoded_column": {
      "latitude": "30.0008230682824",
      "longitude": "-90.07605388600615"
    }
  },
  {
    "service_request": "2024-1069182",
    "request_type": "Trash/Recycling",
    "request_reason": "Order Recycling Cart",
    "date_created": "2024-02-20T15:28:43.000",
    "date_modified": "2024-02-20T15:28:43.000",
    "request_status": "Pending",
    "responsible_agency": "Department of Sanitation",
    "final_address": "3827 Iberville St",
    "address_councildis": "A",
    "status": "Pending",
    "rowid": "1069182",
    "final_x": "3672173.50881",
    "final_y": "538106.857289",
    "longitude": "-90.09729572237372",
    "latitude": "29.97388721298482",
    "geocoded_column": {
      "latitude": "29.97388721298482",
      "longitude": "-90.09729572237372"
    }
  },
  {
    "service_request": "2024-1069181",
    "request_type": "Trash/Recycling",
    "request_reason": "Order Recycling Cart",
    "date_created": "2024-02-20T15:27:44.000",
    "date_modified": "2024-02-20T15:27:44.000",
    "request_status": "Pending",
    "responsible_agency": "Department of Sanitation",
    "final_address": "3827 Iberville St",
    "address_councildis": "A",
    "status": "Pending",
    "rowid": "1069181",
    "final_x": "3672173.50881",
    "final_y": "538106.857289",
    "longitude": "-90.09729572237372",
    "latitude": "29.97388721298482",
    "geocoded_column": {
      "latitude": "29.97388721298482",
      "longitude": "-90.09729572237372"
    }
  },
  {
    "service_request": "2024-1069180",
    "request_type": "Trash/Recycling",
    "request_reason": "Request a Large Item Pick Up",
    "date_created": "2024-02-20T15:27:30.000",
    "date_modified": "2024-02-20T15:27:31.000",
    "request_status": "Pending",
    "responsible_agency": "Department of Sanitation",
    "final_address": "5415 Burgundy St",
    "address_councildis": "E",
    "status": "Assigned to Contractor",
    "contractor": "Waste Pro",
    "rowid": "1069180",
    "final_x": "3697082.16797",
    "final_y": "533198.77082",
    "longitude": "-90.01880690380933",
    "latitude": "29.959629399258237",
    "geocoded_column": {
      "latitude": "29.959629399258237",
      "longitude": "-90.01880690380933"
    }
  },
  {
    "service_request": "2024-1069179",
    "request_type": "Traffic Signals/Signs/Striping/Streetlights",
    "request_reason": "Street Light Outage/Malfunction",
    "date_created": "2024-02-20T15:21:13.000",
    "date_modified": "2024-02-20T15:21:14.000",
    "request_status": "Pending",
    "responsible_agency": "Department of Public Works",
    "final_address": "4940 St Roch Ave",
    "address_councildis": "D",
    "status": "Assigned to Contractor",
    "contractor": "Legacy Professional Services",
    "rowid": "1069179",
    "final_x": "3685191.64207",
    "final_y": "551099.410069",
    "longitude": "-90.05572412357968",
    "latitude": "30.009219548236747",
    "geocoded_column": {
      "latitude": "30.009219548236747",
      "longitude": "-90.05572412357968"
    }
  },
  {
    "service_request": "2024-1069178",
    "request_type": "Roads/Drainage",
    "request_reason": "Catch Basin - Clogged",
    "date_created": "2024-02-20T15:19:31.000",
    "date_modified": "2024-02-20T15:19:31.000",
    "request_status": "Pending",
    "responsible_agency": "Department of Public Works",
    "final_address": "1320 S Claiborne Ave",
    "address_councildis": "B",
    "status": "Pending",
    "rowid": "1069178",
    "final_x": "3675547.60469",
    "final_y": "528481.385088",
    "longitude": "-90.08697022941251",
    "latitude": "29.947319889128377",
    "geocoded_column": {
      "latitude": "29.947319889128377",
      "longitude": "-90.08697022941251"
    }
  },
  {
    "service_request": "2024-1069177",
    "request_type": "Trash/Recycling",
    "request_reason": "Request a Large Item Pick Up",
    "date_created": "2024-02-20T15:19:26.000",
    "date_modified": "2024-02-20T15:19:26.000",
    "request_status": "Pending",
    "responsible_agency": "Department of Sanitation",
    "final_address": "4419 Knight Dr",
    "address_councildis": "E",
    "status": "Assigned to Contractor",
    "contractor": "Waste Pro",
    "rowid": "1069177",
    "final_x": "3708377.53784",
    "final_y": "553852.125207",
    "longitude": "-89.98237011006736",
    "latitude": "30.016057233859833",
    "geocoded_column": {
      "latitude": "30.016057233859833",
      "longitude": "-89.98237011006736"
    }
  },
  {
    "service_request": "2024-1069176",
    "request_type": "Trash/Recycling",
    "request_reason": "Request a Large Item Pick Up",
    "date_created": "2024-02-20T15:17:05.000",
    "date_modified": "2024-02-20T15:17:05.000",
    "request_status": "Pending",
    "responsible_agency": "Department of Sanitation",
    "final_address": "5605 N Villere St",
    "address_councildis": "E",
    "status": "Assigned to Contractor",
    "contractor": "Waste Pro",
    "rowid": "1069176",
    "final_x": "3698430.08848",
    "final_y": "534905.444358",
    "longitude": "-90.01448847559048",
    "latitude": "29.964279555547773",
    "geocoded_column": {
      "latitude": "29.964279555547773",
      "longitude": "-90.01448847559048"
    }
  },
  {
    "service_request": "2024-1069175",
    "request_type": "Trash/Recycling",
    "request_reason": "Return Trash Cart",
    "date_created": "2024-02-20T15:09:36.000",
    "date_modified": "2024-02-20T15:11:15.000",
    "request_status": "Pending",
    "responsible_agency": "Department of Sanitation",
    "final_address": "2644 General Collins Ave",
    "address_councildis": "C",
    "status": "Assigned to Contractor",
    "contractor": "Richards Disposal",
    "rowid": "1069175",
    "final_x": "3698433.80612",
    "final_y": "521346.475385",
    "longitude": "-90.01496938488393",
    "latitude": "29.926997016950835",
    "geocoded_column": {
      "latitude": "29.926997016950835",
      "longitude": "-90.01496938488393"
    }
  },
  {
    "service_request": "2024-1069174",
    "request_type": "Roads/Drainage",
    "request_reason": "Street Flooding / Drainage",
    "date_created": "2024-02-20T15:09:26.000",
    "date_modified": "2024-02-20T15:09:26.000",
    "request_status": "Pending",
    "responsible_agency": "Department of Public Works",
    "final_address": "2767 Bay St",
    "address_councildis": "D",
    "status": "Reviewed",
    "rowid": "1069174",
    "final_x": "3688496.92598",
    "final_y": "545327.061775",
    "longitude": "-90.04548660429217",
    "latitude": "29.993245939173",
    "geocoded_column": {
      "latitude": "29.993245939173",
      "longitude": "-90.04548660429217"
    }
  },
  {
    "service_request": "2024-1069173",
    "request_type": "Trash/Recycling",
    "request_reason": "Order Trash Cart",
    "date_created": "2024-02-20T15:00:24.000",
    "date_modified": "2024-02-20T15:00:25.000",
    "request_status": "Pending",
    "responsible_agency": "Department of Sanitation",
    "final_address": "3501 Tchoupitoulas St",
    "address_councildis": "B",
    "status": "Assigned to Contractor",
    "contractor": "Richards Disposal",
    "rowid": "1069173",
    "final_x": "3674934.27477",
    "final_y": "517898.198646",
    "longitude": "-90.08926954406205",
    "latitude": "29.918237897617857",
    "geocoded_column": {
      "latitude": "29.918237897617857",
      "longitude": "-90.08926954406205"
    }
  },
  {
    "service_request": "2024-1069172",
    "request_type": "Property Maintenance",
    "request_reason": "Property Maintenance",
    "date_created": "2024-02-20T14:58:23.000",
    "date_modified": "2024-02-20T15:26:54.000",
    "case_close_date": "2024-02-20T09:26:54.000",
    "request_status": "Closed",
    "responsible_agency": "Department of Code Enforcement",
    "final_address": "8030 Parry St",
    "address_councildis": "E",
    "status": "Duplicate Request",
    "rowid": "1069172",
    "final_x": "3713501.67173",
    "final_y": "569532.11063",
    "longitude": "-89.9655889328935",
    "latitude": "30.05900378949386",
    "geocoded_column": {
      "latitude": "30.05900378949386",
      "longitude": "-89.9655889328935"
    }
  },
  {
    "service_request": "2024-1069171",
    "request_type": "Property Maintenance",
    "request_reason": "Property Maintenance",
    "date_created": "2024-02-20T14:57:39.000",
    "date_modified": "2024-02-20T14:57:39.000",
    "request_status": "Pending",
    "responsible_agency": "Department of Code Enforcement",
    "final_address": "8030 Parry St",
    "address_councildis": "E",
    "status": "Pending",
    "rowid": "1069171",
    "final_x": "3713501.67173",
    "final_y": "569532.11063",
    "longitude": "-89.9655889328935",
    "latitude": "30.05900378949386",
    "geocoded_column": {
      "latitude": "30.05900378949386",
      "longitude": "-89.9655889328935"
    }
  },
  {
    "service_request": "2024-1069170",
    "request_type": "Trash/Recycling",
    "request_reason": "Missed Trash Pick-Up",
    "date_created": "2024-02-20T14:56:15.000",
    "date_modified": "2024-02-20T16:57:30.000",
    "case_close_date": "2024-02-20T10:57:30.000",
    "request_status": "Closed",
    "responsible_agency": "Department of Sanitation",
    "final_address": "5313 Chestnut St",
    "address_councildis": "B",
    "status": "Resolved",
    "contractor": "Richards Disposal",
    "contractor_action": "Completed",
    "rowid": "1069170",
    "final_x": "3667471.18324",
    "final_y": "519441.586615",
    "longitude": "-90.11277469406916",
    "latitude": "29.922702421462443",
    "geocoded_column": {
      "latitude": "29.922702421462443",
      "longitude": "-90.11277469406916"
    }
  },
  {
    "service_request": "2024-1069169",
    "request_type": "Property Maintenance",
    "request_reason": "Property Maintenance",
    "date_created": "2024-02-20T14:55:47.000",
    "date_modified": "2024-02-20T14:55:47.000",
    "request_status": "Pending",
    "responsible_agency": "Department of Code Enforcement",
    "final_address": "8030 Parry St",
    "address_councildis": "E",
    "status": "Pending",
    "rowid": "1069169",
    "final_x": "3713501.67173",
    "final_y": "569532.11063",
    "longitude": "-89.9655889328935",
    "latitude": "30.05900378949386",
    "geocoded_column": {
      "latitude": "30.05900378949386",
      "longitude": "-89.9655889328935"
    }
  },
  {
    "service_request": "2024-1069168",
    "request_type": "Trash/Recycling",
    "request_reason": "Repair Trash Cart",
    "date_created": "2024-02-20T14:54:18.000",
    "date_modified": "2024-02-20T14:54:19.000",
    "request_status": "Pending",
    "responsible_agency": "Department of Sanitation",
    "final_address": "2200 BLK Saint Ann St",
    "address_councildis": "D",
    "status": "Assigned to Contractor",
    "contractor": "Richards Disposal",
    "rowid": "1069168",
    "final_x": "3678430.97906",
    "final_y": "536071.17174",
    "longitude": "-90.07760369489134",
    "latitude": "29.96810268831551",
    "geocoded_column": {
      "latitude": "29.96810268831551",
      "longitude": "-90.07760369489134"
    }
  },
  {
    "service_request": "2024-1069167",
    "request_type": "Trash/Recycling",
    "request_reason": "Repair Trash Cart",
    "date_created": "2024-02-20T14:51:57.000",
    "date_modified": "2024-02-20T14:51:58.000",
    "request_status": "Pending",
    "responsible_agency": "Department of Sanitation",
    "final_address": "1829 Wagner St",
    "address_councildis": "C",
    "status": "Assigned to Contractor",
    "contractor": "Richards Disposal",
    "rowid": "1069167",
    "final_x": "3690265.34025",
    "final_y": "524090.491388",
    "longitude": "-90.04065728599984",
    "latitude": "29.934798031534296",
    "geocoded_column": {
      "latitude": "29.934798031534296",
      "longitude": "-90.04065728599984"
    }
  },
  {
    "service_request": "2024-1069166",
    "request_type": "Property Maintenance",
    "request_reason": "Property Maintenance",
    "date_created": "2024-02-20T14:50:30.000",
    "date_modified": "2024-02-20T15:43:26.000",
    "case_close_date": "2024-02-20T09:43:26.000",
    "request_status": "Closed",
    "responsible_agency": "Department of Code Enforcement",
    "final_address": "DELGADO DR & HARDING DR",
    "address_councildis": "A",
    "status": "Resolved",
    "rowid": "1069166",
    "final_x": "3674406.0",
    "final_y": "540376.88",
    "longitude": "-90.09016722777382",
    "latitude": "29.9800625931474",
    "geocoded_column": {
      "latitude": "29.9800625931474",
      "longitude": "-90.09016722777382"
    }
  },
  {
    "service_request": "2024-1069165",
    "request_type": "Roads/Drainage",
    "request_reason": "Catch Basin - Broken/Damage",
    "date_created": "2024-02-20T14:45:00.000",
    "date_modified": "2024-02-20T14:45:00.000",
    "request_status": "Pending",
    "responsible_agency": "Department of Public Works",
    "final_address": "1127 Felicity St",
    "address_councildis": "B",
    "status": "Pending",
    "rowid": "1069165",
    "final_x": "3679812.0196",
    "final_y": "523269.145851",
    "longitude": "-90.07368676356731",
    "latitude": "29.932859728035382",
    "geocoded_column": {
      "latitude": "29.932859728035382",
      "longitude": "-90.07368676356731"
    }
  },
  {
    "service_request": "2024-1069164",
    "request_type": "Trash/Recycling",
    "request_reason": "Missed Trash Pick-Up",
    "date_created": "2024-02-20T14:44:28.000",
    "date_modified": "2024-02-20T16:34:51.000",
    "case_close_date": "2024-02-20T10:34:51.000",
    "request_status": "Closed",
    "responsible_agency": "Department of Sanitation",
    "final_address": "11247 Winrock Dr",
    "address_councildis": "E",
    "status": "Assigned to Contractor",
    "contractor": "Waste Pro",
    "contractor_action": "Invalid Request",
    "rowid": "1069164",
    "final_x": "3716304.88869",
    "final_y": "561480.474015",
    "longitude": "-89.95703398906527",
    "latitude": "30.03677277571997",
    "geocoded_column": {
      "latitude": "30.03677277571997",
      "longitude": "-89.95703398906527"
    }
  },
  {
    "service_request": "2024-1069163",
    "request_type": "Roads/Drainage",
    "request_reason": "Pothole",
    "date_created": "2024-02-20T14:44:21.000",
    "date_modified": "2024-02-20T14:44:21.000",
    "request_status": "Pending",
    "responsible_agency": "Department of Public Works",
    "final_address": "1 Allen St",
    "address_councildis": "D",
    "status": "Pending",
    "rowid": "1069163",
    "final_x": "3682044.14812",
    "final_y": "544653.067983",
    "longitude": "-90.06589339595547",
    "latitude": "29.99159053453871",
    "geocoded_column": {
      "latitude": "29.99159053453871",
      "longitude": "-90.06589339595547"
    }
  },
  {
    "service_request": "2024-1069162",
    "request_type": "Roads/Drainage",
    "request_reason": "Catch Basin - Clogged",
    "date_created": "2024-02-20T14:43:30.000",
    "date_modified": "2024-02-20T14:43:30.000",
    "request_status": "Pending",
    "responsible_agency": "Department of Public Works",
    "final_address": "4305 Bienville Ave",
    "address_councildis": "A",
    "status": "Pending",
    "rowid": "1069162",
    "final_x": "3670752.00718",
    "final_y": "539676.334218",
    "longitude": "-90.10173187383099",
    "latitude": "29.978244830251302",
    "geocoded_column": {
      "latitude": "29.978244830251302",
      "longitude": "-90.10173187383099"
    }
  },
  {
    "service_request": "2024-1069161",
    "request_type": "Trash/Recycling",
    "request_reason": "Illegal Dumping",
    "date_created": "2024-02-20T14:40:59.000",
    "date_modified": "2024-02-20T14:40:59.000",
    "request_status": "Pending",
    "responsible_agency": "Department of Sanitation",
    "final_address": "4700 BLK Werner Dr",
    "address_councildis": "E",
    "status": "Pending",
    "rowid": "1069161",
    "final_x": "3704767.62258",
    "final_y": "555296.183487",
    "longitude": "-89.99372241161224",
    "latitude": "30.02014437267428",
    "geocoded_column": {
      "latitude": "30.02014437267428",
      "longitude": "-89.99372241161224"
    }
  },
  {
    "service_request": "2024-1069160",
    "request_type": "Trash/Recycling",
    "request_reason": "Missed Trash Pick-Up",
    "date_created": "2024-02-20T14:40:32.000",
    "date_modified": "2024-02-20T14:40:33.000",
    "request_status": "Pending",
    "responsible_agency": "Department of Sanitation",
    "final_address": "706 Majestic Pl",
    "address_councildis": "C",
    "status": "Assigned to Contractor",
    "contractor": "Richards Disposal",
    "rowid": "1069160",
    "final_x": "3688162.23587",
    "final_y": "526290.61619",
    "longitude": "-90.047218776482",
    "latitude": "29.94091270226575",
    "geocoded_column": {
      "latitude": "29.94091270226575",
      "longitude": "-90.047218776482"
    }
  },
  {
    "service_request": "2024-1069159",
    "request_type": "Trash/Recycling",
    "request_reason": "Request a Large Item Pick Up",
    "date_created": "2024-02-20T14:40:12.000",
    "date_modified": "2024-02-20T14:40:12.000",
    "request_status": "Pending",
    "responsible_agency": "Department of Sanitation",
    "final_address": "3419 Cherry St",
    "address_councildis": "A",
    "status": "Assigned to Contractor",
    "contractor": "Richards Disposal",
    "rowid": "1069159",
    "final_x": "3664254.88045",
    "final_y": "537114.446216",
    "longitude": "-90.12233774429816",
    "latitude": "29.9713909103089",
    "geocoded_column": {
      "latitude": "29.9713909103089",
      "longitude": "-90.12233774429816"
    }
  },
  {
    "service_request": "2024-1069158",
    "request_type": "Trash/Recycling",
    "request_reason": "Request a Large Item Pick Up",
    "date_created": "2024-02-20T14:39:42.000",
    "date_modified": "2024-02-20T14:39:42.000",
    "request_status": "Pending",
    "responsible_agency": "Department of Sanitation",
    "final_address": "7461 Lake Barrington Dr",
    "address_councildis": "E",
    "status": "Assigned to Contractor",
    "contractor": "Waste Pro",
    "rowid": "1069158",
    "final_x": "3712801.7621",
    "final_y": "565200.106914",
    "longitude": "-89.96796443149506",
    "latitude": "30.04711549883253",
    "geocoded_column": {
      "latitude": "30.04711549883253",
      "longitude": "-89.96796443149506"
    }
  },
  {
    "service_request": "2024-1069157",
    "request_type": "Trash/Recycling",
    "request_reason": "Order Trash Cart",
    "date_created": "2024-02-20T14:39:21.000",
    "date_modified": "2024-02-20T14:39:22.000",
    "request_status": "Pending",
    "responsible_agency": "Department of Sanitation",
    "final_address": "11247 Winrock Dr",
    "address_councildis": "E",
    "status": "Assigned to Contractor",
    "contractor": "Waste Pro",
    "rowid": "1069157",
    "final_x": "3716304.88869",
    "final_y": "561480.474015",
    "longitude": "-89.95703398906527",
    "latitude": "30.03677277571997",
    "geocoded_column": {
      "latitude": "30.03677277571997",
      "longitude": "-89.95703398906527"
    }
  },
  {
    "service_request": "2024-1069156",
    "request_type": "Trash/Recycling",
    "request_reason": "Missed Trash Pick-Up",
    "date_created": "2024-02-20T14:36:50.000",
    "date_modified": "2024-02-20T14:45:47.000",
    "case_close_date": "2024-02-20T08:45:47.000",
    "request_status": "Closed",
    "responsible_agency": "Department of Sanitation",
    "final_address": "5313 Chestnut St",
    "address_councildis": "B",
    "status": "Duplicate Request",
    "contractor": "Richards Disposal",
    "contractor_action": "Duplicate",
    "rowid": "1069156",
    "final_x": "3667471.18324",
    "final_y": "519441.586615",
    "longitude": "-90.11277469406916",
    "latitude": "29.922702421462443",
    "geocoded_column": {
      "latitude": "29.922702421462443",
      "longitude": "-90.11277469406916"
    }
  },
  {
    "service_request": "2024-1069155",
    "request_type": "Trash/Recycling",
    "request_reason": "Replace Trash Cart",
    "date_created": "2024-02-20T14:34:38.000",
    "date_modified": "2024-02-20T14:34:38.000",
    "request_status": "Pending",
    "responsible_agency": "Department of Sanitation",
    "final_address": "6130 Providence Pl",
    "address_councildis": "D",
    "status": "Assigned to Contractor",
    "contractor": "IV Waste",
    "rowid": "1069155",
    "final_x": "3688391.46319",
    "final_y": "556013.942937",
    "longitude": "-90.04544031159665",
    "latitude": "30.02263420774528",
    "geocoded_column": {
      "latitude": "30.02263420774528",
      "longitude": "-90.04544031159665"
    }
  },
  {
    "service_request": "2024-1069154",
    "request_type": "Trash/Recycling",
    "request_reason": "Illegal Dumping",
    "date_created": "2024-02-20T14:34:28.000",
    "date_modified": "2024-02-20T14:34:29.000",
    "request_status": "Pending",
    "responsible_agency": "Department of Sanitation",
    "final_address": "4600 Werner Dr",
    "address_councildis": "E",
    "status": "Pending",
    "rowid": "1069154",
    "final_x": "3704779.67146",
    "final_y": "554363.566936",
    "longitude": "-89.9937187922202",
    "latitude": "30.017579649004546",
    "geocoded_column": {
      "latitude": "30.017579649004546",
      "longitude": "-89.9937187922202"
    }
  },
  {
    "service_request": "2024-1069153",
    "request_type": "Trash/Recycling",
    "request_reason": "Repair Trash Cart",
    "date_created": "2024-02-20T14:34:09.000",
    "date_modified": "2024-02-20T14:34:09.000",
    "request_status": "Pending",
    "responsible_agency": "Department of Sanitation",
    "final_address": "8721 Gervais St",
    "address_councildis": "E",
    "status": "Assigned to Contractor",
    "contractor": "Waste Pro",
    "rowid": "1069153",
    "final_x": "3704362.34513",
    "final_y": "563012.143072",
    "longitude": "-89.99471813526684",
    "latitude": "30.041373273919863",
    "geocoded_column": {
      "latitude": "30.041373273919863",
      "longitude": "-89.99471813526684"
    }
  },
  {
    "service_request": "2024-1069152",
    "request_type": "Trash/Recycling",
    "request_reason": "Replace Trash Cart",
    "date_created": "2024-02-20T14:33:21.000",
    "date_modified": "2024-02-20T14:33:22.000",
    "request_status": "Pending",
    "responsible_agency": "Department of Sanitation",
    "final_address": "4420 Annunciation St",
    "address_councildis": "B",
    "status": "Assigned to Contractor",
    "contractor": "Richards Disposal",
    "rowid": "1069152",
    "final_x": "3670922.84609",
    "final_y": "517684.556534",
    "longitude": "-90.10193874256797",
    "latitude": "29.91776959660592",
    "geocoded_column": {
      "latitude": "29.91776959660592",
      "longitude": "-90.10193874256797"
    }
  },
  {
    "service_request": "2024-1069151",
    "request_type": "Trash/Recycling",
    "request_reason": "Replace Trash Cart",
    "date_created": "2024-02-20T14:31:43.000",
    "date_modified": "2024-02-20T14:31:43.000",
    "request_status": "Pending",
    "responsible_agency": "Department of Sanitation",
    "final_address": "1222 General Pershing St",
    "address_councildis": "B",
    "status": "Assigned to Contractor",
    "contractor": "Richards Disposal",
    "rowid": "1069151",
    "final_x": "3671295.11342",
    "final_y": "520065.399416",
    "longitude": "-90.10068285428629",
    "latitude": "29.924305151856114",
    "geocoded_column": {
      "latitude": "29.924305151856114",
      "longitude": "-90.10068285428629"
    }
  },
  {
    "service_request": "2024-1069150",
    "request_type": "Trash/Recycling",
    "request_reason": "Request a Large Item Pick Up",
    "date_created": "2024-02-20T14:30:01.000",
    "date_modified": "2024-02-20T14:30:04.000",
    "request_status": "Pending",
    "responsible_agency": "Department of Sanitation",
    "final_address": "7822 Hickman St",
    "address_councildis": "E",
    "status": "Assigned to Contractor",
    "contractor": "Waste Pro",
    "rowid": "1069150",
    "final_x": "3705763.85092",
    "final_y": "563853.198497",
    "longitude": "-89.99025775434757",
    "latitude": "30.043640748992516",
    "geocoded_column": {
      "latitude": "30.043640748992516",
      "longitude": "-89.99025775434757"
    }
  },
  {
    "service_request": "2024-1069149",
    "request_type": "Healthy Homes",
    "request_reason": "Healthy Homes",
    "date_created": "2024-02-20T14:28:50.000",
    "date_modified": "2024-02-20T15:22:00.000",
    "case_close_date": "2024-02-20T09:22:00.000",
    "request_status": "Closed",
    "responsible_agency": "Department of Code Enforcement",
    "final_address": "8827 Plum St",
    "address_councildis": "A",
    "status": "Resolved",
    "rowid": "1069149",
    "final_x": "3660211.39117",
    "final_y": "530491.026882",
    "longitude": "-90.13532643392307",
    "latitude": "29.953295540681772",
    "geocoded_column": {
      "latitude": "29.953295540681772",
      "longitude": "-90.13532643392307"
    }
  },
  {
    "service_request": "2024-1069147",
    "request_type": "Trash/Recycling",
    "request_reason": "Replace Trash Cart",
    "date_created": "2024-02-20T14:27:44.000",
    "date_modified": "2024-02-20T14:27:45.000",
    "request_status": "Pending",
    "responsible_agency": "Department of Sanitation",
    "final_address": "8830 Gervais St",
    "address_councildis": "E",
    "status": "Assigned to Contractor",
    "contractor": "Waste Pro",
    "rowid": "1069147",
    "final_x": "3704725.43786",
    "final_y": "563091.29392",
    "longitude": "-89.99356771606493",
    "latitude": "30.041579239165383",
    "geocoded_column": {
      "latitude": "30.041579239165383",
      "longitude": "-89.99356771606493"
    }
  },
  {
    "service_request": "2024-1069146",
    "request_type": "Traffic Signals/Signs/Striping/Streetlights",
    "request_reason": "Street Light Outage/Malfunction",
    "date_created": "2024-02-20T14:24:18.000",
    "date_modified": "2024-02-20T14:24:19.000",
    "request_status": "Pending",
    "responsible_agency": "Department of Public Works",
    "final_address": "CHARTRES ST & CAFFIN AVE",
    "address_councildis": "E",
    "status": "Assigned to Contractor",
    "contractor": "Legacy Professional Services",
    "rowid": "1069146",
    "final_x": "3697530.9",
    "final_y": "531926.98",
    "longitude": "-90.01743603940811",
    "latitude": "29.956118261651856",
    "geocoded_column": {
      "latitude": "29.956118261651856",
      "longitude": "-90.01743603940811"
    }
  },
  {
    "service_request": "2024-1069145",
    "request_type": "Trash/Recycling",
    "request_reason": "Illegal Dumping",
    "date_created": "2024-02-20T14:22:33.000",
    "date_modified": "2024-02-20T14:22:33.000",
    "request_status": "Pending",
    "responsible_agency": "Department of Sanitation",
    "final_address": "4700 BLK Werner Dr",
    "address_councildis": "E",
    "status": "Pending",
    "rowid": "1069145",
    "final_x": "3704767.62258",
    "final_y": "555296.183487",
    "longitude": "-89.99372241161224",
    "latitude": "30.02014437267428",
    "geocoded_column": {
      "latitude": "30.02014437267428",
      "longitude": "-89.99372241161224"
    }
  },
  {
    "service_request": "2024-1069144",
    "request_type": "Abandoned Vehicles",
    "request_reason": "Abandoned/Junk Vehicles",
    "date_created": "2024-02-20T14:22:32.000",
    "date_modified": "2024-02-20T14:22:33.000",
    "request_status": "Pending",
    "responsible_agency": "Department of Public Works",
    "final_address": "4650 Redwood St",
    "address_councildis": "E",
    "status": "Pending",
    "rowid": "1069144",
    "final_x": "3712465.6924",
    "final_y": "555624.536345",
    "longitude": "-89.96938682754148",
    "latitude": "30.02079750449508",
    "geocoded_column": {
      "latitude": "30.02079750449508",
      "longitude": "-89.96938682754148"
    }
  },
  {
    "service_request": "2024-1069143",
    "request_type": "Property Maintenance",
    "request_reason": "Property Maintenance",
    "date_created": "2024-02-20T14:19:07.000",
    "date_modified": "2024-02-20T14:19:07.000",
    "request_status": "Pending",
    "responsible_agency": "Department of Code Enforcement",
    "final_address": "4 New Basin Way",
    "address_councildis": "A",
    "status": "Pending",
    "rowid": "1069143",
    "final_x": "3666543.22522",
    "final_y": "554174.390808",
    "longitude": "-90.11453771570746",
    "latitude": "30.0182332156783",
    "geocoded_column": {
      "latitude": "30.0182332156783",
      "longitude": "-90.11453771570746"
    }
  },
  {
    "service_request": "2024-1069142",
    "request_type": "Trash/Recycling",
    "request_reason": "Missed Trash Pick-Up",
    "date_created": "2024-02-20T14:18:31.000",
    "date_modified": "2024-02-20T14:18:32.000",
    "request_status": "Pending",
    "responsible_agency": "Department of Sanitation",
    "final_address": "10721 Willowbrae Dr",
    "address_councildis": "E",
    "status": "Assigned to Contractor",
    "contractor": "Waste Pro",
    "rowid": "1069142",
    "final_x": "3710766.09854",
    "final_y": "564204.634401",
    "longitude": "-89.97443547906997",
    "latitude": "30.04444488962274",
    "geocoded_column": {
      "latitude": "30.04444488962274",
      "longitude": "-89.97443547906997"
    }
  },
  {
    "service_request": "2024-1069141",
    "request_type": "Trash/Recycling",
    "request_reason": "Request a Large Item Pick Up",
    "date_created": "2024-02-20T14:16:14.000",
    "date_modified": "2024-02-20T14:16:40.000",
    "request_status": "Pending",
    "responsible_agency": "Department of Sanitation",
    "final_address": "6300 BLK N Robertson St",
    "address_councildis": "E",
    "status": "Assigned to Contractor",
    "contractor": "Waste Pro",
    "rowid": "1069141",
    "final_x": "3700853.73441",
    "final_y": "534395.218727",
    "longitude": "-90.00685350488024",
    "latitude": "29.96279969177501",
    "geocoded_column": {
      "latitude": "29.96279969177501",
      "longitude": "-90.00685350488024"
    }
  },
  {
    "service_request": "2024-1069139",
    "request_type": "Abandoned Vehicles",
    "request_reason": "Abandoned/Junk Vehicles",
    "date_created": "2024-02-20T14:14:14.000",
    "date_modified": "2024-02-20T14:14:14.000",
    "request_status": "Pending",
    "responsible_agency": "Department of Public Works",
    "final_address": "4500 BLK Chestnut St",
    "address_councildis": "B",
    "status": "Pending",
    "rowid": "1069139",
    "final_x": "3670410.06958",
    "final_y": "519462.072084",
    "longitude": "-90.10349707926463",
    "latitude": "29.92267234349777",
    "geocoded_column": {
      "latitude": "29.92267234349777",
      "longitude": "-90.10349707926463"
    }
  },
  {
    "service_request": "2024-1069138",
    "request_type": "Mosquito, Termite & Rodent Control",
    "request_reason": "Non-Rodent Complaint (Mice, Possums, Snakes)",
    "date_created": "2024-02-20T14:14:12.000",
    "date_modified": "2024-02-20T14:14:12.000",
    "request_status": "Pending",
    "responsible_agency": "Mosquito, Termite & Rodent Control Board",
    "final_address": "14606 Curran Rd",
    "address_councildis": "E",
    "status": "Pending",
    "rowid": "1069138",
    "final_x": "3719872.9623",
    "final_y": "573386.751082",
    "longitude": "-89.94530246972059",
    "latitude": "30.069391782632394",
    "geocoded_column": {
      "latitude": "30.069391782632394",
      "longitude": "-89.94530246972059"
    }
  },
  {
    "service_request": "2024-1069137",
    "request_type": "Traffic Signals/Signs/Striping/Streetlights",
    "request_reason": "Additional signage",
    "date_created": "2024-02-20T14:12:28.000",
    "date_modified": "2024-02-20T14:12:28.000",
    "request_status": "Pending",
    "responsible_agency": "Department of Public Works",
    "final_address": "100 BLK N Alexander St",
    "address_councildis": "A",
    "status": "Pending",
    "rowid": "1069137",
    "final_x": "3670145.15836",
    "final_y": "539367.876432",
    "longitude": "-90.10365898098513",
    "latitude": "29.977414596940125",
    "geocoded_column": {
      "latitude": "29.977414596940125",
      "longitude": "-90.10365898098513"
    }
  },
  {
    "service_request": "2024-1069136",
    "request_type": "Trash/Recycling",
    "request_reason": "Replace Trash Cart",
    "date_created": "2024-02-20T14:12:20.000",
    "date_modified": "2024-02-20T14:12:21.000",
    "request_status": "Pending",
    "responsible_agency": "Department of Sanitation",
    "final_address": "5540 Tullis Dr",
    "address_councildis": "C",
    "status": "Assigned to Contractor",
    "contractor": "Richards Disposal",
    "rowid": "1069136",
    "final_x": "3704493.31665",
    "final_y": "512219.588273",
    "longitude": "-89.99617746101322",
    "latitude": "29.90170812146118",
    "geocoded_column": {
      "latitude": "29.90170812146118",
      "longitude": "-89.99617746101322"
    }
  },
  {
    "service_request": "2024-1069135",
    "request_type": "Trash/Recycling",
    "request_reason": "Repair Trash Cart",
    "date_created": "2024-02-20T14:03:50.000",
    "date_modified": "2024-02-20T14:03:51.000",
    "request_status": "Pending",
    "responsible_agency": "Department of Sanitation",
    "final_address": "4811 Sandalwood St",
    "address_councildis": "E",
    "status": "Assigned to Contractor",
    "contractor": "Waste Pro",
    "rowid": "1069135",
    "final_x": "3712273.2092",
    "final_y": "556477.429978",
    "longitude": "-89.96996294689595",
    "latitude": "30.023148925216304",
    "geocoded_column": {
      "latitude": "30.023148925216304",
      "longitude": "-89.96996294689595"
    }
  },
  {
    "service_request": "2024-1069134",
    "request_type": "Roads/Drainage",
    "request_reason": "Pothole",
    "date_created": "2024-02-20T13:57:57.000",
    "date_modified": "2024-02-20T13:58:21.000",
    "request_status": "Pending",
    "responsible_agency": "Department of Public Works",
    "final_address": "6000 BLK Constance St",
    "address_councildis": "A",
    "status": "Pending",
    "rowid": "1069134",
    "final_x": "3664297.78784",
    "final_y": "518991.241989",
    "longitude": "-90.12280690478909",
    "latitude": "29.921556681266853",
    "geocoded_column": {
      "latitude": "29.921556681266853",
      "longitude": "-90.12280690478909"
    }
  },
  {
    "service_request": "2024-1069133",
    "request_type": "Traffic Signals/Signs/Striping/Streetlights",
    "request_reason": "Street Light Outage/Malfunction",
    "date_created": "2024-02-20T13:57:35.000",
    "date_modified": "2024-02-20T13:57:36.000",
    "request_status": "Pending",
    "responsible_agency": "Department of Public Works",
    "final_address": "5312 Wickfield Dr",
    "address_councildis": "D",
    "status": "Assigned to Contractor",
    "contractor": "Legacy Professional Services",
    "rowid": "1069133",
    "final_x": "3681095.41147",
    "final_y": "552401.477654",
    "longitude": "-90.06862009981054",
    "latitude": "30.012924711468724",
    "geocoded_column": {
      "latitude": "30.012924711468724",
      "longitude": "-90.06862009981054"
    }
  },
  {
    "service_request": "2024-1069132",
    "request_type": "Trash/Recycling",
    "request_reason": "Replace Trash Cart",
    "date_created": "2024-02-20T13:57:06.000",
    "date_modified": "2024-02-20T13:57:06.000",
    "request_status": "Pending",
    "responsible_agency": "Department of Sanitation",
    "final_address": "6010 Bellaire Dr",
    "address_councildis": "A",
    "status": "Assigned to Contractor",
    "contractor": "IV Waste",
    "rowid": "1069132",
    "final_x": "3664141.87751",
    "final_y": "547761.137554",
    "longitude": "-90.122339268257",
    "latitude": "30.000669007082234",
    "geocoded_column": {
      "latitude": "30.000669007082234",
      "longitude": "-90.122339268257"
    }
  },
  {
    "service_request": "2024-1069131",
    "request_type": "Trash/Recycling",
    "request_reason": "Order Trash Cart",
    "date_created": "2024-02-20T13:56:28.000",
    "date_modified": "2024-02-20T13:56:29.000",
    "request_status": "Pending",
    "responsible_agency": "Department of Sanitation",
    "final_address": "2904 Esplanade Ave",
    "address_councildis": "A",
    "status": "Assigned to Contractor",
    "contractor": "Richards Disposal",
    "rowid": "1069131",
    "final_x": "3677085.09877",
    "final_y": "539732.428682",
    "longitude": "-90.08172774336659",
    "latitude": "29.97821037914862",
    "geocoded_column": {
      "latitude": "29.97821037914862",
      "longitude": "-90.08172774336659"
    }
  },
  {
    "service_request": "2024-1069130",
    "request_type": "Roads/Drainage",
    "request_reason": "Alley Way",
    "date_created": "2024-02-20T13:54:05.000",
    "date_modified": "2024-02-20T13:54:05.000",
    "request_status": "Pending",
    "responsible_agency": "Department of Public Works",
    "final_address": "6700 BLK General Diaz St",
    "address_councildis": "A",
    "status": "Pending",
    "rowid": "1069130",
    "final_x": "3669966.76108",
    "final_y": "552250.717137",
    "longitude": "-90.10378581313434",
    "latitude": "30.012843221406477",
    "geocoded_column": {
      "latitude": "30.012843221406477",
      "longitude": "-90.10378581313434"
    }
  },
  {
    "service_request": "2024-1069129",
    "request_type": "Trash/Recycling",
    "request_reason": "MIssed Recycling Pick-Up",
    "date_created": "2024-02-20T13:51:04.000",
    "date_modified": "2024-02-20T15:07:05.000",
    "case_close_date": "2024-02-20T09:07:05.000",
    "request_status": "Closed",
    "responsible_agency": "Department of Sanitation",
    "final_address": "6500 Argonne Blvd",
    "address_councildis": "A",
    "status": "Invalid Request",
    "contractor": "IV Waste",
    "contractor_action": "Invalid Request",
    "rowid": "1069129",
    "final_x": "3670406.68858",
    "final_y": "550615.8189",
    "longitude": "-90.10245136566657",
    "latitude": "30.008334839791388",
    "geocoded_column": {
      "latitude": "30.008334839791388",
      "longitude": "-90.10245136566657"
    }
  },
  {
    "service_request": "2024-1069127",
    "request_type": "Trash/Recycling",
    "request_reason": "Order Trash Cart",
    "date_created": "2024-02-20T13:44:15.000",
    "date_modified": "2024-02-20T13:44:15.000",
    "request_status": "Pending",
    "responsible_agency": "Department of Sanitation",
    "final_address": "3224 Toledano St",
    "address_councildis": "B",
    "status": "Assigned to Contractor",
    "contractor": "Richards Disposal",
    "rowid": "1069127",
    "final_x": "3672040.72609",
    "final_y": "527533.500415",
    "longitude": "-90.09807506978677",
    "latitude": "29.944817937919186",
    "geocoded_column": {
      "latitude": "29.944817937919186",
      "longitude": "-90.09807506978677"
    }
  },
  {
    "service_request": "2024-1069126",
    "request_type": "Roads/Drainage",
    "request_reason": "Pothole",
    "date_created": "2024-02-20T13:44:06.000",
    "date_modified": "2024-02-20T13:44:53.000",
    "request_status": "Pending",
    "responsible_agency": "Department of Public Works",
    "final_address": "3126 Plymouth Pl",
    "address_councildis": "C",
    "status": "Pending",
    "rowid": "1069126",
    "final_x": "3702857.67601",
    "final_y": "519797.080504",
    "longitude": "-90.00106135557834",
    "latitude": "29.922596019218446",
    "geocoded_column": {
      "latitude": "29.922596019218446",
      "longitude": "-90.00106135557834"
    }
  },
  {
    "service_request": "2024-1069125",
    "request_type": "Abandoned Vehicles",
    "request_reason": "Abandoned/Junk Vehicles",
    "date_created": "2024-02-20T13:41:09.000",
    "date_modified": "2024-02-20T13:41:09.000",
    "request_status": "Pending",
    "responsible_agency": "Department of Public Works",
    "final_address": "BEAUVOIR CT & N LAKE CARMEL DR",
    "address_councildis": "E",
    "status": "Pending",
    "rowid": "1069125",
    "final_x": "3715946.8",
    "final_y": "568044.68",
    "longitude": "-89.95791660817561",
    "latitude": "30.054833490388965",
    "geocoded_column": {
      "latitude": "30.054833490388965",
      "longitude": "-89.95791660817561"
    }
  },
  {
    "service_request": "2024-1069124",
    "request_type": "Trash/Recycling",
    "request_reason": "Missed Trash Pick-Up",
    "date_created": "2024-02-20T13:38:13.000",
    "date_modified": "2024-02-20T14:49:12.000",
    "case_close_date": "2024-02-20T08:49:12.000",
    "request_status": "Closed",
    "responsible_agency": "Department of Sanitation",
    "final_address": "5300 BLK Chestnut St",
    "address_councildis": "B",
    "status": "Duplicate Request",
    "contractor": "Richards Disposal",
    "contractor_action": "Duplicate",
    "rowid": "1069124",
    "final_x": "3667427.71498",
    "final_y": "519415.197506",
    "longitude": "-90.11291279379269",
    "latitude": "29.92263113284053",
    "geocoded_column": {
      "latitude": "29.92263113284053",
      "longitude": "-90.11291279379269"
    }
  },
  {
    "service_request": "2024-1069123",
    "request_type": "Trash/Recycling",
    "request_reason": "Start Trash Service",
    "date_created": "2024-02-20T13:36:20.000",
    "date_modified": "2024-02-20T13:36:20.000",
    "request_status": "Pending",
    "responsible_agency": "Department of Sanitation",
    "final_address": "4508 Eastview Dr",
    "address_councildis": "E",
    "status": "Assigned to Contractor",
    "contractor": "Waste Pro",
    "rowid": "1069123",
    "final_x": "3705147.03991",
    "final_y": "553803.742743",
    "longitude": "-89.99257875930053",
    "latitude": "30.016028533130566",
    "geocoded_column": {
      "latitude": "30.016028533130566",
      "longitude": "-89.99257875930053"
    }
  },
  {
    "service_request": "2024-1069122",
    "request_type": "Trash/Recycling",
    "request_reason": "Illegal Dumping",
    "date_created": "2024-02-20T13:35:44.000",
    "date_modified": "2024-02-20T13:35:44.000",
    "request_status": "Pending",
    "responsible_agency": "Department of Sanitation",
    "final_address": "6000 BLK Old Gentilly Rd",
    "address_councildis": "E",
    "status": "Pending",
    "rowid": "1069122",
    "final_x": "3697146.03579",
    "final_y": "550678.309192",
    "longitude": "-90.0179716022294",
    "latitude": "30.007689758607874",
    "geocoded_column": {
      "latitude": "30.007689758607874",
      "longitude": "-90.0179716022294"
    }
  },
  {
    "service_request": "2024-1069121",
    "request_type": "Trash/Recycling",
    "request_reason": "Illegal Dumping",
    "date_created": "2024-02-20T13:35:44.000",
    "date_modified": "2024-02-20T13:35:45.000",
    "request_status": "Pending",
    "responsible_agency": "Department of Sanitation",
    "final_address": "4800 Raymond Joseph Dr",
    "address_councildis": "E",
    "status": "Pending",
    "rowid": "1069121",
    "final_x": "3703617.16906",
    "final_y": "555514.866841",
    "longitude": "-89.99734940039193",
    "latitude": "30.020782600196448",
    "geocoded_column": {
      "latitude": "30.020782600196448",
      "longitude": "-89.99734940039193"
    }
  },
  {
    "service_request": "2024-1069120",
    "request_type": "Trash/Recycling",
    "request_reason": "Illegal Dumping",
    "date_created": "2024-02-20T13:33:18.000",
    "date_modified": "2024-02-20T13:33:18.000",
    "request_status": "Pending",
    "responsible_agency": "Department of Code Enforcement",
    "final_address": "107 Westpark Ct",
    "address_councildis": "C",
    "status": "Pending",
    "rowid": "1069120",
    "final_x": "3695767.61514",
    "final_y": "521919.259642",
    "longitude": "-90.02336513818146",
    "latitude": "29.928656058657772",
    "geocoded_column": {
      "latitude": "29.928656058657772",
      "longitude": "-90.02336513818146"
    }
  },
  {
    "service_request": "2024-1069119",
    "request_type": "Trash/Recycling",
    "request_reason": "Repair Trash Cart",
    "date_created": "2024-02-20T13:32:38.000",
    "date_modified": "2024-02-20T13:32:39.000",
    "request_status": "Pending",
    "responsible_agency": "Department of Sanitation",
    "final_address": "1571 Steeple Chase Ln",
    "address_councildis": "C",
    "status": "Assigned to Contractor",
    "contractor": "Richards Disposal",
    "rowid": "1069119",
    "final_x": "3699930.48208",
    "final_y": "525198.804861",
    "longitude": "-90.0101043669208",
    "latitude": "29.937542154688284",
    "geocoded_column": {
      "latitude": "29.937542154688284",
      "longitude": "-90.0101043669208"
    }
  },
  {
    "service_request": "2024-1069118",
    "request_type": "Trash/Recycling",
    "request_reason": "Illegal Dumping",
    "date_created": "2024-02-20T13:31:03.000",
    "date_modified": "2024-02-20T13:31:03.000",
    "request_status": "Pending",
    "responsible_agency": "Department of Sanitation",
    "final_address": "4104 America St",
    "address_councildis": "E",
    "status": "Pending",
    "rowid": "1069118",
    "final_x": "3700007.71127",
    "final_y": "551801.906582",
    "longitude": "-90.0088897608441",
    "latitude": "30.01068859092355",
    "geocoded_column": {
      "latitude": "30.01068859092355",
      "longitude": "-90.0088897608441"
    }
  },
  {
    "service_request": "2024-1069117",
    "request_type": "Trash/Recycling",
    "request_reason": "Repair Trash Cart",
    "date_created": "2024-02-20T13:29:18.000",
    "date_modified": "2024-02-20T13:29:18.000",
    "request_status": "Pending",
    "responsible_agency": "Department of Sanitation",
    "final_address": "5725 St Charles Ave",
    "address_councildis": "A",
    "status": "Assigned to Contractor",
    "contractor": "Richards Disposal",
    "rowid": "1069117",
    "final_x": "3666323.43463",
    "final_y": "522203.142458",
    "longitude": "-90.11630510703873",
    "latitude": "29.93032939512803",
    "geocoded_column": {
      "latitude": "29.93032939512803",
      "longitude": "-90.11630510703873"
    }
  },
  {
    "service_request": "2024-1069116",
    "request_type": "Trash/Recycling",
    "request_reason": "Missed Trash Pick-Up",
    "date_created": "2024-02-20T13:27:48.000",
    "date_modified": "2024-02-20T14:50:07.000",
    "case_close_date": "2024-02-20T08:50:07.000",
    "request_status": "Closed",
    "responsible_agency": "Department of Sanitation",
    "final_address": "5323 Chestnut St, New Orleans, Louisiana, 70115",
    "address_councildis": "B",
    "status": "Duplicate Request",
    "contractor": "Richards Disposal",
    "contractor_action": "Duplicate",
    "rowid": "1069116",
    "final_x": "3667396.70471",
    "final_y": "519458.355319",
    "longitude": "-90.11300923029003",
    "latitude": "29.922750711360624",
    "geocoded_column": {
      "latitude": "29.922750711360624",
      "longitude": "-90.11300923029003"
    }
  },
  {
    "service_request": "2024-1069115",
    "request_type": "Trash/Recycling",
    "request_reason": "Illegal Dumping",
    "date_created": "2024-02-20T13:27:36.000",
    "date_modified": "2024-02-20T13:27:36.000",
    "request_status": "Pending",
    "responsible_agency": "Department of Sanitation",
    "final_address": "6600 Old Gentilly Rd",
    "address_councildis": "E",
    "status": "Pending",
    "rowid": "1069115",
    "final_x": "3698961.10781",
    "final_y": "551066.582037",
    "longitude": "-90.01222315145581",
    "latitude": "30.008699946802174",
    "geocoded_column": {
      "latitude": "30.008699946802174",
      "longitude": "-90.01222315145581"
    }
  },
  {
    "service_request": "2024-1069114",
    "request_type": "Trash/Recycling",
    "request_reason": "Request a Large Item Pick Up",
    "date_created": "2024-02-20T13:27:32.000",
    "date_modified": "2024-02-20T13:27:32.000",
    "request_status": "Pending",
    "responsible_agency": "Department of Sanitation",
    "final_address": "7042 Barrington Ct",
    "address_councildis": "E",
    "status": "Assigned to Contractor",
    "contractor": "Waste Pro",
    "rowid": "1069114",
    "final_x": "3714026.87595",
    "final_y": "565091.454946",
    "longitude": "-89.96409655441519",
    "latitude": "30.04677655342102",
    "geocoded_column": {
      "latitude": "30.04677655342102",
      "longitude": "-89.96409655441519"
    }
  },
  {
    "service_request": "2024-1069113",
    "request_type": "Trash/Recycling",
    "request_reason": "Repair Trash Cart",
    "date_created": "2024-02-20T13:25:38.000",
    "date_modified": "2024-02-20T13:25:38.000",
    "request_status": "Pending",
    "responsible_agency": "Department of Sanitation",
    "final_address": "3628 Upperline St",
    "address_councildis": "B",
    "status": "Assigned to Contractor",
    "contractor": "Richards Disposal",
    "rowid": "1069113",
    "final_x": "3669263.36001",
    "final_y": "528264.053824",
    "longitude": "-90.10681938976484",
    "latitude": "29.946908757806458",
    "geocoded_column": {
      "latitude": "29.946908757806458",
      "longitude": "-90.10681938976484"
    }
  },
  {
    "service_request": "2024-1069112",
    "request_type": "Trash/Recycling",
    "request_reason": "Request a Large Item Pick Up",
    "date_created": "2024-02-20T13:24:35.000",
    "date_modified": "2024-02-20T13:24:35.000",
    "request_status": "Pending",
    "responsible_agency": "Department of Sanitation",
    "final_address": "4667 Viola St",
    "address_councildis": "E",
    "status": "Assigned to Contractor",
    "contractor": "Waste Pro",
    "rowid": "1069112",
    "final_x": "3704102.44388",
    "final_y": "554797.242648",
    "longitude": "-89.9958425533495",
    "latitude": "30.018793843502948",
    "geocoded_column": {
      "latitude": "30.018793843502948",
      "longitude": "-89.9958425533495"
    }
  },
  {
    "service_request": "2024-1069111",
    "request_type": "Abandoned Vehicles",
    "request_reason": "Abandoned/Junk Vehicles",
    "date_created": "2024-02-20T13:23:28.000",
    "date_modified": "2024-02-20T13:25:33.000",
    "request_status": "Pending",
    "responsible_agency": "Department of Public Works",
    "final_address": "708 Majestic Pl",
    "address_councildis": "C",
    "status": "Pending",
    "rowid": "1069111",
    "final_x": "3688179.56521",
    "final_y": "526289.598718",
    "longitude": "-90.04716410086917",
    "latitude": "29.94090936971943",
    "geocoded_column": {
      "latitude": "29.94090936971943",
      "longitude": "-90.04716410086917"
    }
  },
  {
    "service_request": "2024-1069110",
    "request_type": "Trash/Recycling",
    "request_reason": "Order Trash Cart",
    "date_created": "2024-02-20T13:23:27.000",
    "date_modified": "2024-02-20T13:23:28.000",
    "request_status": "Pending",
    "responsible_agency": "Department of Sanitation",
    "final_address": "1641 Poland Ave",
    "address_councildis": "D",
    "status": "Assigned to Contractor",
    "contractor": "IV Waste",
    "rowid": "1069110",
    "final_x": "3693727.79478",
    "final_y": "537067.494216",
    "longitude": "-90.02926016225129",
    "latitude": "29.970372407964927",
    "geocoded_column": {
      "latitude": "29.970372407964927",
      "longitude": "-90.02926016225129"
    }
  },
  {
    "service_request": "2024-1069109",
    "request_type": "Parks & Parkways",
    "request_reason": "Request Tree Service (Right of Way/Public Property)",
    "date_created": "2024-02-20T13:22:50.000",
    "date_modified": "2024-02-20T13:22:51.000",
    "request_status": "Pending",
    "responsible_agency": "Department of Parks & Parkway",
    "final_address": "5730 Waterford Blvd",
    "address_councildis": "E",
    "status": "Pending",
    "rowid": "1069109",
    "final_x": "3713889.59256",
    "final_y": "560752.669534",
    "longitude": "-89.96469422957013",
    "latitude": "30.03485115246789",
    "geocoded_column": {
      "latitude": "30.03485115246789",
      "longitude": "-89.96469422957013"
    }
  },
  {
    "service_request": "2024-1069108",
    "request_type": "Trash/Recycling",
    "request_reason": "Replace Trash Cart",
    "date_created": "2024-02-20T13:21:52.000",
    "date_modified": "2024-02-20T13:21:53.000",
    "request_status": "Pending",
    "responsible_agency": "Department of Sanitation",
    "final_address": "2427 St Charles Ave",
    "address_councildis": "B",
    "status": "Assigned to Contractor",
    "contractor": "Richards Disposal",
    "rowid": "1069108",
    "final_x": "3676722.65205",
    "final_y": "523144.980219",
    "longitude": "-90.08344394470176",
    "latitude": "29.932611336115233",
    "geocoded_column": {
      "latitude": "29.932611336115233",
      "longitude": "-90.08344394470176"
    }
  },
  {
    "service_request": "2024-1069107",
    "request_type": "Abandoned Vehicles",
    "request_reason": "Abandoned/Junk Vehicles",
    "date_created": "2024-02-20T13:21:14.000",
    "date_modified": "2024-02-20T13:21:14.000",
    "request_status": "Pending",
    "responsible_agency": "Department of Public Works",
    "final_address": "4105 Wilson Ave",
    "address_councildis": "E",
    "status": "Pending",
    "rowid": "1069107",
    "final_x": "3703347.74494",
    "final_y": "551950.641046",
    "longitude": "-89.99833190575116",
    "latitude": "30.010990977561445",
    "geocoded_column": {
      "latitude": "30.010990977561445",
      "longitude": "-89.99833190575116"
    }
  },
  {
    "service_request": "2024-1069106",
    "request_type": "Trash/Recycling",
    "request_reason": "Order Trash Cart",
    "date_created": "2024-02-20T13:18:46.000",
    "date_modified": "2024-02-20T13:18:47.000",
    "request_status": "Pending",
    "responsible_agency": "Department of Sanitation",
    "final_address": "3835 Banks St",
    "address_councildis": "A",
    "status": "Assigned to Contractor",
    "contractor": "Richards Disposal",
    "rowid": "1069106",
    "final_x": "3671126.00027",
    "final_y": "536880.052808",
    "longitude": "-90.1006456767214",
    "latitude": "29.970544942745217",
    "geocoded_column": {
      "latitude": "29.970544942745217",
      "longitude": "-90.1006456767214"
    }
  },
  {
    "service_request": "2024-1069105",
    "request_type": "Trash/Recycling",
    "request_reason": "Replace Recycling Cart",
    "date_created": "2024-02-20T13:15:48.000",
    "date_modified": "2024-02-20T13:15:48.000",
    "request_status": "Pending",
    "responsible_agency": "Department of Sanitation",
    "final_address": "527 Passera Ct",
    "address_councildis": "A",
    "status": "Pending",
    "rowid": "1069105",
    "final_x": "3670595.87867",
    "final_y": "540897.508683",
    "longitude": "-90.10218354448236",
    "latitude": "29.981607258592007",
    "geocoded_column": {
      "latitude": "29.981607258592007",
      "longitude": "-90.10218354448236"
    }
  },
  {
    "service_request": "2024-1069104",
    "request_type": "Traffic Signals/Signs/Striping/Streetlights",
    "request_reason": "Traffic Sign Missing/Damaged",
    "date_created": "2024-02-20T13:15:36.000",
    "date_modified": "2024-02-20T13:15:36.000",
    "request_status": "Pending",
    "responsible_agency": "Department of Public Works",
    "final_address": "BURGUNDY ST & MAZANT ST",
    "address_councildis": "C",
    "status": "Pending",
    "rowid": "1069104",
    "final_x": "3691912.5",
    "final_y": "534437.58",
    "longitude": "-90.03508714427628",
    "latitude": "29.96319775266576",
    "geocoded_column": {
      "latitude": "29.96319775266576",
      "longitude": "-90.03508714427628"
    }
  },
  {
    "service_request": "2024-1069103",
    "request_type": "Traffic Signals/Signs/Striping/Streetlights",
    "request_reason": "Street Light Outage/Malfunction",
    "date_created": "2024-02-20T13:14:06.000",
    "date_modified": "2024-02-20T13:14:07.000",
    "request_status": "Pending",
    "responsible_agency": "Department of Public Works",
    "final_address": "4102 Burgundy St",
    "address_councildis": "C",
    "status": "Assigned to Contractor",
    "contractor": "Legacy Professional Services",
    "rowid": "1069103",
    "final_x": "3691990.16675",
    "final_y": "534384.289413",
    "longitude": "-90.03484378972502",
    "latitude": "29.963048802407876",
    "geocoded_column": {
      "latitude": "29.963048802407876",
      "longitude": "-90.03484378972502"
    }
  },
  {
    "service_request": "2024-1069102",
    "request_type": "Abandoned Vehicles",
    "request_reason": "Abandoned/Junk Vehicles",
    "date_created": "2024-02-20T13:13:04.000",
    "date_modified": "2024-02-20T13:13:04.000",
    "request_status": "Pending",
    "responsible_agency": "Department of Public Works",
    "final_address": "7014 Zimpel St, New Orleans, Louisiana, 70118",
    "status": "Pending",
    "rowid": "1069102",
    "longitude": "0.0",
    "latitude": "0.0",
    "geocoded_column": {
      "latitude": "0.0",
      "longitude": "0.0"
    }
  },
  {
    "service_request": "2024-1069101",
    "request_type": "Trash/Recycling",
    "request_reason": "Replace Trash Cart",
    "date_created": "2024-02-20T13:12:39.000",
    "date_modified": "2024-02-20T13:12:40.000",
    "request_status": "Pending",
    "responsible_agency": "Department of Sanitation",
    "final_address": "2414 Palmer Ave",
    "address_councildis": "A",
    "status": "Assigned to Contractor",
    "contractor": "Richards Disposal",
    "rowid": "1069101",
    "final_x": "3666310.28621",
    "final_y": "525718.712317",
    "longitude": "-90.11622873117915",
    "latitude": "29.939996474760665",
    "geocoded_column": {
      "latitude": "29.939996474760665",
      "longitude": "-90.11622873117915"
    }
  },
  {
    "service_request": "2024-1069100",
    "request_type": "Abandoned Vehicles",
    "request_reason": "Abandoned/Junk Vehicles",
    "date_created": "2024-02-20T13:12:30.000",
    "date_modified": "2024-02-20T13:12:30.000",
    "request_status": "Pending",
    "responsible_agency": "Department of Public Works",
    "final_address": "2007 N Rampart St",
    "address_councildis": "C",
    "status": "Pending",
    "rowid": "1069100",
    "final_x": "3684340.24476",
    "final_y": "535913.584519",
    "longitude": "-90.05894756828486",
    "latitude": "29.967489987602494",
    "geocoded_column": {
      "latitude": "29.967489987602494",
      "longitude": "-90.05894756828486"
    }
  },
  {
    "service_request": "2024-1069099",
    "request_type": "Abandoned Vehicles",
    "request_reason": "Abandoned/Junk Vehicles",
    "date_created": "2024-02-20T13:11:41.000",
    "date_modified": "2024-02-20T13:11:41.000",
    "request_status": "Pending",
    "responsible_agency": "Department of Public Works",
    "final_address": "1300 BLK Tennessee St",
    "address_councildis": "E",
    "status": "Pending",
    "rowid": "1069099",
    "final_x": "3695994.31434",
    "final_y": "535441.116569",
    "longitude": "-90.02216105347324",
    "latitude": "29.965829326710395",
    "geocoded_column": {
      "latitude": "29.965829326710395",
      "longitude": "-90.02216105347324"
    }
  },
  {
    "service_request": "2024-1069098",
    "request_type": "Abandoned Vehicles",
    "request_reason": "Abandoned/Junk Vehicles",
    "date_created": "2024-02-20T13:09:50.000",
    "date_modified": "2024-02-20T13:09:50.000",
    "request_status": "Pending",
    "responsible_agency": "Department of Public Works",
    "final_address": "4800 BLK N Robertson St",
    "address_councildis": "E",
    "status": "Pending",
    "rowid": "1069098",
    "final_x": "3695628.27997",
    "final_y": "535933.348197",
    "longitude": "-90.02329920009454",
    "latitude": "29.967194300575184",
    "geocoded_column": {
      "latitude": "29.967194300575184",
      "longitude": "-90.02329920009454"
    }
  },
  {
    "service_request": "2024-1069097",
    "request_type": "Abandoned Vehicles",
    "request_reason": "Abandoned/Junk Vehicles",
    "date_created": "2024-02-20T13:08:25.000",
    "date_modified": "2024-02-20T13:08:25.000",
    "request_status": "Pending",
    "responsible_agency": "Department of Public Works",
    "final_address": "2020 N Rampart St",
    "address_councildis": "C",
    "status": "Pending",
    "rowid": "1069097",
    "final_x": "3684456.37756",
    "final_y": "535845.494727",
    "longitude": "-90.0585832114291",
    "latitude": "29.967299212248832",
    "geocoded_column": {
      "latitude": "29.967299212248832",
      "longitude": "-90.0585832114291"
    }
  },
  {
    "service_request": "2024-1069096",
    "request_type": "Trash/Recycling",
    "request_reason": "Illegal Dumping",
    "date_created": "2024-02-20T13:06:30.000",
    "date_modified": "2024-02-20T13:06:31.000",
    "request_status": "Pending",
    "responsible_agency": "Department of Sanitation",
    "final_address": "4600 Werner Dr",
    "address_councildis": "E",
    "status": "Pending",
    "rowid": "1069096",
    "final_x": "3704779.67146",
    "final_y": "554363.566936",
    "longitude": "-89.9937187922202",
    "latitude": "30.017579649004546",
    "geocoded_column": {
      "latitude": "30.017579649004546",
      "longitude": "-89.9937187922202"
    }
  },