[
  {
    "service_request": "2022-901260",
    "request_type": "Traffic Signals/Signs/Striping/Streetlights",
    "request_reason": "Street Light Outage/Malfunction",
    "date_created": "2022-07-18T23:45:52.000",
    "date_modified": "2022-07-18T23:45:53.000",
    "request_status": "Pending",
    "responsible_agency": "Department of Public Works",
    "final_address": "7560 Surf St",
    "address_councildis": "E",
    "status": "Pending",
    "contractor": "Royal Engineering",
    "rowid": "901260",
    "final_x": "3715731.8309",
    "final_y": "569071.083046",
    "longitude": "-89.95855714751067",
    "latitude": "30.057662769321425",
    "geocoded_column": {
      "latitude": "30.057662769321425",
      "longitude": "-89.95855714751067"
    }
  },
  {
    "service_request": "2022-901259",
    "request_type": "Safety & Permits",
    "request_reason": "Safety & Permits Request (Cyber Incident Back Up)",
    "date_created": "2022-07-18T22:07:25.000",
    "date_modified": "2022-07-18T22:07:25.000",
    "request_status": "Pending",
    "responsible_agency": "Safety and Permits",
    "status": "Pending",
    "rowid": "901259",
    "longitude": "0.0",
    "latitude": "0.0",
    "geocoded_column": {
      "latitude": "0.0",
      "longitude": "0.0"
    }
  },
  {
    "service_request": "2022-901258",
    "request_type": "Trash/Recycling",
    "request_reason": "Request a Large Item Pick Up",
    "date_created": "2022-07-18T21:53:08.000",
    "date_modified": "2022-07-18T21:53:09.000",
    "request_status": "Pending",
    "responsible_agency": "Department of Sanitation",
    "final_address": "2436 Somerset Dr",
    "address_councildis": "C",
    "status": "Assigned to Contractor",
    "contractor": "Richards Disposal",
    "rowid": "901258",
    "final_x": "3702947.49662",
    "final_y": "521973.47545",
    "longitude": "-90.00069793065168",
    "latitude": "29.92857747947735",
    "geocoded_column": {
      "latitude": "29.92857747947735",
      "longitude": "-90.00069793065168"
    }
  },
  {
    "service_request": "2022-901257",
    "request_type": "Traffic Signals/Signs/Striping/Streetlights",
    "request_reason": "Street Light Outage/Malfunction",
    "date_created": "2022-07-18T21:33:28.000",
    "date_modified": "2022-07-18T21:33:29.000",
    "request_status": "Pending",
    "responsible_agency": "Department of Public Works",
    "final_address": "4841 Flake Ave",
    "address_councildis": "E",
    "status": "Pending",
    "contractor": "Royal Engineering",
    "rowid": "901257",
    "final_x": "3706078.38155",
    "final_y": "556107.664922",
    "longitude": "-89.98955078916997",
    "latitude": "30.022333431370313",
    "geocoded_column": {
      "latitude": "30.022333431370313",
      "longitude": "-89.98955078916997"
    }
  },
  {
    "service_request": "2022-901256",
    "request_type": "Trash/Recycling",
    "request_reason": "Order Recycling Cart",
    "date_created": "2022-07-18T21:02:07.000",
    "date_modified": "2022-07-18T21:02:07.000",
    "request_status": "Pending",
    "responsible_agency": "Department of Sanitation",
    "final_address": "5119 Kendall Dr",
    "address_councildis": "D",
    "status": "Pending",
    "rowid": "901256",
    "final_x": "3690272.2911",
    "final_y": "552103.477078",
    "longitude": "-90.03963686167813",
    "latitude": "30.011823619101914",
    "geocoded_column": {
      "latitude": "30.011823619101914",
      "longitude": "-90.03963686167813"
    }
  },
  {
    "service_request": "2022-901255",
    "request_type": "Trash/Recycling",
    "request_reason": "Missed Trash Pick-Up",
    "date_created": "2022-07-18T20:54:51.000",
    "date_modified": "2022-07-18T20:54:51.000",
    "request_status": "Pending",
    "responsible_agency": "Department of Sanitation",
    "final_address": "2353 Mendez St",
    "address_councildis": "D",
    "status": "Assigned to Contractor",
    "contractor": "Metro Disposal",
    "rowid": "901255",
    "final_x": "3684893.27157",
    "final_y": "553552.749847",
    "longitude": "-90.05658041122986",
    "latitude": "30.015974480868735",
    "geocoded_column": {
      "latitude": "30.015974480868735",
      "longitude": "-90.05658041122986"
    }
  },
  {
    "service_request": "2022-901254",
    "request_type": "Trash/Recycling",
    "request_reason": "Order Recycling Cart",
    "date_created": "2022-07-18T20:49:37.000",
    "date_modified": "2022-07-18T20:49:37.000",
    "request_status": "Pending",
    "responsible_agency": "Department of Sanitation",
    "final_address": "6678 Vicksburg St",
    "address_councildis": "A",
    "status": "Pending",
    "rowid": "901254",
    "final_x": "3669203.31418",
    "final_y": "551937.556374",
    "longitude": "-90.10620849291982",
    "latitude": "30.012004643075336",
    "geocoded_column": {
      "latitude": "30.012004643075336",
      "longitude": "-90.10620849291982"
    }
  },
  {
    "service_request": "2022-901253",
    "request_type": "Trash/Recycling",
    "request_reason": "Replace Trash Cart",
    "date_created": "2022-07-18T20:27:24.000",
    "date_modified": "2022-07-18T20:27:25.000",
    "request_status": "Pending",
    "responsible_agency": "Department of Sanitation",
    "final_address": "6678 Vicksburg St",
    "address_councildis": "A",
    "status": "Assigned to Contractor",
    "contractor": "Metro Disposal",
    "rowid": "901253",
    "final_x": "3669203.31418",
    "final_y": "551937.556374",
    "longitude": "-90.10620849291982",
    "latitude": "30.012004643075336",
    "geocoded_column": {
      "latitude": "30.012004643075336",
      "longitude": "-90.10620849291982"
    }
  },
  {
    "service_request": "2022-901252",
    "request_type": "Trash/Recycling",
    "request_reason": "Missed Trash Pick-Up",
    "date_created": "2022-07-18T20:00:21.000",
    "date_modified": "2022-07-18T20:00:21.000",
    "request_status": "Pending",
    "responsible_agency": "Department of Sanitation",
    "final_address": "5300 BLK Eads St",
    "address_councildis": "D",
    "status": "Assigned to Contractor",
    "contractor": "Metro Disposal",
    "rowid": "901252",
    "final_x": "3686974.40325",
    "final_y": "552747.746654",
    "longitude": "-90.05003346319802",
    "latitude": "30.013697092712537",
    "geocoded_column": {
      "latitude": "30.013697092712537",
      "longitude": "-90.05003346319802"
    }
  },
  {
    "service_request": "2022-901251",
    "request_type": "Trash/Recycling",
    "request_reason": "Request a Large Item Pick Up",
    "date_created": "2022-07-18T19:58:07.000",
    "date_modified": "2022-07-18T19:58:08.000",
    "request_status": "Pending",
    "responsible_agency": "Department of Sanitation",
    "final_address": "3110 De Soto St B",
    "address_councildis": "A",
    "status": "Assigned to Contractor",
    "contractor": "Richards Disposal",
    "rowid": "901251",
    "final_x": "3676286.31585",
    "final_y": "539803.93889",
    "longitude": "-90.0842481265855",
    "latitude": "29.978430974567456",
    "geocoded_column": {
      "latitude": "29.978430974567456",
      "longitude": "-90.0842481265855"
    }
  },
  {
    "service_request": "2022-901250",
    "request_type": "Trash/Recycling",
    "request_reason": "Request a Large Item Pick Up",
    "date_created": "2022-07-18T19:42:49.000",
    "date_modified": "2022-07-18T19:46:48.000",
    "request_status": "Pending",
    "responsible_agency": "Department of Sanitation",
    "status": "Assigned to Contractor",
    "rowid": "901250",
    "longitude": "0.0",
    "latitude": "0.0",
    "geocoded_column": {
      "latitude": "0.0",
      "longitude": "0.0"
    }
  },
  {
    "service_request": "2022-901249",
    "request_type": "Trash/Recycling",
    "request_reason": "Missed Trash Pick-Up",
    "date_created": "2022-07-18T19:37:48.000",
    "date_modified": "2022-07-18T19:37:48.000",
    "request_status": "Pending",
    "responsible_agency": "Department of Sanitation",
    "final_address": "6216 Music St",
    "address_councildis": "D",
    "status": "Assigned to Contractor",
    "contractor": "Metro Disposal",
    "rowid": "901249",
    "final_x": "3685189.06063",
    "final_y": "556039.184857",
    "longitude": "-90.05555824540484",
    "latitude": "30.02280219551577",
    "geocoded_column": {
      "latitude": "30.02280219551577",
      "longitude": "-90.05555824540484"
    }
  },
  {
    "service_request": "2022-901248",
    "request_type": "Trash/Recycling",
    "request_reason": "Missed Trash Pick-Up",
    "date_created": "2022-07-18T19:33:38.000",
    "date_modified": "2022-07-18T19:33:39.000",
    "request_status": "Pending",
    "responsible_agency": "Department of Sanitation",
    "final_address": "2230 Ursulines Ave",
    "address_councildis": "D",
    "status": "Assigned to Contractor",
    "contractor": "Richards Disposal",
    "rowid": "901248",
    "final_x": "3679018.39304",
    "final_y": "536993.88084",
    "longitude": "-90.07571663656199",
    "latitude": "29.97062210844368",
    "geocoded_column": {
      "latitude": "29.97062210844368",
      "longitude": "-90.07571663656199"
    }
  },
  {
    "service_request": "2022-901247",
    "request_type": "Trash/Recycling",
    "request_reason": "Order Recycling Cart",
    "date_created": "2022-07-18T19:32:29.000",
    "date_modified": "2022-07-18T19:32:29.000",
    "request_status": "Pending",
    "responsible_agency": "Department of Sanitation",
    "final_address": "3830 State Street Dr",
    "address_councildis": "A",
    "status": "Pending",
    "rowid": "901247",
    "final_x": "3668076.90586",
    "final_y": "529772.625345",
    "longitude": "-90.11051464371435",
    "latitude": "29.951091705448576",
    "geocoded_column": {
      "latitude": "29.951091705448576",
      "longitude": "-90.11051464371435"
    }
  },
  {
    "service_request": "2022-901246",
    "request_type": "Property Maintenance",
    "request_reason": "Property Maintenance",
    "date_created": "2022-07-18T19:30:25.000",
    "date_modified": "2022-07-18T19:30:25.000",
    "request_status": "Pending",
    "responsible_agency": "Department of Code Enforcement",
    "final_address": "2000 Second St",
    "address_councildis": "B",
    "status": "Pending",
    "rowid": "901246",
    "final_x": "3675853.04046",
    "final_y": "524256.878844",
    "longitude": "-90.08615103196456",
    "latitude": "29.935694748522696",
    "geocoded_column": {
      "latitude": "29.935694748522696",
      "longitude": "-90.08615103196456"
    }
  },
  {
    "service_request": "2022-901245",
    "request_type": "Property Maintenance",
    "request_reason": "Property Maintenance",
    "date_created": "2022-07-18T19:28:06.000",
    "date_modified": "2022-07-18T19:28:06.000",
    "request_status": "Pending",
    "responsible_agency": "Department of Code Enforcement",
    "final_address": "2829 Behrman Hwy",
    "address_councildis": "C",
    "status": "Pending",
    "rowid": "901245",
    "final_x": "3693318.65597",
    "final_y": "520144.020024",
    "longitude": "-90.03115964309822",
    "latitude": "29.92385150671687",
    "geocoded_column": {
      "latitude": "29.92385150671687",
      "longitude": "-90.03115964309822"
    }
  },
  {
    "service_request": "2022-901244",
    "request_type": "Health Related Questions",
    "request_reason": "Noise Ordinance Complaint",
    "date_created": "2022-07-18T19:20:31.000",
    "date_modified": "2022-07-18T19:20:31.000",
    "request_status": "Pending",
    "responsible_agency": "Health Department",
    "final_address": "630 Jackson Ave, New Orleans, Louisiana, 70130",
    "address_councildis": "B",
    "status": "Pending",
    "rowid": "901244",
    "final_x": "3675003.92635",
    "final_y": "526979.441086",
    "longitude": "-90.08873834058166",
    "latitude": "29.943206288115814",
    "geocoded_column": {
      "latitude": "29.943206288115814",
      "longitude": "-90.08873834058166"
    }
  },
  {
    "service_request": "2022-901243",
    "request_type": "Health Related Questions",
    "request_reason": "Noise Ordinance Complaint",
    "date_created": "2022-07-18T19:16:53.000",
    "date_modified": "2022-07-18T19:16:53.000",
    "request_status": "Pending",
    "responsible_agency": "Health Department",
    "final_address": "630 Jackson Ave, New Orleans, Louisiana, 70130",
    "address_councildis": "B",
    "status": "Pending",
    "rowid": "901243",
    "final_x": "3675003.92635",
    "final_y": "526979.441086",
    "longitude": "-90.08873834058166",
    "latitude": "29.943206288115814",
    "geocoded_column": {
      "latitude": "29.943206288115814",
      "longitude": "-90.08873834058166"
    }
  },
  {
    "service_request": "2022-901242",
    "request_type": "Trash/Recycling",
    "request_reason": "Missed Trash Pick-Up",
    "date_created": "2022-07-18T19:11:54.000",
    "date_modified": "2022-07-18T19:11:54.000",
    "request_status": "Pending",
    "responsible_agency": "Department of Sanitation",
    "status": "Assigned to Contractor",
    "rowid": "901242",
    "longitude": "0.0",
    "latitude": "0.0",
    "geocoded_column": {
      "latitude": "0.0",
      "longitude": "0.0"
    }
  },
  {
    "service_request": "2022-901241",
    "request_type": "Trash/Recycling",
    "request_reason": "Request a Large Item Pick Up",
    "date_created": "2022-07-18T19:10:27.000",
    "date_modified": "2022-07-18T19:10:28.000",
    "request_status": "Pending",
    "responsible_agency": "Department of Sanitation",
    "final_address": "14 Glacier Ct",
    "address_councildis": "C",
    "status": "Assigned to Contractor",
    "contractor": "Richards Disposal",
    "rowid": "901241",
    "final_x": "3700049.58084",
    "final_y": "516020.021172",
    "longitude": "-90.01006301772827",
    "latitude": "29.912299871506285",
    "geocoded_column": {
      "latitude": "29.912299871506285",
      "longitude": "-90.01006301772827"
    }
  },
  {
    "service_request": "2022-901240",
    "request_type": "Trash/Recycling",
    "request_reason": "Request a Large Item Pick Up",
    "date_created": "2022-07-18T19:00:30.000",
    "date_modified": "2022-07-18T19:00:30.000",
    "request_status": "Pending",
    "responsible_agency": "Department of Sanitation",
    "final_address": "1408 St Bernard Ave",
    "address_councildis": "C",
    "status": "Assigned to Contractor",
    "contractor": "Metro Disposal",
    "rowid": "901240",
    "final_x": "3682481.09359",
    "final_y": "537187.928712",
    "longitude": "-90.06477424386335",
    "latitude": "29.971050718339253",
    "geocoded_column": {
      "latitude": "29.971050718339253",
      "longitude": "-90.06477424386335"
    }
  },
  {
    "service_request": "2022-901239",
    "request_type": "Traffic Signals/Signs/Striping/Streetlights",
    "request_reason": "Request for Stop Sign",
    "date_created": "2022-07-18T19:00:20.000",
    "date_modified": "2022-07-18T19:00:21.000",
    "request_status": "Pending",
    "responsible_agency": "Department of Public Works",
    "final_address": "PHILIP ST & CLARA ST",
    "address_councildis": "B",
    "status": "Pending",
    "rowid": "901239",
    "final_x": "3674815.8",
    "final_y": "526882.28",
    "longitude": "-90.08933563389682",
    "latitude": "29.942944744413882",
    "geocoded_column": {
      "latitude": "29.942944744413882",
      "longitude": "-90.08933563389682"
    }
  },
  {
    "service_request": "2022-901237",
    "request_type": "Trash/Recycling",
    "request_reason": "Missed Trash Pick-Up",
    "date_created": "2022-07-18T18:44:17.000",
    "date_modified": "2022-07-18T18:46:04.000",
    "request_status": "Pending",
    "responsible_agency": "Department of Sanitation",
    "final_address": "900 BLK Ninth St",
    "address_councildis": "B",
    "status": "Assigned to Contractor",
    "contractor": "Richards Disposal",
    "rowid": "901237",
    "final_x": "3676167.57971",
    "final_y": "519580.367451",
    "longitude": "-90.08531882934125",
    "latitude": "29.92282644407673",
    "geocoded_column": {
      "latitude": "29.92282644407673",
      "longitude": "-90.08531882934125"
    }
  },
  {
    "service_request": "2022-901236",
    "request_type": "Property Maintenance",
    "request_reason": "Property Maintenance",
    "date_created": "2022-07-18T18:39:22.000",
    "date_modified": "2022-07-18T18:39:23.000",
    "request_status": "Pending",
    "responsible_agency": "Department of Code Enforcement",
    "final_address": "8623 Marks St",
    "address_councildis": "A",
    "status": "Pending",
    "rowid": "901236",
    "final_x": "3667510.02119",
    "final_y": "537366.874376",
    "longitude": "-90.11204901179528",
    "latitude": "29.97199000716756",
    "geocoded_column": {
      "latitude": "29.97199000716756",
      "longitude": "-90.11204901179528"
    }
  },
  {
    "service_request": "2022-901235",
    "request_type": "Trash/Recycling",
    "request_reason": "Return Trash Cart",
    "date_created": "2022-07-18T18:38:20.000",
    "date_modified": "2022-07-18T18:38:21.000",
    "request_status": "Pending",
    "responsible_agency": "Department of Sanitation",
    "final_address": "625 S Hennessey St",
    "address_councildis": "A",
    "status": "Assigned to Contractor",
    "contractor": "Richards Disposal",
    "rowid": "901235",
    "final_x": "3668950.82766",
    "final_y": "537240.457416",
    "longitude": "-90.10750296893613",
    "latitude": "29.971600098493965",
    "geocoded_column": {
      "latitude": "29.971600098493965",
      "longitude": "-90.10750296893613"
    }
  },
  {
    "service_request": "2022-901234",
    "request_type": "Trash/Recycling",
    "request_reason": "Missed Trash Pick-Up",
    "date_created": "2022-07-18T18:33:16.000",
    "date_modified": "2022-07-18T18:33:17.000",
    "request_status": "Pending",
    "responsible_agency": "Department of Sanitation",
    "final_address": "4651 St Roch Ave",
    "address_councildis": "D",
    "status": "Assigned to Contractor",
    "contractor": "Metro Disposal",
    "rowid": "901234",
    "final_x": "3685464.43983",
    "final_y": "549984.31266",
    "longitude": "-90.05490157047741",
    "latitude": "30.006145069403953",
    "geocoded_column": {
      "latitude": "30.006145069403953",
      "longitude": "-90.05490157047741"
    }
  },
  {
    "service_request": "2022-901233",
    "request_type": "Trash/Recycling",
    "request_reason": "Missed Trash Pick-Up",
    "date_created": "2022-07-18T18:15:26.000",
    "date_modified": "2022-07-18T18:15:28.000",
    "request_status": "Pending",
    "responsible_agency": "Department of Sanitation",
    "final_address": "4435 Lafaye St",
    "address_councildis": "D",
    "status": "Assigned to Contractor",
    "contractor": "Metro Disposal",
    "rowid": "901233",
    "final_x": "3687584.19804",
    "final_y": "549222.768467",
    "longitude": "-90.04823173871263",
    "latitude": "30.003985899648974",
    "geocoded_column": {
      "latitude": "30.003985899648974",
      "longitude": "-90.04823173871263"
    }
  },
  {
    "service_request": "2022-901232",
    "request_type": "Trash/Recycling",
    "request_reason": "Missed Trash Pick-Up",
    "date_created": "2022-07-18T17:54:12.000",
    "date_modified": "2022-07-18T17:54:12.000",
    "request_status": "Pending",
    "responsible_agency": "Department of Sanitation",
    "final_address": "3934 Bienville Ave",
    "address_councildis": "A",
    "status": "Assigned to Contractor",
    "contractor": "Richards Disposal",
    "rowid": "901232",
    "final_x": "3671972.49812",
    "final_y": "538577.268873",
    "longitude": "-90.09791454202016",
    "latitude": "29.975186646186987",
    "geocoded_column": {
      "latitude": "29.975186646186987",
      "longitude": "-90.09791454202016"
    }
  },
  {
    "service_request": "2022-901231",
    "request_type": "Trash/Recycling",
    "request_reason": "Request a Large Item Pick Up",
    "date_created": "2022-07-18T17:35:35.000",
    "date_modified": "2022-07-18T17:35:36.000",
    "request_status": "Pending",
    "responsible_agency": "Department of Sanitation",
    "final_address": "5024 Warrington Dr",
    "address_councildis": "D",
    "status": "Assigned to Contractor",
    "contractor": "Metro Disposal",
    "rowid": "901231",
    "final_x": "3680946.54779",
    "final_y": "551205.087765",
    "longitude": "-90.06913213208144",
    "latitude": "30.00963958855559",
    "geocoded_column": {
      "latitude": "30.00963958855559",
      "longitude": "-90.06913213208144"
    }
  },
  {
    "service_request": "2022-901230",
    "request_type": "Trash/Recycling",
    "request_reason": "Request a Large Item Pick Up",
    "date_created": "2022-07-18T17:34:38.000",
    "date_modified": "2022-07-18T17:34:39.000",
    "request_status": "Pending",
    "responsible_agency": "Department of Sanitation",
    "final_address": "530 Seguin St",
    "address_councildis": "C",
    "status": "Assigned to Contractor",
    "contractor": "Richards Disposal",
    "rowid": "901230",
    "final_x": "3686601.31951",
    "final_y": "529775.212225",
    "longitude": "-90.05202383540906",
    "latitude": "29.950542239662745",
    "geocoded_column": {
      "latitude": "29.950542239662745",
      "longitude": "-90.05202383540906"
    }
  },
  {
    "service_request": "2022-901229",
    "request_type": "Property Maintenance",
    "request_reason": "Property Maintenance",
    "date_created": "2022-07-18T17:30:36.000",
    "date_modified": "2022-07-18T17:30:36.000",
    "request_status": "Pending",
    "responsible_agency": "Department of Code Enforcement",
    "final_address": "501 Belleville St",
    "address_councildis": "C",
    "status": "Pending",
    "rowid": "901229",
    "final_x": "3687805.23772",
    "final_y": "529885.595457",
    "longitude": "-90.04821858495038",
    "latitude": "29.95080868339801",
    "geocoded_column": {
      "latitude": "29.95080868339801",
      "longitude": "-90.04821858495038"
    }
  },
  {
    "service_request": "2022-901228",
    "request_type": "Parks & Parkways",
    "request_reason": "Request Tree Service (Right of Way/Public Property)",
    "date_created": "2022-07-18T17:30:07.000",
    "date_modified": "2022-07-18T17:52:17.000",
    "request_status": "Pending",
    "responsible_agency": "Department of Parks & Parkway",
    "final_address": "4830 Alcee Fortier Blvd",
    "address_councildis": "E",
    "status": "Pending",
    "rowid": "901228",
    "final_x": "3730271.62771",
    "final_y": "562440.962975",
    "longitude": "-89.91285920648201",
    "latitude": "30.03894505302662",
    "geocoded_column": {
      "latitude": "30.03894505302662",
      "longitude": "-89.91285920648201"
    }
  },
  {
    "service_request": "2022-901227",
    "request_type": "Trash/Recycling",
    "request_reason": "Missed Trash Pick-Up",
    "date_created": "2022-07-18T17:26:51.000",
    "date_modified": "2022-07-18T17:26:52.000",
    "request_status": "Pending",
    "responsible_agency": "Department of Sanitation",
    "final_address": "4745 Music St",
    "address_councildis": "D",
    "status": "Assigned to Contractor",
    "contractor": "Metro Disposal",
    "rowid": "901227",
    "final_x": "3685716.41026",
    "final_y": "550557.72642",
    "longitude": "-90.05408531148966",
    "latitude": "30.00771401643756",
    "geocoded_column": {
      "latitude": "30.00771401643756",
      "longitude": "-90.05408531148966"
    }
  },
  {
    "service_request": "2022-901226",
    "request_type": "Trash/Recycling",
    "request_reason": "MIssed Recycling Pick-Up",
    "date_created": "2022-07-18T17:24:52.000",
    "date_modified": "2022-07-18T17:24:53.000",
    "request_status": "Pending",
    "responsible_agency": "Department of Sanitation",
    "final_address": "616 River Oaks Dr",
    "address_councildis": "C",
    "status": "Assigned to Contractor",
    "contractor": "Richards Disposal",
    "rowid": "901226",
    "final_x": "3701538.52228",
    "final_y": "520373.460984",
    "longitude": "-90.0052042779465",
    "latitude": "29.92422297509252",
    "geocoded_column": {
      "latitude": "29.92422297509252",
      "longitude": "-90.0052042779465"
    }
  },
  {
    "service_request": "2022-901225",
    "request_type": "Property Maintenance",
    "request_reason": "Property Maintenance",
    "date_created": "2022-07-18T17:16:52.000",
    "date_modified": "2022-07-18T17:16:52.000",
    "request_status": "Pending",
    "responsible_agency": "Department of Code Enforcement",
    "final_address": "7001 Bunker Hill Rd",
    "address_councildis": "E",
    "status": "Pending",
    "rowid": "901225",
    "final_x": "3706022.73419",
    "final_y": "560311.428701",
    "longitude": "-89.98957084790891",
    "latitude": "30.033893935271365",
    "geocoded_column": {
      "latitude": "30.033893935271365",
      "longitude": "-89.98957084790891"
    }
  },
  {
    "service_request": "2022-901224",
    "request_type": "Trash/Recycling",
    "request_reason": "MIssed Recycling Pick-Up",
    "date_created": "2022-07-18T17:16:04.000",
    "date_modified": "2022-07-18T17:16:04.000",
    "request_status": "Pending",
    "responsible_agency": "Department of Sanitation",
    "final_address": "4000 Monroe St",
    "address_councildis": "A",
    "status": "Assigned to Contractor",
    "contractor": "Richards Disposal",
    "rowid": "901224",
    "final_x": "3667082.91988",
    "final_y": "537223.299976",
    "longitude": "-90.1134026992558",
    "latitude": "29.97160773561474",
    "geocoded_column": {
      "latitude": "29.97160773561474",
      "longitude": "-90.1134026992558"
    }
  },
  {
    "service_request": "2022-901223",
    "request_type": "Trash/Recycling",
    "request_reason": "Order Recycling Cart",
    "date_created": "2022-07-18T17:15:10.000",
    "date_modified": "2022-07-18T17:15:10.000",
    "request_status": "Pending",
    "responsible_agency": "Department of Sanitation",
    "final_address": "236 Pacific Ave",
    "address_councildis": "C",
    "status": "Pending",
    "rowid": "901223",
    "final_x": "3688588.28361",
    "final_y": "530847.895426",
    "longitude": "-90.04571198708771",
    "latitude": "29.953430506098417",
    "geocoded_column": {
      "latitude": "29.953430506098417",
      "longitude": "-90.04571198708771"
    }
  },
  {
    "service_request": "2022-901222",
    "request_type": "Trash/Recycling",
    "request_reason": "Request a Large Item Pick Up",
    "date_created": "2022-07-18T17:11:11.000",
    "date_modified": "2022-07-18T17:11:12.000",
    "request_status": "Pending",
    "responsible_agency": "Department of Sanitation",
    "final_address": "2836 Palmyra St",
    "address_councildis": "B",
    "status": "Assigned to Contractor",
    "contractor": "Richards Disposal",
    "rowid": "901222",
    "final_x": "3674133.47867",
    "final_y": "534959.23239",
    "longitude": "-90.09121345494623",
    "latitude": "29.965174029470326",
    "geocoded_column": {
      "latitude": "29.965174029470326",
      "longitude": "-90.09121345494623"
    }
  },
  {
    "service_request": "2022-901221",
    "request_type": "Trash/Recycling",
    "request_reason": "MIssed Recycling Pick-Up",
    "date_created": "2022-07-18T17:09:42.000",
    "date_modified": "2022-07-18T17:09:43.000",
    "request_status": "Pending",
    "responsible_agency": "Department of Sanitation",
    "final_address": "6100 Block of Patton St, New Orleans, Louisiana, 70118",
    "status": "Assigned to Contractor",
    "rowid": "901221",
    "longitude": "0.0",
    "latitude": "0.0",
    "geocoded_column": {
      "latitude": "0.0",
      "longitude": "0.0"
    }
  },
  {
    "service_request": "2022-901220",
    "request_type": "Trash/Recycling",
    "request_reason": "Start Trash Service",
    "date_created": "2022-07-18T17:06:45.000",
    "date_modified": "2022-07-18T17:06:45.000",
    "request_status": "Pending",
    "responsible_agency": "Department of Sanitation",
    "final_address": "6636 Foch Rd",
    "address_councildis": "D",
    "status": "Assigned to Contractor",
    "contractor": "Metro Disposal",
    "rowid": "901220",
    "final_x": "3696769.68586",
    "final_y": "555700.436377",
    "longitude": "-90.01897859776376",
    "latitude": "30.02151059265939",
    "geocoded_column": {
      "latitude": "30.02151059265939",
      "longitude": "-90.01897859776376"
    }
  },
  {
    "service_request": "2022-901219",
    "request_type": "Trash/Recycling",
    "request_reason": "Missed Trash Pick-Up",
    "date_created": "2022-07-18T17:06:35.000",
    "date_modified": "2022-07-18T17:06:36.000",
    "request_status": "Pending",
    "responsible_agency": "Department of Sanitation",
    "final_address": "712 Sumner St",
    "address_councildis": "C",
    "status": "Assigned to Contractor",
    "contractor": "Richards Disposal",
    "rowid": "901219",
    "final_x": "3691223.80041",
    "final_y": "528728.842112",
    "longitude": "-90.03746584827587",
    "latitude": "29.947522143642253",
    "geocoded_column": {
      "latitude": "29.947522143642253",
      "longitude": "-90.03746584827587"
    }
  },
  {
    "service_request": "2022-901217",
    "request_type": "Roads/Drainage",
    "request_reason": "Catch Basin - Broken/Damage",
    "date_created": "2022-07-18T17:00:14.000",
    "date_modified": "2022-07-18T17:00:14.000",
    "request_status": "Pending",
    "responsible_agency": "Department of Public Works",
    "final_address": "1418 Poland Ave",
    "address_councildis": "D",
    "status": "Pending",
    "rowid": "901217",
    "final_x": "3693288.77552",
    "final_y": "536280.721607",
    "longitude": "-90.0306748753106",
    "latitude": "29.968222793369808",
    "geocoded_column": {
      "latitude": "29.968222793369808",
      "longitude": "-90.0306748753106"
    }
  },
  {
    "service_request": "2022-901216",
    "request_type": "Traffic Signals/Signs/Striping/Streetlights",
    "request_reason": "Street Light Outage/Malfunction",
    "date_created": "2022-07-18T16:59:35.000",
    "date_modified": "2022-07-18T16:59:36.000",
    "request_status": "Pending",
    "responsible_agency": "Department of Public Works",
    "final_address": "8230 Forshey St",
    "address_councildis": "A",
    "status": "Pending",
    "contractor": "Royal Engineering",
    "rowid": "901216",
    "final_x": "3666520.51732",
    "final_y": "534300.242117",
    "longitude": "-90.11527699024471",
    "latitude": "29.963586747533565",
    "geocoded_column": {
      "latitude": "29.963586747533565",
      "longitude": "-90.11527699024471"
    }
  },
  {
    "service_request": "2022-901215",
    "request_type": "Trash/Recycling",
    "request_reason": "MIssed Recycling Pick-Up",
    "date_created": "2022-07-18T16:55:11.000",
    "date_modified": "2022-07-18T16:55:12.000",
    "request_status": "Pending",
    "responsible_agency": "Department of Sanitation",
    "final_address": "6322 Pritchard Pl",
    "address_councildis": "B",
    "status": "Assigned to Contractor",
    "contractor": "Richards Disposal",
    "rowid": "901215",
    "final_x": "3668229.58951",
    "final_y": "530973.204418",
    "longitude": "-90.10999207110272",
    "latitude": "29.954388423960513",
    "geocoded_column": {
      "latitude": "29.954388423960513",
      "longitude": "-90.10999207110272"
    }
  },
  {
    "service_request": "2022-901214",
    "request_type": "Traffic Signals/Signs/Striping/Streetlights",
    "request_reason": "Additional signage",
    "date_created": "2022-07-18T16:53:53.000",
    "date_modified": "2022-07-18T16:53:53.000",
    "request_status": "Pending",
    "responsible_agency": "Department of Public Works",
    "final_address": "900 BLK Amelia St",
    "address_councildis": "B",
    "status": "Pending",
    "rowid": "901214",
    "final_x": "3673792.46504",
    "final_y": "518581.792349",
    "longitude": "-90.09285026872469",
    "latitude": "29.92015160003385",
    "geocoded_column": {
      "latitude": "29.92015160003385",
      "longitude": "-90.09285026872469"
    }
  },
  {
    "service_request": "2022-901213",
    "request_type": "Traffic Signals/Signs/Striping/Streetlights",
    "request_reason": "Additional signage",
    "date_created": "2022-07-18T16:52:45.000",
    "date_modified": "2022-07-18T16:52:45.000",
    "request_status": "Pending",
    "responsible_agency": "Department of Public Works",
    "final_address": "3649 Laurel St",
    "address_councildis": "B",
    "status": "Pending",
    "rowid": "901213",
    "final_x": "3673936.26529",
    "final_y": "518555.933495",
    "longitude": "-90.09239724333965",
    "latitude": "29.92007621503789",
    "geocoded_column": {
      "latitude": "29.92007621503789",
      "longitude": "-90.09239724333965"
    }
  },
  {
    "service_request": "2022-901212",
    "request_type": "Trash/Recycling",
    "request_reason": "Missed Trash Pick-Up",
    "date_created": "2022-07-18T16:51:47.000",
    "date_modified": "2022-07-18T16:51:48.000",
    "request_status": "Pending",
    "responsible_agency": "Department of Sanitation",
    "final_address": "1532 St Roch Ave",
    "address_councildis": "C",
    "status": "Assigned to Contractor",
    "contractor": "Metro Disposal",
    "rowid": "901212",
    "final_x": "3686272.01692",
    "final_y": "538146.696841",
    "longitude": "-90.05276819356094",
    "latitude": "29.973571049849244",
    "geocoded_column": {
      "latitude": "29.973571049849244",
      "longitude": "-90.05276819356094"
    }
  },
  {
    "service_request": "2022-901211",
    "request_type": "Trash/Recycling",
    "request_reason": "Illegal Dumping",
    "date_created": "2022-07-18T16:51:22.000",
    "date_modified": "2022-07-18T16:51:37.000",
    "request_status": "Pending",
    "responsible_agency": "Department of Sanitation",
    "final_address": "1700 BLK N Roman St",
    "address_councildis": "D",
    "status": "Pending",
    "rowid": "901211",
    "final_x": "3682325.71602",
    "final_y": "538681.587451",
    "longitude": "-90.06521274059284",
    "latitude": "29.97516249108694",
    "geocoded_column": {
      "latitude": "29.97516249108694",
      "longitude": "-90.06521274059284"
    }
  },
  {
    "service_request": "2022-901210",
    "request_type": "Abandoned Vehicles",
    "request_reason": "Abandoned/Junk Vehicles",
    "date_created": "2022-07-18T16:40:05.000",
    "date_modified": "2022-07-18T16:40:05.000",
    "request_status": "Pending",
    "responsible_agency": "Department of Public Works",
    "final_address": "2717 S Prieur St",
    "address_councildis": "B",
    "status": "Pending",
    "rowid": "901210",
    "final_x": "3672695.90113",
    "final_y": "527708.915519",
    "longitude": "-90.09600049961581",
    "latitude": "29.945280834698035",
    "geocoded_column": {
      "latitude": "29.945280834698035",
      "longitude": "-90.09600049961581"
    }
  },
  {
    "service_request": "2022-901209",
    "request_type": "Traffic Signals/Signs/Striping/Streetlights",
    "request_reason": "Additional signage",
    "date_created": "2022-07-18T16:39:29.000",
    "date_modified": "2022-07-18T16:39:29.000",
    "request_status": "Pending",
    "responsible_agency": "Department of Public Works",
    "final_address": "ANDREW HIGGINS ST & S PETERS ST",
    "address_councildis": "B",
    "status": "Pending",
    "rowid": "901209",
    "final_x": "3682285.2",
    "final_y": "526557.88",
    "longitude": "-90.06576427635473",
    "latitude": "29.94182766182659",
    "geocoded_column": {
      "latitude": "29.94182766182659",
      "longitude": "-90.06576427635473"
    }
  },
  {
    "service_request": "2022-901208",
    "request_type": "Trash/Recycling",
    "request_reason": "Repair Trash Cart",
    "date_created": "2022-07-18T16:38:52.000",
    "date_modified": "2022-07-18T16:38:52.000",
    "request_status": "Pending",
    "responsible_agency": "Department of Sanitation",
    "final_address": "1230 Tita St",
    "address_councildis": "C",
    "status": "Assigned to Contractor",
    "contractor": "Richards Disposal",
    "rowid": "901208",
    "final_x": "3695721.58627",
    "final_y": "526744.619134",
    "longitude": "-90.0233362919912",
    "latitude": "29.94192558600571",
    "geocoded_column": {
      "latitude": "29.94192558600571",
      "longitude": "-90.0233362919912"
    }
  },
  {
    "service_request": "2022-901207",
    "request_type": "Roads/Drainage",
    "request_reason": "Pothole",
    "date_created": "2022-07-18T16:38:25.000",
    "date_modified": "2022-07-18T16:38:26.000",
    "request_status": "Pending",
    "responsible_agency": "Department of Public Works",
    "final_address": "3329 Dearmas St",
    "address_councildis": "C",
    "status": "Pending",
    "rowid": "901207",
    "final_x": "3696562.21207",
    "final_y": "526944.254974",
    "longitude": "-90.02067505303009",
    "latitude": "29.942448062732133",
    "geocoded_column": {
      "latitude": "29.942448062732133",
      "longitude": "-90.02067505303009"
    }
  },
  {
    "service_request": "2022-901206",
    "request_type": "Trash/Recycling",
    "request_reason": "Request a Large Item Pick Up",
    "date_created": "2022-07-18T16:35:09.000",
    "date_modified": "2022-07-18T16:35:09.000",
    "request_status": "Pending",
    "responsible_agency": "Department of Sanitation",
    "final_address": "1622 Elizardi Blvd",
    "address_councildis": "C",
    "status": "Assigned to Contractor",
    "contractor": "Richards Disposal",
    "rowid": "901206",
    "final_x": "3694747.57373",
    "final_y": "525181.478397",
    "longitude": "-90.02646772692059",
    "latitude": "29.93765807039192",
    "geocoded_column": {
      "latitude": "29.93765807039192",
      "longitude": "-90.02646772692059"
    }
  },
  {
    "service_request": "2022-901205",
    "request_type": "Roads/Drainage",
    "request_reason": "Catch Basin - Broken/Damage",
    "date_created": "2022-07-18T16:33:26.000",
    "date_modified": "2022-07-18T16:33:26.000",
    "request_status": "Pending",
    "responsible_agency": "Department of Public Works",
    "final_address": "6240 Memphis St",
    "address_councildis": "A",
    "status": "Pending",
    "rowid": "901205",
    "final_x": "3669270.08122",
    "final_y": "548941.906963",
    "longitude": "-90.10609891516108",
    "latitude": "30.003765690098582",
    "geocoded_column": {
      "latitude": "30.003765690098582",
      "longitude": "-90.10609891516108"
    }
  },
  {
    "service_request": "2022-901204",
    "request_type": "Property Maintenance",
    "request_reason": "Property Maintenance",
    "date_created": "2022-07-18T16:30:32.000",
    "date_modified": "2022-07-18T16:30:32.000",
    "request_status": "Pending",
    "responsible_agency": "Department of Code Enforcement",
    "final_address": "6743 Wuerpel St",
    "address_councildis": "A",
    "status": "Pending",
    "rowid": "901204",
    "final_x": "3667280.56212",
    "final_y": "552539.058582",
    "longitude": "-90.11226306124212",
    "latitude": "30.013715042276452",
    "geocoded_column": {
      "latitude": "30.013715042276452",
      "longitude": "-90.11226306124212"
    }
  },
  {
    "service_request": "2022-901203",
    "request_type": "Property Maintenance",
    "request_reason": "Property Maintenance",
    "date_created": "2022-07-18T16:29:15.000",
    "date_modified": "2022-07-18T16:29:16.000",
    "request_status": "Pending",
    "responsible_agency": "Department of Code Enforcement",
    "final_address": "221 Chapelle St",
    "address_councildis": "A",
    "status": "Pending",
    "rowid": "901203",
    "final_x": "3667275.31777",
    "final_y": "552773.509014",
    "longitude": "-90.11227173702889",
    "latitude": "30.01435985228007",
    "geocoded_column": {
      "latitude": "30.01435985228007",
      "longitude": "-90.11227173702889"
    }
  },
  {
    "service_request": "2022-901201",
    "request_type": "Abandoned Vehicles",
    "request_reason": "Abandoned/Junk Vehicles",
    "date_created": "2022-07-18T16:27:28.000",
    "date_modified": "2022-07-18T16:27:28.000",
    "request_status": "Pending",
    "responsible_agency": "Department of Public Works",
    "final_address": "1315 Saint Andrew St, New Orleans, Louisiana, 70130",
    "status": "Pending",
    "rowid": "901201",
    "longitude": "0.0",
    "latitude": "0.0",
    "geocoded_column": {
      "latitude": "0.0",
      "longitude": "0.0"
    }
  },
  {
    "service_request": "2022-901200",
    "request_type": "Trash/Recycling",
    "request_reason": "Illegal Dumping",
    "date_created": "2022-07-18T16:26:46.000",
    "date_modified": "2022-07-18T16:26:46.000",
    "request_status": "Pending",
    "responsible_agency": "Department of Sanitation",
    "final_address": "683 Jourdan Ave",
    "address_councildis": "E",
    "status": "Pending",
    "rowid": "901200",
    "final_x": "3694645.86173",
    "final_y": "532953.01178",
    "longitude": "-90.02650901444323",
    "latitude": "29.959030275512344",
    "geocoded_column": {
      "latitude": "29.959030275512344",
      "longitude": "-90.02650901444323"
    }
  },
  {
    "service_request": "2022-901199",
    "request_type": "Property Maintenance",
    "request_reason": "Property Maintenance",
    "date_created": "2022-07-18T16:25:50.000",
    "date_modified": "2022-07-18T16:25:50.000",
    "request_status": "Pending",
    "responsible_agency": "Department of Code Enforcement",
    "final_address": "6013 Tchoupitoulas St",
    "address_councildis": "A",
    "status": "Pending",
    "rowid": "901199",
    "final_x": "3664039.94202",
    "final_y": "517613.087158",
    "longitude": "-90.12366674153442",
    "latitude": "29.917774672590753",
    "geocoded_column": {
      "latitude": "29.917774672590753",
      "longitude": "-90.12366674153442"
    }
  },
  {
    "service_request": "2022-901198",
    "request_type": "Safety & Permits",
    "request_reason": "Licenses & Permits",
    "date_created": "2022-07-18T16:25:31.000",
    "date_modified": "2022-07-18T16:25:32.000",
    "request_status": "Pending",
    "responsible_agency": "Safety and Permits",
    "final_address": "6013 Tchoupitoulas St",
    "address_councildis": "A",
    "status": "Pending",
    "rowid": "901198",
    "final_x": "3664039.94202",
    "final_y": "517613.087158",
    "longitude": "-90.12366674153442",
    "latitude": "29.917774672590753",
    "geocoded_column": {
      "latitude": "29.917774672590753",
      "longitude": "-90.12366674153442"
    }
  },
  {
    "service_request": "2022-901197",
    "request_type": "Trash/Recycling",
    "request_reason": "Missed Trash Pick-Up",
    "date_created": "2022-07-18T16:23:42.000",
    "date_modified": "2022-07-18T16:23:43.000",
    "request_status": "Pending",
    "responsible_agency": "Department of Sanitation",
    "final_address": "2411 St Philip St",
    "address_councildis": "D",
    "status": "Assigned to Contractor",
    "contractor": "Richards Disposal",
    "rowid": "901197",
    "final_x": "3678415.53314",
    "final_y": "537103.617672",
    "longitude": "-90.07761674213177",
    "latitude": "29.97094202699654",
    "geocoded_column": {
      "latitude": "29.97094202699654",
      "longitude": "-90.07761674213177"
    }
  },
  {
    "service_request": "2022-901196",
    "request_type": "Trash/Recycling",
    "request_reason": "Replace Trash Cart",
    "date_created": "2022-07-18T16:18:59.000",
    "date_modified": "2022-07-18T16:19:00.000",
    "request_status": "Pending",
    "responsible_agency": "Department of Sanitation",
    "final_address": "4986 Kendall Dr",
    "address_councildis": "D",
    "status": "Assigned to Contractor",
    "contractor": "Metro Disposal",
    "rowid": "901196",
    "final_x": "3690127.94672",
    "final_y": "552068.602646",
    "longitude": "-90.04009414869762",
    "latitude": "30.011732207590867",
    "geocoded_column": {
      "latitude": "30.011732207590867",
      "longitude": "-90.04009414869762"
    }
  },
  {
    "service_request": "2022-901195",
    "request_type": "Trash/Recycling",
    "request_reason": "Replace Trash Cart",
    "date_created": "2022-07-18T16:15:04.000",
    "date_modified": "2022-07-18T16:15:05.000",
    "request_status": "Pending",
    "responsible_agency": "Department of Sanitation",
    "final_address": "5123 Arts St",
    "address_councildis": "D",
    "status": "Assigned to Contractor",
    "contractor": "Metro Disposal",
    "rowid": "901195",
    "final_x": "3685906.8934",
    "final_y": "551768.081237",
    "longitude": "-90.05344080849558",
    "latitude": "30.011036202035378",
    "geocoded_column": {
      "latitude": "30.011036202035378",
      "longitude": "-90.05344080849558"
    }
  },
  {
    "service_request": "2022-901194",
    "request_type": "Trash/Recycling",
    "request_reason": "Request a Large Item Pick Up",
    "date_created": "2022-07-18T16:07:45.000",
    "date_modified": "2022-07-18T16:07:46.000",
    "request_status": "Pending",
    "responsible_agency": "Department of Sanitation",
    "final_address": "6958 Orleans Ave",
    "address_councildis": "A",
    "status": "Assigned to Contractor",
    "contractor": "Metro Disposal",
    "rowid": "901194",
    "final_x": "3671388.7339",
    "final_y": "553618.632791",
    "longitude": "-90.09924659559546",
    "latitude": "30.016562471894353",
    "geocoded_column": {
      "latitude": "30.016562471894353",
      "longitude": "-90.09924659559546"
    }
  },
  {
    "service_request": "2022-901193",
    "request_type": "Property Maintenance",
    "request_reason": "Property Maintenance",
    "date_created": "2022-07-18T15:56:46.000",
    "date_modified": "2022-07-18T15:56:46.000",
    "request_status": "Pending",
    "responsible_agency": "Department of Code Enforcement",
    "final_address": "3329 Audubon Ct",
    "address_councildis": "B",
    "status": "Pending",
    "rowid": "901193",
    "final_x": "3668866.93076",
    "final_y": "532598.8553",
    "longitude": "-90.1079246968655",
    "latitude": "29.95883970341759",
    "geocoded_column": {
      "latitude": "29.95883970341759",
      "longitude": "-90.1079246968655"
    }
  },
  {
    "service_request": "2022-901190",
    "request_type": "Traffic Signals/Signs/Striping/Streetlights",
    "request_reason": "Street Light Outage/Malfunction",
    "date_created": "2022-07-18T15:52:34.000",
    "date_modified": "2022-07-18T15:52:35.000",
    "request_status": "Pending",
    "responsible_agency": "Department of Public Works",
    "final_address": "5429 N Villere St",
    "address_councildis": "E",
    "status": "Pending",
    "contractor": "Royal Engineering",
    "rowid": "901190",
    "final_x": "3697723.29239",
    "final_y": "535042.601478",
    "longitude": "-90.01671548994148",
    "latitude": "29.96467903856664",
    "geocoded_column": {
      "latitude": "29.96467903856664",
      "longitude": "-90.01671548994148"
    }
  },
  {
    "service_request": "2022-901189",
    "request_type": "Property Maintenance",
    "request_reason": "Property Maintenance",
    "date_created": "2022-07-18T15:51:42.000",
    "date_modified": "2022-07-18T15:51:42.000",
    "request_status": "Pending",
    "responsible_agency": "Department of Code Enforcement",
    "final_address": "4901 Friar Tuck Dr",
    "address_councildis": "E",
    "status": "Pending",
    "rowid": "901189",
    "final_x": "3717756.92773",
    "final_y": "557699.564571",
    "longitude": "-89.9525892708059",
    "latitude": "30.026328760694202",
    "geocoded_column": {
      "latitude": "30.026328760694202",
      "longitude": "-89.9525892708059"
    }
  },
  {
    "service_request": "2022-901188",
    "request_type": "Parks & Parkways",
    "request_reason": "Request Tree Service (Right of Way/Public Property)",
    "date_created": "2022-07-18T15:51:21.000",
    "date_modified": "2022-07-18T15:55:58.000",
    "request_status": "Pending",
    "responsible_agency": "Department of Parks & Parkway",
    "final_address": "500 N Claiborne Ave",
    "address_councildis": "C",
    "status": "Pending",
    "rowid": "901188",
    "final_x": "3679583.72693",
    "final_y": "534013.152389",
    "longitude": "-90.07403470121584",
    "latitude": "29.962409050645526",
    "geocoded_column": {
      "latitude": "29.962409050645526",
      "longitude": "-90.07403470121584"
    }
  },
  {
    "service_request": "2022-901187",
    "request_type": "Property Maintenance",
    "request_reason": "Property Maintenance",
    "date_created": "2022-07-18T15:49:07.000",
    "date_modified": "2022-07-18T15:49:07.000",
    "request_status": "Pending",
    "responsible_agency": "Department of Code Enforcement",
    "final_address": "11230 Morrison Rd",
    "address_councildis": "E",
    "status": "Pending",
    "rowid": "901187",
    "final_x": "3712007.42283",
    "final_y": "565415.276322",
    "longitude": "-89.97046685922776",
    "latitude": "30.04773312953699",
    "geocoded_column": {
      "latitude": "30.04773312953699",
      "longitude": "-89.97046685922776"
    }
  },
  {
    "service_request": "2022-901186",
    "request_type": "Trash/Recycling",
    "request_reason": "Request a Large Item Pick Up",
    "date_created": "2022-07-18T15:47:49.000",
    "date_modified": "2022-07-18T15:47:50.000",
    "request_status": "Pending",
    "responsible_agency": "Department of Sanitation",
    "final_address": "812 Dublin St",
    "address_councildis": "A",
    "status": "Assigned to Contractor",
    "contractor": "Richards Disposal",
    "rowid": "901186",
    "final_x": "3660811.95674",
    "final_y": "527700.067903",
    "longitude": "-90.13352237312202",
    "latitude": "29.945604017324587",
    "geocoded_column": {
      "latitude": "29.945604017324587",
      "longitude": "-90.13352237312202"
    }
  },
  {
    "service_request": "2022-901185",
    "request_type": "Trash/Recycling",
    "request_reason": "Illegal Dumping",
    "date_created": "2022-07-18T15:44:05.000",
    "date_modified": "2022-07-18T15:44:05.000",
    "request_status": "Pending",
    "responsible_agency": "Department of Sanitation",
    "final_address": "4026 Banks St",
    "address_councildis": "A",
    "status": "Pending",
    "rowid": "901185",
    "final_x": "3670521.22375",
    "final_y": "537171.024584",
    "longitude": "-90.10254576569902",
    "latitude": "29.97136289317508",
    "geocoded_column": {
      "latitude": "29.97136289317508",
      "longitude": "-90.10254576569902"
    }
  },
  {
    "service_request": "2022-901184",
    "request_type": "Trash/Recycling",
    "request_reason": "Request a Large Item Pick Up",
    "date_created": "2022-07-18T15:42:53.000",
    "date_modified": "2022-07-18T15:42:53.000",
    "request_status": "Pending",
    "responsible_agency": "Department of Sanitation",
    "final_address": "221 Lavergne St",
    "address_councildis": "C",
    "status": "Assigned to Contractor",
    "contractor": "Richards Disposal",
    "rowid": "901184",
    "final_x": "3686653.73001",
    "final_y": "530841.43341",
    "longitude": "-90.05182069862622",
    "latitude": "29.953472371584414",
    "geocoded_column": {
      "latitude": "29.953472371584414",
      "longitude": "-90.05182069862622"
    }
  },
  {
    "service_request": "2022-901183",
    "request_type": "Roads/Drainage",
    "request_reason": "Debris in Roadway",
    "date_created": "2022-07-18T15:42:16.000",
    "date_modified": "2022-07-18T15:42:17.000",
    "request_status": "Pending",
    "responsible_agency": "Department of Public Works",
    "final_address": "FRANKLIN AVE & N MIRO ST",
    "address_councildis": "D",
    "status": "Pending",
    "rowid": "901183",
    "final_x": "3687634.8",
    "final_y": "540595.28",
    "longitude": "-90.04837752680744",
    "latitude": "29.980261842020028",
    "geocoded_column": {
      "latitude": "29.980261842020028",
      "longitude": "-90.04837752680744"
    }
  },
  {
    "service_request": "2022-901182",
    "request_type": "Trash/Recycling",
    "request_reason": "Illegal Dumping",
    "date_created": "2022-07-18T15:41:26.000",
    "date_modified": "2022-07-18T15:41:26.000",
    "request_status": "Pending",
    "responsible_agency": "Department of Sanitation",
    "final_address": "3518 Banks St",
    "address_councildis": "B",
    "status": "Pending",
    "rowid": "901182",
    "final_x": "3671959.05787",
    "final_y": "536086.966663",
    "longitude": "-90.09804178022306",
    "latitude": "29.968339554125222",
    "geocoded_column": {
      "latitude": "29.968339554125222",
      "longitude": "-90.09804178022306"
    }
  },
  {
    "service_request": "2022-901181",
    "request_type": "Roads/Drainage",
    "request_reason": "Debris in Roadway",
    "date_created": "2022-07-18T15:41:18.000",
    "date_modified": "2022-07-18T15:41:18.000",
    "request_status": "Pending",
    "responsible_agency": "Department of Public Works",
    "final_address": "ST BERNARD AVE & N GALVEZ ST",
    "address_councildis": "D",
    "status": "Pending",
    "rowid": "901181",
    "final_x": "3681311.9",
    "final_y": "539580.88",
    "longitude": "-90.0683832810682",
    "latitude": "29.977666045789643",
    "geocoded_column": {
      "latitude": "29.977666045789643",
      "longitude": "-90.0683832810682"
    }
  },
  {
    "service_request": "2022-901180",
    "request_type": "Trash/Recycling",
    "request_reason": "Illegal Dumping",
    "date_created": "2022-07-18T15:39:03.000",
    "date_modified": "2022-07-18T15:39:03.000",
    "request_status": "Pending",
    "responsible_agency": "Department of Sanitation",
    "final_address": "4038 Banks St",
    "address_councildis": "A",
    "status": "Pending",
    "rowid": "901180",
    "final_x": "3670463.79892",
    "final_y": "537235.199752",
    "longitude": "-90.10272494526228",
    "latitude": "29.97154104923241",
    "geocoded_column": {
      "latitude": "29.97154104923241",
      "longitude": "-90.10272494526228"
    }
  },
  {
    "service_request": "2022-901179",
    "request_type": "Parks & Parkways",
    "request_reason": "Request Tree Service (Right of Way/Public Property)",
    "date_created": "2022-07-18T15:38:39.000",
    "date_modified": "2022-07-18T15:38:40.000",
    "request_status": "Pending",
    "responsible_agency": "Department of Parks & Parkway",
    "final_address": "500 N Claiborne Ave",
    "address_councildis": "C",
    "status": "Pending",
    "rowid": "901179",
    "final_x": "3679583.72693",
    "final_y": "534013.152389",
    "longitude": "-90.07403470121584",
    "latitude": "29.962409050645526",
    "geocoded_column": {
      "latitude": "29.962409050645526",
      "longitude": "-90.07403470121584"
    }
  },
  {
    "service_request": "2022-901177",
    "request_type": "Property Maintenance",
    "request_reason": "Property Maintenance",
    "date_created": "2022-07-18T15:36:47.000",
    "date_modified": "2022-07-18T15:36:47.000",
    "request_status": "Pending",
    "responsible_agency": "Department of Code Enforcement",
    "final_address": "4000 Davey St",
    "address_councildis": "D",
    "status": "Pending",
    "rowid": "901177",
    "final_x": "3676149.65473",
    "final_y": "546926.171153",
    "longitude": "-90.08443457462232",
    "latitude": "29.99801873290704",
    "geocoded_column": {
      "latitude": "29.99801873290704",
      "longitude": "-90.08443457462232"
    }
  },
  {
    "service_request": "2022-901176",
    "request_type": "Trash/Recycling",
    "request_reason": "Replace Trash Cart",
    "date_created": "2022-07-18T15:35:12.000",
    "date_modified": "2022-07-18T15:35:13.000",
    "request_status": "Pending",
    "responsible_agency": "Department of Sanitation",
    "final_address": "4401 Vixen St",
    "address_councildis": "C",
    "status": "Assigned to Contractor",
    "contractor": "Richards Disposal",
    "rowid": "901176",
    "final_x": "3699851.69904",
    "final_y": "520629.049016",
    "longitude": "-90.01051964152194",
    "latitude": "29.924979407489335",
    "geocoded_column": {
      "latitude": "29.924979407489335",
      "longitude": "-90.01051964152194"
    }
  },
  {
    "service_request": "2022-901175",
    "request_type": "Trash/Recycling",
    "request_reason": "Request a Large Item Pick Up",
    "date_created": "2022-07-18T15:33:16.000",
    "date_modified": "2022-07-18T15:33:16.000",
    "request_status": "Pending",
    "responsible_agency": "Department of Sanitation",
    "final_address": "4401 Vixen St",
    "address_councildis": "C",
    "status": "Assigned to Contractor",
    "contractor": "Richards Disposal",
    "rowid": "901175",
    "final_x": "3699851.69904",
    "final_y": "520629.049016",
    "longitude": "-90.01051964152194",
    "latitude": "29.924979407489335",
    "geocoded_column": {
      "latitude": "29.924979407489335",
      "longitude": "-90.01051964152194"
    }
  },
  {
    "service_request": "2022-901174",
    "request_type": "Trash/Recycling",
    "request_reason": "Request a Large Item Pick Up",
    "date_created": "2022-07-18T15:29:11.000",
    "date_modified": "2022-07-18T15:29:12.000",
    "request_status": "Pending",
    "responsible_agency": "Department of Sanitation",
    "final_address": "3743 Tall Pines Dr",
    "address_councildis": "C",
    "status": "Assigned to Contractor",
    "contractor": "Richards Disposal",
    "rowid": "901174",
    "final_x": "3703975.82628",
    "final_y": "513409.576882",
    "longitude": "-89.99776684286627",
    "latitude": "29.904996781023822",
    "geocoded_column": {
      "latitude": "29.904996781023822",
      "longitude": "-89.99776684286627"
    }
  },
  {
    "service_request": "2022-901173",
    "request_type": "Traffic Signals/Signs/Striping/Streetlights",
    "request_reason": "Street Light Outage/Malfunction",
    "date_created": "2022-07-18T15:28:54.000",
    "date_modified": "2022-07-18T15:30:35.000",
    "request_status": "Pending",
    "responsible_agency": "Department of Public Works",
    "final_address": "2400 BLK Painters St",
    "address_councildis": "D",
    "status": "Pending",
    "contractor": "Royal Engineering",
    "rowid": "901173",
    "final_x": "3687166.52097",
    "final_y": "541479.683232",
    "longitude": "-90.04982525757562",
    "latitude": "29.98270806873021",
    "geocoded_column": {
      "latitude": "29.98270806873021",
      "longitude": "-90.04982525757562"
    }
  },
  {
    "service_request": "2022-901172",
    "request_type": "Property Maintenance",
    "request_reason": "Property Maintenance",
    "date_created": "2022-07-18T15:26:13.000",
    "date_modified": "2022-07-18T15:26:13.000",
    "request_status": "Pending",
    "responsible_agency": "Department of Code Enforcement",
    "final_address": "6070 Wildair Dr",
    "address_councildis": "D",
    "status": "Pending",
    "rowid": "901172",
    "final_x": "3681354.72034",
    "final_y": "555480.443353",
    "longitude": "-90.06769337560024",
    "latitude": "30.021382873512202",
    "geocoded_column": {
      "latitude": "30.021382873512202",
      "longitude": "-90.06769337560024"
    }
  },
  {
    "service_request": "2022-901171",
    "request_type": "Property Maintenance",
    "request_reason": "Property Maintenance",
    "date_created": "2022-07-18T15:26:06.000",
    "date_modified": "2022-07-18T15:26:06.000",
    "request_status": "Pending",
    "responsible_agency": "Department of Code Enforcement",
    "final_address": "3326 N Rocheblave St",
    "address_councildis": "D",
    "status": "Pending",
    "rowid": "901171",
    "final_x": "3691233.1599",
    "final_y": "540610.902219",
    "longitude": "-90.0370118652974",
    "latitude": "29.98019335206124",
    "geocoded_column": {
      "latitude": "29.98019335206124",
      "longitude": "-90.0370118652974"
    }
  },
  {
    "service_request": "2022-901170",
    "request_type": "Trash/Recycling",
    "request_reason": "Illegal Dumping",
    "date_created": "2022-07-18T15:25:21.000",
    "date_modified": "2022-07-18T15:25:21.000",
    "request_status": "Pending",
    "responsible_agency": "Department of Sanitation",
    "final_address": "FRANKLIN AVE & N MIRO ST",
    "address_councildis": "D",
    "status": "Pending",
    "rowid": "901170",
    "final_x": "3687634.8",
    "final_y": "540595.28",
    "longitude": "-90.04837752680744",
    "latitude": "29.980261842020028",
    "geocoded_column": {
      "latitude": "29.980261842020028",
      "longitude": "-90.04837752680744"
    }
  },
  {
    "service_request": "2022-901169",
    "request_type": "Roads/Drainage",
    "request_reason": "Debris in Roadway",
    "date_created": "2022-07-18T15:25:03.000",
    "date_modified": "2022-07-18T15:25:03.000",
    "request_status": "Pending",
    "responsible_agency": "Department of Public Works",
    "final_address": "FRANKLIN AVE & N MIRO ST",
    "address_councildis": "D",
    "status": "Pending",
    "rowid": "901169",
    "final_x": "3687634.8",
    "final_y": "540595.28",
    "longitude": "-90.04837752680744",
    "latitude": "29.980261842020028",
    "geocoded_column": {
      "latitude": "29.980261842020028",
      "longitude": "-90.04837752680744"
    }
  },
  {
    "service_request": "2022-901167",
    "request_type": "Roads/Drainage",
    "request_reason": "Pothole",
    "date_created": "2022-07-18T15:22:36.000",
    "date_modified": "2022-07-18T15:22:37.000",
    "request_status": "Pending",
    "responsible_agency": "Department of Public Works",
    "final_address": "1415 Casa Calvo St",
    "address_councildis": "C",
    "status": "Pending",
    "rowid": "901167",
    "final_x": "3692013.41501",
    "final_y": "526086.800574",
    "longitude": "-90.03506725495701",
    "latitude": "29.940232859088006",
    "geocoded_column": {
      "latitude": "29.940232859088006",
      "longitude": "-90.03506725495701"
    }
  },
  {
    "service_request": "2022-901165",
    "request_type": "Abandoned Vehicles",
    "request_reason": "Vehicle Blocking Your Driveway",
    "date_created": "2022-07-18T15:21:42.000",
    "date_modified": "2022-07-18T15:21:42.000",
    "request_status": "Pending",
    "responsible_agency": "Department of Public Works",
    "final_address": "2028 S Salcedo St",
    "address_councildis": "B",
    "status": "Pending",
    "rowid": "901165",
    "final_x": "3669567.4777",
    "final_y": "529401.442881",
    "longitude": "-90.10582070420311",
    "latitude": "29.950027251793216",
    "geocoded_column": {
      "latitude": "29.950027251793216",
      "longitude": "-90.10582070420311"
    }
  },
  {
    "service_request": "2022-901164",
    "request_type": "Property Maintenance",
    "request_reason": "Property Maintenance",
    "date_created": "2022-07-18T15:21:05.000",
    "date_modified": "2022-07-18T15:37:05.000",
    "case_close_date": "2022-07-18T10:37:05.000",
    "request_status": "Closed",
    "responsible_agency": "Department of Code Enforcement",
    "final_address": "SOCRATES ST & CASA CALVO ST",
    "address_councildis": "C",
    "status": "Referred to Code Enforcement",
    "rowid": "901164",
    "final_x": "3692061.6",
    "final_y": "526198.58",
    "longitude": "-90.03491112899744",
    "latitude": "29.940538712980985",
    "geocoded_column": {
      "latitude": "29.940538712980985",
      "longitude": "-90.03491112899744"
    }
  },
  {
    "service_request": "2022-901163",
    "request_type": "Trash/Recycling",
    "request_reason": "Repair Trash Cart",
    "date_created": "2022-07-18T15:21:00.000",
    "date_modified": "2022-07-18T15:21:01.000",
    "request_status": "Pending",
    "responsible_agency": "Department of Sanitation",
    "final_address": "1632 N Dupre St",
    "address_councildis": "D",
    "status": "Assigned to Contractor",
    "contractor": "Metro Disposal",
    "rowid": "901163",
    "final_x": "3678711.60891",
    "final_y": "540801.339595",
    "longitude": "-90.0765536113657",
    "latitude": "29.98110056226062",
    "geocoded_column": {
      "latitude": "29.98110056226062",
      "longitude": "-90.0765536113657"
    }
  },
  {
    "service_request": "2022-901162",
    "request_type": "Trash/Recycling",
    "request_reason": "Order Trash Cart",
    "date_created": "2022-07-18T15:20:16.000",
    "date_modified": "2022-07-18T15:20:17.000",
    "request_status": "Pending",
    "responsible_agency": "Department of Sanitation",
    "final_address": "3130 State Street Dr",
    "address_councildis": "A",
    "status": "Assigned to Contractor",
    "contractor": "Richards Disposal",
    "rowid": "901162",
    "final_x": "3667416.78439",
    "final_y": "527766.923519",
    "longitude": "-90.1126664507079",
    "latitude": "29.94559603090274",
    "geocoded_column": {
      "latitude": "29.94559603090274",
      "longitude": "-90.1126664507079"
    }
  },
  {
    "service_request": "2022-901161",
    "request_type": "Trash/Recycling",
    "request_reason": "Order Trash Cart",
    "date_created": "2022-07-18T15:18:57.000",
    "date_modified": "2022-07-18T15:20:53.000",
    "request_status": "Pending",
    "responsible_agency": "Department of Sanitation",
    "final_address": "New Orleans,LA",
    "address_councildis": "D",
    "status": "Assigned to Contractor",
    "contractor": "Metro Disposal",
    "rowid": "901161",
    "final_x": "3678711.60891",
    "final_y": "540801.339595",
    "longitude": "-90.0765536113657",
    "latitude": "29.98110056226062",
    "geocoded_column": {
      "latitude": "29.98110056226062",
      "longitude": "-90.0765536113657"
    }
  },
  {
    "service_request": "2022-901160",
    "request_type": "Trash/Recycling",
    "request_reason": "Missed Trash Pick-Up",
    "date_created": "2022-07-18T15:18:54.000",
    "date_modified": "2022-07-18T15:18:54.000",
    "request_status": "Pending",
    "responsible_agency": "Department of Sanitation",
    "final_address": "1213 N Robertson St",
    "address_councildis": "D",
    "status": "Assigned to Contractor",
    "contractor": "Richards Disposal",
    "rowid": "901160",
    "final_x": "3681289.44981",
    "final_y": "536031.065031",
    "longitude": "-90.06857793693486",
    "latitude": "29.967905963108247",
    "geocoded_column": {
      "latitude": "29.967905963108247",
      "longitude": "-90.06857793693486"
    }
  },
  {
    "service_request": "2022-901159",
    "request_type": "Trash/Recycling",
    "request_reason": "Missed Trash Pick-Up",
    "date_created": "2022-07-18T15:18:02.000",
    "date_modified": "2022-07-18T15:18:03.000",
    "request_status": "Pending",
    "responsible_agency": "Department of Sanitation",
    "final_address": "1000 BLK Newton St",
    "address_councildis": "C",
    "status": "Assigned to Contractor",
    "contractor": "Richards Disposal",
    "rowid": "901159",
    "final_x": "3688574.22518",
    "final_y": "527926.369788",
    "longitude": "-90.04586002933239",
    "latitude": "29.94539774629914",
    "geocoded_column": {
      "latitude": "29.94539774629914",
      "longitude": "-90.04586002933239"
    }
  },
  {
    "service_request": "2022-901158",
    "request_type": "Trash/Recycling",
    "request_reason": "Missed Trash Pick-Up",
    "date_created": "2022-07-18T15:17:03.000",
    "date_modified": "2022-07-18T15:17:04.000",
    "request_status": "Pending",
    "responsible_agency": "Department of Sanitation",
    "final_address": "922 Adams St",
    "address_councildis": "A",
    "status": "Assigned to Contractor",
    "contractor": "Richards Disposal",
    "rowid": "901158",
    "final_x": "3662443.70746",
    "final_y": "526768.232062",
    "longitude": "-90.12840131542436",
    "latitude": "29.942994684292536",
    "geocoded_column": {
      "latitude": "29.942994684292536",
      "longitude": "-90.12840131542436"
    }
  },
  {
    "service_request": "2022-901157",
    "request_type": "Trash/Recycling",
    "request_reason": "Replace Trash Cart",
    "date_created": "2022-07-18T15:16:39.000",
    "date_modified": "2022-07-18T15:16:40.000",
    "request_status": "Pending",
    "responsible_agency": "Department of Sanitation",
    "final_address": "1600 Simon Bolivar Ave",
    "address_councildis": "B",
    "status": "Assigned to Contractor",
    "contractor": "Richards Disposal",
    "rowid": "901157",
    "final_x": "3677194.24021",
    "final_y": "526402.011134",
    "longitude": "-90.08184287738845",
    "latitude": "29.941552947878524",
    "geocoded_column": {
      "latitude": "29.941552947878524",
      "longitude": "-90.08184287738845"
    }
  },
  {
    "service_request": "2022-901156",
    "request_type": "Trash/Recycling",
    "request_reason": "Request a Large Item Pick Up",
    "date_created": "2022-07-18T15:14:12.000",
    "date_modified": "2022-07-18T15:32:51.000",
    "case_close_date": "2022-07-17T19:00:00.000",
    "request_status": "Pending",
    "responsible_agency": "Department of Sanitation",
    "final_address": "New Orleans,LA",
    "address_councildis": "E",
    "status": "Assigned to Contractor",
    "contractor": "Metro Disposal",
    "rowid": "901156",
    "final_x": "3716080.08108",
    "final_y": "562488.682719",
    "longitude": "-89.95770616993272",
    "latitude": "30.039552365134035",
    "geocoded_column": {
      "latitude": "30.039552365134035",
      "longitude": "-89.95770616993272"
    }
  },
  {
    "service_request": "2022-901155",
    "request_type": "Roads/Drainage",
    "request_reason": "Pothole",
    "date_created": "2022-07-18T15:10:00.000",
    "date_modified": "2022-07-18T15:18:43.000",
    "request_status": "Pending",
    "responsible_agency": "Department of Public Works",
    "final_address": "New Orleans,LA",
    "address_councildis": "A",
    "rowid": "901155",
    "final_x": "3664935.98637",
    "final_y": "534213.600645",
    "longitude": "-90.1202836918441",
    "latitude": "29.963394732017424",
    "geocoded_column": {
      "latitude": "29.963394732017424",
      "longitude": "-90.1202836918441"
    }
  },
  {
    "service_request": "2022-901154",
    "request_type": "Trash/Recycling",
    "request_reason": "MIssed Recycling Pick-Up",
    "date_created": "2022-07-18T15:07:59.000",
    "date_modified": "2022-07-18T15:07:59.000",
    "request_status": "Pending",
    "responsible_agency": "Department of Sanitation",
    "final_address": "3419 Cherry St",
    "address_councildis": "A",
    "status": "Assigned to Contractor",
    "contractor": "Richards Disposal",
    "rowid": "901154",
    "final_x": "3664254.88045",
    "final_y": "537114.446216",
    "longitude": "-90.12233774429816",
    "latitude": "29.9713909103089",
    "geocoded_column": {
      "latitude": "29.9713909103089",
      "longitude": "-90.12233774429816"
    }
  },
  {
    "service_request": "2022-901153",
    "request_type": "Parks & Parkways",
    "request_reason": "Request Grass Cutting Service (City Owned Property)",
    "date_created": "2022-07-18T15:04:51.000",
    "date_modified": "2022-07-18T15:37:56.000",
    "case_close_date": "2022-07-18T10:37:56.000",
    "request_status": "Closed",
    "responsible_agency": "Department of Parks & Parkway",
    "final_address": "1 Jahncke Rd",
    "address_councildis": "E",
    "status": "Referred to External Agency",
    "rowid": "901153",
    "final_x": "3713930.30725",
    "final_y": "568816.337765",
    "longitude": "-89.96426109854228",
    "latitude": "30.057021633146345",
    "geocoded_column": {
      "latitude": "30.057021633146345",
      "longitude": "-89.96426109854228"
    }
  },
  {
    "service_request": "2022-901152",
    "request_type": "Trash/Recycling",
    "request_reason": "Request a Large Item Pick Up",
    "date_created": "2022-07-18T15:03:11.000",
    "date_modified": "2022-07-18T15:03:12.000",
    "request_status": "Pending",
    "responsible_agency": "Department of Sanitation",
    "final_address": "5207 Timber Crest Dr",
    "address_councildis": "C",
    "status": "Assigned to Contractor",
    "contractor": "Richards Disposal",
    "rowid": "901152",
    "final_x": "3703393.65674",
    "final_y": "511142.344304",
    "longitude": "-89.99968746365882",
    "latitude": "29.89878130447319",
    "geocoded_column": {
      "latitude": "29.89878130447319",
      "longitude": "-89.99968746365882"
    }
  },
  {
    "service_request": "2022-901151",
    "request_type": "Roads/Drainage",
    "request_reason": "Pothole",
    "date_created": "2022-07-18T15:02:55.000",
    "date_modified": "2022-07-18T15:02:55.000",
    "request_status": "Pending",
    "responsible_agency": "Department of Public Works",
    "final_address": "9438 Oleander St",
    "address_councildis": "A",
    "status": "Pending",
    "rowid": "901151",
    "final_x": "3663132.45895",
    "final_y": "536928.646088",
    "longitude": "-90.12588871203356",
    "latitude": "29.970912591277354",
    "geocoded_column": {
      "latitude": "29.970912591277354",
      "longitude": "-90.12588871203356"
    }
  },
  {
    "service_request": "2022-901150",
    "request_type": "Traffic Signals/Signs/Striping/Streetlights",
    "request_reason": "Disabled Parking Sign ",
    "date_created": "2022-07-18T15:02:13.000",
    "date_modified": "2022-07-18T15:02:14.000",
    "request_status": "Pending",
    "responsible_agency": "Department of Public Works",
    "final_address": "1101 Marais St",
    "address_councildis": "C",
    "status": "Pending",
    "rowid": "901150",
    "final_x": "3681448.98696",
    "final_y": "535219.707014",
    "longitude": "-90.06810240647127",
    "latitude": "29.965670164255112",
    "geocoded_column": {
      "latitude": "29.965670164255112",
      "longitude": "-90.06810240647127"
    }
  },
  {
    "service_request": "2022-901149",
    "request_type": "Trash/Recycling",
    "request_reason": "Illegal Dumping",
    "date_created": "2022-07-18T15:02:07.000",
    "date_modified": "2022-07-18T15:02:08.000",
    "request_status": "Pending",
    "responsible_agency": "Department of Sanitation",
    "final_address": "ST BERNARD AVE & N GALVEZ ST",
    "address_councildis": "D",
    "status": "Pending",
    "rowid": "901149",
    "final_x": "3681311.9",
    "final_y": "539580.88",
    "longitude": "-90.0683832810682",
    "latitude": "29.977666045789643",
    "geocoded_column": {
      "latitude": "29.977666045789643",
      "longitude": "-90.0683832810682"
    }
  },
  {
    "service_request": "2022-901148",
    "request_type": "Roads/Drainage",
    "request_reason": "Debris in Roadway",
    "date_created": "2022-07-18T15:01:27.000",
    "date_modified": "2022-07-18T15:01:27.000",
    "request_status": "Pending",
    "responsible_agency": "Department of Public Works",
    "final_address": "ST BERNARD AVE & N GALVEZ ST",
    "address_councildis": "D",
    "status": "Pending",
    "rowid": "901148",
    "final_x": "3681311.9",
    "final_y": "539580.88",
    "longitude": "-90.0683832810682",
    "latitude": "29.977666045789643",
    "geocoded_column": {
      "latitude": "29.977666045789643",
      "longitude": "-90.0683832810682"
    }
  },
  {
    "service_request": "2022-901147",
    "request_type": "Parks & Parkways",
    "request_reason": "Request Grass Cutting Service (City Owned Property)",
    "date_created": "2022-07-18T14:56:10.000",
    "date_modified": "2022-07-18T15:50:20.000",
    "case_close_date": "2022-07-18T10:50:20.000",
    "request_status": "Closed",
    "responsible_agency": "Department of Parks & Parkway",
    "final_address": "1 Jahncke Rd",
    "address_councildis": "E",
    "status": "Referred to External Agency",
    "rowid": "901147",
    "final_x": "3713930.30725",
    "final_y": "568816.337765",
    "longitude": "-89.96426109854228",
    "latitude": "30.057021633146345",
    "geocoded_column": {
      "latitude": "30.057021633146345",
      "longitude": "-89.96426109854228"
    }
  },
  {
    "service_request": "2022-901146",
    "request_type": "Parks & Parkways",
    "request_reason": "Request Grass Cutting Service (City Owned Property)",
    "date_created": "2022-07-18T14:55:43.000",
    "date_modified": "2022-07-18T15:01:36.000",
    "case_close_date": "2022-07-18T10:01:36.000",
    "request_status": "Closed",
    "responsible_agency": "Department of Parks & Parkway",
    "final_address": "1229 Constance St",
    "address_councildis": "B",
    "status": "Invalid Request",
    "rowid": "901146",
    "final_x": "3680910.81455",
    "final_y": "525329.360701",
    "longitude": "-90.07014625326514",
    "latitude": "29.938491376836527",
    "geocoded_column": {
      "latitude": "29.938491376836527",
      "longitude": "-90.07014625326514"
    }
  },
  {
    "service_request": "2022-901145",
    "request_type": "Traffic Signals/Signs/Striping/Streetlights",
    "request_reason": "Traffic Sign Missing/Damaged",
    "date_created": "2022-07-18T14:51:18.000",
    "date_modified": "2022-07-18T14:52:39.000",
    "request_status": "Pending",
    "responsible_agency": "Department of Public Works",
    "final_address": "New Orleans,LA",
    "address_councildis": "C",
    "rowid": "901145",
    "final_x": "3690526.9",
    "final_y": "534781.68",
    "longitude": "-90.03945042242923",
    "latitude": "29.964187001258175",
    "geocoded_column": {
      "latitude": "29.964187001258175",
      "longitude": "-90.03945042242923"
    }
  },
  {
    "service_request": "2022-901144",
    "request_type": "Roads/Drainage",
    "request_reason": "Catch Basin - Clogged",
    "date_created": "2022-07-18T14:50:42.000",
    "date_modified": "2022-07-18T14:50:42.000",
    "request_status": "Pending",
    "responsible_agency": "Department of Public Works",
    "final_address": "550 Philip St",
    "address_councildis": "B",
    "status": "Pending",
    "rowid": "901144",
    "final_x": "3679645.58824",
    "final_y": "520350.031352",
    "longitude": "-90.07431343130152",
    "latitude": "29.924838149324717",
    "geocoded_column": {
      "latitude": "29.924838149324717",
      "longitude": "-90.07431343130152"
    }
  },
  {
    "service_request": "2022-901140",
    "request_type": "Traffic Signals/Signs/Striping/Streetlights",
    "request_reason": "Street Light Outage/Malfunction",
    "date_created": "2022-07-18T14:41:50.000",
    "date_modified": "2022-07-18T14:41:51.000",
    "request_status": "Pending",
    "responsible_agency": "Department of Public Works",
    "final_address": "1116 N Derbigny St",
    "address_councildis": "D",
    "status": "Pending",
    "contractor": "Royal Engineering",
    "rowid": "901140",
    "final_x": "3680508.01096",
    "final_y": "536128.917191",
    "longitude": "-90.07104234108606",
    "latitude": "29.968198716628148",
    "geocoded_column": {
      "latitude": "29.968198716628148",
      "longitude": "-90.07104234108606"
    }
  },
  {
    "service_request": "2022-901139",
    "request_type": "Abandoned Vehicles",
    "request_reason": "Abandoned/Junk Vehicles",
    "date_created": "2022-07-18T14:41:10.000",
    "date_modified": "2022-07-18T14:41:10.000",
    "request_status": "Pending",
    "responsible_agency": "Department of Public Works",
    "status": "Inspected",
    "rowid": "901139",
    "longitude": "0.0",
    "latitude": "0.0",
    "geocoded_column": {
      "latitude": "0.0",
      "longitude": "0.0"
    }
  },
  {
    "service_request": "2022-901136",
    "request_type": "Parks & Parkways",
    "request_reason": "Request Tree Service (Right of Way/Public Property)",
    "date_created": "2022-07-18T14:40:17.000",
    "date_modified": "2022-07-18T14:40:18.000",
    "request_status": "Pending",
    "responsible_agency": "Department of Parks & Parkway",
    "final_address": "928 Pine St",
    "address_councildis": "A",
    "status": "Pending",
    "rowid": "901136",
    "final_x": "3663413.58906",
    "final_y": "525980.288701",
    "longitude": "-90.12536537400875",
    "latitude": "29.94080001201722",
    "geocoded_column": {
      "latitude": "29.94080001201722",
      "longitude": "-90.12536537400875"
    }
  },
  {
    "service_request": "2022-901135",
    "request_type": "Abandoned Vehicles",
    "request_reason": "Abandoned/Junk Vehicles",
    "date_created": "2022-07-18T14:40:11.000",
    "date_modified": "2022-07-18T14:40:54.000",
    "request_status": "Pending",
    "responsible_agency": "Department of Public Works",
    "final_address": "4816 Mendez St",
    "address_councildis": "D",
    "status": "Pending",
    "rowid": "901135",
    "final_x": "3691350.02883",
    "final_y": "554196.591768",
    "longitude": "-90.03615698046983",
    "latitude": "30.017545404951786",
    "geocoded_column": {
      "latitude": "30.017545404951786",
      "longitude": "-90.03615698046983"
    }
  },
  {
    "service_request": "2022-901134",
    "request_type": "Abandoned Vehicles",
    "request_reason": "Abandoned/Junk Vehicles",
    "date_created": "2022-07-18T14:39:00.000",
    "date_modified": "2022-07-18T14:39:44.000",
    "request_status": "Pending",
    "responsible_agency": "Department of Public Works",
    "final_address": "4809 Mendez St",
    "address_councildis": "D",
    "status": "Pending",
    "rowid": "901134",
    "final_x": "3691206.4559",
    "final_y": "554315.907864",
    "longitude": "-90.03660634612291",
    "latitude": "30.017877948078358",
    "geocoded_column": {
      "latitude": "30.017877948078358",
      "longitude": "-90.03660634612291"
    }
  },
  {
    "service_request": "2022-901133",
    "request_type": "Roads/Drainage",
    "request_reason": "Accessibility Ramps, Curbs and Sidewalk Repair",
    "date_created": "2022-07-18T14:38:52.000",
    "date_modified": "2022-07-18T14:38:52.000",
    "request_status": "Pending",
    "responsible_agency": "Department of Public Works",
    "final_address": "3312 Elysian Fields Ave",
    "address_councildis": "D",
    "status": "Pending",
    "rowid": "901133",
    "final_x": "3684179.9997",
    "final_y": "544873.813903",
    "longitude": "-90.05913896184217",
    "latitude": "29.992132373586134",
    "geocoded_column": {
      "latitude": "29.992132373586134",
      "longitude": "-90.05913896184217"
    }
  },
  {
    "service_request": "2022-901132",
    "request_type": "Property Maintenance",
    "request_reason": "Property Maintenance",
    "date_created": "2022-07-18T14:38:07.000",
    "date_modified": "2022-07-18T15:01:07.000",
    "case_close_date": "2022-07-18T10:01:07.000",
    "request_status": "Closed",
    "responsible_agency": "Department of Code Enforcement",
    "final_address": "7643 Downman Rd",
    "address_councildis": "D",
    "status": "Referred to Code Enforcement",
    "rowid": "901132",
    "final_x": "3694689.31843",
    "final_y": "558581.53046",
    "longitude": "-90.0254480570254",
    "latitude": "30.02949795969651",
    "geocoded_column": {
      "latitude": "30.02949795969651",
      "longitude": "-90.0254480570254"
    }
  },
  {
    "service_request": "2022-901131",
    "request_type": "Abandoned Vehicles",
    "request_reason": "Abandoned/Junk Vehicles",
    "date_created": "2022-07-18T14:36:58.000",
    "date_modified": "2022-07-18T14:37:51.000",
    "request_status": "Pending",
    "responsible_agency": "Department of Public Works",
    "final_address": "4709 Mendez St",
    "address_councildis": "D",
    "status": "Pending",
    "rowid": "901131",
    "final_x": "3691004.00348",
    "final_y": "554135.50428",
    "longitude": "-90.03725246293574",
    "latitude": "30.01738820361779",
    "geocoded_column": {
      "latitude": "30.01738820361779",
      "longitude": "-90.03725246293574"
    }
  },
  {
    "service_request": "2022-901130",
    "request_type": "Mosquito, Termite & Rodent Control",
    "request_reason": "Rodent Complaint (Rats)",
    "date_created": "2022-07-18T14:36:50.000",
    "date_modified": "2022-07-18T14:36:51.000",
    "request_status": "Pending",
    "responsible_agency": "Mosquito, Termite & Rodent Control Board",
    "final_address": "702 N Miro St",
    "address_councildis": "D",
    "status": "Pending",
    "rowid": "901130",
    "final_x": "3678020.19246",
    "final_y": "535747.781447",
    "longitude": "-90.07891215596423",
    "latitude": "29.96722584733274",
    "geocoded_column": {
      "latitude": "29.96722584733274",
      "longitude": "-90.07891215596423"
    }
  },
  {
    "service_request": "2022-901129",
    "request_type": "Trash/Recycling",
    "request_reason": "Request a Large Item Pick Up",
    "date_created": "2022-07-18T14:34:42.000",
    "date_modified": "2022-07-18T14:34:43.000",
    "request_status": "Pending",
    "responsible_agency": "Department of Sanitation",
    "final_address": "4668 Venus St",
    "address_councildis": "D",
    "status": "Assigned to Contractor",
    "contractor": "Metro Disposal",
    "rowid": "901129",
    "final_x": "3686453.20386",
    "final_y": "550068.7773",
    "longitude": "-90.05177484673423",
    "latitude": "30.006346945916448",
    "geocoded_column": {
      "latitude": "30.006346945916448",
      "longitude": "-90.05177484673423"
    }
  },
  {
    "service_request": "2022-901128",
    "request_type": "Property Maintenance",
    "request_reason": "Property Maintenance",
    "date_created": "2022-07-18T14:34:30.000",
    "date_modified": "2022-07-18T15:05:32.000",
    "case_close_date": "2022-07-18T10:05:32.000",
    "request_status": "Closed",
    "responsible_agency": "Department of Code Enforcement",
    "final_address": "7630 Pineridge St",
    "address_councildis": "E",
    "status": "Referred to Code Enforcement",
    "rowid": "901128",
    "final_x": "3718877.61074",
    "final_y": "572036.100072",
    "longitude": "-89.94850058575072",
    "latitude": "30.065711175110426",
    "geocoded_column": {
      "latitude": "30.065711175110426",
      "longitude": "-89.94850058575072"
    }
  },
  {
    "service_request": "2022-901127",
    "request_type": "Traffic Signals/Signs/Striping/Streetlights",
    "request_reason": "Street Light Outage/Malfunction",
    "date_created": "2022-07-18T14:29:45.000",
    "date_modified": "2022-07-18T14:29:46.000",
    "request_status": "Pending",
    "responsible_agency": "Department of Public Works",
    "final_address": "1708 Tricou St",
    "address_councildis": "E",
    "status": "Pending",
    "contractor": "Royal Engineering",
    "rowid": "901127",
    "final_x": "3700982.84618",
    "final_y": "535269.751942",
    "longitude": "-90.00641380846392",
    "latitude": "29.965200233667105",
    "geocoded_column": {
      "latitude": "29.965200233667105",
      "longitude": "-90.00641380846392"
    }
  },
  {
    "service_request": "2022-901126",
    "request_type": "Trash/Recycling",
    "request_reason": "Missed Trash Pick-Up",
    "date_created": "2022-07-18T14:28:15.000",
    "date_modified": "2022-07-18T14:28:16.000",
    "request_status": "Pending",
    "responsible_agency": "Department of Sanitation",
    "final_address": "8721 Stroelitz St",
    "address_councildis": "A",
    "status": "Assigned to Contractor",
    "contractor": "Richards Disposal",
    "rowid": "901126",
    "final_x": "3666271.76205",
    "final_y": "536551.658247",
    "longitude": "-90.1159870022312",
    "latitude": "29.969784665517867",
    "geocoded_column": {
      "latitude": "29.969784665517867",
      "longitude": "-90.1159870022312"
    }
  },
  {
    "service_request": "2022-901125",
    "request_type": "Trash/Recycling",
    "request_reason": "Request a Large Item Pick Up",
    "date_created": "2022-07-18T14:26:42.000",
    "date_modified": "2022-07-18T14:26:43.000",
    "request_status": "Pending",
    "responsible_agency": "Department of Sanitation",
    "final_address": "539 Seguin St",
    "address_councildis": "C",
    "status": "Assigned to Contractor",
    "contractor": "Richards Disposal",
    "rowid": "901125",
    "final_x": "3686591.12719",
    "final_y": "529681.228673",
    "longitude": "-90.05205933567552",
    "latitude": "29.950284130367717",
    "geocoded_column": {
      "latitude": "29.950284130367717",
      "longitude": "-90.05205933567552"
    }
  },
  {
    "service_request": "2022-901124",
    "request_type": "Abandoned Vehicles",
    "request_reason": "Abandoned/Junk Vehicles",
    "date_created": "2022-07-18T14:25:56.000",
    "date_modified": "2022-07-18T14:25:56.000",
    "request_status": "Pending",
    "responsible_agency": "Department of Public Works",
    "final_address": "7819 Read Blvd",
    "address_councildis": "E",
    "status": "Pending",
    "rowid": "901124",
    "final_x": "3708396.4842",
    "final_y": "565027.119522",
    "longitude": "-89.98189381593541",
    "latitude": "30.0467834517787",
    "geocoded_column": {
      "latitude": "30.0467834517787",
      "longitude": "-89.98189381593541"
    }
  },
  {
    "service_request": "2022-901123",
    "request_type": "Traffic Signals/Signs/Striping/Streetlights",
    "request_reason": "Street Light Outage/Malfunction",
    "date_created": "2022-07-18T14:24:35.000",
    "date_modified": "2022-07-18T14:24:35.000",
    "request_status": "Pending",
    "responsible_agency": "Department of Public Works",
    "final_address": "3042 Ursulines Ave",
    "address_councildis": "A",
    "status": "Pending",
    "contractor": "Royal Engineering",
    "rowid": "901123",
    "final_x": "3676176.40808",
    "final_y": "539181.831434",
    "longitude": "-90.08461666835863",
    "latitude": "29.97672368657523",
    "geocoded_column": {
      "latitude": "29.97672368657523",
      "longitude": "-90.08461666835863"
    }
  },
  {
    "service_request": "2022-901122",
    "request_type": "Trash/Recycling",
    "request_reason": "Replace Trash Cart",
    "date_created": "2022-07-18T14:23:53.000",
    "date_modified": "2022-07-18T14:23:53.000",
    "request_status": "Pending",
    "responsible_agency": "Department of Sanitation",
    "final_address": "1611 S Liberty St",
    "address_councildis": "B",
    "status": "Assigned to Contractor",
    "contractor": "Richards Disposal",
    "rowid": "901122",
    "final_x": "3676707.81646",
    "final_y": "526613.23731",
    "longitude": "-90.08337134020073",
    "latitude": "29.94214834946687",
    "geocoded_column": {
      "latitude": "29.94214834946687",
      "longitude": "-90.08337134020073"
    }
  },
  {
    "service_request": "2022-901121",
    "request_type": "Property Maintenance",
    "request_reason": "Property Maintenance",
    "date_created": "2022-07-18T14:21:51.000",
    "date_modified": "2022-07-18T15:08:09.000",
    "case_close_date": "2022-07-18T10:08:09.000",
    "request_status": "Closed",
    "responsible_agency": "Department of Code Enforcement",
    "final_address": "3314 Annette St",
    "address_councildis": "D",
    "status": "Referred to Code Enforcement",
    "rowid": "901121",
    "final_x": "3682412.239",
    "final_y": "544836.476559",
    "longitude": "-90.0647242638913",
    "latitude": "29.992083642711158",
    "geocoded_column": {
      "latitude": "29.992083642711158",
      "longitude": "-90.0647242638913"
    }
  },
  {
    "service_request": "2022-901119",
    "request_type": "Trash/Recycling",
    "request_reason": "Missed Trash Pick-Up",
    "date_created": "2022-07-18T14:20:06.000",
    "date_modified": "2022-07-18T14:20:06.000",
    "request_status": "Pending",
    "responsible_agency": "Department of Sanitation",
    "final_address": "DART ST & VINCENNES PL",
    "address_councildis": "B",
    "status": "Assigned to Contractor",
    "contractor": "Richards Disposal",
    "rowid": "901119",
    "final_x": "3668880.1",
    "final_y": "531784.58",
    "longitude": "-90.10791061022925",
    "latitude": "29.956600327418585",
    "geocoded_column": {
      "latitude": "29.956600327418585",
      "longitude": "-90.10791061022925"
    }
  },
  {
    "service_request": "2022-901118",
    "request_type": "Trash/Recycling",
    "request_reason": "Missed Trash Pick-Up",
    "date_created": "2022-07-18T14:17:45.000",
    "date_modified": "2022-07-18T14:17:46.000",
    "request_status": "Pending",
    "responsible_agency": "Department of Sanitation",
    "final_address": "900 BLK N Miro St",
    "address_councildis": "D",
    "status": "Assigned to Contractor",
    "contractor": "Richards Disposal",
    "rowid": "901118",
    "final_x": "3678639.78278",
    "final_y": "536636.035768",
    "longitude": "-90.07692472455064",
    "latitude": "29.969649577611598",
    "geocoded_column": {
      "latitude": "29.969649577611598",
      "longitude": "-90.07692472455064"
    }
  },
  {
    "service_request": "2022-901116",
    "request_type": "Parks & Parkways",
    "request_reason": "Request Tree Service (Right of Way/Public Property)",
    "date_created": "2022-07-18T14:11:45.000",
    "date_modified": "2022-07-18T14:11:45.000",
    "request_status": "Pending",
    "responsible_agency": "Department of Parks & Parkway",
    "final_address": "621 Belleville St",
    "address_councildis": "C",
    "status": "Pending",
    "rowid": "901116",
    "final_x": "3687779.55535",
    "final_y": "529324.173121",
    "longitude": "-90.04831955654872",
    "latitude": "29.949265756135187",
    "geocoded_column": {
      "latitude": "29.949265756135187",
      "longitude": "-90.04831955654872"
    }
  },
  {
    "service_request": "2022-901115",
    "request_type": "Roads/Drainage",
    "request_reason": "Pothole",
    "date_created": "2022-07-18T14:09:42.000",
    "date_modified": "2022-07-18T14:09:42.000",
    "request_status": "Pending",
    "responsible_agency": "Department of Public Works",
    "final_address": "2700 block of Leonidas",
    "status": "Pending",
    "rowid": "901115",
    "longitude": "0.0",
    "latitude": "0.0",
    "geocoded_column": {
      "latitude": "0.0",
      "longitude": "0.0"
    }
  },
  {
    "service_request": "2022-901114",
    "request_type": "Trash/Recycling",
    "request_reason": "Request a Large Item Pick Up",
    "date_created": "2022-07-18T14:07:04.000",
    "date_modified": "2022-07-18T14:07:05.000",
    "request_status": "Pending",
    "responsible_agency": "Department of Sanitation",
    "final_address": "1575 N Rocheblave St, New Orleans, Louisiana, 70119",
    "address_councildis": "D",
    "status": "Assigned to Contractor",
    "contractor": "Metro Disposal",
    "rowid": "901114",
    "final_x": "3679824.64059",
    "final_y": "539443.574218",
    "longitude": "-90.07308532296098",
    "latitude": "29.97733356406759",
    "geocoded_column": {
      "latitude": "29.97733356406759",
      "longitude": "-90.07308532296098"
    }
  },
  {
    "service_request": "2022-901113",
    "request_type": "Trash/Recycling",
    "request_reason": "MIssed Recycling Pick-Up",
    "date_created": "2022-07-18T14:06:59.000",
    "date_modified": "2022-07-18T14:06:59.000",
    "request_status": "Pending",
    "responsible_agency": "Department of Sanitation",
    "final_address": "925 Homer St",
    "address_councildis": "C",
    "status": "Assigned to Contractor",
    "contractor": "Richards Disposal",
    "rowid": "901113",
    "final_x": "3688356.62607",
    "final_y": "528273.76224",
    "longitude": "-90.04653473995167",
    "latitude": "29.94635967802048",
    "geocoded_column": {
      "latitude": "29.94635967802048",
      "longitude": "-90.04653473995167"
    }
  },
  {
    "service_request": "2022-901112",
    "request_type": "Property Maintenance",
    "request_reason": "Property Maintenance",
    "date_created": "2022-07-18T13:59:36.000",
    "date_modified": "2022-07-18T14:18:08.000",
    "case_close_date": "2022-07-18T09:18:08.000",
    "request_status": "Closed",
    "responsible_agency": "Department of Code Enforcement",
    "final_address": "4109 Dreux Ave",
    "address_councildis": "D",
    "status": "Referred to Code Enforcement",
    "rowid": "901112",
    "final_x": "3689096.17878",
    "final_y": "552732.607638",
    "longitude": "-90.04333030927803",
    "latitude": "30.01358995540291",
    "geocoded_column": {
      "latitude": "30.01358995540291",
      "longitude": "-90.04333030927803"
    }
  },
  {
    "service_request": "2022-901111",
    "request_type": "Abandoned Vehicles",
    "request_reason": "Abandoned/Junk Vehicles",
    "date_created": "2022-07-18T13:58:56.000",
    "date_modified": "2022-07-18T13:58:57.000",
    "request_status": "Pending",
    "responsible_agency": "Department of Public Works",
    "final_address": "2106 St Denis St",
    "address_councildis": "D",
    "status": "Pending",
    "rowid": "901111",
    "final_x": "3683510.14831",
    "final_y": "546112.823056",
    "longitude": "-90.06121143421326",
    "latitude": "29.995559672296235",
    "geocoded_column": {
      "latitude": "29.995559672296235",
      "longitude": "-90.06121143421326"
    }
  },
  {
    "service_request": "2022-901110",
    "request_type": "Traffic Signals/Signs/Striping/Streetlights",
    "request_reason": "Street Light Outage/Malfunction",
    "date_created": "2022-07-18T13:56:26.000",
    "date_modified": "2022-07-18T13:56:27.000",
    "request_status": "Pending",
    "responsible_agency": "Department of Public Works",
    "final_address": "3807 N Roman St",
    "address_councildis": "D",
    "status": "Pending",
    "contractor": "Royal Engineering",
    "rowid": "901110",
    "final_x": "3691943.38025",
    "final_y": "538098.414025",
    "longitude": "-90.03485862431052",
    "latitude": "29.973262792295284",
    "geocoded_column": {
      "latitude": "29.973262792295284",
      "longitude": "-90.03485862431052"
    }
  },
  {
    "service_request": "2022-901109",
    "request_type": "Trash/Recycling",
    "request_reason": "Replace Trash Cart",
    "date_created": "2022-07-18T13:55:57.000",
    "date_modified": "2022-07-18T13:55:57.000",
    "request_status": "Pending",
    "responsible_agency": "Department of Sanitation",
    "final_address": "4919 Good Dr",
    "address_councildis": "E",
    "status": "Assigned to Contractor",
    "contractor": "Metro Disposal",
    "rowid": "901109",
    "final_x": "3714781.78687",
    "final_y": "557527.552987",
    "longitude": "-89.9619967662069",
    "latitude": "30.02595403726163",
    "geocoded_column": {
      "latitude": "30.02595403726163",
      "longitude": "-89.9619967662069"
    }
  },
  {
    "service_request": "2022-901108",
    "request_type": "Trash/Recycling",
    "request_reason": "Missed Trash Pick-Up",
    "date_created": "2022-07-18T13:53:46.000",
    "date_modified": "2022-07-18T13:53:47.000",
    "request_status": "Pending",
    "responsible_agency": "Department of Sanitation",
    "final_address": "4445 Franklin Ave",
    "address_councildis": "D",
    "status": "Assigned to Contractor",
    "contractor": "Metro Disposal",
    "rowid": "901108",
    "final_x": "3687001.44866",
    "final_y": "549257.427859",
    "longitude": "-90.05007151529068",
    "latitude": "30.00409915846623",
    "geocoded_column": {
      "latitude": "30.00409915846623",
      "longitude": "-90.05007151529068"
    }
  },
  {
    "service_request": "2022-901107",
    "request_type": "Trash/Recycling",
    "request_reason": "Order Recycling Cart",
    "date_created": "2022-07-18T13:48:03.000",
    "date_modified": "2022-07-18T13:48:17.000",
    "request_status": "Pending",
    "responsible_agency": "Department of Sanitation",
    "final_address": "34 Forest Oaks Dr",
    "address_councildis": "C",
    "status": "Pending",
    "rowid": "901107",
    "final_x": "3722473.32908",
    "final_y": "510212.559023",
    "longitude": "-89.93951146782884",
    "latitude": "29.895600323710255",
    "geocoded_column": {
      "latitude": "29.895600323710255",
      "longitude": "-89.93951146782884"
    }
  },
  {
    "service_request": "2022-901106",
    "request_type": "Trash/Recycling",
    "request_reason": "Order Trash Cart",
    "date_created": "2022-07-18T13:47:55.000",
    "date_modified": "2022-07-18T13:47:55.000",
    "request_status": "Pending",
    "responsible_agency": "Department of Sanitation",
    "status": "Assigned to Contractor",
    "rowid": "901106",
    "longitude": "0.0",
    "latitude": "0.0",
    "geocoded_column": {
      "latitude": "0.0",
      "longitude": "0.0"
    }
  },