[
  {
    "service_request": "2023-1023666",
    "request_type": "Roads/Drainage",
    "request_reason": "Pothole",
    "date_created": "2023-08-05T02:08:52.000",
    "date_modified": "2023-08-05T02:08:52.000",
    "request_status": "Pending",
    "responsible_agency": "Department of Public Works",
    "final_address": "1300 Milan St",
    "address_councildis": "B",
    "status": "Pending",
    "rowid": "1023666",
    "final_x": "3671629.15374",
    "final_y": "520175.7502",
    "longitude": "-90.0996246518961",
    "latitude": "29.924598696141217",
    "geocoded_column": {
      "latitude": "29.924598696141217",
      "longitude": "-90.0996246518961"
    }
  },
  {
    "service_request": "2023-1023665",
    "request_type": "Traffic Signals/Signs/Striping/Streetlights",
    "request_reason": "Street Light Outage/Malfunction",
    "date_created": "2023-08-05T02:02:59.000",
    "date_modified": "2023-08-05T02:02:59.000",
    "request_status": "Pending",
    "responsible_agency": "Department of Public Works",
    "final_address": "4319 Sybil St",
    "address_councildis": "D",
    "status": "Assigned to Contractor",
    "contractor": "Legacy Professional Services",
    "rowid": "1023665",
    "final_x": "3679186.11451",
    "final_y": "548282.096146",
    "longitude": "-90.07479539449145",
    "latitude": "30.001655694616016",
    "geocoded_column": {
      "latitude": "30.001655694616016",
      "longitude": "-90.07479539449145"
    }
  },
  {
    "service_request": "2023-1023664",
    "request_type": "Roads/Drainage",
    "request_reason": "Pothole",
    "date_created": "2023-08-05T01:21:02.000",
    "date_modified": "2023-08-05T01:21:02.000",
    "request_status": "Pending",
    "responsible_agency": "Department of Public Works",
    "final_address": "1421 Constantinople St",
    "address_councildis": "B",
    "status": "Pending",
    "rowid": "1023664",
    "final_x": "3672433.24257",
    "final_y": "520667.657465",
    "longitude": "-90.09706965638372",
    "latitude": "29.925927453713577",
    "geocoded_column": {
      "latitude": "29.925927453713577",
      "longitude": "-90.09706965638372"
    }
  },
  {
    "service_request": "2023-1023662",
    "request_type": "Roads/Drainage",
    "request_reason": "Pothole",
    "date_created": "2023-08-05T00:38:22.000",
    "date_modified": "2023-08-05T00:38:22.000",
    "request_status": "Pending",
    "responsible_agency": "Department of Public Works",
    "final_address": "1312 Milan St",
    "address_councildis": "B",
    "status": "Pending",
    "rowid": "1023662",
    "final_x": "3671625.82823",
    "final_y": "520286.919608",
    "longitude": "-90.09963137110304",
    "latitude": "29.92490447494246",
    "geocoded_column": {
      "latitude": "29.92490447494246",
      "longitude": "-90.09963137110304"
    }
  },
  {
    "service_request": "2023-1023661",
    "request_type": "Roads/Drainage",
    "request_reason": "Street Flooding / Drainage",
    "date_created": "2023-08-04T23:59:39.000",
    "date_modified": "2023-08-04T23:59:39.000",
    "request_status": "Pending",
    "responsible_agency": "Department of Public Works",
    "final_address": "3602 Camp St",
    "address_councildis": "B",
    "status": "Pending",
    "rowid": "1023661",
    "final_x": "3674006.78184",
    "final_y": "519580.313464",
    "longitude": "-90.09213963055338",
    "latitude": "29.922890831731827",
    "geocoded_column": {
      "latitude": "29.922890831731827",
      "longitude": "-90.09213963055338"
    }
  },
  {
    "service_request": "2023-1023660",
    "request_type": "Property Maintenance",
    "request_reason": "Property Maintenance",
    "date_created": "2023-08-04T23:55:05.000",
    "date_modified": "2023-08-04T23:55:05.000",
    "request_status": "Pending",
    "responsible_agency": "Department of Code Enforcement",
    "final_address": "1120 State St",
    "address_councildis": "A",
    "status": "Pending",
    "rowid": "1023660",
    "final_x": "3664973.06266",
    "final_y": "520406.875448",
    "longitude": "-90.12062805291625",
    "latitude": "29.925429595809554",
    "geocoded_column": {
      "latitude": "29.925429595809554",
      "longitude": "-90.12062805291625"
    }
  },
  {
    "service_request": "2023-1023659",
    "request_type": "Parks & Parkways",
    "request_reason": "Request Tree Service (Right of Way/Public Property)",
    "date_created": "2023-08-04T23:22:44.000",
    "date_modified": "2023-08-04T23:24:50.000",
    "request_status": "Pending",
    "responsible_agency": "Department of Parks & Parkway",
    "final_address": "NAPOLEON AVE & PRYTANIA ST",
    "address_councildis": "B",
    "status": "Pending",
    "rowid": "1023659",
    "final_x": "3670865.7",
    "final_y": "520323.88",
    "longitude": "-90.10202959904824",
    "latitude": "29.92502858607668",
    "geocoded_column": {
      "latitude": "29.92502858607668",
      "longitude": "-90.10202959904824"
    }
  },
  {
    "service_request": "2023-1023658",
    "request_type": "Abandoned Vehicles",
    "request_reason": "Abandoned/Junk Vehicles",
    "date_created": "2023-08-04T23:17:02.000",
    "date_modified": "2023-08-04T23:17:02.000",
    "request_status": "Pending",
    "responsible_agency": "Department of Public Works",
    "final_address": "1322 Alabo St",
    "address_councildis": "E",
    "status": "Pending",
    "rowid": "1023658",
    "final_x": "3699097.08215",
    "final_y": "534466.590597",
    "longitude": "-90.01239815369526",
    "latitude": "29.96305173856576",
    "geocoded_column": {
      "latitude": "29.96305173856576",
      "longitude": "-90.01239815369526"
    }
  },
  {
    "service_request": "2023-1023657",
    "request_type": "Traffic Signals/Signs/Striping/Streetlights",
    "request_reason": "Traffic Signal Malfunctioning/Damaged",
    "date_created": "2023-08-04T22:54:14.000",
    "date_modified": "2023-08-04T22:54:14.000",
    "request_status": "Pending",
    "responsible_agency": "Department of Public Works",
    "final_address": "1900 BLK Poydras St",
    "address_councildis": "B",
    "status": "Pending",
    "rowid": "1023657",
    "final_x": "3676357.09213",
    "final_y": "531090.00749",
    "longitude": "-90.08432458677223",
    "latitude": "29.954468496229786",
    "geocoded_column": {
      "latitude": "29.954468496229786",
      "longitude": "-90.08432458677223"
    }
  },
  {
    "service_request": "2023-1023656",
    "request_type": "Safety & Permits",
    "request_reason": "Licenses & Permits",
    "date_created": "2023-08-04T21:41:01.000",
    "date_modified": "2023-08-04T21:41:01.000",
    "request_status": "Pending",
    "responsible_agency": "Safety and Permits",
    "final_address": "11800 Morrison Rd",
    "address_councildis": "E",
    "status": "Pending",
    "rowid": "1023656",
    "final_x": "3713413.32319",
    "final_y": "566427.045923",
    "longitude": "-89.96598531409377",
    "latitude": "30.050469031178366",
    "geocoded_column": {
      "latitude": "30.050469031178366",
      "longitude": "-89.96598531409377"
    }
  },
  {
    "service_request": "2023-1023655",
    "request_type": "Safety & Permits",
    "request_reason": "Construction permit",
    "date_created": "2023-08-04T21:37:19.000",
    "date_modified": "2023-08-04T21:37:19.000",
    "request_status": "Pending",
    "responsible_agency": "Department of Code Enforcement",
    "final_address": "11800 Morrison Rd",
    "address_councildis": "E",
    "status": "Pending",
    "rowid": "1023655",
    "final_x": "3713413.32319",
    "final_y": "566427.045923",
    "longitude": "-89.96598531409377",
    "latitude": "30.050469031178366",
    "geocoded_column": {
      "latitude": "30.050469031178366",
      "longitude": "-89.96598531409377"
    }
  },
  {
    "service_request": "2023-1023654",
    "request_type": "Property Maintenance",
    "request_reason": "Property Maintenance",
    "date_created": "2023-08-04T21:09:21.000",
    "date_modified": "2023-08-04T21:09:21.000",
    "request_status": "Pending",
    "responsible_agency": "Department of Code Enforcement",
    "final_address": "5600 Bentley Dr",
    "address_councildis": "E",
    "status": "Pending",
    "rowid": "1023654",
    "final_x": "3703860.79946",
    "final_y": "556690.277722",
    "longitude": "-89.9965362768309",
    "latitude": "30.02400671375497",
    "geocoded_column": {
      "latitude": "30.02400671375497",
      "longitude": "-89.9965362768309"
    }
  },
  {
    "service_request": "2023-1023653",
    "request_type": "Roads/Drainage",
    "request_reason": "Pothole",
    "date_created": "2023-08-04T20:58:57.000",
    "date_modified": "2023-08-04T20:58:57.000",
    "request_status": "Pending",
    "responsible_agency": "Department of Public Works",
    "final_address": "2757 Canal St",
    "address_councildis": "B",
    "status": "Pending",
    "rowid": "1023653",
    "final_x": "3675058.1844",
    "final_y": "535525.890502",
    "longitude": "-90.08827383610725",
    "latitude": "29.96670455276248",
    "geocoded_column": {
      "latitude": "29.96670455276248",
      "longitude": "-90.08827383610725"
    }
  },
  {
    "service_request": "2023-1023652",
    "request_type": "Property Maintenance",
    "request_reason": "Property Maintenance",
    "date_created": "2023-08-04T20:58:16.000",
    "date_modified": "2023-08-04T20:58:16.000",
    "request_status": "Pending",
    "responsible_agency": "Department of Code Enforcement",
    "final_address": "5600 Bentley Dr",
    "address_councildis": "E",
    "status": "Pending",
    "rowid": "1023652",
    "final_x": "3703860.79946",
    "final_y": "556690.277722",
    "longitude": "-89.9965362768309",
    "latitude": "30.02400671375497",
    "geocoded_column": {
      "latitude": "30.02400671375497",
      "longitude": "-89.9965362768309"
    }
  },
  {
    "service_request": "2023-1023651",
    "request_type": "Trash/Recycling",
    "request_reason": "Order Recycling Cart",
    "date_created": "2023-08-04T20:44:02.000",
    "date_modified": "2023-08-04T20:44:02.000",
    "request_status": "Pending",
    "responsible_agency": "Department of Sanitation",
    "final_address": "7617 Hickory St",
    "address_councildis": "A",
    "status": "Pending",
    "rowid": "1023651",
    "final_x": "3664670.19661",
    "final_y": "528895.171328",
    "longitude": "-90.12130068270339",
    "latitude": "29.948778517019758",
    "geocoded_column": {
      "latitude": "29.948778517019758",
      "longitude": "-90.12130068270339"
    }
  },
  {
    "service_request": "2023-1023650",
    "request_type": "Traffic Signals/Signs/Striping/Streetlights",
    "request_reason": "Street Light Outage/Malfunction",
    "date_created": "2023-08-04T20:41:13.000",
    "date_modified": "2023-08-04T20:41:13.000",
    "request_status": "Pending",
    "responsible_agency": "Department of Public Works",
    "final_address": "6314 York St",
    "address_councildis": "A",
    "status": "Assigned to Contractor",
    "contractor": "Legacy Professional Services",
    "rowid": "1023650",
    "final_x": "3667397.53165",
    "final_y": "529095.127872",
    "longitude": "-90.11268256438329",
    "latitude": "29.949248725914902",
    "geocoded_column": {
      "latitude": "29.949248725914902",
      "longitude": "-90.11268256438329"
    }
  },
  {
    "service_request": "2023-1023649",
    "request_type": "Traffic Signals/Signs/Striping/Streetlights",
    "request_reason": "Street Light Outage/Malfunction",
    "date_created": "2023-08-04T20:35:57.000",
    "date_modified": "2023-08-04T20:35:58.000",
    "request_status": "Pending",
    "responsible_agency": "Department of Public Works",
    "final_address": "1820 Old St Bernard St",
    "address_councildis": "D",
    "status": "Assigned to Contractor",
    "contractor": "Legacy Professional Services",
    "rowid": "1023649",
    "final_x": "3682440.24802",
    "final_y": "538874.628105",
    "longitude": "-90.06484426953992",
    "latitude": "29.975689799963757",
    "geocoded_column": {
      "latitude": "29.975689799963757",
      "longitude": "-90.06484426953992"
    }
  },
  {
    "service_request": "2023-1023648",
    "request_type": "Property Maintenance",
    "request_reason": "Property Maintenance",
    "date_created": "2023-08-04T20:15:15.000",
    "date_modified": "2023-08-04T20:15:15.000",
    "request_status": "Pending",
    "responsible_agency": "Department of Code Enforcement",
    "final_address": "2701 Carondelet St",
    "address_councildis": "B",
    "status": "Pending",
    "rowid": "1023648",
    "final_x": "3675925.27297",
    "final_y": "523038.998267",
    "longitude": "-90.08596484816691",
    "latitude": "29.93234381245348",
    "geocoded_column": {
      "latitude": "29.93234381245348",
      "longitude": "-90.08596484816691"
    }
  },
  {
    "service_request": "2023-1023647",
    "request_type": "Trash/Recycling",
    "request_reason": "Order Trash Cart",
    "date_created": "2023-08-04T20:07:54.000",
    "date_modified": "2023-08-04T20:07:55.000",
    "request_status": "Pending",
    "responsible_agency": "Department of Sanitation",
    "final_address": "4221 Dale St",
    "address_councildis": "E",
    "status": "Assigned to Contractor",
    "contractor": "Waste Pro",
    "rowid": "1023647",
    "final_x": "3699758.33021",
    "final_y": "552205.19567",
    "longitude": "-90.00966292829155",
    "latitude": "30.011805407241226",
    "geocoded_column": {
      "latitude": "30.011805407241226",
      "longitude": "-90.00966292829155"
    }
  },
  {
    "service_request": "2023-1023646",
    "request_type": "Trash/Recycling",
    "request_reason": "Missed Trash Pick-Up",
    "date_created": "2023-08-04T20:06:38.000",
    "date_modified": "2023-08-04T20:06:39.000",
    "request_status": "Pending",
    "responsible_agency": "Department of Sanitation",
    "final_address": "4221 Dale St",
    "address_councildis": "E",
    "status": "Assigned to Contractor",
    "contractor": "Waste Pro",
    "rowid": "1023646",
    "final_x": "3699758.33021",
    "final_y": "552205.19567",
    "longitude": "-90.00966292829155",
    "latitude": "30.011805407241226",
    "geocoded_column": {
      "latitude": "30.011805407241226",
      "longitude": "-90.00966292829155"
    }
  },
  {
    "service_request": "2023-1023645",
    "request_type": "Trash/Recycling",
    "request_reason": "MIssed Recycling Pick-Up",
    "date_created": "2023-08-04T20:05:15.000",
    "date_modified": "2023-08-04T20:05:15.000",
    "request_status": "Pending",
    "responsible_agency": "Department of Sanitation",
    "final_address": "4221 Dale St",
    "address_councildis": "E",
    "status": "Assigned to Contractor",
    "contractor": "Waste Pro",
    "rowid": "1023645",
    "final_x": "3699758.33021",
    "final_y": "552205.19567",
    "longitude": "-90.00966292829155",
    "latitude": "30.011805407241226",
    "geocoded_column": {
      "latitude": "30.011805407241226",
      "longitude": "-90.00966292829155"
    }
  },
  {
    "service_request": "2023-1023644",
    "request_type": "Property Maintenance",
    "request_reason": "Property Maintenance",
    "date_created": "2023-08-04T19:52:07.000",
    "date_modified": "2023-08-04T19:52:07.000",
    "request_status": "Pending",
    "responsible_agency": "Department of Code Enforcement",
    "final_address": "2701 Carondelet St",
    "address_councildis": "B",
    "status": "Pending",
    "rowid": "1023644",
    "final_x": "3675925.27297",
    "final_y": "523038.998267",
    "longitude": "-90.08596484816691",
    "latitude": "29.93234381245348",
    "geocoded_column": {
      "latitude": "29.93234381245348",
      "longitude": "-90.08596484816691"
    }
  },
  {
    "service_request": "2023-1023643",
    "request_type": "Trash/Recycling",
    "request_reason": "Illegal Dumping",
    "date_created": "2023-08-04T19:49:51.000",
    "date_modified": "2023-08-04T19:49:51.000",
    "request_status": "Pending",
    "responsible_agency": "Department of Sanitation",
    "final_address": "423 S Bernadotte St",
    "address_councildis": "A",
    "status": "Pending",
    "rowid": "1023643",
    "final_x": "3667931.70401",
    "final_y": "538956.189962",
    "longitude": "-90.11066370601611",
    "latitude": "29.97634772726156",
    "geocoded_column": {
      "latitude": "29.97634772726156",
      "longitude": "-90.11066370601611"
    }
  },
  {
    "service_request": "2023-1023642",
    "request_type": "Roads/Drainage",
    "request_reason": "Street Subsidence (Sinking)",
    "date_created": "2023-08-04T19:48:33.000",
    "date_modified": "2023-08-04T19:48:34.000",
    "request_status": "Pending",
    "responsible_agency": "Department of Public Works",
    "final_address": "S CLAIBORNE AVE & TOLEDANO ST",
    "address_councildis": "B",
    "status": "Pending",
    "rowid": "1023642",
    "final_x": "3672686.1",
    "final_y": "526316.28",
    "longitude": "-90.09607892276615",
    "latitude": "29.941451833708907",
    "geocoded_column": {
      "latitude": "29.941451833708907",
      "longitude": "-90.09607892276615"
    }
  },
  {
    "service_request": "2023-1023641",
    "request_type": "Roads/Drainage",
    "request_reason": "Catch Basin - Clogged",
    "date_created": "2023-08-04T18:57:14.000",
    "date_modified": "2023-08-04T18:57:14.000",
    "request_status": "Pending",
    "responsible_agency": "Department of Public Works",
    "final_address": "3827 Canal St",
    "address_councildis": "A",
    "status": "Pending",
    "rowid": "1023641",
    "final_x": "3671998.41319",
    "final_y": "537899.680905",
    "longitude": "-90.09785576934745",
    "latitude": "29.973322740370623",
    "geocoded_column": {
      "latitude": "29.973322740370623",
      "longitude": "-90.09785576934745"
    }
  },
  {
    "service_request": "2023-1023640",
    "request_type": "Trash/Recycling",
    "request_reason": "Request a Large Item Pick Up",
    "date_created": "2023-08-04T18:37:30.000",
    "date_modified": "2023-08-04T18:41:21.000",
    "request_status": "Pending",
    "responsible_agency": "Department of Sanitation",
    "final_address": "13200 Dwyer Blvd",
    "address_councildis": "E",
    "status": "Assigned to Contractor",
    "contractor": "Waste Pro",
    "rowid": "1023640",
    "final_x": "3724377.48985",
    "final_y": "561303.82659",
    "longitude": "-89.93153004245288",
    "latitude": "30.036017988145748",
    "geocoded_column": {
      "latitude": "30.036017988145748",
      "longitude": "-89.93153004245288"
    }
  },
  {
    "service_request": "2023-1023639",
    "request_type": "Trash/Recycling",
    "request_reason": "Request a Large Item Pick Up",
    "date_created": "2023-08-04T18:15:58.000",
    "date_modified": "2023-08-04T18:15:59.000",
    "request_status": "Pending",
    "responsible_agency": "Department of Sanitation",
    "status": "Assigned to Contractor",
    "rowid": "1023639",
    "longitude": "0.0",
    "latitude": "0.0",
    "geocoded_column": {
      "latitude": "0.0",
      "longitude": "0.0"
    }
  },
  {
    "service_request": "2023-1023638",
    "request_type": "Roads/Drainage",
    "request_reason": "Street Subsidence (Sinking)",
    "date_created": "2023-08-04T18:10:31.000",
    "date_modified": "2023-08-04T18:10:31.000",
    "request_status": "Pending",
    "responsible_agency": "Department of Public Works",
    "final_address": "2431 State St",
    "address_councildis": "A",
    "status": "Pending",
    "rowid": "1023638",
    "final_x": "3666835.85857",
    "final_y": "525602.873789",
    "longitude": "-90.11457330445711",
    "latitude": "29.939662595234072",
    "geocoded_column": {
      "latitude": "29.939662595234072",
      "longitude": "-90.11457330445711"
    }
  },
  {
    "service_request": "2023-1023636",
    "request_type": "Trash/Recycling",
    "request_reason": "Missed Trash Pick-Up",
    "date_created": "2023-08-04T17:51:25.000",
    "date_modified": "2023-08-04T17:51:43.000",
    "request_status": "Pending",
    "responsible_agency": "Department of Sanitation",
    "final_address": "2300 Harmony St",
    "address_councildis": "B",
    "status": "Assigned to Contractor",
    "contractor": "Richards Disposal",
    "rowid": "1023636",
    "final_x": "3673684.10164",
    "final_y": "524077.994684",
    "longitude": "-90.09300452556485",
    "latitude": "29.9352676103742",
    "geocoded_column": {
      "latitude": "29.9352676103742",
      "longitude": "-90.09300452556485"
    }
  },
  {
    "service_request": "2023-1023635",
    "request_type": "Trash/Recycling",
    "request_reason": "Missed Trash Pick-Up",
    "date_created": "2023-08-04T17:37:17.000",
    "date_modified": "2023-08-04T17:37:17.000",
    "request_status": "Pending",
    "responsible_agency": "Department of Sanitation",
    "final_address": "2035 Bartholomew St",
    "address_councildis": "D",
    "status": "Assigned to Contractor",
    "contractor": "IV Waste",
    "rowid": "1023635",
    "final_x": "3692768.84368",
    "final_y": "539004.455562",
    "longitude": "-90.0322191626374",
    "latitude": "29.975728337254793",
    "geocoded_column": {
      "latitude": "29.975728337254793",
      "longitude": "-90.0322191626374"
    }
  },
  {
    "service_request": "2023-1023634",
    "request_type": "Trash/Recycling",
    "request_reason": "Request a Large Item Pick Up",
    "date_created": "2023-08-04T17:34:02.000",
    "date_modified": "2023-08-04T17:34:03.000",
    "request_status": "Pending",
    "responsible_agency": "Department of Sanitation",
    "final_address": "4719 W Adams Ct",
    "address_councildis": "E",
    "status": "Assigned to Contractor",
    "contractor": "Waste Pro",
    "rowid": "1023634",
    "final_x": "3718620.78674",
    "final_y": "556883.102938",
    "longitude": "-89.94989076067759",
    "latitude": "30.024055167475",
    "geocoded_column": {
      "latitude": "30.024055167475",
      "longitude": "-89.94989076067759"
    }
  },
  {
    "service_request": "2023-1023633",
    "request_type": "Trash/Recycling",
    "request_reason": "Missed Trash Pick-Up",
    "date_created": "2023-08-04T17:31:39.000",
    "date_modified": "2023-08-04T17:31:40.000",
    "request_status": "Pending",
    "responsible_agency": "Department of Sanitation",
    "final_address": "7716 Michigan St",
    "address_councildis": "E",
    "status": "Assigned to Contractor",
    "contractor": "Waste Pro",
    "rowid": "1023633",
    "final_x": "3711434.58264",
    "final_y": "566966.48298",
    "longitude": "-89.97221909972906",
    "latitude": "30.052017041274986",
    "geocoded_column": {
      "latitude": "30.052017041274986",
      "longitude": "-89.97221909972906"
    }
  },
  {
    "service_request": "2023-1023632",
    "request_type": "Roads/Drainage",
    "request_reason": "Accessibility Ramps, Curbs and Sidewalk Repair",
    "date_created": "2023-08-04T17:25:11.000",
    "date_modified": "2023-08-04T17:25:11.000",
    "request_status": "Pending",
    "responsible_agency": "Department of Public Works",
    "final_address": "7201 Spring Lake Dr",
    "address_councildis": "E",
    "status": "Pending",
    "rowid": "1023632",
    "final_x": "3700169.42397",
    "final_y": "558994.22774",
    "longitude": "-90.00811604595594",
    "latitude": "30.030459587327485",
    "geocoded_column": {
      "latitude": "30.030459587327485",
      "longitude": "-90.00811604595594"
    }
  },
  {
    "service_request": "2023-1023631",
    "request_type": "Trash/Recycling",
    "request_reason": "Request a Large Item Pick Up",
    "date_created": "2023-08-04T17:23:39.000",
    "date_modified": "2023-08-04T17:23:39.000",
    "request_status": "Pending",
    "responsible_agency": "Department of Sanitation",
    "final_address": "1604 St Philip St",
    "address_councildis": "C",
    "status": "Assigned to Contractor",
    "contractor": "Richards Disposal",
    "rowid": "1023631",
    "final_x": "3680667.91106",
    "final_y": "535269.167302",
    "longitude": "-90.07056729196167",
    "latitude": "29.965829854696672",
    "geocoded_column": {
      "latitude": "29.965829854696672",
      "longitude": "-90.07056729196167"
    }
  },
  {
    "service_request": "2023-1023630",
    "request_type": "Trash/Recycling",
    "request_reason": "Request a Large Item Pick Up",
    "date_created": "2023-08-04T17:23:32.000",
    "date_modified": "2023-08-04T17:23:33.000",
    "request_status": "Pending",
    "responsible_agency": "Department of Sanitation",
    "final_address": "1841 France St",
    "address_councildis": "D",
    "status": "Assigned to Contractor",
    "contractor": "IV Waste",
    "rowid": "1023630",
    "final_x": "3693161.90045",
    "final_y": "538108.002441",
    "longitude": "-90.03100996353167",
    "latitude": "29.973251132578582",
    "geocoded_column": {
      "latitude": "29.973251132578582",
      "longitude": "-90.03100996353167"
    }
  },
  {
    "service_request": "2023-1023629",
    "request_type": "Trash/Recycling",
    "request_reason": "Order Trash Cart",
    "date_created": "2023-08-04T17:13:18.000",
    "date_modified": "2023-08-04T17:13:19.000",
    "request_status": "Pending",
    "responsible_agency": "Department of Sanitation",
    "final_address": "2410 Oak Pl",
    "address_councildis": "B",
    "status": "Assigned to Contractor",
    "contractor": "Richards Disposal",
    "rowid": "1023629",
    "final_x": "3677116.41147",
    "final_y": "535394.998406",
    "longitude": "-90.0817784769503",
    "latitude": "29.96628298867995",
    "geocoded_column": {
      "latitude": "29.96628298867995",
      "longitude": "-90.0817784769503"
    }
  },
  {
    "service_request": "2023-1023628",
    "request_type": "Roads/Drainage",
    "request_reason": "Street Subsidence (Sinking)",
    "date_created": "2023-08-04T17:12:45.000",
    "date_modified": "2023-08-04T17:12:45.000",
    "request_status": "Pending",
    "responsible_agency": "Department of Public Works",
    "final_address": "2424 Royal St",
    "address_councildis": "C",
    "status": "Pending",
    "rowid": "1023628",
    "final_x": "3686109.60489",
    "final_y": "534922.923462",
    "longitude": "-90.05339485288546",
    "latitude": "29.964711785653222",
    "geocoded_column": {
      "latitude": "29.964711785653222",
      "longitude": "-90.05339485288546"
    }
  },
  {
    "service_request": "2023-1023627",
    "request_type": "Trash/Recycling",
    "request_reason": "MIssed Recycling Pick-Up",
    "date_created": "2023-08-04T17:06:25.000",
    "date_modified": "2023-08-04T17:06:26.000",
    "request_status": "Pending",
    "responsible_agency": "Department of Sanitation",
    "final_address": "7201 Spring Lake Dr",
    "address_councildis": "E",
    "status": "Assigned to Contractor",
    "contractor": "Waste Pro",
    "rowid": "1023627",
    "final_x": "3700169.42397",
    "final_y": "558994.22774",
    "longitude": "-90.00811604595594",
    "latitude": "30.030459587327485",
    "geocoded_column": {
      "latitude": "30.030459587327485",
      "longitude": "-90.00811604595594"
    }
  },
  {
    "service_request": "2023-1023626",
    "request_type": "Trash/Recycling",
    "request_reason": "MIssed Recycling Pick-Up",
    "date_created": "2023-08-04T17:02:40.000",
    "date_modified": "2023-08-04T17:03:36.000",
    "request_status": "Pending",
    "responsible_agency": "Department of Sanitation",
    "final_address": "7631 Crestmont Rd",
    "address_councildis": "E",
    "status": "Assigned to Contractor",
    "contractor": "Waste Pro",
    "rowid": "1023626",
    "final_x": "3699657.76964",
    "final_y": "560389.539614",
    "longitude": "-90.00968193620962",
    "latitude": "30.03431241658454",
    "geocoded_column": {
      "latitude": "30.03431241658454",
      "longitude": "-90.00968193620962"
    }
  },
  {
    "service_request": "2023-1023625",
    "request_type": "Trash/Recycling",
    "request_reason": "Request a Large Item Pick Up",
    "date_created": "2023-08-04T16:54:43.000",
    "date_modified": "2023-08-04T16:54:44.000",
    "request_status": "Pending",
    "responsible_agency": "Department of Sanitation",
    "final_address": "4316 State Street Dr",
    "address_councildis": "B",
    "status": "Assigned to Contractor",
    "contractor": "Richards Disposal",
    "rowid": "1023625",
    "final_x": "3668529.31527",
    "final_y": "531409.528515",
    "longitude": "-90.10903093174993",
    "latitude": "29.955579369737148",
    "geocoded_column": {
      "latitude": "29.955579369737148",
      "longitude": "-90.10903093174993"
    }
  },
  {
    "service_request": "2023-1023624",
    "request_type": "Trash/Recycling",
    "request_reason": "Replace Trash Cart",
    "date_created": "2023-08-04T16:53:39.000",
    "date_modified": "2023-08-04T16:53:40.000",
    "request_status": "Pending",
    "responsible_agency": "Department of Sanitation",
    "final_address": "3055 Burgundy St",
    "address_councildis": "C",
    "status": "Assigned to Contractor",
    "contractor": "IV Waste",
    "rowid": "1023624",
    "final_x": "3688684.31279",
    "final_y": "535274.892422",
    "longitude": "-90.04525163051365",
    "latitude": "29.965600245454283",
    "geocoded_column": {
      "latitude": "29.965600245454283",
      "longitude": "-90.04525163051365"
    }
  },
  {
    "service_request": "2023-1023623",
    "request_type": "Trash/Recycling",
    "request_reason": "Missed Trash Pick-Up",
    "date_created": "2023-08-04T16:52:53.000",
    "date_modified": "2023-08-04T16:52:54.000",
    "request_status": "Pending",
    "responsible_agency": "Department of Sanitation",
    "final_address": "3055 Burgundy St",
    "address_councildis": "C",
    "status": "Assigned to Contractor",
    "contractor": "IV Waste",
    "rowid": "1023623",
    "final_x": "3688684.31279",
    "final_y": "535274.892422",
    "longitude": "-90.04525163051365",
    "latitude": "29.965600245454283",
    "geocoded_column": {
      "latitude": "29.965600245454283",
      "longitude": "-90.04525163051365"
    }
  },
  {
    "service_request": "2023-1023622",
    "request_type": "Trash/Recycling",
    "request_reason": "Return Recycling Cart",
    "date_created": "2023-08-04T16:52:26.000",
    "date_modified": "2023-08-04T16:52:26.000",
    "request_status": "Pending",
    "responsible_agency": "Department of Sanitation",
    "final_address": "2419 Chartres St",
    "address_councildis": "C",
    "status": "Pending",
    "rowid": "1023622",
    "final_x": "3686079.00662",
    "final_y": "534615.158534",
    "longitude": "-90.05350233542893",
    "latitude": "29.96386647846724",
    "geocoded_column": {
      "latitude": "29.96386647846724",
      "longitude": "-90.05350233542893"
    }
  },
  {
    "service_request": "2023-1023621",
    "request_type": "Trash/Recycling",
    "request_reason": "Request a Large Item Pick Up",
    "date_created": "2023-08-04T16:52:19.000",
    "date_modified": "2023-08-04T16:52:19.000",
    "request_status": "Pending",
    "responsible_agency": "Department of Sanitation",
    "final_address": "4820 Rosemont Pl",
    "address_councildis": "E",
    "status": "Assigned to Contractor",
    "contractor": "Waste Pro",
    "rowid": "1023621",
    "final_x": "3702595.85405",
    "final_y": "555322.558617",
    "longitude": "-90.0005835005921",
    "latitude": "30.02028652930276",
    "geocoded_column": {
      "latitude": "30.02028652930276",
      "longitude": "-90.0005835005921"
    }
  },
  {
    "service_request": "2023-1023618",
    "request_type": "Trash/Recycling",
    "request_reason": "Repair Trash Cart",
    "date_created": "2023-08-04T16:47:59.000",
    "date_modified": "2023-08-04T16:48:00.000",
    "request_status": "Pending",
    "responsible_agency": "Department of Sanitation",
    "final_address": "3342 Seine St",
    "address_councildis": "C",
    "status": "Assigned to Contractor",
    "contractor": "Richards Disposal",
    "rowid": "1023618",
    "final_x": "3696369.84746",
    "final_y": "519644.816696",
    "longitude": "-90.02154622437052",
    "latitude": "29.922383170254218",
    "geocoded_column": {
      "latitude": "29.922383170254218",
      "longitude": "-90.02154622437052"
    }
  },
  {
    "service_request": "2023-1023617",
    "request_type": "Trash/Recycling",
    "request_reason": "Replace Trash Cart",
    "date_created": "2023-08-04T16:41:03.000",
    "date_modified": "2023-08-04T16:41:03.000",
    "request_status": "Pending",
    "responsible_agency": "Department of Sanitation",
    "final_address": "3205 Louisiana Avenue Prkwy",
    "address_councildis": "B",
    "status": "Assigned to Contractor",
    "contractor": "Richards Disposal",
    "rowid": "1023617",
    "final_x": "3672010.97057",
    "final_y": "526990.638142",
    "longitude": "-90.09818749282444",
    "latitude": "29.94332612613056",
    "geocoded_column": {
      "latitude": "29.94332612613056",
      "longitude": "-90.09818749282444"
    }
  },
  {
    "service_request": "2023-1023616",
    "request_type": "Roads/Drainage",
    "request_reason": "Street Subsidence (Sinking)",
    "date_created": "2023-08-04T16:38:55.000",
    "date_modified": "2023-08-04T16:39:13.000",
    "request_status": "Pending",
    "responsible_agency": "Department of Public Works",
    "final_address": "4910 Spain St",
    "address_councildis": "D",
    "rowid": "1023616",
    "final_x": "3684905.93583",
    "final_y": "550887.065493",
    "longitude": "-90.05663424020285",
    "latitude": "30.008644434072355",
    "geocoded_column": {
      "latitude": "30.008644434072355",
      "longitude": "-90.05663424020285"
    }
  },
  {
    "service_request": "2023-1023615",
    "request_type": "Trash/Recycling",
    "request_reason": "Illegal Dumping",
    "date_created": "2023-08-04T16:36:01.000",
    "date_modified": "2023-08-04T17:31:18.000",
    "request_status": "Pending",
    "responsible_agency": "Department of Sanitation",
    "final_address": "6031 N Derbigny St",
    "address_councildis": "E",
    "rowid": "1023615",
    "final_x": "3700269.29143",
    "final_y": "535501.630406",
    "longitude": "-90.0086586963588",
    "latitude": "29.965860517799413",
    "geocoded_column": {
      "latitude": "29.965860517799413",
      "longitude": "-90.0086586963588"
    }
  },
  {
    "service_request": "2023-1023614",
    "request_type": "Traffic Signals/Signs/Striping/Streetlights",
    "request_reason": "Traffic Sign Missing/Damaged",
    "date_created": "2023-08-04T16:35:38.000",
    "date_modified": "2023-08-04T16:35:38.000",
    "request_status": "Pending",
    "responsible_agency": "Department of Public Works",
    "final_address": "5700 BLK S Claiborne Ave",
    "address_councildis": "A",
    "status": "Pending",
    "rowid": "1023614",
    "final_x": "3667766.83241",
    "final_y": "526769.041066",
    "longitude": "-90.11159482434097",
    "latitude": "29.94284191863617",
    "geocoded_column": {
      "latitude": "29.94284191863617",
      "longitude": "-90.11159482434097"
    }
  },
  {
    "service_request": "2023-1023613",
    "request_type": "Trash/Recycling",
    "request_reason": "Illegal Dumping",
    "date_created": "2023-08-04T16:31:04.000",
    "date_modified": "2023-08-04T17:31:44.000",
    "request_status": "Pending",
    "responsible_agency": "Department of Sanitation",
    "final_address": "6030 N Derbigny St",
    "address_councildis": "E",
    "rowid": "1023613",
    "final_x": "3700235.61085",
    "final_y": "535439.651206",
    "longitude": "-90.00876732042501",
    "latitude": "29.965691167851602",
    "geocoded_column": {
      "latitude": "29.965691167851602",
      "longitude": "-90.00876732042501"
    }
  },
  {
    "service_request": "2023-1023612",
    "request_type": "Trash/Recycling",
    "request_reason": "Order Recycling Cart",
    "date_created": "2023-08-04T16:15:12.000",
    "date_modified": "2023-08-04T16:15:12.000",
    "request_status": "Pending",
    "responsible_agency": "Department of Sanitation",
    "final_address": "2332 Pauline St",
    "address_councildis": "D",
    "status": "Pending",
    "rowid": "1023612",
    "final_x": "3692353.94531",
    "final_y": "540228.440715",
    "longitude": "-90.03348567012625",
    "latitude": "29.979106807264948",
    "geocoded_column": {
      "latitude": "29.979106807264948",
      "longitude": "-90.03348567012625"
    }
  },
  {
    "service_request": "2023-1023611",
    "request_type": "Trash/Recycling",
    "request_reason": "Return Recycling Cart",
    "date_created": "2023-08-04T16:14:27.000",
    "date_modified": "2023-08-04T16:14:28.000",
    "request_status": "Pending",
    "responsible_agency": "Department of Sanitation",
    "final_address": "2955 Seine St",
    "address_councildis": "C",
    "status": "Pending",
    "rowid": "1023611",
    "final_x": "3694291.12451",
    "final_y": "520479.946168",
    "longitude": "-90.0280778460513",
    "latitude": "29.92474476620032",
    "geocoded_column": {
      "latitude": "29.92474476620032",
      "longitude": "-90.0280778460513"
    }
  },
  {
    "service_request": "2023-1023610",
    "request_type": "Roads/Drainage",
    "request_reason": "Pothole",
    "date_created": "2023-08-04T16:12:52.000",
    "date_modified": "2023-08-04T16:12:52.000",
    "request_status": "Pending",
    "responsible_agency": "Department of Public Works",
    "final_address": "DOROTHEA ST & E HERMES ST",
    "address_councildis": "D",
    "status": "Pending",
    "rowid": "1023610",
    "final_x": "3697184.3",
    "final_y": "557775.38",
    "longitude": "-90.01759325251595",
    "latitude": "30.02720281386783",
    "geocoded_column": {
      "latitude": "30.02720281386783",
      "longitude": "-90.01759325251595"
    }
  },
  {
    "service_request": "2023-1023609",
    "request_type": "Trash/Recycling",
    "request_reason": "Repair Recycling Cart",
    "date_created": "2023-08-04T16:12:16.000",
    "date_modified": "2023-08-04T16:12:17.000",
    "request_status": "Pending",
    "responsible_agency": "Department of Sanitation",
    "final_address": "1205 Seventh St",
    "address_councildis": "B",
    "status": "Pending",
    "rowid": "1023609",
    "final_x": "3676174.66958",
    "final_y": "520758.299065",
    "longitude": "-90.0852559491125",
    "latitude": "29.92606516301644",
    "geocoded_column": {
      "latitude": "29.92606516301644",
      "longitude": "-90.0852559491125"
    }
  },
  {
    "service_request": "2023-1023608",
    "request_type": "Abandoned Vehicles",
    "request_reason": "Abandoned/Junk Vehicles",
    "date_created": "2023-08-04T16:10:14.000",
    "date_modified": "2023-08-04T16:10:14.000",
    "request_status": "Pending",
    "responsible_agency": "Department of Public Works",
    "final_address": "2268 St Claude Ave",
    "address_councildis": "C",
    "status": "Pending",
    "rowid": "1023608",
    "final_x": "3685652.85046",
    "final_y": "536323.606215",
    "longitude": "-90.05478789391198",
    "latitude": "29.96857719840401",
    "geocoded_column": {
      "latitude": "29.96857719840401",
      "longitude": "-90.05478789391198"
    }
  },
  {
    "service_request": "2023-1023607",
    "request_type": "Trash/Recycling",
    "request_reason": "Return Recycling Cart",
    "date_created": "2023-08-04T16:08:28.000",
    "date_modified": "2023-08-04T16:08:28.000",
    "request_status": "Pending",
    "responsible_agency": "Department of Sanitation",
    "final_address": "2955 Seine St",
    "address_councildis": "C",
    "status": "Pending",
    "rowid": "1023607",
    "final_x": "3694291.12451",
    "final_y": "520479.946168",
    "longitude": "-90.0280778460513",
    "latitude": "29.92474476620032",
    "geocoded_column": {
      "latitude": "29.92474476620032",
      "longitude": "-90.0280778460513"
    }
  },
  {
    "service_request": "2023-1023606",
    "request_type": "Trash/Recycling",
    "request_reason": "Request a Large Item Pick Up",
    "date_created": "2023-08-04T16:07:13.000",
    "date_modified": "2023-08-04T16:07:14.000",
    "request_status": "Pending",
    "responsible_agency": "Department of Sanitation",
    "final_address": "7711 Windward Ct",
    "address_councildis": "E",
    "status": "Assigned to Contractor",
    "contractor": "Waste Pro",
    "rowid": "1023606",
    "final_x": "3715576.43135",
    "final_y": "569875.856294",
    "longitude": "-89.95901783058083",
    "latitude": "30.059880689103988",
    "geocoded_column": {
      "latitude": "30.059880689103988",
      "longitude": "-89.95901783058083"
    }
  },
  {
    "service_request": "2023-1023605",
    "request_type": "Roads/Drainage",
    "request_reason": "Street Subsidence (Sinking)",
    "date_created": "2023-08-04T16:02:13.000",
    "date_modified": "2023-08-04T16:09:12.000",
    "request_status": "Pending",
    "responsible_agency": "Department of Public Works",
    "final_address": "HICKORY ST & ADAMS ST",
    "address_councildis": "A",
    "status": "Pending",
    "rowid": "1023605",
    "final_x": "3664470.4",
    "final_y": "528938.38",
    "longitude": "-90.1219300864036",
    "latitude": "29.9489031365215",
    "geocoded_column": {
      "latitude": "29.9489031365215",
      "longitude": "-90.1219300864036"
    }
  },
  {
    "service_request": "2023-1023604",
    "request_type": "Trash/Recycling",
    "request_reason": "MIssed Recycling Pick-Up",
    "date_created": "2023-08-04T15:59:35.000",
    "date_modified": "2023-08-04T15:59:36.000",
    "request_status": "Pending",
    "responsible_agency": "Department of Sanitation",
    "final_address": "7301 Ebbtide Dr",
    "address_councildis": "E",
    "status": "Assigned to Contractor",
    "contractor": "Waste Pro",
    "rowid": "1023604",
    "final_x": "3702663.11153",
    "final_y": "560476.154782",
    "longitude": "-90.00018153280496",
    "latitude": "30.034454773097114",
    "geocoded_column": {
      "latitude": "30.034454773097114",
      "longitude": "-90.00018153280496"
    }
  },
  {
    "service_request": "2023-1023603",
    "request_type": "Safety & Permits",
    "request_reason": "Licenses & Permits",
    "date_created": "2023-08-04T15:56:47.000",
    "date_modified": "2023-08-04T15:56:47.000",
    "request_status": "Pending",
    "responsible_agency": "Safety and Permits",
    "final_address": "2409 Broadway St",
    "address_councildis": "A",
    "status": "Pending",
    "rowid": "1023603",
    "final_x": "3666704.68461",
    "final_y": "530165.114625",
    "longitude": "-90.11483427049843",
    "latitude": "29.95221111823713",
    "geocoded_column": {
      "latitude": "29.95221111823713",
      "longitude": "-90.11483427049843"
    }
  },
  {
    "service_request": "2023-1023602",
    "request_type": "Trash/Recycling",
    "request_reason": "Request a Large Item Pick Up",
    "date_created": "2023-08-04T15:49:05.000",
    "date_modified": "2023-08-04T15:49:05.000",
    "request_status": "Pending",
    "responsible_agency": "Department of Sanitation",
    "final_address": "4538 Bonita Dr",
    "address_councildis": "E",
    "status": "Assigned to Contractor",
    "contractor": "Waste Pro",
    "rowid": "1023602",
    "final_x": "3704557.97482",
    "final_y": "553977.897048",
    "longitude": "-89.99443349933642",
    "latitude": "30.016526329811974",
    "geocoded_column": {
      "latitude": "30.016526329811974",
      "longitude": "-89.99443349933642"
    }
  },
  {
    "service_request": "2023-1023601",
    "request_type": "Trash/Recycling",
    "request_reason": "Missed Trash Pick-Up",
    "date_created": "2023-08-04T15:47:27.000",
    "date_modified": "2023-08-04T15:47:28.000",
    "request_status": "Pending",
    "responsible_agency": "Department of Sanitation",
    "final_address": "4510 Dodt Ave",
    "address_councildis": "E",
    "status": "Assigned to Contractor",
    "contractor": "Waste Pro",
    "rowid": "1023601",
    "final_x": "3705497.63998",
    "final_y": "553865.814487",
    "longitude": "-89.99146873102502",
    "latitude": "30.016187921833982",
    "geocoded_column": {
      "latitude": "30.016187921833982",
      "longitude": "-89.99146873102502"
    }
  },
  {
    "service_request": "2023-1023600",
    "request_type": "Trash/Recycling",
    "request_reason": "Request a Large Item Pick Up",
    "date_created": "2023-08-04T15:46:47.000",
    "date_modified": "2023-08-04T15:46:48.000",
    "request_status": "Pending",
    "responsible_agency": "Department of Sanitation",
    "final_address": "2337 General Pershing St",
    "address_councildis": "B",
    "status": "Assigned to Contractor",
    "contractor": "Richards Disposal",
    "rowid": "1023600",
    "final_x": "3671022.97467",
    "final_y": "523698.840699",
    "longitude": "-90.10141859305153",
    "latitude": "29.93430399722245",
    "geocoded_column": {
      "latitude": "29.93430399722245",
      "longitude": "-90.10141859305153"
    }
  },
  {
    "service_request": "2023-1023599",
    "request_type": "Trash/Recycling",
    "request_reason": "Missed Trash Pick-Up",
    "date_created": "2023-08-04T15:46:35.000",
    "date_modified": "2023-08-04T15:46:35.000",
    "request_status": "Pending",
    "responsible_agency": "Department of Sanitation",
    "final_address": "2606 Music St",
    "address_councildis": "D",
    "status": "Assigned to Contractor",
    "contractor": "IV Waste",
    "rowid": "1023599",
    "final_x": "3686360.92924",
    "final_y": "542046.409804",
    "longitude": "-90.05234970320163",
    "latitude": "29.984291153741133",
    "geocoded_column": {
      "latitude": "29.984291153741133",
      "longitude": "-90.05234970320163"
    }
  },
  {
    "service_request": "2023-1023598",
    "request_type": "Trash/Recycling",
    "request_reason": "Missed Trash Pick-Up",
    "date_created": "2023-08-04T15:44:37.000",
    "date_modified": "2023-08-04T15:44:38.000",
    "request_status": "Pending",
    "responsible_agency": "Department of Sanitation",
    "final_address": "2532 Winthrop St",
    "address_councildis": "E",
    "status": "Assigned to Contractor",
    "contractor": "Waste Pro",
    "rowid": "1023598",
    "final_x": "3700754.43722",
    "final_y": "538936.837002",
    "longitude": "-90.00700106126702",
    "latitude": "29.9752906635259",
    "geocoded_column": {
      "latitude": "29.9752906635259",
      "longitude": "-90.00700106126702"
    }
  },
  {
    "service_request": "2023-1023597",
    "request_type": "Abandoned Vehicles",
    "request_reason": "Abandoned/Junk Vehicles",
    "date_created": "2023-08-04T15:40:42.000",
    "date_modified": "2023-08-04T16:30:10.000",
    "request_status": "Pending",
    "responsible_agency": "Department of Public Works",
    "final_address": "N DERBIGNY ST & FELICIANA ST",
    "address_councildis": "D",
    "status": "Pending",
    "rowid": "1023597",
    "final_x": "3689293.9",
    "final_y": "538312.38",
    "longitude": "-90.04321858440554",
    "latitude": "29.973933413099296",
    "geocoded_column": {
      "latitude": "29.973933413099296",
      "longitude": "-90.04321858440554"
    }
  },
  {
    "service_request": "2023-1023596",
    "request_type": "Abandoned Vehicles",
    "request_reason": "Abandoned/Junk Vehicles",
    "date_created": "2023-08-04T15:34:20.000",
    "date_modified": "2023-08-04T15:34:20.000",
    "request_status": "Pending",
    "responsible_agency": "Department of Public Works",
    "final_address": "HOMEDALE ST & WOODLAWN PL",
    "address_councildis": "A",
    "status": "Pending",
    "rowid": "1023596",
    "final_x": "3667489.6",
    "final_y": "544643.18",
    "longitude": "-90.11186854124028",
    "latitude": "29.99199798655388",
    "geocoded_column": {
      "latitude": "29.99199798655388",
      "longitude": "-90.11186854124028"
    }
  },
  {
    "service_request": "2023-1023595",
    "request_type": "Trash/Recycling",
    "request_reason": "Request a Large Item Pick Up",
    "date_created": "2023-08-04T15:30:01.000",
    "date_modified": "2023-08-04T15:30:01.000",
    "request_status": "Pending",
    "responsible_agency": "Department of Sanitation",
    "final_address": "624 Franklin Ave",
    "address_councildis": "C",
    "status": "Assigned to Contractor",
    "contractor": "IV Waste",
    "rowid": "1023595",
    "final_x": "3686680.10422",
    "final_y": "534858.925382",
    "longitude": "-90.05159551988054",
    "latitude": "29.964518278202746",
    "geocoded_column": {
      "latitude": "29.964518278202746",
      "longitude": "-90.05159551988054"
    }
  },
  {
    "service_request": "2023-1023594",
    "request_type": "Roads/Drainage",
    "request_reason": "Damaged Sidewalk",
    "date_created": "2023-08-04T15:26:45.000",
    "date_modified": "2023-08-04T15:26:45.000",
    "request_status": "Pending",
    "responsible_agency": "Department of Public Works",
    "final_address": "1679 Soniat St",
    "address_councildis": "B",
    "status": "Pending",
    "rowid": "1023594",
    "final_x": "3668527.72052",
    "final_y": "521647.111289",
    "longitude": "-90.10936524846231",
    "latitude": "29.928735926320133",
    "geocoded_column": {
      "latitude": "29.928735926320133",
      "longitude": "-90.10936524846231"
    }
  },
  {
    "service_request": "2023-1023593",
    "request_type": "Trash/Recycling",
    "request_reason": "MIssed Recycling Pick-Up",
    "date_created": "2023-08-04T15:15:54.000",
    "date_modified": "2023-08-04T15:15:54.000",
    "request_status": "Pending",
    "responsible_agency": "Department of Sanitation",
    "final_address": "1931 S Lopez St",
    "address_councildis": "B",
    "status": "Assigned to Contractor",
    "contractor": "Richards Disposal",
    "rowid": "1023593",
    "final_x": "3669436.40673",
    "final_y": "529887.898561",
    "longitude": "-90.10621810849909",
    "latitude": "29.95136870593949",
    "geocoded_column": {
      "latitude": "29.95136870593949",
      "longitude": "-90.10621810849909"
    }
  },
  {
    "service_request": "2023-1023592",
    "request_type": "Trash/Recycling",
    "request_reason": "Repair Trash Cart",
    "date_created": "2023-08-04T15:15:51.000",
    "date_modified": "2023-08-04T15:15:51.000",
    "request_status": "Pending",
    "responsible_agency": "Department of Sanitation",
    "final_address": "6819 Vicksburg St",
    "address_councildis": "A",
    "status": "Assigned to Contractor",
    "contractor": "IV Waste",
    "rowid": "1023592",
    "final_x": "3669465.22516",
    "final_y": "552791.144726",
    "longitude": "-90.1053520995708",
    "latitude": "30.014343994932517",
    "geocoded_column": {
      "latitude": "30.014343994932517",
      "longitude": "-90.1053520995708"
    }
  },
  {
    "service_request": "2023-1023591",
    "request_type": "Trash/Recycling",
    "request_reason": "Missed Trash Pick-Up",
    "date_created": "2023-08-04T15:15:36.000",
    "date_modified": "2023-08-04T15:15:37.000",
    "request_status": "Pending",
    "responsible_agency": "Department of Sanitation",
    "final_address": "1716 Cambronne St",
    "address_councildis": "A",
    "status": "Assigned to Contractor",
    "contractor": "Richards Disposal",
    "rowid": "1023591",
    "final_x": "3662424.83821",
    "final_y": "530543.421378",
    "longitude": "-90.12833554476613",
    "latitude": "29.95337578969376",
    "geocoded_column": {
      "latitude": "29.95337578969376",
      "longitude": "-90.12833554476613"
    }
  },
  {
    "service_request": "2023-1023590",
    "request_type": "Trash/Recycling",
    "request_reason": "Start Trash Service",
    "date_created": "2023-08-04T15:13:54.000",
    "date_modified": "2023-08-04T15:13:55.000",
    "request_status": "Pending",
    "responsible_agency": "Department of Sanitation",
    "final_address": "515 S Gayoso St",
    "address_councildis": "B",
    "status": "Assigned to Contractor",
    "contractor": "Richards Disposal",
    "rowid": "1023590",
    "final_x": "3673236.74612",
    "final_y": "534486.447045",
    "longitude": "-90.09406144087302",
    "latitude": "29.963900726954748",
    "geocoded_column": {
      "latitude": "29.963900726954748",
      "longitude": "-90.09406144087302"
    }
  },
  {
    "service_request": "2023-1023589",
    "request_type": "Property Maintenance",
    "request_reason": "Property Maintenance",
    "date_created": "2023-08-04T15:12:13.000",
    "date_modified": "2023-08-04T15:12:14.000",
    "request_status": "Pending",
    "responsible_agency": "Department of Code Enforcement",
    "final_address": "2861 Bristol Pl",
    "address_councildis": "C",
    "status": "Pending",
    "rowid": "1023589",
    "final_x": "3702681.0826",
    "final_y": "520368.55564",
    "longitude": "-90.00159782042311",
    "latitude": "29.924173023053534",
    "geocoded_column": {
      "latitude": "29.924173023053534",
      "longitude": "-90.00159782042311"
    }
  },
  {
    "service_request": "2023-1023588",
    "request_type": "Trash/Recycling",
    "request_reason": "Request a Large Item Pick Up",
    "date_created": "2023-08-04T15:10:16.000",
    "date_modified": "2023-08-04T15:10:16.000",
    "request_status": "Pending",
    "responsible_agency": "Department of Sanitation",
    "final_address": "5809 Brighton Pl",
    "address_councildis": "C",
    "status": "Assigned to Contractor",
    "contractor": "Richards Disposal",
    "rowid": "1023588",
    "final_x": "3705000.62942",
    "final_y": "520090.935736",
    "longitude": "-89.99428612503999",
    "latitude": "29.92333533391019",
    "geocoded_column": {
      "latitude": "29.92333533391019",
      "longitude": "-89.99428612503999"
    }
  },
  {
    "service_request": "2023-1023587",
    "request_type": "Trash/Recycling",
    "request_reason": "Request a Large Item Pick Up",
    "date_created": "2023-08-04T15:09:23.000",
    "date_modified": "2023-08-04T15:09:24.000",
    "request_status": "Pending",
    "responsible_agency": "Department of Sanitation",
    "final_address": "4261 Trieste St",
    "address_councildis": "E",
    "status": "Assigned to Contractor",
    "contractor": "Waste Pro",
    "rowid": "1023587",
    "final_x": "3760154.47049",
    "final_y": "573079.150057",
    "longitude": "-89.81797891540721",
    "latitude": "30.06714279680244",
    "geocoded_column": {
      "latitude": "30.06714279680244",
      "longitude": "-89.81797891540721"
    }
  },
  {
    "service_request": "2023-1023586",
    "request_type": "Trash/Recycling",
    "request_reason": "Missed Trash Pick-Up",
    "date_created": "2023-08-04T15:07:32.000",
    "date_modified": "2023-08-04T15:07:32.000",
    "request_status": "Pending",
    "responsible_agency": "Department of Sanitation",
    "final_address": "6200 BLK Curran Rd",
    "address_councildis": "E",
    "status": "Assigned to Contractor",
    "contractor": "Waste Pro",
    "rowid": "1023586",
    "final_x": "3696101.13663",
    "final_y": "559145.191537",
    "longitude": "-90.02096635847008",
    "latitude": "30.031003426833223",
    "geocoded_column": {
      "latitude": "30.031003426833223",
      "longitude": "-90.02096635847008"
    }
  },
  {
    "service_request": "2023-1023585",
    "request_type": "Trash/Recycling",
    "request_reason": "Request a Large Item Pick Up",
    "date_created": "2023-08-04T15:04:21.000",
    "date_modified": "2023-08-04T15:04:22.000",
    "request_status": "Pending",
    "responsible_agency": "Department of Sanitation",
    "final_address": "18 Forest Oaks Dr",
    "address_councildis": "C",
    "status": "Assigned to Contractor",
    "contractor": "Richards Disposal",
    "rowid": "1023585",
    "final_x": "3722118.50079",
    "final_y": "510377.611183",
    "longitude": "-89.94062486966037",
    "latitude": "29.896066022182907",
    "geocoded_column": {
      "latitude": "29.896066022182907",
      "longitude": "-89.94062486966037"
    }
  },
  {
    "service_request": "2023-1023584",
    "request_type": "Trash/Recycling",
    "request_reason": "Replace Trash Cart",
    "date_created": "2023-08-04T15:02:06.000",
    "date_modified": "2023-08-04T15:37:15.000",
    "request_status": "Pending",
    "responsible_agency": "Department of Sanitation",
    "final_address": "4325 Woodland Dr",
    "address_councildis": "C",
    "status": "Assigned to Contractor",
    "contractor": "Richards Disposal",
    "rowid": "1023584",
    "final_x": "3705283.00747",
    "final_y": "514445.348275",
    "longitude": "-89.99360313587252",
    "latitude": "29.907802839054682",
    "geocoded_column": {
      "latitude": "29.907802839054682",
      "longitude": "-89.99360313587252"
    }
  },
  {
    "service_request": "2023-1023583",
    "request_type": "Property Maintenance",
    "request_reason": "Property Maintenance",
    "date_created": "2023-08-04T15:01:45.000",
    "date_modified": "2023-08-04T15:01:45.000",
    "request_status": "Pending",
    "responsible_agency": "Department of Code Enforcement",
    "final_address": "641 Gordon St",
    "address_councildis": "E",
    "status": "Pending",
    "rowid": "1023583",
    "final_x": "3698610.748",
    "final_y": "531958.523139",
    "longitude": "-90.01402512070268",
    "latitude": "29.956170851146332",
    "geocoded_column": {
      "latitude": "29.956170851146332",
      "longitude": "-90.01402512070268"
    }
  },
  {
    "service_request": "2023-1023582",
    "request_type": "Abandoned Vehicles",
    "request_reason": "Abandoned/Junk Vehicles",
    "date_created": "2023-08-04T14:53:46.000",
    "date_modified": "2023-08-04T14:53:46.000",
    "request_status": "Pending",
    "responsible_agency": "Department of Public Works",
    "final_address": "5610 Catina St",
    "address_councildis": "A",
    "status": "Pending",
    "rowid": "1023582",
    "final_x": "3666572.55469",
    "final_y": "544848.558159",
    "longitude": "-90.11475841126945",
    "latitude": "29.99258955423571",
    "geocoded_column": {
      "latitude": "29.99258955423571",
      "longitude": "-90.11475841126945"
    }
  },
  {
    "service_request": "2023-1023581",
    "request_type": "Property Maintenance",
    "request_reason": "Property Maintenance",
    "date_created": "2023-08-04T14:52:04.000",
    "date_modified": "2023-08-04T14:52:04.000",
    "request_status": "Pending",
    "responsible_agency": "Department of Code Enforcement",
    "final_address": "641 Gordon St",
    "address_councildis": "E",
    "status": "Pending",
    "rowid": "1023581",
    "final_x": "3698610.748",
    "final_y": "531958.523139",
    "longitude": "-90.01402512070268",
    "latitude": "29.956170851146332",
    "geocoded_column": {
      "latitude": "29.956170851146332",
      "longitude": "-90.01402512070268"
    }
  },
  {
    "service_request": "2023-1023580",
    "request_type": "Trash/Recycling",
    "request_reason": "Missed Trash Pick-Up",
    "date_created": "2023-08-04T14:46:15.000",
    "date_modified": "2023-08-04T15:25:20.000",
    "case_close_date": "2023-08-04T10:25:20.000",
    "request_status": "Closed",
    "responsible_agency": "Department of Sanitation",
    "final_address": "3130 Frenchmen St",
    "address_councildis": "D",
    "status": "Invalid Request",
    "contractor": "IV Waste",
    "contractor_action": "Invalid Pick-Up",
    "rowid": "1023580",
    "final_x": "3683905.98351",
    "final_y": "544274.637391",
    "longitude": "-90.06002555508134",
    "latitude": "29.990493226731267",
    "geocoded_column": {
      "latitude": "29.990493226731267",
      "longitude": "-90.06002555508134"
    }
  },
  {
    "service_request": "2023-1023579",
    "request_type": "Trash/Recycling",
    "request_reason": "MIssed Recycling Pick-Up",
    "date_created": "2023-08-04T14:42:02.000",
    "date_modified": "2023-08-04T14:42:02.000",
    "request_status": "Pending",
    "responsible_agency": "Department of Sanitation",
    "final_address": "7100 Westhaven Rd",
    "address_councildis": "E",
    "status": "Assigned to Contractor",
    "contractor": "Waste Pro",
    "rowid": "1023579",
    "final_x": "3703865.0202",
    "final_y": "559560.121885",
    "longitude": "-89.99641713717119",
    "latitude": "30.031897535372334",
    "geocoded_column": {
      "latitude": "30.031897535372334",
      "longitude": "-89.99641713717119"
    }
  },
  {
    "service_request": "2023-1023578",
    "request_type": "Abandoned Vehicles",
    "request_reason": "Abandoned/Junk Vehicles",
    "date_created": "2023-08-04T14:40:30.000",
    "date_modified": "2023-08-04T14:43:11.000",
    "request_status": "Pending",
    "responsible_agency": "Department of Public Works",
    "final_address": "9808 Morrison Rd",
    "address_councildis": "E",
    "status": "Pending",
    "rowid": "1023578",
    "final_x": "3707738.82072",
    "final_y": "562828.36912",
    "longitude": "-89.98405419312118",
    "latitude": "30.04075907679018",
    "geocoded_column": {
      "latitude": "30.04075907679018",
      "longitude": "-89.98405419312118"
    }
  },
  {
    "service_request": "2023-1023577",
    "request_type": "Property Maintenance",
    "request_reason": "Property Maintenance",
    "date_created": "2023-08-04T14:39:22.000",
    "date_modified": "2023-08-04T14:40:26.000",
    "request_status": "Pending",
    "responsible_agency": "Department of Code Enforcement",
    "final_address": "2120 Willow St",
    "address_councildis": "B",
    "status": "Pending",
    "rowid": "1023577",
    "final_x": "3674984.42267",
    "final_y": "527413.237119",
    "longitude": "-90.08878504280149",
    "latitude": "29.944399666870765",
    "geocoded_column": {
      "latitude": "29.944399666870765",
      "longitude": "-90.08878504280149"
    }
  },
  {
    "service_request": "2023-1023576",
    "request_type": "Trash/Recycling",
    "request_reason": "Order Recycling Cart",
    "date_created": "2023-08-04T14:37:38.000",
    "date_modified": "2023-08-04T14:37:38.000",
    "request_status": "Pending",
    "responsible_agency": "Department of Sanitation",
    "final_address": "3225 Gravier St",
    "address_councildis": "B",
    "status": "Pending",
    "rowid": "1023576",
    "final_x": "3672161.36155",
    "final_y": "534375.476997",
    "longitude": "-90.09746119097116",
    "latitude": "29.963627533146266",
    "geocoded_column": {
      "latitude": "29.963627533146266",
      "longitude": "-90.09746119097116"
    }
  },
  {
    "service_request": "2023-1023575",
    "request_type": "Trash/Recycling",
    "request_reason": "Missed Trash Pick-Up",
    "date_created": "2023-08-04T14:36:33.000",
    "date_modified": "2023-08-04T14:36:34.000",
    "request_status": "Pending",
    "responsible_agency": "Department of Sanitation",
    "final_address": "1111 St Mary St",
    "address_councildis": "B",
    "status": "Assigned to Contractor",
    "contractor": "Richards Disposal",
    "rowid": "1023575",
    "final_x": "3679703.20667",
    "final_y": "522910.163643",
    "longitude": "-90.0740427325072",
    "latitude": "29.931875933766015",
    "geocoded_column": {
      "latitude": "29.931875933766015",
      "longitude": "-90.0740427325072"
    }
  },
  {
    "service_request": "2023-1023574",
    "request_type": "Trash/Recycling",
    "request_reason": "Return Trash Cart",
    "date_created": "2023-08-04T14:32:54.000",
    "date_modified": "2023-08-04T14:32:54.000",
    "request_status": "Pending",
    "responsible_agency": "Department of Sanitation",
    "final_address": "822 St Roch Ave",
    "address_councildis": "C",
    "status": "Assigned to Contractor",
    "contractor": "IV Waste",
    "rowid": "1023574",
    "final_x": "3686526.50383",
    "final_y": "535539.89351",
    "longitude": "-90.05205653113187",
    "latitude": "29.96639542763774",
    "geocoded_column": {
      "latitude": "29.96639542763774",
      "longitude": "-90.05205653113187"
    }
  },
  {
    "service_request": "2023-1023573",
    "request_type": "Abandoned Vehicles",
    "request_reason": "Abandoned/Junk Vehicles",
    "date_created": "2023-08-04T14:32:01.000",
    "date_modified": "2023-08-04T14:32:01.000",
    "request_status": "Pending",
    "responsible_agency": "Department of Public Works",
    "final_address": "2125 Willow St",
    "address_councildis": "B",
    "status": "Pending",
    "rowid": "1023573",
    "final_x": "3674942.16021",
    "final_y": "527464.162879",
    "longitude": "-90.08891673156769",
    "latitude": "29.944540958048737",
    "geocoded_column": {
      "latitude": "29.944540958048737",
      "longitude": "-90.08891673156769"
    }
  },
  {
    "service_request": "2023-1023572",
    "request_type": "Trash/Recycling",
    "request_reason": "Order Trash Cart",
    "date_created": "2023-08-04T14:31:25.000",
    "date_modified": "2023-08-04T14:31:26.000",
    "request_status": "Pending",
    "responsible_agency": "Department of Sanitation",
    "final_address": "822 St Roch Ave",
    "address_councildis": "C",
    "status": "Assigned to Contractor",
    "contractor": "IV Waste",
    "rowid": "1023572",
    "final_x": "3686526.50383",
    "final_y": "535539.89351",
    "longitude": "-90.05205653113187",
    "latitude": "29.96639542763774",
    "geocoded_column": {
      "latitude": "29.96639542763774",
      "longitude": "-90.05205653113187"
    }
  },
  {
    "service_request": "2023-1023571",
    "request_type": "Trash/Recycling",
    "request_reason": "Order Trash Cart",
    "date_created": "2023-08-04T14:31:16.000",
    "date_modified": "2023-08-04T14:31:16.000",
    "request_status": "Pending",
    "responsible_agency": "Department of Sanitation",
    "final_address": "8040 Lacombe St Apt D",
    "address_councildis": "E",
    "status": "Assigned to Contractor",
    "contractor": "Waste Pro",
    "rowid": "1023571",
    "final_x": "3708845.27672",
    "final_y": "566429.101219",
    "longitude": "-89.98042308911319",
    "latitude": "30.050623775722855",
    "geocoded_column": {
      "latitude": "30.050623775722855",
      "longitude": "-89.98042308911319"
    }
  },
  {
    "service_request": "2023-1023570",
    "request_type": "Trash/Recycling",
    "request_reason": "Missed Trash Pick-Up",
    "date_created": "2023-08-04T14:30:39.000",
    "date_modified": "2023-08-04T14:30:40.000",
    "request_status": "Pending",
    "responsible_agency": "Department of Sanitation",
    "final_address": "822 St Roch Ave",
    "address_councildis": "C",
    "status": "Assigned to Contractor",
    "contractor": "IV Waste",
    "rowid": "1023570",
    "final_x": "3686526.50383",
    "final_y": "535539.89351",
    "longitude": "-90.05205653113187",
    "latitude": "29.96639542763774",
    "geocoded_column": {
      "latitude": "29.96639542763774",
      "longitude": "-90.05205653113187"
    }
  },
  {
    "service_request": "2023-1023569",
    "request_type": "Trash/Recycling",
    "request_reason": "Request a Large Item Pick Up",
    "date_created": "2023-08-04T14:29:39.000",
    "date_modified": "2023-08-04T14:34:10.000",
    "request_status": "Pending",
    "responsible_agency": "Department of Sanitation",
    "final_address": "2224 4th St, New Orleans, Louisiana, 70113",
    "address_councildis": "B",
    "status": "Assigned to Contractor",
    "contractor": "Richards Disposal",
    "rowid": "1023569",
    "final_x": "3674859.4516",
    "final_y": "524648.370876",
    "longitude": "-90.08927439062609",
    "latitude": "29.9368009231832",
    "geocoded_column": {
      "latitude": "29.9368009231832",
      "longitude": "-90.08927439062609"
    }
  },
  {
    "service_request": "2023-1023568",
    "request_type": "Property Maintenance",
    "request_reason": "Property Maintenance",
    "date_created": "2023-08-04T14:29:06.000",
    "date_modified": "2023-08-04T14:29:06.000",
    "request_status": "Pending",
    "responsible_agency": "Department of Code Enforcement",
    "final_address": "4628 Mandeville St",
    "address_councildis": "D",
    "status": "Pending",
    "rowid": "1023568",
    "final_x": "3684662.84405",
    "final_y": "549777.289172",
    "longitude": "-90.05744128507811",
    "latitude": "30.00560039690952",
    "geocoded_column": {
      "latitude": "30.00560039690952",
      "longitude": "-90.05744128507811"
    }
  },
  {
    "service_request": "2023-1023567",
    "request_type": "Property Maintenance",
    "request_reason": "Property Maintenance",
    "date_created": "2023-08-04T14:27:09.000",
    "date_modified": "2023-08-04T14:34:21.000",
    "request_status": "Pending",
    "responsible_agency": "Department of Code Enforcement",
    "final_address": "1701 Old Prieur St",
    "address_councildis": "D",
    "status": "Pending",
    "rowid": "1023567",
    "final_x": "3681824.60706",
    "final_y": "539162.420042",
    "longitude": "-90.06677858707985",
    "latitude": "29.97649985337846",
    "geocoded_column": {
      "latitude": "29.97649985337846",
      "longitude": "-90.06677858707985"
    }
  },
  {
    "service_request": "2023-1023566",
    "request_type": "Trash/Recycling",
    "request_reason": "Request a Large Item Pick Up",
    "date_created": "2023-08-04T14:23:19.000",
    "date_modified": "2023-08-04T14:23:19.000",
    "request_status": "Pending",
    "responsible_agency": "Department of Sanitation",
    "final_address": "5000 Mexico St",
    "address_councildis": "D",
    "status": "Assigned to Contractor",
    "contractor": "IV Waste",
    "rowid": "1023566",
    "final_x": "3690940.74819",
    "final_y": "556509.45129",
    "longitude": "-90.03736748920235",
    "latitude": "30.02391763759887",
    "geocoded_column": {
      "latitude": "30.02391763759887",
      "longitude": "-90.03736748920235"
    }
  },
  {
    "service_request": "2023-1023565",
    "request_type": "Traffic Signals/Signs/Striping/Streetlights",
    "request_reason": "Street Light Outage/Malfunction",
    "date_created": "2023-08-04T14:14:13.000",
    "date_modified": "2023-08-04T14:14:13.000",
    "request_status": "Pending",
    "responsible_agency": "Department of Public Works",
    "final_address": "3949 Elysian Fields Ave",
    "address_councildis": "D",
    "status": "Assigned to Contractor",
    "contractor": "Legacy Professional Services",
    "rowid": "1023565",
    "final_x": "3684235.66498",
    "final_y": "547346.026769",
    "longitude": "-90.05887626886206",
    "latitude": "29.998928373232204",
    "geocoded_column": {
      "latitude": "29.998928373232204",
      "longitude": "-90.05887626886206"
    }
  },
  {
    "service_request": "2023-1023564",
    "request_type": "Safety & Permits",
    "request_reason": "Licenses & Permits",
    "date_created": "2023-08-04T14:11:20.000",
    "date_modified": "2023-08-04T14:11:20.000",
    "request_status": "Pending",
    "responsible_agency": "Safety and Permits",
    "status": "Pending",
    "rowid": "1023564",
    "longitude": "0.0",
    "latitude": "0.0",
    "geocoded_column": {
      "latitude": "0.0",
      "longitude": "0.0"
    }
  },
  {
    "service_request": "2023-1023563",
    "request_type": "Roads/Drainage",
    "request_reason": "Damaged Sidewalk",
    "date_created": "2023-08-04T14:09:18.000",
    "date_modified": "2023-08-04T14:09:18.000",
    "request_status": "Pending",
    "responsible_agency": "Department of Public Works",
    "final_address": "619 Chartres St",
    "address_councildis": "C",
    "status": "Pending",
    "rowid": "1023563",
    "final_x": "3682641.30408",
    "final_y": "532132.636163",
    "longitude": "-90.06444507580007",
    "latitude": "29.957145521666323",
    "geocoded_column": {
      "latitude": "29.957145521666323",
      "longitude": "-90.06444507580007"
    }
  },
  {
    "service_request": "2023-1023562",
    "request_type": "Traffic Signals/Signs/Striping/Streetlights",
    "request_reason": "Street Light Outage/Malfunction",
    "date_created": "2023-08-04T14:08:52.000",
    "date_modified": "2023-08-04T14:08:53.000",
    "request_status": "Pending",
    "responsible_agency": "Department of Public Works",
    "final_address": "3540 Republic St",
    "address_councildis": "D",
    "status": "Assigned to Contractor",
    "contractor": "Legacy Professional Services",
    "rowid": "1023562",
    "final_x": "3680426.32936",
    "final_y": "545527.847056",
    "longitude": "-90.07097328919589",
    "latitude": "29.99404497402995",
    "geocoded_column": {
      "latitude": "29.99404497402995",
      "longitude": "-90.07097328919589"
    }
  },
  {
    "service_request": "2023-1023561",
    "request_type": "Property Maintenance",
    "request_reason": "Property Maintenance",
    "date_created": "2023-08-04T14:02:42.000",
    "date_modified": "2023-08-04T14:02:42.000",
    "request_status": "Pending",
    "responsible_agency": "Department of Code Enforcement",
    "final_address": "1500 Canal St",
    "address_councildis": "B",
    "status": "Pending",
    "rowid": "1023561",
    "final_x": "3679081.04053",
    "final_y": "532173.512067",
    "longitude": "-90.07568587566018",
    "latitude": "29.957365844181673",
    "geocoded_column": {
      "latitude": "29.957365844181673",
      "longitude": "-90.07568587566018"
    }
  },
  {
    "service_request": "2023-1023560",
    "request_type": "Trash/Recycling",
    "request_reason": "Replace Trash Cart",
    "date_created": "2023-08-04T13:59:37.000",
    "date_modified": "2023-08-04T14:00:09.000",
    "request_status": "Pending",
    "responsible_agency": "Department of Sanitation",
    "final_address": "1718 Laharpe St",
    "address_councildis": "D",
    "status": "Assigned to Contractor",
    "contractor": "IV Waste",
    "rowid": "1023560",
    "final_x": "3681524.11804",
    "final_y": "537760.911752",
    "longitude": "-90.06777651082382",
    "latitude": "29.972655320732894",
    "geocoded_column": {
      "latitude": "29.972655320732894",
      "longitude": "-90.06777651082382"
    }
  },
  {
    "service_request": "2023-1023559",
    "request_type": "Trash/Recycling",
    "request_reason": "Repair Trash Cart",
    "date_created": "2023-08-04T13:54:09.000",
    "date_modified": "2023-08-04T13:54:10.000",
    "request_status": "Pending",
    "responsible_agency": "Department of Sanitation",
    "final_address": "1516 Cambronne St",
    "address_councildis": "A",
    "status": "Assigned to Contractor",
    "contractor": "Richards Disposal",
    "rowid": "1023559",
    "final_x": "3661959.00877",
    "final_y": "530019.203137",
    "longitude": "-90.12982382833644",
    "latitude": "29.951947820187648",
    "geocoded_column": {
      "latitude": "29.951947820187648",
      "longitude": "-90.12982382833644"
    }
  },
  {
    "service_request": "2023-1023558",
    "request_type": "Mosquito, Termite & Rodent Control",
    "request_reason": "Rodent Complaint (Rats)",
    "date_created": "2023-08-04T13:50:50.000",
    "date_modified": "2023-08-04T13:50:50.000",
    "request_status": "Pending",
    "responsible_agency": "Mosquito, Termite & Rodent Control Board",
    "final_address": "4340 Sybil St",
    "address_councildis": "D",
    "status": "Pending",
    "rowid": "1023558",
    "final_x": "3679007.89474",
    "final_y": "548410.599378",
    "longitude": "-90.0753539519635",
    "latitude": "30.00201441397861",
    "geocoded_column": {
      "latitude": "30.00201441397861",
      "longitude": "-90.0753539519635"
    }
  },
  {
    "service_request": "2023-1023557",
    "request_type": "Abandoned Vehicles",
    "request_reason": "Abandoned/Junk Vehicles",
    "date_created": "2023-08-04T13:50:23.000",
    "date_modified": "2023-08-04T13:50:23.000",
    "request_status": "Pending",
    "responsible_agency": "Department of Public Works",
    "final_address": "STEMWAY DR & DREUX AVE",
    "address_councildis": "D",
    "status": "Pending",
    "rowid": "1023557",
    "final_x": "3696940.2",
    "final_y": "553893.48",
    "longitude": "-90.0185053372016",
    "latitude": "30.01653676708293",
    "geocoded_column": {
      "latitude": "30.01653676708293",
      "longitude": "-90.0185053372016"
    }
  },
  {
    "service_request": "2023-1023556",
    "request_type": "Roads/Drainage",
    "request_reason": "Street Subsidence (Sinking)",
    "date_created": "2023-08-04T13:50:12.000",
    "date_modified": "2023-08-04T13:52:08.000",
    "request_status": "Pending",
    "responsible_agency": "Department of Public Works",
    "final_address": "New Orleans, Louisiana",
    "address_councildis": "B",
    "status": "Pending",
    "rowid": "1023556",
    "final_x": "3668753.29319",
    "final_y": "529810.854145",
    "longitude": "-90.10837765325668",
    "latitude": "29.951176956964733",
    "geocoded_column": {
      "latitude": "29.951176956964733",
      "longitude": "-90.10837765325668"
    }
  },
  {
    "service_request": "2023-1023554",
    "request_type": "Traffic Signals/Signs/Striping/Streetlights",
    "request_reason": "Street Light Outage/Malfunction",
    "date_created": "2023-08-04T13:42:57.000",
    "date_modified": "2023-08-04T13:42:58.000",
    "request_status": "Pending",
    "responsible_agency": "Department of Public Works",
    "final_address": "6768 Canal Blvd",
    "address_councildis": "A",
    "status": "Assigned to Contractor",
    "contractor": "Legacy Professional Services",
    "rowid": "1023554",
    "final_x": "3668796.64628",
    "final_y": "552587.80975",
    "longitude": "-90.1074713561838",
    "latitude": "30.0138045798458",
    "geocoded_column": {
      "latitude": "30.0138045798458",
      "longitude": "-90.1074713561838"
    }
  },
  {
    "service_request": "2023-1023553",
    "request_type": "Traffic Signals/Signs/Striping/Streetlights",
    "request_reason": "Street Light Outage/Malfunction",
    "date_created": "2023-08-04T13:38:03.000",
    "date_modified": "2023-08-04T13:38:03.000",
    "request_status": "Pending",
    "responsible_agency": "Department of Public Works",
    "final_address": "4217 Rayne Dr",
    "address_councildis": "D",
    "status": "Assigned to Contractor",
    "contractor": "Legacy Professional Services",
    "rowid": "1023553",
    "final_x": "3679858.29205",
    "final_y": "547862.306962",
    "longitude": "-90.07268650837212",
    "latitude": "30.000481106387962",
    "geocoded_column": {
      "latitude": "30.000481106387962",
      "longitude": "-90.07268650837212"
    }
  },
  {
    "service_request": "2023-1023552",
    "request_type": "Roads/Drainage",
    "request_reason": "Man hole cover issue",
    "date_created": "2023-08-04T13:35:20.000",
    "date_modified": "2023-08-04T13:35:20.000",
    "request_status": "Pending",
    "responsible_agency": "Department of Public Works",
    "final_address": "3701 Indiana St",
    "address_councildis": "C",
    "status": "Pending",
    "rowid": "1023552",
    "final_x": "3693172.59139",
    "final_y": "519854.273016",
    "longitude": "-90.0316311046249",
    "latitude": "29.923059363581107",
    "geocoded_column": {
      "latitude": "29.923059363581107",
      "longitude": "-90.0316311046249"
    }
  },
  {
    "service_request": "2023-1023551",
    "request_type": "Roads/Drainage",
    "request_reason": "Street Subsidence (Sinking)",
    "date_created": "2023-08-04T13:27:24.000",
    "date_modified": "2023-08-04T13:27:24.000",
    "request_status": "Pending",
    "responsible_agency": "Department of Public Works",
    "final_address": "2463 Halsey Ave",
    "address_councildis": "C",
    "status": "Pending",
    "rowid": "1023551",
    "final_x": "3697616.96189",
    "final_y": "521885.974394",
    "longitude": "-90.01752837705412",
    "latitude": "29.928506271430855",
    "geocoded_column": {
      "latitude": "29.928506271430855",
      "longitude": "-90.01752837705412"
    }
  },
  {
    "service_request": "2023-1023550",
    "request_type": "Trash/Recycling",
    "request_reason": "Request a Large Item Pick Up",
    "date_created": "2023-08-04T13:26:25.000",
    "date_modified": "2023-08-04T13:26:25.000",
    "request_status": "Pending",
    "responsible_agency": "Department of Sanitation",
    "final_address": "4519 Banks St",
    "address_councildis": "A",
    "status": "Assigned to Contractor",
    "contractor": "Richards Disposal",
    "rowid": "1023550",
    "final_x": "3668853.01761",
    "final_y": "538618.232969",
    "longitude": "-90.10776532881624",
    "latitude": "29.975391395576526",
    "geocoded_column": {
      "latitude": "29.975391395576526",
      "longitude": "-90.10776532881624"
    }
  },
  {
    "service_request": "2023-1023549",
    "request_type": "Trash/Recycling",
    "request_reason": "Request a Large Item Pick Up",
    "date_created": "2023-08-04T13:23:35.000",
    "date_modified": "2023-08-04T13:23:35.000",
    "request_status": "Pending",
    "responsible_agency": "Department of Sanitation",
    "final_address": "6 Grand Teton Ct",
    "address_councildis": "C",
    "status": "Assigned to Contractor",
    "contractor": "Richards Disposal",
    "rowid": "1023549",
    "final_x": "3699160.89373",
    "final_y": "516518.533493",
    "longitude": "-90.01284980762651",
    "latitude": "29.913698801482454",
    "geocoded_column": {
      "latitude": "29.913698801482454",
      "longitude": "-90.01284980762651"
    }
  },
  {
    "service_request": "2023-1023548",
    "request_type": "Trash/Recycling",
    "request_reason": "Request a Large Item Pick Up",
    "date_created": "2023-08-04T13:22:45.000",
    "date_modified": "2023-08-04T13:22:45.000",
    "request_status": "Pending",
    "responsible_agency": "Department of Sanitation",
    "final_address": "411 Eliza St",
    "address_councildis": "C",
    "status": "Assigned to Contractor",
    "contractor": "Richards Disposal",
    "rowid": "1023548",
    "final_x": "3686749.0095",
    "final_y": "529697.821441",
    "longitude": "-90.05156024131114",
    "latitude": "29.95032489952229",
    "geocoded_column": {
      "latitude": "29.95032489952229",
      "longitude": "-90.05156024131114"
    }
  },
  {
    "service_request": "2023-1023547",
    "request_type": "Trash/Recycling",
    "request_reason": "Request a Large Item Pick Up",
    "date_created": "2023-08-04T13:22:09.000",
    "date_modified": "2023-08-04T13:22:10.000",
    "request_status": "Pending",
    "responsible_agency": "Department of Sanitation",
    "final_address": "411 Eliza St",
    "address_councildis": "C",
    "status": "Assigned to Contractor",
    "contractor": "Richards Disposal",
    "rowid": "1023547",
    "final_x": "3686749.0095",
    "final_y": "529697.821441",
    "longitude": "-90.05156024131114",
    "latitude": "29.95032489952229",
    "geocoded_column": {
      "latitude": "29.95032489952229",
      "longitude": "-90.05156024131114"
    }
  },
  {
    "service_request": "2023-1023545",
    "request_type": "Trash/Recycling",
    "request_reason": "Repair Trash Cart",
    "date_created": "2023-08-04T13:21:18.000",
    "date_modified": "2023-08-04T13:21:19.000",
    "request_status": "Pending",
    "responsible_agency": "Department of Sanitation",
    "final_address": "1826 Terpsichore St",
    "address_councildis": "B",
    "status": "Assigned to Contractor",
    "contractor": "Richards Disposal",
    "rowid": "1023545",
    "final_x": "3678043.49378",
    "final_y": "525866.662781",
    "longitude": "-90.07918011379928",
    "latitude": "29.94005538485159",
    "geocoded_column": {
      "latitude": "29.94005538485159",
      "longitude": "-90.07918011379928"
    }
  },
  {
    "service_request": "2023-1023544",
    "request_type": "Trash/Recycling",
    "request_reason": "Illegal Dumping",
    "date_created": "2023-08-04T13:17:36.000",
    "date_modified": "2023-08-04T13:17:36.000",
    "request_status": "Pending",
    "responsible_agency": "Department of Sanitation",
    "final_address": "7700 Lucerne St",
    "address_councildis": "E",
    "status": "Pending",
    "rowid": "1023544",
    "final_x": "3710499.07518",
    "final_y": "566249.638563",
    "longitude": "-89.97520278104568",
    "latitude": "30.050076531565757",
    "geocoded_column": {
      "latitude": "30.050076531565757",
      "longitude": "-89.97520278104568"
    }
  },
  {
    "service_request": "2023-1023543",
    "request_type": "Parks & Parkways",
    "request_reason": "Request Tree Service (Right of Way/Public Property)",
    "date_created": "2023-08-04T13:17:24.000",
    "date_modified": "2023-08-04T13:17:24.000",
    "request_status": "Pending",
    "responsible_agency": "Department of Parks & Parkway",
    "final_address": "7200 Briarheath Dr",
    "address_councildis": "E",
    "status": "Pending",
    "rowid": "1023543",
    "final_x": "3714498.5004",
    "final_y": "566007.541923",
    "longitude": "-89.96257135105316",
    "latitude": "30.049279915271477",
    "geocoded_column": {
      "latitude": "30.049279915271477",
      "longitude": "-89.96257135105316"
    }
  },
  {
    "service_request": "2023-1023542",
    "request_type": "Trash/Recycling",
    "request_reason": "Request a Large Item Pick Up",
    "date_created": "2023-08-04T13:10:25.000",
    "date_modified": "2023-08-04T13:10:25.000",
    "request_status": "Pending",
    "responsible_agency": "Department of Sanitation",
    "final_address": "8003 Arcadia Ln",
    "address_councildis": "E",
    "status": "Assigned to Contractor",
    "contractor": "Waste Pro",
    "rowid": "1023542",
    "final_x": "3711736.31115",
    "final_y": "568087.639525",
    "longitude": "-89.97122331255927",
    "latitude": "30.05508990695767",
    "geocoded_column": {
      "latitude": "30.05508990695767",
      "longitude": "-89.97122331255927"
    }
  },
  {
    "service_request": "2023-1023541",
    "request_type": "Trash/Recycling",
    "request_reason": "Replace Trash Cart",
    "date_created": "2023-08-04T13:08:32.000",
    "date_modified": "2023-08-04T13:08:32.000",
    "request_status": "Pending",
    "responsible_agency": "Department of Sanitation",
    "final_address": "1616 S Rampart St",
    "address_councildis": "B",
    "status": "Assigned to Contractor",
    "contractor": "Richards Disposal",
    "rowid": "1023541",
    "final_x": "3677547.01922",
    "final_y": "526022.55731",
    "longitude": "-90.08074217958718",
    "latitude": "29.940498975847117",
    "geocoded_column": {
      "latitude": "29.940498975847117",
      "longitude": "-90.08074217958718"
    }
  },
  {
    "service_request": "2023-1023540",
    "request_type": "Trash/Recycling",
    "request_reason": "Request a Large Item Pick Up",
    "date_created": "2023-08-04T13:03:44.000",
    "date_modified": "2023-08-04T13:03:45.000",
    "request_status": "Pending",
    "responsible_agency": "Department of Sanitation",
    "final_address": "1921 Cadiz St",
    "address_councildis": "B",
    "status": "Assigned to Contractor",
    "contractor": "Richards Disposal",
    "rowid": "1023540",
    "final_x": "3670020.86228",
    "final_y": "522064.045434",
    "longitude": "-90.10463758195792",
    "latitude": "29.929838421475647",
    "geocoded_column": {
      "latitude": "29.929838421475647",
      "longitude": "-90.10463758195792"
    }
  },
  {
    "service_request": "2023-1023539",
    "request_type": "Roads/Drainage",
    "request_reason": "Pothole",
    "date_created": "2023-08-04T13:01:27.000",
    "date_modified": "2023-08-04T13:01:27.000",
    "request_status": "Pending",
    "responsible_agency": "Department of Public Works",
    "final_address": "Fontainebleau Drive & Nashville Avenue",
    "address_councildis": "B",
    "status": "Pending",
    "rowid": "1023539",
    "final_x": "3668548.3282",
    "final_y": "529807.348801",
    "longitude": "-90.10902495120013",
    "latitude": "29.951173341808882",
    "geocoded_column": {
      "latitude": "29.951173341808882",
      "longitude": "-90.10902495120013"
    }
  },
  {
    "service_request": "2023-1023538",
    "request_type": "Trash/Recycling",
    "request_reason": "Return Recycling Cart",
    "date_created": "2023-08-04T12:59:46.000",
    "date_modified": "2023-08-04T12:59:46.000",
    "request_status": "Pending",
    "responsible_agency": "Department of Sanitation",
    "final_address": "1106 Cambronne St",
    "address_councildis": "A",
    "status": "Pending",
    "rowid": "1023538",
    "final_x": "3660947.77626",
    "final_y": "528920.654784",
    "longitude": "-90.13305317522425",
    "latitude": "29.94895633043406",
    "geocoded_column": {
      "latitude": "29.94895633043406",
      "longitude": "-90.13305317522425"
    }
  },
  {
    "service_request": "2023-1023537",
    "request_type": "Trash/Recycling",
    "request_reason": "Replace Trash Cart",
    "date_created": "2023-08-04T12:57:57.000",
    "date_modified": "2023-08-04T12:57:58.000",
    "request_status": "Pending",
    "responsible_agency": "Department of Sanitation",
    "final_address": "3127 Magazine St",
    "address_councildis": "B",
    "status": "Assigned to Contractor",
    "contractor": "Richards Disposal",
    "rowid": "1023537",
    "final_x": "3675894.16654",
    "final_y": "520108.71948",
    "longitude": "-90.0861637351326",
    "latitude": "29.92428742721969",
    "geocoded_column": {
      "latitude": "29.92428742721969",
      "longitude": "-90.0861637351326"
    }
  },
  {
    "service_request": "2023-1023536",
    "request_type": "Trash/Recycling",
    "request_reason": "Request a Large Item Pick Up",
    "date_created": "2023-08-04T12:57:50.000",
    "date_modified": "2023-08-04T12:57:50.000",
    "request_status": "Pending",
    "responsible_agency": "Department of Sanitation",
    "final_address": "1106 Cambronne St",
    "address_councildis": "A",
    "status": "Assigned to Contractor",
    "contractor": "Richards Disposal",
    "rowid": "1023536",
    "final_x": "3660947.77626",
    "final_y": "528920.654784",
    "longitude": "-90.13305317522425",
    "latitude": "29.94895633043406",
    "geocoded_column": {
      "latitude": "29.94895633043406",
      "longitude": "-90.13305317522425"
    }
  },
  {
    "service_request": "2023-1023535",
    "request_type": "Trash/Recycling",
    "request_reason": "Order Trash Cart",
    "date_created": "2023-08-04T12:57:15.000",
    "date_modified": "2023-08-04T12:57:15.000",
    "request_status": "Pending",
    "responsible_agency": "Department of Sanitation",
    "final_address": "2227 Governor Nicholls St",
    "address_councildis": "D",
    "status": "Assigned to Contractor",
    "contractor": "Richards Disposal",
    "rowid": "1023535",
    "final_x": "3679309.30037",
    "final_y": "537323.299592",
    "longitude": "-90.07478649001432",
    "latitude": "29.97151911446018",
    "geocoded_column": {
      "latitude": "29.97151911446018",
      "longitude": "-90.07478649001432"
    }
  },
  {
    "service_request": "2023-1023534",
    "request_type": "Trash/Recycling",
    "request_reason": "Return Trash Cart",
    "date_created": "2023-08-04T12:55:05.000",
    "date_modified": "2023-08-04T12:55:05.000",
    "request_status": "Pending",
    "responsible_agency": "Department of Sanitation",
    "final_address": "726 Foucher St",
    "address_councildis": "B",
    "status": "Assigned to Contractor",
    "contractor": "Richards Disposal",
    "rowid": "1023534",
    "final_x": "3674538.61678",
    "final_y": "518080.785846",
    "longitude": "-90.0905121739261",
    "latitude": "29.91875176002675",
    "geocoded_column": {
      "latitude": "29.91875176002675",
      "longitude": "-90.0905121739261"
    }
  },
  {
    "service_request": "2023-1023533",
    "request_type": "Trash/Recycling",
    "request_reason": "Missed Trash Pick-Up",
    "date_created": "2023-08-04T12:54:40.000",
    "date_modified": "2023-08-04T15:00:13.000",
    "case_close_date": "2023-08-04T10:00:13.000",
    "request_status": "Closed",
    "responsible_agency": "Department of Sanitation",
    "final_address": "1418 Congress St",
    "address_councildis": "C",
    "status": "Invalid Request",
    "contractor": "IV Waste",
    "contractor_action": "Invalid Pick-Up",
    "rowid": "1023533",
    "final_x": "3691006.48867",
    "final_y": "536890.70004",
    "longitude": "-90.03786062948728",
    "latitude": "29.96997116526276",
    "geocoded_column": {
      "latitude": "29.96997116526276",
      "longitude": "-90.03786062948728"
    }
  },
  {
    "service_request": "2023-1023532",
    "request_type": "Trash/Recycling",
    "request_reason": "Request a Large Item Pick Up",
    "date_created": "2023-08-04T12:43:31.000",
    "date_modified": "2023-08-04T12:43:32.000",
    "request_status": "Pending",
    "responsible_agency": "Department of Sanitation",
    "final_address": "5937 Annunciation St",
    "address_councildis": "A",
    "status": "Assigned to Contractor",
    "contractor": "Richards Disposal",
    "rowid": "1023532",
    "final_x": "3664643.13978",
    "final_y": "517874.226422",
    "longitude": "-90.12175405602147",
    "latitude": "29.918475200536463",
    "geocoded_column": {
      "latitude": "29.918475200536463",
      "longitude": "-90.12175405602147"
    }
  },
  {
    "service_request": "2023-1023531",
    "request_type": "Trash/Recycling",
    "request_reason": "Request a Large Item Pick Up",
    "date_created": "2023-08-04T12:38:19.000",
    "date_modified": "2023-08-04T12:38:20.000",
    "request_status": "Pending",
    "responsible_agency": "Department of Sanitation",
    "final_address": "4739 Tulip St",
    "address_councildis": "E",
    "status": "Assigned to Contractor",
    "contractor": "Waste Pro",
    "rowid": "1023531",
    "final_x": "3702128.93117",
    "final_y": "554301.857304",
    "longitude": "-90.00209629134199",
    "latitude": "30.017494916041304",
    "geocoded_column": {
      "latitude": "30.017494916041304",
      "longitude": "-90.00209629134199"
    }
  },
  {
    "service_request": "2023-1023530",
    "request_type": "Trash/Recycling",
    "request_reason": "Request a Large Item Pick Up",
    "date_created": "2023-08-04T12:38:06.000",
    "date_modified": "2023-08-04T12:38:07.000",
    "request_status": "Pending",
    "responsible_agency": "Department of Sanitation",
    "final_address": "411 Eliza St, New Orleans, Louisiana, 70114",
    "address_councildis": "C",
    "status": "Assigned to Contractor",
    "contractor": "Richards Disposal",
    "rowid": "1023530",
    "final_x": "3689971.8943",
    "final_y": "529772.633921",
    "longitude": "-90.0413814291232",
    "latitude": "29.95043108320431",
    "geocoded_column": {
      "latitude": "29.95043108320431",
      "longitude": "-90.0413814291232"
    }
  },
  {
    "service_request": "2023-1023529",
    "request_type": "Trash/Recycling",
    "request_reason": "Missed Trash Pick-Up",
    "date_created": "2023-08-04T12:34:12.000",
    "date_modified": "2023-08-04T12:34:13.000",
    "request_status": "Pending",
    "responsible_agency": "Department of Sanitation",
    "final_address": "1601 Gordon St",
    "address_councildis": "E",
    "status": "Assigned to Contractor",
    "contractor": "Waste Pro",
    "rowid": "1023529",
    "final_x": "3699998.74519",
    "final_y": "535233.792454",
    "longitude": "-90.0095228391163",
    "latitude": "29.96513265687621",
    "geocoded_column": {
      "latitude": "29.96513265687621",
      "longitude": "-90.0095228391163"
    }
  },
  {
    "service_request": "2023-1023528",
    "request_type": "Trash/Recycling",
    "request_reason": "Order Trash Cart",
    "date_created": "2023-08-04T12:34:06.000",
    "date_modified": "2023-08-04T12:34:10.000",
    "request_status": "Pending",
    "responsible_agency": "Department of Sanitation",
    "final_address": "6100 St Roch Ave",
    "address_councildis": "D",
    "status": "Assigned to Contractor",
    "contractor": "IV Waste",
    "rowid": "1023528",
    "final_x": "3684869.62165",
    "final_y": "555485.985817",
    "longitude": "-90.05658707447164",
    "latitude": "30.02129089331891",
    "geocoded_column": {
      "latitude": "30.02129089331891",
      "longitude": "-90.05658707447164"
    }
  },
  {
    "service_request": "2023-1023527",
    "request_type": "Trash/Recycling",
    "request_reason": "Repair Trash Cart",
    "date_created": "2023-08-04T12:31:59.000",
    "date_modified": "2023-08-04T12:32:00.000",
    "request_status": "Pending",
    "responsible_agency": "Department of Sanitation",
    "final_address": "1517 Henry Clay Ave",
    "address_councildis": "A",
    "status": "Assigned to Contractor",
    "contractor": "Richards Disposal",
    "rowid": "1023527",
    "final_x": "3664901.99002",
    "final_y": "522215.20505",
    "longitude": "-90.12079200176086",
    "latitude": "29.930404000275477",
    "geocoded_column": {
      "latitude": "29.930404000275477",
      "longitude": "-90.12079200176086"
    }
  },
  {
    "service_request": "2023-1023526",
    "request_type": "Trash/Recycling",
    "request_reason": "Order Recycling Cart",
    "date_created": "2023-08-04T12:31:33.000",
    "date_modified": "2023-08-04T12:31:33.000",
    "request_status": "Pending",
    "responsible_agency": "Department of Sanitation",
    "final_address": "2222 Palmer Ave",
    "address_councildis": "A",
    "status": "Pending",
    "rowid": "1023526",
    "final_x": "3666084.89805",
    "final_y": "525142.766461",
    "longitude": "-90.11695962088639",
    "latitude": "29.938419389088264",
    "geocoded_column": {
      "latitude": "29.938419389088264",
      "longitude": "-90.11695962088639"
    }
  },
  {
    "service_request": "2023-1023525",
    "request_type": "Trash/Recycling",
    "request_reason": "Repair Recycling Cart",
    "date_created": "2023-08-04T12:31:23.000",
    "date_modified": "2023-08-04T12:31:23.000",
    "request_status": "Pending",
    "responsible_agency": "Department of Sanitation",
    "final_address": "6323 Annunciation St",
    "address_councildis": "A",
    "status": "Pending",
    "rowid": "1023525",
    "final_x": "3662738.38407",
    "final_y": "518538.873271",
    "longitude": "-90.1277443142671",
    "latitude": "29.92035801511943",
    "geocoded_column": {
      "latitude": "29.92035801511943",
      "longitude": "-90.1277443142671"
    }
  },
  {
    "service_request": "2023-1023524",
    "request_type": "Trash/Recycling",
    "request_reason": "Order Recycling Cart",
    "date_created": "2023-08-04T12:30:00.000",
    "date_modified": "2023-08-04T12:30:00.000",
    "request_status": "Pending",
    "responsible_agency": "Department of Sanitation",
    "final_address": "3044 Piety St",
    "address_councildis": "D",
    "status": "Pending",
    "rowid": "1023524",
    "final_x": "3691771.8998",
    "final_y": "543678.866318",
    "longitude": "-90.0352005263107",
    "latitude": "29.988612381374725",
    "geocoded_column": {
      "latitude": "29.988612381374725",
      "longitude": "-90.0352005263107"
    }
  },
  {
    "service_request": "2023-1023523",
    "request_type": "Trash/Recycling",
    "request_reason": "Repair Trash Cart",
    "date_created": "2023-08-04T12:29:40.000",
    "date_modified": "2023-08-04T12:29:40.000",
    "request_status": "Pending",
    "responsible_agency": "Department of Sanitation",
    "final_address": "3044 Piety St",
    "address_councildis": "D",
    "status": "Assigned to Contractor",
    "contractor": "IV Waste",
    "rowid": "1023523",
    "final_x": "3691771.8998",
    "final_y": "543678.866318",
    "longitude": "-90.0352005263107",
    "latitude": "29.988612381374725",
    "geocoded_column": {
      "latitude": "29.988612381374725",
      "longitude": "-90.0352005263107"
    }
  },
  {
    "service_request": "2023-1023522",
    "request_type": "Trash/Recycling",
    "request_reason": "Missed Trash Pick-Up",
    "date_created": "2023-08-04T12:29:31.000",
    "date_modified": "2023-08-04T12:29:31.000",
    "request_status": "Pending",
    "responsible_agency": "Department of Sanitation",
    "final_address": "3128 Annunciation St, New Orleans, Louisiana, 70115",
    "address_councildis": "B",
    "status": "Assigned to Contractor",
    "contractor": "Richards Disposal",
    "rowid": "1023522",
    "final_x": "3676539.40097",
    "final_y": "519119.961847",
    "longitude": "-90.08416097877206",
    "latitude": "29.92154933644663",
    "geocoded_column": {
      "latitude": "29.92154933644663",
      "longitude": "-90.08416097877206"
    }
  },