[
  {
    "service_request": "2024-1099550",
    "request_type": "Traffic Signals/Signs/Striping/Streetlights",
    "request_reason": "Street Light Outage/Malfunction",
    "date_created": "2024-06-03T23:47:59.000",
    "date_modified": "2024-06-03T23:48:00.000",
    "request_status": "Pending",
    "responsible_agency": "Department of Public Works",
    "final_address": "5725 General Diaz St",
    "address_councildis": "A",
    "status": "Assigned to Contractor",
    "contractor": "Legacy Professional Services",
    "rowid": "1099550",
    "final_x": "3669398.32666",
    "final_y": "545538.721616",
    "longitude": "-90.10580894181041",
    "latitude": "29.99440433255263",
    "geocoded_column": {
      "latitude": "29.99440433255263",
      "longitude": "-90.10580894181041"
    }
  },
  {
    "service_request": "2024-1099549",
    "request_type": "Trash/Recycling",
    "request_reason": "Request a Large Item Pick Up",
    "date_created": "2024-06-03T23:44:14.000",
    "date_modified": "2024-06-03T23:44:15.000",
    "request_status": "Pending",
    "responsible_agency": "Department of Sanitation",
    "final_address": "5725 General Diaz St",
    "address_councildis": "A",
    "status": "Assigned to Contractor",
    "contractor": "IV Waste",
    "rowid": "1099549",
    "final_x": "3669398.32666",
    "final_y": "545538.721616",
    "longitude": "-90.10580894181041",
    "latitude": "29.99440433255263",
    "geocoded_column": {
      "latitude": "29.99440433255263",
      "longitude": "-90.10580894181041"
    }
  },
  {
    "service_request": "2024-1099548",
    "request_type": "Trash/Recycling",
    "request_reason": "Request a Large Item Pick Up",
    "date_created": "2024-06-03T23:43:01.000",
    "date_modified": "2024-06-03T23:43:01.000",
    "request_status": "Pending",
    "responsible_agency": "Department of Sanitation",
    "final_address": "5725 General Diaz St",
    "address_councildis": "A",
    "status": "Assigned to Contractor",
    "contractor": "IV Waste",
    "rowid": "1099548",
    "final_x": "3669398.32666",
    "final_y": "545538.721616",
    "longitude": "-90.10580894181041",
    "latitude": "29.99440433255263",
    "geocoded_column": {
      "latitude": "29.99440433255263",
      "longitude": "-90.10580894181041"
    }
  },
  {
    "service_request": "2024-1099547",
    "request_type": "Trash/Recycling",
    "request_reason": "Request a Large Item Pick Up",
    "date_created": "2024-06-03T23:39:45.000",
    "date_modified": "2024-06-03T23:39:46.000",
    "request_status": "Pending",
    "responsible_agency": "Department of Sanitation",
    "final_address": "New Orleans,LA",
    "status": "Assigned to Contractor",
    "rowid": "1099547",
    "longitude": "0.0",
    "latitude": "0.0",
    "geocoded_column": {
      "latitude": "0.0",
      "longitude": "0.0"
    }
  },
  {
    "service_request": "2024-1099545",
    "request_type": "Trash/Recycling",
    "request_reason": "Start Trash Service",
    "date_created": "2024-06-03T23:25:13.000",
    "date_modified": "2024-06-03T23:25:14.000",
    "request_status": "Pending",
    "responsible_agency": "Department of Sanitation",
    "final_address": "1705 Eagle St Apt 1B",
    "address_councildis": "A",
    "status": "Assigned to Contractor",
    "contractor": "IV Waste",
    "rowid": "1099545",
    "final_x": "3661392.98278",
    "final_y": "531368.975555",
    "longitude": "-90.13156638076168",
    "latitude": "29.955675594674254",
    "geocoded_column": {
      "latitude": "29.955675594674254",
      "longitude": "-90.13156638076168"
    }
  },
  {
    "service_request": "2024-1099544",
    "request_type": "Traffic Signals/Signs/Striping/Streetlights",
    "request_reason": "Street Light Outage/Malfunction",
    "date_created": "2024-06-03T23:09:06.000",
    "date_modified": "2024-06-03T23:09:07.000",
    "request_status": "Pending",
    "responsible_agency": "Department of Public Works",
    "final_address": "3860 S Pin Oak Ave",
    "address_councildis": "C",
    "status": "Assigned to Contractor",
    "contractor": "Legacy Professional Services",
    "rowid": "1099544",
    "final_x": "3704847.98699",
    "final_y": "513948.55013",
    "longitude": "-89.99499442045045",
    "latitude": "29.906450792394455",
    "geocoded_column": {
      "latitude": "29.906450792394455",
      "longitude": "-89.99499442045045"
    }
  },
  {
    "service_request": "2024-1099543",
    "request_type": "Property Maintenance",
    "request_reason": "Property Maintenance",
    "date_created": "2024-06-03T23:06:07.000",
    "date_modified": "2024-06-03T23:06:07.000",
    "request_status": "Pending",
    "responsible_agency": "Department of Code Enforcement",
    "final_address": "700 Webster St",
    "address_councildis": "A",
    "status": "Pending",
    "rowid": "1099543",
    "final_x": "3663975.43123",
    "final_y": "519165.772599",
    "longitude": "-90.1238186341016",
    "latitude": "29.92204594615883",
    "geocoded_column": {
      "latitude": "29.92204594615883",
      "longitude": "-90.1238186341016"
    }
  },
  {
    "service_request": "2024-1099542",
    "request_type": "Traffic Signals/Signs/Striping/Streetlights",
    "request_reason": "Street Light Outage/Malfunction",
    "date_created": "2024-06-03T23:02:43.000",
    "date_modified": "2024-06-03T23:02:44.000",
    "request_status": "Pending",
    "responsible_agency": "Department of Public Works",
    "final_address": "3810 S Post Oak Ave",
    "address_councildis": "C",
    "status": "Assigned to Contractor",
    "contractor": "Legacy Professional Services",
    "rowid": "1099542",
    "final_x": "3704568.13559",
    "final_y": "514146.887986",
    "longitude": "-89.99587034280935",
    "latitude": "29.907005138593625",
    "geocoded_column": {
      "latitude": "29.907005138593625",
      "longitude": "-89.99587034280935"
    }
  },
  {
    "service_request": "2024-1099541",
    "request_type": "Trash/Recycling",
    "request_reason": "Request a Large Item Pick Up",
    "date_created": "2024-06-03T22:48:02.000",
    "date_modified": "2024-06-03T22:48:02.000",
    "request_status": "Pending",
    "responsible_agency": "Department of Sanitation",
    "final_address": "6100 BLK Willow St",
    "address_councildis": "A",
    "status": "Assigned to Contractor",
    "contractor": "IV Waste",
    "rowid": "1099541",
    "final_x": "3666568.57726",
    "final_y": "525855.59473",
    "longitude": "-90.11540867117903",
    "latitude": "29.94036531105601",
    "geocoded_column": {
      "latitude": "29.94036531105601",
      "longitude": "-90.11540867117903"
    }
  },
  {
    "service_request": "2024-1099540",
    "request_type": "Roads/Drainage",
    "request_reason": "Pothole",
    "date_created": "2024-06-03T22:38:54.000",
    "date_modified": "2024-06-03T22:38:54.000",
    "request_status": "Pending",
    "responsible_agency": "Department of Public Works",
    "final_address": "1312 Milan St",
    "address_councildis": "B",
    "status": "Pending",
    "rowid": "1099540",
    "final_x": "3671625.82823",
    "final_y": "520286.919608",
    "longitude": "-90.09963137110304",
    "latitude": "29.92490447494246",
    "geocoded_column": {
      "latitude": "29.92490447494246",
      "longitude": "-90.09963137110304"
    }
  },
  {
    "service_request": "2024-1099539",
    "request_type": "Trash/Recycling",
    "request_reason": "Request a Large Item Pick Up",
    "date_created": "2024-06-03T22:25:54.000",
    "date_modified": "2024-06-03T22:25:55.000",
    "request_status": "Pending",
    "responsible_agency": "Department of Sanitation",
    "final_address": "5401 Edenboro Rd",
    "address_councildis": "E",
    "status": "Assigned to Contractor",
    "contractor": "Waste Pro",
    "rowid": "1099539",
    "final_x": "3708404.90001",
    "final_y": "557748.784859",
    "longitude": "-89.98213847703396",
    "latitude": "30.026770643175766",
    "geocoded_column": {
      "latitude": "30.026770643175766",
      "longitude": "-89.98213847703396"
    }
  },
  {
    "service_request": "2024-1099538",
    "request_type": "Traffic Signals/Signs/Striping/Streetlights",
    "request_reason": "Street Light Outage/Malfunction",
    "date_created": "2024-06-03T22:04:34.000",
    "date_modified": "2024-06-03T22:04:35.000",
    "request_status": "Pending",
    "responsible_agency": "Department of Public Works",
    "final_address": "6522 Orleans Ave",
    "address_councildis": "A",
    "status": "Assigned to Contractor",
    "contractor": "Legacy Professional Services",
    "rowid": "1099538",
    "final_x": "3671169.56763",
    "final_y": "550697.643029",
    "longitude": "-90.10003840401681",
    "latitude": "30.008537272004173",
    "geocoded_column": {
      "latitude": "30.008537272004173",
      "longitude": "-90.10003840401681"
    }
  },
  {
    "service_request": "2024-1099537",
    "request_type": "Traffic Signals/Signs/Striping/Streetlights",
    "request_reason": "Street Light Outage/Malfunction",
    "date_created": "2024-06-03T21:56:00.000",
    "date_modified": "2024-06-03T21:56:01.000",
    "request_status": "Pending",
    "responsible_agency": "Department of Public Works",
    "final_address": "6848 Orleans Ave",
    "address_councildis": "A",
    "status": "Assigned to Contractor",
    "contractor": "Legacy Professional Services",
    "rowid": "1099537",
    "final_x": "3671313.89851",
    "final_y": "552869.292887",
    "longitude": "-90.09950853799917",
    "latitude": "30.014504269275392",
    "geocoded_column": {
      "latitude": "30.014504269275392",
      "longitude": "-90.09950853799917"
    }
  },
  {
    "service_request": "2024-1099536",
    "request_type": "Traffic Signals/Signs/Striping/Streetlights",
    "request_reason": "Street Light Outage/Malfunction",
    "date_created": "2024-06-03T21:53:56.000",
    "date_modified": "2024-06-03T21:53:57.000",
    "request_status": "Pending",
    "responsible_agency": "Department of Public Works",
    "final_address": "991 Mouton St",
    "address_councildis": "A",
    "status": "Assigned to Contractor",
    "contractor": "Legacy Professional Services",
    "rowid": "1099536",
    "final_x": "3671311.74465",
    "final_y": "553205.853911",
    "longitude": "-90.09950389291237",
    "latitude": "30.015429756404927",
    "geocoded_column": {
      "latitude": "30.015429756404927",
      "longitude": "-90.09950389291237"
    }
  },
  {
    "service_request": "2024-1099535",
    "request_type": "Traffic Signals/Signs/Striping/Streetlights",
    "request_reason": "Street Light Outage/Malfunction",
    "date_created": "2024-06-03T21:50:27.000",
    "date_modified": "2024-06-03T21:50:28.000",
    "request_status": "Pending",
    "responsible_agency": "Department of Public Works",
    "final_address": "7022 Orleans Ave",
    "address_councildis": "A",
    "status": "Assigned to Contractor",
    "contractor": "Legacy Professional Services",
    "rowid": "1099535",
    "final_x": "3671420.9451",
    "final_y": "553986.148056",
    "longitude": "-90.09913231434214",
    "latitude": "30.01757205411894",
    "geocoded_column": {
      "latitude": "30.01757205411894",
      "longitude": "-90.09913231434214"
    }
  },
  {
    "service_request": "2024-1099534",
    "request_type": "Traffic Signals/Signs/Striping/Streetlights",
    "request_reason": "Street Light Outage/Malfunction",
    "date_created": "2024-06-03T21:45:20.000",
    "date_modified": "2024-06-03T21:45:21.000",
    "request_status": "Pending",
    "responsible_agency": "Department of Public Works",
    "final_address": "987 Allen Toussaint Blvd",
    "address_councildis": "D",
    "status": "Assigned to Contractor",
    "contractor": "Legacy Professional Services",
    "rowid": "1099534",
    "final_x": "3671424.32065",
    "final_y": "554636.17916",
    "longitude": "-90.0990995260852",
    "latitude": "30.01935930791479",
    "geocoded_column": {
      "latitude": "30.01935930791479",
      "longitude": "-90.0990995260852"
    }
  },
  {
    "service_request": "2024-1099533",
    "request_type": "Traffic Signals/Signs/Striping/Streetlights",
    "request_reason": "Street Light Outage/Malfunction",
    "date_created": "2024-06-03T21:42:42.000",
    "date_modified": "2024-06-03T21:42:42.000",
    "request_status": "Pending",
    "responsible_agency": "Department of Public Works",
    "final_address": "7040 Orleans Ave",
    "address_councildis": "A",
    "status": "Assigned to Contractor",
    "contractor": "Legacy Professional Services",
    "rowid": "1099533",
    "final_x": "3671435.49972",
    "final_y": "554134.927704",
    "longitude": "-90.0990812638151",
    "latitude": "30.0179807140786",
    "geocoded_column": {
      "latitude": "30.0179807140786",
      "longitude": "-90.0990812638151"
    }
  },
  {
    "service_request": "2024-1099532",
    "request_type": "Traffic Signals/Signs/Striping/Streetlights",
    "request_reason": "Street Light Outage/Malfunction",
    "date_created": "2024-06-03T21:37:57.000",
    "date_modified": "2024-06-03T21:37:58.000",
    "request_status": "Pending",
    "responsible_agency": "Department of Public Works",
    "final_address": "992 Filmore Ave",
    "address_councildis": "A",
    "status": "Assigned to Contractor",
    "contractor": "Legacy Professional Services",
    "rowid": "1099532",
    "final_x": "3671180.88039",
    "final_y": "551723.160853",
    "longitude": "-90.09996778907434",
    "latitude": "30.01135674954987",
    "geocoded_column": {
      "latitude": "30.01135674954987",
      "longitude": "-90.09996778907434"
    }
  },
  {
    "service_request": "2024-1099531",
    "request_type": "Healthy Homes",
    "request_reason": "Healthy Homes",
    "date_created": "2024-06-03T21:34:14.000",
    "date_modified": "2024-06-03T21:34:14.000",
    "request_status": "Pending",
    "responsible_agency": "Department of Code Enforcement",
    "final_address": "4509 S Galvez St",
    "address_councildis": "B",
    "status": "Pending",
    "rowid": "1099531",
    "final_x": "3669686.16487",
    "final_y": "527540.265727",
    "longitude": "-90.10550892310012",
    "latitude": "29.944906125260427",
    "geocoded_column": {
      "latitude": "29.944906125260427",
      "longitude": "-90.10550892310012"
    }
  },
  {
    "service_request": "2024-1099530",
    "request_type": "Traffic Signals/Signs/Striping/Streetlights",
    "request_reason": "Street Light Outage/Malfunction",
    "date_created": "2024-06-03T21:26:13.000",
    "date_modified": "2024-06-03T21:26:14.000",
    "request_status": "Pending",
    "responsible_agency": "Department of Public Works",
    "final_address": "980 Porteous St",
    "address_councildis": "A",
    "status": "Assigned to Contractor",
    "contractor": "Legacy Professional Services",
    "rowid": "1099530",
    "final_x": "3671180.84699",
    "final_y": "551099.722069",
    "longitude": "-90.09998909578235",
    "latitude": "30.009642513894867",
    "geocoded_column": {
      "latitude": "30.009642513894867",
      "longitude": "-90.09998909578235"
    }
  },
  {
    "service_request": "2024-1099529",
    "request_type": "Traffic Signals/Signs/Striping/Streetlights",
    "request_reason": "Street Light Outage/Malfunction",
    "date_created": "2024-06-03T21:20:39.000",
    "date_modified": "2024-06-03T21:20:40.000",
    "request_status": "Pending",
    "responsible_agency": "Department of Public Works",
    "final_address": "6374 Orleans Ave",
    "address_councildis": "A",
    "status": "Assigned to Contractor",
    "contractor": "Legacy Professional Services",
    "rowid": "1099529",
    "final_x": "3671078.40833",
    "final_y": "549686.911892",
    "longitude": "-90.10036076648055",
    "latitude": "30.005760814082684",
    "geocoded_column": {
      "latitude": "30.005760814082684",
      "longitude": "-90.10036076648055"
    }
  },
  {
    "service_request": "2024-1099528",
    "request_type": "Traffic Signals/Signs/Striping/Streetlights",
    "request_reason": "Street Light Outage/Malfunction",
    "date_created": "2024-06-03T21:17:35.000",
    "date_modified": "2024-06-03T21:17:35.000",
    "request_status": "Pending",
    "responsible_agency": "Department of Public Works",
    "final_address": "833 St Ann St",
    "address_councildis": "C",
    "status": "Assigned to Contractor",
    "contractor": "Legacy Professional Services",
    "rowid": "1099528",
    "final_x": "3682293.30895",
    "final_y": "533172.523332",
    "longitude": "-90.06550760407573",
    "latitude": "29.960015448494726",
    "geocoded_column": {
      "latitude": "29.960015448494726",
      "longitude": "-90.06550760407573"
    }
  },
  {
    "service_request": "2024-1099527",
    "request_type": "Traffic Signals/Signs/Striping/Streetlights",
    "request_reason": "Street Name Sign Damaged or Missing",
    "date_created": "2024-06-03T20:58:08.000",
    "date_modified": "2024-06-03T20:58:08.000",
    "request_status": "Pending",
    "responsible_agency": "Department of Public Works",
    "final_address": "2800 BLK Halsey Ave",
    "address_councildis": "C",
    "status": "Pending",
    "rowid": "1099527",
    "final_x": "3697642.46459",
    "final_y": "520791.7397",
    "longitude": "-90.01748753851746",
    "latitude": "29.925496695271274",
    "geocoded_column": {
      "latitude": "29.925496695271274",
      "longitude": "-90.01748753851746"
    }
  },
  {
    "service_request": "2024-1099526",
    "request_type": "Property Maintenance",
    "request_reason": "Property Maintenance",
    "date_created": "2024-06-03T20:56:12.000",
    "date_modified": "2024-06-03T20:56:12.000",
    "request_status": "Pending",
    "responsible_agency": "Department of Code Enforcement",
    "final_address": "1500 BLK Governor Nicholls St",
    "address_councildis": "C",
    "status": "Pending",
    "rowid": "1099526",
    "final_x": "3681358.48173",
    "final_y": "535802.684088",
    "longitude": "-90.06836789418134",
    "latitude": "29.96727589868993",
    "geocoded_column": {
      "latitude": "29.96727589868993",
      "longitude": "-90.06836789418134"
    }
  },
  {
    "service_request": "2024-1099525",
    "request_type": "Roads/Drainage",
    "request_reason": "Street Subsidence (Sinking)",
    "date_created": "2024-06-03T20:54:59.000",
    "date_modified": "2024-06-03T20:54:59.000",
    "request_status": "Pending",
    "responsible_agency": "Department of Public Works",
    "final_address": "2800 BLK Halsey Ave",
    "address_councildis": "C",
    "status": "Pending",
    "rowid": "1099525",
    "final_x": "3697642.46459",
    "final_y": "520791.7397",
    "longitude": "-90.01748753851746",
    "latitude": "29.925496695271274",
    "geocoded_column": {
      "latitude": "29.925496695271274",
      "longitude": "-90.01748753851746"
    }
  },
  {
    "service_request": "2024-1099524",
    "request_type": "Trash/Recycling",
    "request_reason": "Request a Large Item Pick Up",
    "date_created": "2024-06-03T20:53:37.000",
    "date_modified": "2024-06-03T20:53:38.000",
    "request_status": "Pending",
    "responsible_agency": "Department of Sanitation",
    "final_address": "34 Warbler St",
    "address_councildis": "D",
    "status": "Assigned to Contractor",
    "contractor": "IV Waste",
    "rowid": "1099524",
    "final_x": "3673671.47374",
    "final_y": "556862.442714",
    "longitude": "-90.0919230608452",
    "latitude": "30.025413984458766",
    "geocoded_column": {
      "latitude": "30.025413984458766",
      "longitude": "-90.0919230608452"
    }
  },
  {
    "service_request": "2024-1099523",
    "request_type": "Trash/Recycling",
    "request_reason": "Request a Large Item Pick Up",
    "date_created": "2024-06-03T20:51:25.000",
    "date_modified": "2024-06-03T20:51:26.000",
    "request_status": "Pending",
    "responsible_agency": "Department of Sanitation",
    "final_address": "1220 Adams St",
    "address_councildis": "A",
    "status": "Assigned to Contractor",
    "contractor": "IV Waste",
    "rowid": "1099523",
    "final_x": "3663155.98503",
    "final_y": "527546.955903",
    "longitude": "-90.12612656737066",
    "latitude": "29.945115311316627",
    "geocoded_column": {
      "latitude": "29.945115311316627",
      "longitude": "-90.12612656737066"
    }
  },
  {
    "service_request": "2024-1099522",
    "request_type": "Trash/Recycling",
    "request_reason": "Order Recycling Cart",
    "date_created": "2024-06-03T20:39:09.000",
    "date_modified": "2024-06-03T20:39:09.000",
    "request_status": "Pending",
    "responsible_agency": "Department of Sanitation",
    "final_address": "6238 General Diaz St",
    "address_councildis": "A",
    "status": "Pending",
    "rowid": "1099522",
    "final_x": "3669572.64334",
    "final_y": "548851.704979",
    "longitude": "-90.10514612227604",
    "latitude": "30.003508752273387",
    "geocoded_column": {
      "latitude": "30.003508752273387",
      "longitude": "-90.10514612227604"
    }
  },
  {
    "service_request": "2024-1099521",
    "request_type": "Parks & Parkways",
    "request_reason": "Request Tree Service (Right of Way/Public Property)",
    "date_created": "2024-06-03T19:49:52.000",
    "date_modified": "2024-06-03T19:49:52.000",
    "request_status": "Pending",
    "responsible_agency": "Department of Parks & Parkway",
    "final_address": "3638 Franklin Ave",
    "address_councildis": "D",
    "status": "Pending",
    "rowid": "1099521",
    "final_x": "3687047.08738",
    "final_y": "546422.699409",
    "longitude": "-90.05002763253893",
    "latitude": "29.996303275168707",
    "geocoded_column": {
      "latitude": "29.996303275168707",
      "longitude": "-90.05002763253893"
    }
  },
  {
    "service_request": "2024-1099520",
    "request_type": "Trash/Recycling",
    "request_reason": "Illegal Dumping",
    "date_created": "2024-06-03T19:48:58.000",
    "date_modified": "2024-06-03T19:48:58.000",
    "request_status": "Pending",
    "responsible_agency": "Department of Sanitation",
    "final_address": "2540 Congress St",
    "address_councildis": "D",
    "status": "Pending",
    "rowid": "1099520",
    "final_x": "3692078.56272",
    "final_y": "541203.422348",
    "longitude": "-90.0343205214625",
    "latitude": "29.9817962447357",
    "geocoded_column": {
      "latitude": "29.9817962447357",
      "longitude": "-90.0343205214625"
    }
  },
  {
    "service_request": "2024-1099519",
    "request_type": "Trash/Recycling",
    "request_reason": "Replace Trash Cart",
    "date_created": "2024-06-03T19:42:59.000",
    "date_modified": "2024-06-03T19:43:00.000",
    "request_status": "Pending",
    "responsible_agency": "Department of Sanitation",
    "final_address": "3580 Bennett St",
    "address_councildis": "C",
    "status": "Assigned to Contractor",
    "contractor": "Richards Disposal",
    "rowid": "1099519",
    "final_x": "3710410.23025",
    "final_y": "517466.33471",
    "longitude": "-89.97730826937126",
    "latitude": "29.91594366681555",
    "geocoded_column": {
      "latitude": "29.91594366681555",
      "longitude": "-89.97730826937126"
    }
  },
  {
    "service_request": "2024-1099518",
    "request_type": "Trash/Recycling",
    "request_reason": "Order Recycling Cart",
    "date_created": "2024-06-03T19:33:26.000",
    "date_modified": "2024-06-03T19:33:26.000",
    "request_status": "Pending",
    "responsible_agency": "Department of Sanitation",
    "final_address": "5133 Pauline Dr",
    "address_councildis": "D",
    "status": "Pending",
    "rowid": "1099518",
    "final_x": "3692554.58601",
    "final_y": "553065.769303",
    "longitude": "-90.03239163769153",
    "latitude": "30.014398514837062",
    "geocoded_column": {
      "latitude": "30.014398514837062",
      "longitude": "-90.03239163769153"
    }
  },
  {
    "service_request": "2024-1099517",
    "request_type": "Trash/Recycling",
    "request_reason": "Order Trash Cart",
    "date_created": "2024-06-03T19:32:00.000",
    "date_modified": "2024-06-03T19:32:00.000",
    "request_status": "Pending",
    "responsible_agency": "Department of Sanitation",
    "final_address": "5133 Pauline Dr",
    "address_councildis": "D",
    "status": "Assigned to Contractor",
    "contractor": "IV Waste",
    "rowid": "1099517",
    "final_x": "3692554.58601",
    "final_y": "553065.769303",
    "longitude": "-90.03239163769153",
    "latitude": "30.014398514837062",
    "geocoded_column": {
      "latitude": "30.014398514837062",
      "longitude": "-90.03239163769153"
    }
  },
  {
    "service_request": "2024-1099516",
    "request_type": "Roads/Drainage",
    "request_reason": "Damaged Sidewalk",
    "date_created": "2024-06-03T19:17:23.000",
    "date_modified": "2024-06-03T19:17:23.000",
    "request_status": "Pending",
    "responsible_agency": "Department of Public Works",
    "final_address": "331 Chartres St",
    "address_councildis": "C",
    "status": "Pending",
    "rowid": "1099516",
    "final_x": "3682082.89986",
    "final_y": "531300.555074",
    "longitude": "-90.06623739784546",
    "latitude": "29.954874572635163",
    "geocoded_column": {
      "latitude": "29.954874572635163",
      "longitude": "-90.06623739784546"
    }
  },
  {
    "service_request": "2024-1099515",
    "request_type": "Roads/Drainage",
    "request_reason": "Damaged Sidewalk",
    "date_created": "2024-06-03T19:15:55.000",
    "date_modified": "2024-06-03T19:15:55.000",
    "request_status": "Pending",
    "responsible_agency": "Department of Public Works",
    "final_address": "337 Chartres St",
    "address_councildis": "C",
    "status": "Pending",
    "rowid": "1099515",
    "final_x": "3682109.89596",
    "final_y": "531337.255682",
    "longitude": "-90.06615087290187",
    "latitude": "29.954974665970713",
    "geocoded_column": {
      "latitude": "29.954974665970713",
      "longitude": "-90.06615087290187"
    }
  },
  {
    "service_request": "2024-1099514",
    "request_type": "Trash/Recycling",
    "request_reason": "Repair Trash Cart",
    "date_created": "2024-06-03T19:12:56.000",
    "date_modified": "2024-06-03T19:12:57.000",
    "request_status": "Pending",
    "responsible_agency": "Department of Sanitation",
    "final_address": "3930 Palmyra St",
    "address_councildis": "A",
    "status": "Assigned to Contractor",
    "contractor": "IV Waste",
    "rowid": "1099514",
    "final_x": "3671059.70279",
    "final_y": "537247.421704",
    "longitude": "-90.10084257307058",
    "latitude": "29.971557044538482",
    "geocoded_column": {
      "latitude": "29.971557044538482",
      "longitude": "-90.10084257307058"
    }
  },
  {
    "service_request": "2024-1099513",
    "request_type": "Roads/Drainage",
    "request_reason": "Road Shoulder Repair",
    "date_created": "2024-06-03T19:12:05.000",
    "date_modified": "2024-06-03T19:12:05.000",
    "request_status": "Pending",
    "responsible_agency": "Department of Public Works",
    "final_address": "416 Chartres St",
    "address_councildis": "C",
    "status": "Pending",
    "rowid": "1099513",
    "final_x": "3682296.87394",
    "final_y": "531488.325379",
    "longitude": "-90.06555518956337",
    "latitude": "29.955384369294354",
    "geocoded_column": {
      "latitude": "29.955384369294354",
      "longitude": "-90.06555518956337"
    }
  },
  {
    "service_request": "2024-1099512",
    "request_type": "Roads/Drainage",
    "request_reason": "Catch Basin - Broken/Damage",
    "date_created": "2024-06-03T19:09:03.000",
    "date_modified": "2024-06-03T19:09:03.000",
    "request_status": "Pending",
    "responsible_agency": "Department of Public Works",
    "final_address": "4521 Palmyra St",
    "address_councildis": "A",
    "status": "Pending",
    "rowid": "1099512",
    "final_x": "3669086.82881",
    "final_y": "538919.919306",
    "longitude": "-90.10701669052456",
    "latitude": "29.976214052983764",
    "geocoded_column": {
      "latitude": "29.976214052983764",
      "longitude": "-90.10701669052456"
    }
  },
  {
    "service_request": "2024-1099511",
    "request_type": "Roads/Drainage",
    "request_reason": "Street Flooding / Drainage",
    "date_created": "2024-06-03T19:08:53.000",
    "date_modified": "2024-06-03T19:08:53.000",
    "request_status": "Pending",
    "responsible_agency": "Department of Public Works",
    "final_address": "3407 Camp St",
    "address_councildis": "B",
    "status": "Pending",
    "rowid": "1099511",
    "final_x": "3674761.46542",
    "final_y": "519965.724792",
    "longitude": "-90.08974418292789",
    "latitude": "29.923928089137455",
    "geocoded_column": {
      "latitude": "29.923928089137455",
      "longitude": "-90.08974418292789"
    }
  },
  {
    "service_request": "2024-1099510",
    "request_type": "Roads/Drainage",
    "request_reason": "Damaged Sidewalk",
    "date_created": "2024-06-03T19:07:33.000",
    "date_modified": "2024-06-03T19:07:33.000",
    "request_status": "Pending",
    "responsible_agency": "Department of Public Works",
    "final_address": "508 Chartres St",
    "address_councildis": "C",
    "status": "Pending",
    "rowid": "1099510",
    "final_x": "3682501.52213",
    "final_y": "531697.195331",
    "longitude": "-90.0649016846665",
    "latitude": "29.955952463102953",
    "geocoded_column": {
      "latitude": "29.955952463102953",
      "longitude": "-90.0649016846665"
    }
  },
  {
    "service_request": "2024-1099509",
    "request_type": "Property Maintenance",
    "request_reason": "Property Maintenance",
    "date_created": "2024-06-03T19:02:28.000",
    "date_modified": "2024-06-03T19:02:28.000",
    "request_status": "Pending",
    "responsible_agency": "Department of Code Enforcement",
    "final_address": "9300 BLK Interstate 10 Service Rd S",
    "address_councildis": "E",
    "status": "Pending",
    "rowid": "1099509",
    "final_x": "3707935.59656",
    "final_y": "560254.739514",
    "longitude": "-89.98352813339633",
    "latitude": "30.03367624210803",
    "geocoded_column": {
      "latitude": "30.03367624210803",
      "longitude": "-89.98352813339633"
    }
  },
  {
    "service_request": "2024-1099508",
    "request_type": "Roads/Drainage",
    "request_reason": "Damaged Sidewalk",
    "date_created": "2024-06-03T18:57:20.000",
    "date_modified": "2024-06-03T18:57:20.000",
    "request_status": "Pending",
    "responsible_agency": "Department of Public Works",
    "final_address": "CHARTRES ST & CONTI ST",
    "address_councildis": "C",
    "status": "Pending",
    "rowid": "1099508",
    "final_x": "3682169.3",
    "final_y": "531369.18",
    "longitude": "-90.06596218251738",
    "latitude": "29.95506064048952",
    "geocoded_column": {
      "latitude": "29.95506064048952",
      "longitude": "-90.06596218251738"
    }
  },
  {
    "service_request": "2024-1099507",
    "request_type": "Trash/Recycling",
    "request_reason": "Order Trash Cart",
    "date_created": "2024-06-03T18:56:38.000",
    "date_modified": "2024-06-03T18:56:39.000",
    "request_status": "Pending",
    "responsible_agency": "Department of Sanitation",
    "final_address": "8134 Sycamore St",
    "address_councildis": "A",
    "status": "Assigned to Contractor",
    "contractor": "IV Waste",
    "rowid": "1099507",
    "final_x": "3664083.22234",
    "final_y": "531143.491138",
    "longitude": "-90.12307903978638",
    "latitude": "29.954977728436642",
    "geocoded_column": {
      "latitude": "29.954977728436642",
      "longitude": "-90.12307903978638"
    }
  },
  {
    "service_request": "2024-1099506",
    "request_type": "Trash/Recycling",
    "request_reason": "Missed Trash Pick-Up",
    "date_created": "2024-06-03T18:56:35.000",
    "date_modified": "2024-06-03T18:56:36.000",
    "request_status": "Pending",
    "responsible_agency": "Department of Sanitation",
    "final_address": "4767 Overton Dr",
    "address_councildis": "D",
    "status": "Assigned to Contractor",
    "contractor": "IV Waste",
    "rowid": "1099506",
    "final_x": "3679765.48917",
    "final_y": "549786.56162",
    "longitude": "-90.07291281148694",
    "latitude": "30.005774927134244",
    "geocoded_column": {
      "latitude": "30.005774927134244",
      "longitude": "-90.07291281148694"
    }
  },
  {
    "service_request": "2024-1099505",
    "request_type": "Trash/Recycling",
    "request_reason": "Order Recycling Cart",
    "date_created": "2024-06-03T18:54:12.000",
    "date_modified": "2024-06-03T18:54:12.000",
    "request_status": "Pending",
    "responsible_agency": "Department of Sanitation",
    "final_address": "8134 Sycamore St",
    "address_councildis": "A",
    "status": "Pending",
    "rowid": "1099505",
    "final_x": "3664083.22234",
    "final_y": "531143.491138",
    "longitude": "-90.12307903978638",
    "latitude": "29.954977728436642",
    "geocoded_column": {
      "latitude": "29.954977728436642",
      "longitude": "-90.12307903978638"
    }
  },
  {
    "service_request": "2024-1099504",
    "request_type": "Trash/Recycling",
    "request_reason": "Illegal Dumping",
    "date_created": "2024-06-03T18:50:27.000",
    "date_modified": "2024-06-03T18:50:27.000",
    "request_status": "Pending",
    "responsible_agency": "Department of Sanitation",
    "final_address": "1335 Mandeville St",
    "address_councildis": "C",
    "status": "Pending",
    "rowid": "1099504",
    "final_x": "3685728.6198",
    "final_y": "537400.226888",
    "longitude": "-90.05451066454557",
    "latitude": "29.971535205357178",
    "geocoded_column": {
      "latitude": "29.971535205357178",
      "longitude": "-90.05451066454557"
    }
  },
  {
    "service_request": "2024-1099503",
    "request_type": "Roads/Drainage",
    "request_reason": "Damaged Sidewalk",
    "date_created": "2024-06-03T18:48:51.000",
    "date_modified": "2024-06-03T18:48:51.000",
    "request_status": "Pending",
    "responsible_agency": "Department of Public Works",
    "final_address": "CHARTRES ST & TOULOUSE ST",
    "address_councildis": "C",
    "status": "Pending",
    "rowid": "1099503",
    "final_x": "3682604.6",
    "final_y": "531944.08",
    "longitude": "-90.06456756863",
    "latitude": "29.956628173994527",
    "geocoded_column": {
      "latitude": "29.956628173994527",
      "longitude": "-90.06456756863"
    }
  },
  {
    "service_request": "2024-1099502",
    "request_type": "Trash/Recycling",
    "request_reason": "Missed Trash Pick-Up",
    "date_created": "2024-06-03T18:47:20.000",
    "date_modified": "2024-06-03T18:47:21.000",
    "request_status": "Pending",
    "responsible_agency": "Department of Sanitation",
    "final_address": "1840 Euterpe St",
    "address_councildis": "B",
    "status": "Assigned to Contractor",
    "contractor": "IV Waste",
    "rowid": "1099502",
    "final_x": "3677849.43208",
    "final_y": "525626.742013",
    "longitude": "-90.07980108279143",
    "latitude": "29.93940152096696",
    "geocoded_column": {
      "latitude": "29.93940152096696",
      "longitude": "-90.07980108279143"
    }
  },
  {
    "service_request": "2024-1099501",
    "request_type": "Parks & Parkways",
    "request_reason": "Request Tree Service (Right of Way/Public Property)",
    "date_created": "2024-06-03T18:46:49.000",
    "date_modified": "2024-06-03T18:46:49.000",
    "request_status": "Pending",
    "responsible_agency": "Department of Parks & Parkway",
    "final_address": "826 N Dupre St",
    "address_councildis": "A",
    "status": "Pending",
    "rowid": "1099501",
    "final_x": "3676363.84853",
    "final_y": "537916.804873",
    "longitude": "-90.08406823221225",
    "latitude": "29.973239678690767",
    "geocoded_column": {
      "latitude": "29.973239678690767",
      "longitude": "-90.08406823221225"
    }
  },
  {
    "service_request": "2024-1099500",
    "request_type": "Trash/Recycling",
    "request_reason": "Repair Recycling Cart",
    "date_created": "2024-06-03T18:46:29.000",
    "date_modified": "2024-06-03T18:46:29.000",
    "request_status": "Pending",
    "responsible_agency": "Department of Sanitation",
    "final_address": "1822 Toledano St",
    "address_councildis": "B",
    "status": "Pending",
    "rowid": "1099500",
    "final_x": "3674163.16571",
    "final_y": "522549.698938",
    "longitude": "-90.09154440645652",
    "latitude": "29.93105102560193",
    "geocoded_column": {
      "latitude": "29.93105102560193",
      "longitude": "-90.09154440645652"
    }
  },
  {
    "service_request": "2024-1099499",
    "request_type": "Mosquito, Termite & Rodent Control",
    "request_reason": "Non-Rodent Complaint (Mice, Possums, Snakes)",
    "date_created": "2024-06-03T18:40:21.000",
    "date_modified": "2024-06-03T18:40:21.000",
    "request_status": "Pending",
    "responsible_agency": "Mosquito, Termite & Rodent Control Board",
    "final_address": "1637 Foucher St",
    "address_councildis": "B",
    "status": "Pending",
    "rowid": "1099499",
    "final_x": "3673462.31444",
    "final_y": "521577.417785",
    "longitude": "-90.09379010792213",
    "latitude": "29.928398432524123",
    "geocoded_column": {
      "latitude": "29.928398432524123",
      "longitude": "-90.09379010792213"
    }
  },
  {
    "service_request": "2024-1099498",
    "request_type": "Trash/Recycling",
    "request_reason": "Request a Large Item Pick Up",
    "date_created": "2024-06-03T18:40:09.000",
    "date_modified": "2024-06-03T18:40:10.000",
    "request_status": "Pending",
    "responsible_agency": "Department of Sanitation",
    "final_address": "4324 Jena St",
    "address_councildis": "A",
    "status": "Assigned to Contractor",
    "contractor": "IV Waste",
    "rowid": "1099498",
    "final_x": "3669103.10638",
    "final_y": "529116.731968",
    "longitude": "-90.10729656453329",
    "latitude": "29.949258060392957",
    "geocoded_column": {
      "latitude": "29.949258060392957",
      "longitude": "-90.10729656453329"
    }
  },
  {
    "service_request": "2024-1099497",
    "request_type": "Trash/Recycling",
    "request_reason": "Request a Large Item Pick Up",
    "date_created": "2024-06-03T18:35:32.000",
    "date_modified": "2024-06-03T18:35:33.000",
    "request_status": "Pending",
    "responsible_agency": "Department of Sanitation",
    "final_address": "49 Winners Cir",
    "address_councildis": "E",
    "status": "Assigned to Contractor",
    "contractor": "Waste Pro",
    "rowid": "1099497",
    "final_x": "3715888.69285",
    "final_y": "570252.245671",
    "longitude": "-89.9580165201457",
    "latitude": "30.06090530240643",
    "geocoded_column": {
      "latitude": "30.06090530240643",
      "longitude": "-89.9580165201457"
    }
  },
  {
    "service_request": "2024-1099496",
    "request_type": "Property Maintenance",
    "request_reason": "Property Maintenance",
    "date_created": "2024-06-03T18:31:55.000",
    "date_modified": "2024-06-03T18:31:55.000",
    "request_status": "Pending",
    "responsible_agency": "Department of Code Enforcement",
    "final_address": "3519 S Miro St",
    "address_councildis": "B",
    "status": "Pending",
    "rowid": "1099496",
    "final_x": "3671131.99271",
    "final_y": "527999.026879",
    "longitude": "-90.10092841403116",
    "latitude": "29.946124889391342",
    "geocoded_column": {
      "latitude": "29.946124889391342",
      "longitude": "-90.10092841403116"
    }
  },
  {
    "service_request": "2024-1099495",
    "request_type": "Trash/Recycling",
    "request_reason": "Missed Trash Pick-Up",
    "date_created": "2024-06-03T18:30:36.000",
    "date_modified": "2024-06-03T18:30:37.000",
    "request_status": "Pending",
    "responsible_agency": "Department of Sanitation",
    "final_address": "1030 N Rendon St, New Orleans, Louisiana, 70119",
    "address_councildis": "A",
    "status": "Assigned to Contractor",
    "contractor": "IV Waste",
    "rowid": "1099495",
    "final_x": "3675857.07822",
    "final_y": "539373.201738",
    "longitude": "-90.08561863117768",
    "latitude": "29.977259454242223",
    "geocoded_column": {
      "latitude": "29.977259454242223",
      "longitude": "-90.08561863117768"
    }
  },
  {
    "service_request": "2024-1099494",
    "request_type": "Traffic Signals/Signs/Striping/Streetlights",
    "request_reason": "Traffic Signal Malfunctioning/Damaged",
    "date_created": "2024-06-03T18:18:26.000",
    "date_modified": "2024-06-03T18:18:26.000",
    "request_status": "Pending",
    "responsible_agency": "Department of Public Works",
    "final_address": "6300 BLK Pontchartrain Blvd",
    "address_councildis": "A",
    "status": "Pending",
    "rowid": "1099494",
    "final_x": "3666219.27514",
    "final_y": "550023.661223",
    "longitude": "-90.11570064558674",
    "latitude": "30.006829631691463",
    "geocoded_column": {
      "latitude": "30.006829631691463",
      "longitude": "-90.11570064558674"
    }
  },
  {
    "service_request": "2024-1099493",
    "request_type": "Abandoned Vehicles",
    "request_reason": "Abandoned/Junk Vehicles",
    "date_created": "2024-06-03T17:57:08.000",
    "date_modified": "2024-06-03T17:57:08.000",
    "request_status": "Pending",
    "responsible_agency": "Department of Public Works",
    "final_address": "1000 BLK Euterpe St",
    "address_councildis": "B",
    "status": "Pending",
    "rowid": "1099493",
    "final_x": "3680470.69086",
    "final_y": "524162.427513",
    "longitude": "-90.07157633633548",
    "latitude": "29.93529603108283",
    "geocoded_column": {
      "latitude": "29.93529603108283",
      "longitude": "-90.07157633633548"
    }
  },
  {
    "service_request": "2024-1099492",
    "request_type": "Trash/Recycling",
    "request_reason": "Request a Large Item Pick Up",
    "date_created": "2024-06-03T17:55:02.000",
    "date_modified": "2024-06-03T17:55:03.000",
    "request_status": "Pending",
    "responsible_agency": "Department of Sanitation",
    "final_address": "3240 Constance St",
    "address_councildis": "B",
    "status": "Assigned to Contractor",
    "contractor": "IV Waste",
    "rowid": "1099492",
    "final_x": "3675654.14081",
    "final_y": "519473.131447",
    "longitude": "-90.08694323773106",
    "latitude": "29.922546946414577",
    "geocoded_column": {
      "latitude": "29.922546946414577",
      "longitude": "-90.08694323773106"
    }
  },
  {
    "service_request": "2024-1099491",
    "request_type": "Trash/Recycling",
    "request_reason": "Replace Trash Cart",
    "date_created": "2024-06-03T17:51:27.000",
    "date_modified": "2024-06-03T17:51:28.000",
    "request_status": "Pending",
    "responsible_agency": "Department of Sanitation",
    "final_address": "2517 Conti St",
    "address_councildis": "B",
    "status": "Assigned to Contractor",
    "contractor": "IV Waste",
    "rowid": "1099491",
    "final_x": "3676742.78318",
    "final_y": "535554.884422",
    "longitude": "-90.08295287913514",
    "latitude": "29.966733837000522",
    "geocoded_column": {
      "latitude": "29.966733837000522",
      "longitude": "-90.08295287913514"
    }
  },
  {
    "service_request": "2024-1099490",
    "request_type": "Trash/Recycling",
    "request_reason": "Missed Trash Pick-Up",
    "date_created": "2024-06-03T17:36:12.000",
    "date_modified": "2024-06-03T17:36:12.000",
    "request_status": "Pending",
    "responsible_agency": "Department of Sanitation",
    "final_address": "1637 Second St",
    "address_councildis": "B",
    "status": "Assigned to Contractor",
    "contractor": "IV Waste",
    "rowid": "1099490",
    "final_x": "3676529.37525",
    "final_y": "523357.932987",
    "longitude": "-90.08404677414389",
    "latitude": "29.933202682344724",
    "geocoded_column": {
      "latitude": "29.933202682344724",
      "longitude": "-90.08404677414389"
    }
  },
  {
    "service_request": "2024-1099489",
    "request_type": "Trash/Recycling",
    "request_reason": "Illegal Dumping",
    "date_created": "2024-06-03T17:30:37.000",
    "date_modified": "2024-06-03T17:30:37.000",
    "request_status": "Pending",
    "responsible_agency": "Department of Sanitation",
    "final_address": "1014 N Carrollton Ave",
    "address_councildis": "A",
    "status": "Pending",
    "rowid": "1099489",
    "final_x": "3673787.24987",
    "final_y": "541106.512972",
    "longitude": "-90.09209653868531",
    "latitude": "29.982087277803604",
    "geocoded_column": {
      "latitude": "29.982087277803604",
      "longitude": "-90.09209653868531"
    }
  },
  {
    "service_request": "2024-1099488",
    "request_type": "Trash/Recycling",
    "request_reason": "Request a Large Item Pick Up",
    "date_created": "2024-06-03T17:18:11.000",
    "date_modified": "2024-06-03T17:18:12.000",
    "request_status": "Pending",
    "responsible_agency": "Department of Sanitation",
    "final_address": "5736 Marigny St",
    "address_councildis": "D",
    "status": "Assigned to Contractor",
    "contractor": "IV Waste",
    "rowid": "1099488",
    "final_x": "3683918.77129",
    "final_y": "554197.290584",
    "longitude": "-90.05963675677896",
    "latitude": "30.017776552421232",
    "geocoded_column": {
      "latitude": "30.017776552421232",
      "longitude": "-90.05963675677896"
    }
  },
  {
    "service_request": "2024-1099487",
    "request_type": "Trash/Recycling",
    "request_reason": "Order Recycling Cart",
    "date_created": "2024-06-03T17:14:05.000",
    "date_modified": "2024-06-03T17:14:05.000",
    "request_status": "Pending",
    "responsible_agency": "Department of Sanitation",
    "final_address": "940 Felicity St Apt 1A",
    "address_councildis": "B",
    "status": "Pending",
    "rowid": "1099487",
    "final_x": "3680255.11861",
    "final_y": "522710.048826",
    "longitude": "-90.07230735873844",
    "latitude": "29.931308994019535",
    "geocoded_column": {
      "latitude": "29.931308994019535",
      "longitude": "-90.07230735873844"
    }
  },
  {
    "service_request": "2024-1099486",
    "request_type": "Trash/Recycling",
    "request_reason": "Request a Large Item Pick Up",
    "date_created": "2024-06-03T17:11:22.000",
    "date_modified": "2024-06-03T17:11:23.000",
    "request_status": "Pending",
    "responsible_agency": "Department of Sanitation",
    "final_address": "5419 Vicksburg St",
    "address_councildis": "A",
    "status": "Assigned to Contractor",
    "contractor": "IV Waste",
    "rowid": "1099486",
    "final_x": "3668659.00935",
    "final_y": "543021.937677",
    "longitude": "-90.10822935917776",
    "latitude": "29.987505796133103",
    "geocoded_column": {
      "latitude": "29.987505796133103",
      "longitude": "-90.10822935917776"
    }
  },
  {
    "service_request": "2024-1099485",
    "request_type": "Parks & Parkways",
    "request_reason": "Request Grass Cutting Service (City Owned Property)",
    "date_created": "2024-06-03T17:06:51.000",
    "date_modified": "2024-06-03T17:06:51.000",
    "request_status": "Pending",
    "responsible_agency": "Department of Parks & Parkway",
    "final_address": "145 Morrison Ct",
    "address_councildis": "E",
    "status": "Pending",
    "rowid": "1099485",
    "final_x": "3703892.45495",
    "final_y": "561671.297567",
    "longitude": "-89.99625259359614",
    "latitude": "30.037701561981834",
    "geocoded_column": {
      "latitude": "30.037701561981834",
      "longitude": "-89.99625259359614"
    }
  },
  {
    "service_request": "2024-1099484",
    "request_type": "Trash/Recycling",
    "request_reason": "Replace Recycling Cart",
    "date_created": "2024-06-03T17:03:36.000",
    "date_modified": "2024-06-03T17:03:36.000",
    "request_status": "Pending",
    "responsible_agency": "Department of Sanitation",
    "final_address": "1473 N White St, New Orleans, Louisiana, 70119",
    "address_councildis": "A",
    "status": "Pending",
    "rowid": "1099484",
    "final_x": "3677670.99477",
    "final_y": "540141.402187",
    "longitude": "-90.07986314258959",
    "latitude": "29.979317305033554",
    "geocoded_column": {
      "latitude": "29.979317305033554",
      "longitude": "-90.07986314258959"
    }
  },
  {
    "service_request": "2024-1099483",
    "request_type": "Trash/Recycling",
    "request_reason": "Illegal Dumping",
    "date_created": "2024-06-03T16:57:51.000",
    "date_modified": "2024-06-03T16:57:52.000",
    "request_status": "Pending",
    "responsible_agency": "Department of Sanitation",
    "final_address": "1700 BLK Painters St",
    "address_councildis": "D",
    "status": "Pending",
    "rowid": "1099483",
    "final_x": "3687370.69346",
    "final_y": "538902.20676",
    "longitude": "-90.04927161002061",
    "latitude": "29.97561462904353",
    "geocoded_column": {
      "latitude": "29.97561462904353",
      "longitude": "-90.04927161002061"
    }
  },
  {
    "service_request": "2024-1099482",
    "request_type": "Trash/Recycling",
    "request_reason": "Order Recycling Cart",
    "date_created": "2024-06-03T16:54:35.000",
    "date_modified": "2024-06-03T16:54:35.000",
    "request_status": "Pending",
    "responsible_agency": "Department of Sanitation",
    "final_address": "110 Country Club Dr",
    "address_councildis": "A",
    "status": "Pending",
    "rowid": "1099482",
    "final_x": "3665761.77991",
    "final_y": "544222.39419",
    "longitude": "-90.11734049862147",
    "latitude": "29.99089150028852",
    "geocoded_column": {
      "latitude": "29.99089150028852",
      "longitude": "-90.11734049862147"
    }
  },
  {
    "service_request": "2024-1099481",
    "request_type": "Trash/Recycling",
    "request_reason": "Order Recycling Cart",
    "date_created": "2024-06-03T16:53:52.000",
    "date_modified": "2024-06-03T16:53:52.000",
    "request_status": "Pending",
    "responsible_agency": "Department of Sanitation",
    "final_address": "3623 DHemecourt St",
    "address_councildis": "B",
    "status": "Pending",
    "rowid": "1099481",
    "final_x": "3671261.32065",
    "final_y": "535782.834311",
    "longitude": "-90.10025560783725",
    "latitude": "29.96752395686001",
    "geocoded_column": {
      "latitude": "29.96752395686001",
      "longitude": "-90.10025560783725"
    }
  },
  {
    "service_request": "2024-1099479",
    "request_type": "Trash/Recycling",
    "request_reason": "Return Recycling Cart",
    "date_created": "2024-06-03T16:45:03.000",
    "date_modified": "2024-06-03T16:45:03.000",
    "request_status": "Pending",
    "responsible_agency": "Department of Sanitation",
    "final_address": "3640 Cleveland Ave",
    "address_councildis": "B",
    "status": "Pending",
    "rowid": "1099479",
    "final_x": "3672069.38132",
    "final_y": "536972.066248",
    "longitude": "-90.09766322971149",
    "latitude": "29.970770009130135",
    "geocoded_column": {
      "latitude": "29.970770009130135",
      "longitude": "-90.09766322971149"
    }
  },
  {
    "service_request": "2024-1099478",
    "request_type": "Roads/Drainage",
    "request_reason": "Pothole",
    "date_created": "2024-06-03T16:34:41.000",
    "date_modified": "2024-06-03T16:34:42.000",
    "request_status": "Pending",
    "responsible_agency": "Department of Public Works",
    "final_address": "4942 Eastern St",
    "address_councildis": "D",
    "status": "Pending",
    "rowid": "1099478",
    "final_x": "3687907.98492",
    "final_y": "551391.107605",
    "longitude": "-90.047131949311",
    "latitude": "30.009938051135265",
    "geocoded_column": {
      "latitude": "30.009938051135265",
      "longitude": "-90.047131949311"
    }
  },
  {
    "service_request": "2024-1099477",
    "request_type": "Healthy Homes",
    "request_reason": "Healthy Homes",
    "date_created": "2024-06-03T16:31:46.000",
    "date_modified": "2024-06-03T16:31:46.000",
    "request_status": "Pending",
    "responsible_agency": "Department of Code Enforcement",
    "final_address": "924 Pacific Ave",
    "address_councildis": "C",
    "status": "Pending",
    "rowid": "1099477",
    "final_x": "3688472.88771",
    "final_y": "528083.533375",
    "longitude": "-90.04617440914437",
    "latitude": "29.945833023007705",
    "geocoded_column": {
      "latitude": "29.945833023007705",
      "longitude": "-90.04617440914437"
    }
  },
  {
    "service_request": "2024-1099476",
    "request_type": "Parks & Parkways",
    "request_reason": "Request Tree Service (Right of Way/Public Property)",
    "date_created": "2024-06-03T16:30:50.000",
    "date_modified": "2024-06-03T16:30:50.000",
    "request_status": "Pending",
    "responsible_agency": "Department of Parks & Parkway",
    "final_address": "205 Helena St",
    "address_councildis": "A",
    "status": "Pending",
    "rowid": "1099476",
    "final_x": "3668507.66484",
    "final_y": "540940.037707",
    "longitude": "-90.10877768306148",
    "latitude": "29.98178572732514",
    "geocoded_column": {
      "latitude": "29.98178572732514",
      "longitude": "-90.10877768306148"
    }
  },
  {
    "service_request": "2024-1099475",
    "request_type": "Traffic Signals/Signs/Striping/Streetlights",
    "request_reason": "Street Light Outage/Malfunction",
    "date_created": "2024-06-03T16:28:25.000",
    "date_modified": "2024-06-03T16:28:26.000",
    "request_status": "Pending",
    "responsible_agency": "Department of Public Works",
    "final_address": "4400 W Poche Ct",
    "address_councildis": "E",
    "status": "Assigned to Contractor",
    "contractor": "Legacy Professional Services",
    "rowid": "1099475",
    "final_x": "3726618.34291",
    "final_y": "558598.10198",
    "longitude": "-89.9245537560278",
    "latitude": "30.02850278823203",
    "geocoded_column": {
      "latitude": "30.02850278823203",
      "longitude": "-89.9245537560278"
    }
  },
  {
    "service_request": "2024-1099474",
    "request_type": "Trash/Recycling",
    "request_reason": "Request a Large Item Pick Up",
    "date_created": "2024-06-03T16:27:23.000",
    "date_modified": "2024-06-03T16:27:24.000",
    "request_status": "Pending",
    "responsible_agency": "Department of Sanitation",
    "final_address": "4808 Viola St",
    "address_councildis": "E",
    "status": "Assigned to Contractor",
    "contractor": "Waste Pro",
    "rowid": "1099474",
    "final_x": "3703837.3226",
    "final_y": "555628.814553",
    "longitude": "-89.99664958499613",
    "latitude": "30.02108885275217",
    "geocoded_column": {
      "latitude": "30.02108885275217",
      "longitude": "-89.99664958499613"
    }
  },
  {
    "service_request": "2024-1099473",
    "request_type": "Parks & Parkways",
    "request_reason": "Request Tree Service (Right of Way/Public Property)",
    "date_created": "2024-06-03T16:22:19.000",
    "date_modified": "2024-06-03T16:22:20.000",
    "request_status": "Pending",
    "responsible_agency": "Department of Parks & Parkway",
    "final_address": "7210 Claridge Ct",
    "address_councildis": "E",
    "status": "Pending",
    "rowid": "1099473",
    "final_x": "3704861.76241",
    "final_y": "560562.167518",
    "longitude": "-89.99323036449172",
    "latitude": "30.034620753934256",
    "geocoded_column": {
      "latitude": "30.034620753934256",
      "longitude": "-89.99323036449172"
    }
  },
  {
    "service_request": "2024-1099472",
    "request_type": "Trash/Recycling",
    "request_reason": "Request a Large Item Pick Up",
    "date_created": "2024-06-03T16:17:56.000",
    "date_modified": "2024-06-03T16:17:56.000",
    "request_status": "Pending",
    "responsible_agency": "Department of Sanitation",
    "final_address": "6250 Erin Dr",
    "address_councildis": "E",
    "status": "Assigned to Contractor",
    "contractor": "Waste Pro",
    "rowid": "1099472",
    "final_x": "3696496.06557",
    "final_y": "558701.619292",
    "longitude": "-90.0197344466802",
    "latitude": "30.029771329873533",
    "geocoded_column": {
      "latitude": "30.029771329873533",
      "longitude": "-90.0197344466802"
    }
  },
  {
    "service_request": "2024-1099471",
    "request_type": "Trash/Recycling",
    "request_reason": "Repair Recycling Cart",
    "date_created": "2024-06-03T16:16:19.000",
    "date_modified": "2024-06-03T16:16:19.000",
    "request_status": "Pending",
    "responsible_agency": "Department of Sanitation",
    "final_address": "4426 Bienville Ave",
    "address_councildis": "A",
    "status": "Pending",
    "rowid": "1099471",
    "final_x": "3670238.59207",
    "final_y": "539894.78177",
    "longitude": "-90.103346021831",
    "latitude": "29.978860650765572",
    "geocoded_column": {
      "latitude": "29.978860650765572",
      "longitude": "-90.103346021831"
    }
  },
  {
    "service_request": "2024-1099470",
    "request_type": "Trash/Recycling",
    "request_reason": "Repair Trash Cart",
    "date_created": "2024-06-03T16:15:59.000",
    "date_modified": "2024-06-03T16:16:00.000",
    "request_status": "Pending",
    "responsible_agency": "Department of Sanitation",
    "final_address": "4426 Bienville Ave",
    "address_councildis": "A",
    "status": "Assigned to Contractor",
    "contractor": "IV Waste",
    "rowid": "1099470",
    "final_x": "3670238.59207",
    "final_y": "539894.78177",
    "longitude": "-90.103346021831",
    "latitude": "29.978860650765572",
    "geocoded_column": {
      "latitude": "29.978860650765572",
      "longitude": "-90.103346021831"
    }
  },
  {
    "service_request": "2024-1099469",
    "request_type": "Roads/Drainage",
    "request_reason": "Pothole",
    "date_created": "2024-06-03T16:15:36.000",
    "date_modified": "2024-06-03T16:15:36.000",
    "request_status": "Pending",
    "responsible_agency": "Department of Public Works",
    "final_address": "1120 Aline St Apt 2A",
    "address_councildis": "B",
    "status": "Pending",
    "rowid": "1099469",
    "final_x": "3674344.461",
    "final_y": "519521.432503",
    "longitude": "-90.09107572309848",
    "latitude": "29.922718865916426",
    "geocoded_column": {
      "latitude": "29.922718865916426",
      "longitude": "-90.09107572309848"
    }
  },
  {
    "service_request": "2024-1099468",
    "request_type": "Abandoned Vehicles",
    "request_reason": "Abandoned/Junk Vehicles",
    "date_created": "2024-06-03T16:15:06.000",
    "date_modified": "2024-06-03T16:15:06.000",
    "request_status": "Pending",
    "responsible_agency": "Department of Public Works",
    "final_address": "2020 Beck St",
    "address_councildis": "C",
    "status": "Pending",
    "rowid": "1099468",
    "final_x": "3700420.05949",
    "final_y": "523781.196283",
    "longitude": "-90.008610487697",
    "latitude": "29.933628669331195",
    "geocoded_column": {
      "latitude": "29.933628669331195",
      "longitude": "-90.008610487697"
    }
  },
  {
    "service_request": "2024-1099467",
    "request_type": "Trash/Recycling",
    "request_reason": "Return Trash Cart",
    "date_created": "2024-06-03T16:12:57.000",
    "date_modified": "2024-06-03T16:12:58.000",
    "request_status": "Pending",
    "responsible_agency": "Department of Sanitation",
    "final_address": "1007 Arabella St",
    "address_councildis": "A",
    "status": "Assigned to Contractor",
    "contractor": "IV Waste",
    "rowid": "1099467",
    "final_x": "3666042.61812",
    "final_y": "519672.971768",
    "longitude": "-90.11727637263225",
    "latitude": "29.923380422970418",
    "geocoded_column": {
      "latitude": "29.923380422970418",
      "longitude": "-90.11727637263225"
    }
  },
  {
    "service_request": "2024-1099466",
    "request_type": "Trash/Recycling",
    "request_reason": "Request a Large Item Pick Up",
    "date_created": "2024-06-03T16:08:40.000",
    "date_modified": "2024-06-03T16:08:41.000",
    "request_status": "Pending",
    "responsible_agency": "Department of Sanitation",
    "final_address": "5736 Marigny St",
    "address_councildis": "D",
    "status": "Assigned to Contractor",
    "contractor": "IV Waste",
    "rowid": "1099466",
    "final_x": "3683918.77129",
    "final_y": "554197.290584",
    "longitude": "-90.05963675677896",
    "latitude": "30.017776552421232",
    "geocoded_column": {
      "latitude": "30.017776552421232",
      "longitude": "-90.05963675677896"
    }
  },
  {
    "service_request": "2024-1099465",
    "request_type": "Parks & Parkways",
    "request_reason": "Request Tree Service (Right of Way/Public Property)",
    "date_created": "2024-06-03T16:08:05.000",
    "date_modified": "2024-06-03T16:08:06.000",
    "request_status": "Pending",
    "responsible_agency": "Department of Parks & Parkway",
    "final_address": "6938 Canal Blvd",
    "address_councildis": "A",
    "status": "Pending",
    "rowid": "1099465",
    "final_x": "3668895.50932",
    "final_y": "553649.889687",
    "longitude": "-90.10712308887973",
    "latitude": "30.016722016063866",
    "geocoded_column": {
      "latitude": "30.016722016063866",
      "longitude": "-90.10712308887973"
    }
  },
  {
    "service_request": "2024-1099464",
    "request_type": "Trash/Recycling",
    "request_reason": "Repair Trash Cart",
    "date_created": "2024-06-03T16:03:25.000",
    "date_modified": "2024-06-03T16:03:26.000",
    "request_status": "Pending",
    "responsible_agency": "Department of Sanitation",
    "final_address": "9210 Colapissa St",
    "address_councildis": "A",
    "status": "Assigned to Contractor",
    "contractor": "IV Waste",
    "rowid": "1099464",
    "final_x": "3663548.28986",
    "final_y": "536070.842695",
    "longitude": "-90.12460403619883",
    "latitude": "29.96854185974146",
    "geocoded_column": {
      "latitude": "29.96854185974146",
      "longitude": "-90.12460403619883"
    }
  },
  {
    "service_request": "2024-1099463",
    "request_type": "Roads/Drainage",
    "request_reason": "Pothole",
    "date_created": "2024-06-03T16:01:55.000",
    "date_modified": "2024-06-03T16:01:55.000",
    "request_status": "Pending",
    "responsible_agency": "Department of Public Works",
    "final_address": "138 Sherwood Forest Dr",
    "address_councildis": "A",
    "status": "Pending",
    "rowid": "1099463",
    "final_x": "3673127.02766",
    "final_y": "540925.519243",
    "longitude": "-90.0941880243002",
    "latitude": "29.98160925574071",
    "geocoded_column": {
      "latitude": "29.98160925574071",
      "longitude": "-90.0941880243002"
    }
  },
  {
    "service_request": "2024-1099462",
    "request_type": "Property Maintenance",
    "request_reason": "Property Maintenance",
    "date_created": "2024-06-03T16:01:11.000",
    "date_modified": "2024-06-03T16:01:22.000",
    "request_status": "Pending",
    "responsible_agency": "Department of Code Enforcement",
    "final_address": "14561 Beekman Rd",
    "address_councildis": "E",
    "status": "Pending",
    "rowid": "1099462",
    "final_x": "3721048.17414",
    "final_y": "573069.970601",
    "longitude": "-89.94159954661173",
    "latitude": "30.068481574233804",
    "geocoded_column": {
      "latitude": "30.068481574233804",
      "longitude": "-89.94159954661173"
    }
  },
  {
    "service_request": "2024-1099461",
    "request_type": "Trash/Recycling",
    "request_reason": "Request a Large Item Pick Up",
    "date_created": "2024-06-03T15:59:35.000",
    "date_modified": "2024-06-03T15:59:35.000",
    "request_status": "Pending",
    "responsible_agency": "Department of Sanitation",
    "final_address": "7220 Willowbrae Dr",
    "address_councildis": "E",
    "status": "Assigned to Contractor",
    "contractor": "Waste Pro",
    "rowid": "1099461",
    "final_x": "3711025.45957",
    "final_y": "563551.76976",
    "longitude": "-89.97364027227297",
    "latitude": "30.04264131414468",
    "geocoded_column": {
      "latitude": "30.04264131414468",
      "longitude": "-89.97364027227297"
    }
  },
  {
    "service_request": "2024-1099460",
    "request_type": "Trash/Recycling",
    "request_reason": "Order Recycling Cart",
    "date_created": "2024-06-03T15:57:58.000",
    "date_modified": "2024-06-03T15:57:58.000",
    "request_status": "Pending",
    "responsible_agency": "Department of Sanitation",
    "final_address": "4830 Elysian Fields Ave",
    "address_councildis": "D",
    "status": "Pending",
    "rowid": "1099460",
    "final_x": "3683759.33993",
    "final_y": "550550.685012",
    "longitude": "-90.06026850870416",
    "latitude": "30.007754587575395",
    "geocoded_column": {
      "latitude": "30.007754587575395",
      "longitude": "-90.06026850870416"
    }
  },
  {
    "service_request": "2024-1099459",
    "request_type": "Roads/Drainage",
    "request_reason": "Pothole",
    "date_created": "2024-06-03T15:57:47.000",
    "date_modified": "2024-06-03T15:57:47.000",
    "request_status": "Pending",
    "responsible_agency": "Department of Public Works",
    "final_address": "130 Sherwood Forest Dr",
    "address_councildis": "A",
    "status": "Pending",
    "rowid": "1099459",
    "final_x": "3673131.19758",
    "final_y": "540974.400395",
    "longitude": "-90.09417318409015",
    "latitude": "29.981743538172804",
    "geocoded_column": {
      "latitude": "29.981743538172804",
      "longitude": "-90.09417318409015"
    }
  },
  {
    "service_request": "2024-1099458",
    "request_type": "Trash/Recycling",
    "request_reason": "Request a Large Item Pick Up",
    "date_created": "2024-06-03T15:56:05.000",
    "date_modified": "2024-06-03T15:56:06.000",
    "request_status": "Pending",
    "responsible_agency": "Department of Sanitation",
    "final_address": "5442 Hawthorne Pl",
    "address_councildis": "A",
    "status": "Assigned to Contractor",
    "contractor": "IV Waste",
    "rowid": "1099458",
    "final_x": "3667643.77543",
    "final_y": "543400.966222",
    "longitude": "-90.11142337495292",
    "latitude": "29.98857780293107",
    "geocoded_column": {
      "latitude": "29.98857780293107",
      "longitude": "-90.11142337495292"
    }
  },
  {
    "service_request": "2024-1099457",
    "request_type": "Property Maintenance",
    "request_reason": "Property Maintenance",
    "date_created": "2024-06-03T15:55:57.000",
    "date_modified": "2024-06-03T15:55:58.000",
    "request_status": "Pending",
    "responsible_agency": "Department of Code Enforcement",
    "final_address": "18 Eugenie Ct",
    "address_councildis": "C",
    "status": "Pending",
    "rowid": "1099457",
    "final_x": "3700172.697",
    "final_y": "511799.900016",
    "longitude": "-90.00982828285903",
    "latitude": "29.90069205166559",
    "geocoded_column": {
      "latitude": "29.90069205166559",
      "longitude": "-90.00982828285903"
    }
  },
  {
    "service_request": "2024-1099456",
    "request_type": "Trash/Recycling",
    "request_reason": "Order Trash Cart",
    "date_created": "2024-06-03T15:55:38.000",
    "date_modified": "2024-06-03T15:55:39.000",
    "request_status": "Pending",
    "responsible_agency": "Department of Sanitation",
    "final_address": "4830 Elysian Fields Ave",
    "address_councildis": "D",
    "status": "Assigned to Contractor",
    "contractor": "IV Waste",
    "rowid": "1099456",
    "final_x": "3683759.33993",
    "final_y": "550550.685012",
    "longitude": "-90.06026850870416",
    "latitude": "30.007754587575395",
    "geocoded_column": {
      "latitude": "30.007754587575395",
      "longitude": "-90.06026850870416"
    }
  },
  {
    "service_request": "2024-1099455",
    "request_type": "Trash/Recycling",
    "request_reason": "Illegal Dumping",
    "date_created": "2024-06-03T15:54:09.000",
    "date_modified": "2024-06-03T15:54:10.000",
    "request_status": "Pending",
    "responsible_agency": "Department of Sanitation",
    "final_address": "ANNETTE ST & N GALVEZ ST",
    "address_councildis": "D",
    "status": "Pending",
    "rowid": "1099455",
    "final_x": "3682847.7",
    "final_y": "539841.18",
    "longitude": "-90.06352359487282",
    "latitude": "29.978335071672248",
    "geocoded_column": {
      "latitude": "29.978335071672248",
      "longitude": "-90.06352359487282"
    }
  },
  {
    "service_request": "2024-1099454",
    "request_type": "Property Maintenance",
    "request_reason": "Property Maintenance",
    "date_created": "2024-06-03T15:52:04.000",
    "date_modified": "2024-06-03T15:52:04.000",
    "request_status": "Pending",
    "responsible_agency": "Department of Code Enforcement",
    "final_address": "6003 Dauphine St",
    "address_councildis": "E",
    "status": "Pending",
    "rowid": "1099454",
    "final_x": "3698770.13866",
    "final_y": "532379.067331",
    "longitude": "-90.0135065263526",
    "latitude": "29.957322151514184",
    "geocoded_column": {
      "latitude": "29.957322151514184",
      "longitude": "-90.0135065263526"
    }
  },
  {
    "service_request": "2024-1099453",
    "request_type": "Trash/Recycling",
    "request_reason": "Order Recycling Cart",
    "date_created": "2024-06-03T15:51:56.000",
    "date_modified": "2024-06-03T15:51:56.000",
    "request_status": "Pending",
    "responsible_agency": "Department of Sanitation",
    "final_address": "1822 Laharpe St",
    "address_councildis": "D",
    "status": "Pending",
    "rowid": "1099453",
    "final_x": "3681153.7972",
    "final_y": "537964.895625",
    "longitude": "-90.06893894237224",
    "latitude": "29.97322744709942",
    "geocoded_column": {
      "latitude": "29.97322744709942",
      "longitude": "-90.06893894237224"
    }
  },
  {
    "service_request": "2024-1099452",
    "request_type": "Trash/Recycling",
    "request_reason": "Request a Large Item Pick Up",
    "date_created": "2024-06-03T15:48:45.000",
    "date_modified": "2024-06-03T15:48:46.000",
    "request_status": "Pending",
    "responsible_agency": "Department of Sanitation",
    "final_address": "2413 Marengo St",
    "address_councildis": "B",
    "status": "Assigned to Contractor",
    "contractor": "IV Waste",
    "rowid": "1099452",
    "final_x": "3671709.66324",
    "final_y": "523925.422716",
    "longitude": "-90.09924302925505",
    "latitude": "29.93490670662304",
    "geocoded_column": {
      "latitude": "29.93490670662304",
      "longitude": "-90.09924302925505"
    }
  },
  {
    "service_request": "2024-1099451",
    "request_type": "Trash/Recycling",
    "request_reason": "Repair Recycling Cart",
    "date_created": "2024-06-03T15:48:27.000",
    "date_modified": "2024-06-03T15:48:27.000",
    "request_status": "Pending",
    "responsible_agency": "Department of Sanitation",
    "final_address": "2514 New Orleans St",
    "address_councildis": "D",
    "status": "Pending",
    "rowid": "1099451",
    "final_x": "3681948.71381",
    "final_y": "541385.073484",
    "longitude": "-90.06630899819466",
    "latitude": "29.982607602215584",
    "geocoded_column": {
      "latitude": "29.982607602215584",
      "longitude": "-90.06630899819466"
    }
  },
  {
    "service_request": "2024-1099450",
    "request_type": "Roads/Drainage",
    "request_reason": "Pothole",
    "date_created": "2024-06-03T15:46:43.000",
    "date_modified": "2024-06-03T15:46:43.000",
    "request_status": "Pending",
    "responsible_agency": "Department of Public Works",
    "final_address": "1312 Milan St",
    "address_councildis": "B",
    "status": "Pending",
    "rowid": "1099450",
    "final_x": "3671625.82823",
    "final_y": "520286.919608",
    "longitude": "-90.09963137110304",
    "latitude": "29.92490447494246",
    "geocoded_column": {
      "latitude": "29.92490447494246",
      "longitude": "-90.09963137110304"
    }
  },
  {
    "service_request": "2024-1099449",
    "request_type": "Trash/Recycling",
    "request_reason": "Replace Trash Cart",
    "date_created": "2024-06-03T15:43:54.000",
    "date_modified": "2024-06-03T15:43:54.000",
    "request_status": "Pending",
    "responsible_agency": "Department of Sanitation",
    "final_address": "1731 Third St",
    "address_councildis": "B",
    "status": "Assigned to Contractor",
    "contractor": "IV Waste",
    "rowid": "1099449",
    "final_x": "3676101.88718",
    "final_y": "523449.053627",
    "longitude": "-90.08539319438054",
    "latitude": "29.933466043162188",
    "geocoded_column": {
      "latitude": "29.933466043162188",
      "longitude": "-90.08539319438054"
    }
  },
  {
    "service_request": "2024-1099448",
    "request_type": "Trash/Recycling",
    "request_reason": "Request a Large Item Pick Up",
    "date_created": "2024-06-03T15:43:10.000",
    "date_modified": "2024-06-03T15:43:10.000",
    "request_status": "Pending",
    "responsible_agency": "Department of Sanitation",
    "final_address": "1304 Delery St",
    "address_councildis": "E",
    "status": "Assigned to Contractor",
    "contractor": "Waste Pro",
    "rowid": "1099448",
    "final_x": "3700699.91108",
    "final_y": "533706.445765",
    "longitude": "-90.00736442561151",
    "latitude": "29.960910708204867",
    "geocoded_column": {
      "latitude": "29.960910708204867",
      "longitude": "-90.00736442561151"
    }
  },
  {
    "service_request": "2024-1099447",
    "request_type": "Trash/Recycling",
    "request_reason": "Request a Large Item Pick Up",
    "date_created": "2024-06-03T15:39:36.000",
    "date_modified": "2024-06-03T15:39:36.000",
    "request_status": "Pending",
    "responsible_agency": "Department of Sanitation",
    "final_address": "904 Verret St",
    "address_councildis": "C",
    "status": "Assigned to Contractor",
    "contractor": "Richards Disposal",
    "rowid": "1099447",
    "final_x": "3687230.54479",
    "final_y": "528274.31712",
    "longitude": "-90.05009014530448",
    "latitude": "29.946395928201337",
    "geocoded_column": {
      "latitude": "29.946395928201337",
      "longitude": "-90.05009014530448"
    }
  },
  {
    "service_request": "2024-1099446",
    "request_type": "Roads/Drainage",
    "request_reason": "Road Shoulder Repair",
    "date_created": "2024-06-03T15:39:22.000",
    "date_modified": "2024-06-03T15:39:22.000",
    "request_status": "Pending",
    "responsible_agency": "Department of Public Works",
    "final_address": "100 BLK N Rampart St",
    "address_councildis": "C",
    "status": "Pending",
    "rowid": "1099446",
    "final_x": "3680136.90183",
    "final_y": "531766.477593",
    "longitude": "-90.07236592864875",
    "latitude": "29.956214729378335",
    "geocoded_column": {
      "latitude": "29.956214729378335",
      "longitude": "-90.07236592864875"
    }
  },
  {
    "service_request": "2024-1099445",
    "request_type": "Trash/Recycling",
    "request_reason": "Repair Trash Cart",
    "date_created": "2024-06-03T15:38:05.000",
    "date_modified": "2024-06-03T15:40:11.000",
    "request_status": "Pending",
    "responsible_agency": "Department of Sanitation",
    "final_address": "904 Verret St",
    "address_councildis": "C",
    "status": "Assigned to Contractor",
    "contractor": "Richards Disposal",
    "rowid": "1099445",
    "final_x": "3687230.54479",
    "final_y": "528274.31712",
    "longitude": "-90.05009014530448",
    "latitude": "29.946395928201337",
    "geocoded_column": {
      "latitude": "29.946395928201337",
      "longitude": "-90.05009014530448"
    }
  },
  {
    "service_request": "2024-1099444",
    "request_type": "Trash/Recycling",
    "request_reason": "Request a Large Item Pick Up",
    "date_created": "2024-06-03T15:37:31.000",
    "date_modified": "2024-06-03T15:37:31.000",
    "request_status": "Pending",
    "responsible_agency": "Department of Sanitation",
    "final_address": "1143 St Mary St",
    "address_councildis": "B",
    "status": "Assigned to Contractor",
    "contractor": "IV Waste",
    "rowid": "1099444",
    "final_x": "3679555.63624",
    "final_y": "523072.940283",
    "longitude": "-90.07450295107145",
    "latitude": "29.932327974649187",
    "geocoded_column": {
      "latitude": "29.932327974649187",
      "longitude": "-90.07450295107145"
    }
  },
  {
    "service_request": "2024-1099443",
    "request_type": "Roads/Drainage",
    "request_reason": "Street Subsidence (Sinking)",
    "date_created": "2024-06-03T15:37:19.000",
    "date_modified": "2024-06-03T15:37:19.000",
    "request_status": "Pending",
    "responsible_agency": "Department of Public Works",
    "final_address": "100 BLK N Rampart St",
    "address_councildis": "C",
    "status": "Pending",
    "rowid": "1099443",
    "final_x": "3680136.90183",
    "final_y": "531766.477593",
    "longitude": "-90.07236592864875",
    "latitude": "29.956214729378335",
    "geocoded_column": {
      "latitude": "29.956214729378335",
      "longitude": "-90.07236592864875"
    }
  },
  {
    "service_request": "2024-1099442",
    "request_type": "Trash/Recycling",
    "request_reason": "Request a Large Item Pick Up",
    "date_created": "2024-06-03T15:34:48.000",
    "date_modified": "2024-06-03T15:34:49.000",
    "request_status": "Pending",
    "responsible_agency": "Department of Sanitation",
    "final_address": "13621 N Lemans St",
    "address_councildis": "E",
    "status": "Assigned to Contractor",
    "contractor": "Waste Pro",
    "rowid": "1099442",
    "final_x": "3725940.69056",
    "final_y": "563284.827296",
    "longitude": "-89.92651324393151",
    "latitude": "30.041412245374843",
    "geocoded_column": {
      "latitude": "30.041412245374843",
      "longitude": "-89.92651324393151"
    }
  },
  {
    "service_request": "2024-1099441",
    "request_type": "Trash/Recycling",
    "request_reason": "Request a Large Item Pick Up",
    "date_created": "2024-06-03T15:32:51.000",
    "date_modified": "2024-06-03T15:32:52.000",
    "request_status": "Pending",
    "responsible_agency": "Department of Sanitation",
    "final_address": "2083 Law St",
    "address_councildis": "D",
    "status": "Assigned to Contractor",
    "contractor": "IV Waste",
    "rowid": "1099441",
    "final_x": "3683244.05858",
    "final_y": "541761.82254",
    "longitude": "-90.062204458645",
    "latitude": "29.983604081767677",
    "geocoded_column": {
      "latitude": "29.983604081767677",
      "longitude": "-90.062204458645"
    }
  },
  {
    "service_request": "2024-1099440",
    "request_type": "Trash/Recycling",
    "request_reason": "Request a Large Item Pick Up",
    "date_created": "2024-06-03T15:31:24.000",
    "date_modified": "2024-06-03T15:31:25.000",
    "request_status": "Pending",
    "responsible_agency": "Department of Sanitation",
    "final_address": "2315 State St",
    "address_councildis": "A",
    "status": "Assigned to Contractor",
    "contractor": "IV Waste",
    "rowid": "1099440",
    "final_x": "3666706.84077",
    "final_y": "525149.098173",
    "longitude": "-90.11499586587037",
    "latitude": "29.938418630533477",
    "geocoded_column": {
      "latitude": "29.938418630533477",
      "longitude": "-90.11499586587037"
    }
  },
  {
    "service_request": "2024-1099439",
    "request_type": "Traffic Signals/Signs/Striping/Streetlights",
    "request_reason": "Street Light Outage/Malfunction",
    "date_created": "2024-06-03T15:31:15.000",
    "date_modified": "2024-06-03T15:33:23.000",
    "request_status": "Pending",
    "responsible_agency": "Department of Public Works",
    "final_address": "4953 Eastern St",
    "address_councildis": "D",
    "status": "Assigned to Contractor",
    "contractor": "Legacy Professional Services",
    "rowid": "1099439",
    "final_x": "3687990.05699",
    "final_y": "551447.596565",
    "longitude": "-90.04687065079466",
    "latitude": "30.010090841684946",
    "geocoded_column": {
      "latitude": "30.010090841684946",
      "longitude": "-90.04687065079466"
    }
  },
  {
    "service_request": "2024-1099438",
    "request_type": "Roads/Drainage",
    "request_reason": "Pothole",
    "date_created": "2024-06-03T15:29:26.000",
    "date_modified": "2024-06-03T16:06:44.000",
    "request_status": "Pending",
    "responsible_agency": "Department of Public Works",
    "final_address": "2125 Laharpe St",
    "address_councildis": "D",
    "status": "Inspected",
    "rowid": "1099438",
    "final_x": "3680415.81231",
    "final_y": "538762.038921",
    "longitude": "-90.07124191662122",
    "latitude": "29.97544168662399",
    "geocoded_column": {
      "latitude": "29.97544168662399",
      "longitude": "-90.07124191662122"
    }
  },
  {
    "service_request": "2024-1099437",
    "request_type": "Trash/Recycling",
    "request_reason": "Order Trash Cart",
    "date_created": "2024-06-03T15:23:36.000",
    "date_modified": "2024-06-03T15:23:36.000",
    "request_status": "Pending",
    "responsible_agency": "Department of Sanitation",
    "final_address": "7910 Haney Dr",
    "address_councildis": "E",
    "status": "Assigned to Contractor",
    "contractor": "Waste Pro",
    "rowid": "1099437",
    "final_x": "3712035.726",
    "final_y": "568042.293861",
    "longitude": "-89.97027863858409",
    "latitude": "30.054955434862855",
    "geocoded_column": {
      "latitude": "30.054955434862855",
      "longitude": "-89.97027863858409"
    }
  },
  {
    "service_request": "2024-1099436",
    "request_type": "Roads/Drainage",
    "request_reason": "Road Shoulder Repair",
    "date_created": "2024-06-03T15:21:04.000",
    "date_modified": "2024-06-03T15:21:04.000",
    "request_status": "Pending",
    "responsible_agency": "Department of Public Works",
    "final_address": "210 N Rampart St",
    "address_councildis": "C",
    "status": "Pending",
    "rowid": "1099436",
    "final_x": "3680400.03752",
    "final_y": "532002.823299",
    "longitude": "-90.07152681690904",
    "latitude": "29.95685663512432",
    "geocoded_column": {
      "latitude": "29.95685663512432",
      "longitude": "-90.07152681690904"
    }
  },
  {
    "service_request": "2024-1099435",
    "request_type": "Roads/Drainage",
    "request_reason": "Accessibility Ramps, Curbs and Sidewalk Repair",
    "date_created": "2024-06-03T15:19:06.000",
    "date_modified": "2024-06-03T15:19:06.000",
    "request_status": "Pending",
    "responsible_agency": "Department of Public Works",
    "final_address": "210 N Rampart St",
    "address_councildis": "C",
    "status": "Pending",
    "rowid": "1099435",
    "final_x": "3680400.03752",
    "final_y": "532002.823299",
    "longitude": "-90.07152681690904",
    "latitude": "29.95685663512432",
    "geocoded_column": {
      "latitude": "29.95685663512432",
      "longitude": "-90.07152681690904"
    }
  },
  {
    "service_request": "2024-1099434",
    "request_type": "Abandoned Vehicles",
    "request_reason": "Abandoned/Junk Vehicles",
    "date_created": "2024-06-03T15:18:40.000",
    "date_modified": "2024-06-03T15:18:40.000",
    "request_status": "Pending",
    "responsible_agency": "Department of Public Works",
    "final_address": "12900 Jeanne Ct",
    "address_councildis": "E",
    "status": "Pending",
    "rowid": "1099434",
    "final_x": "3716563.27647",
    "final_y": "567890.087588",
    "longitude": "-89.95597395455535",
    "latitude": "30.054388063640225",
    "geocoded_column": {
      "latitude": "30.054388063640225",
      "longitude": "-89.95597395455535"
    }
  },
  {
    "service_request": "2024-1099433",
    "request_type": "Trash/Recycling",
    "request_reason": "Order Recycling Cart",
    "date_created": "2024-06-03T15:18:35.000",
    "date_modified": "2024-06-03T15:18:36.000",
    "request_status": "Pending",
    "responsible_agency": "Department of Sanitation",
    "final_address": "7044 Mayo Rd",
    "address_councildis": "E",
    "status": "Pending",
    "rowid": "1099433",
    "final_x": "3701450.9002",
    "final_y": "558884.290332",
    "longitude": "-90.004070621789",
    "latitude": "30.030116487937242",
    "geocoded_column": {
      "latitude": "30.030116487937242",
      "longitude": "-90.004070621789"
    }
  },
  {
    "service_request": "2024-1099432",
    "request_type": "Trash/Recycling",
    "request_reason": "Repair Trash Cart",
    "date_created": "2024-06-03T15:16:56.000",
    "date_modified": "2024-06-03T15:16:56.000",
    "request_status": "Pending",
    "responsible_agency": "Department of Sanitation",
    "final_address": "7044 Mayo Rd",
    "address_councildis": "E",
    "status": "Assigned to Contractor",
    "contractor": "Waste Pro",
    "rowid": "1099432",
    "final_x": "3701450.9002",
    "final_y": "558884.290332",
    "longitude": "-90.004070621789",
    "latitude": "30.030116487937242",
    "geocoded_column": {
      "latitude": "30.030116487937242",
      "longitude": "-90.004070621789"
    }
  },
  {
    "service_request": "2024-1099431",
    "request_type": "Roads/Drainage",
    "request_reason": "Damaged Sidewalk",
    "date_created": "2024-06-03T15:16:47.000",
    "date_modified": "2024-06-03T15:16:47.000",
    "request_status": "Pending",
    "responsible_agency": "Department of Public Works",
    "final_address": "201 N Rampart St",
    "address_councildis": "C",
    "status": "Pending",
    "rowid": "1099431",
    "final_x": "3680252.24763",
    "final_y": "531998.461507",
    "longitude": "-90.0719936419936",
    "latitude": "29.95684911584148",
    "geocoded_column": {
      "latitude": "29.95684911584148",
      "longitude": "-90.0719936419936"
    }
  },
  {
    "service_request": "2024-1099430",
    "request_type": "Trash/Recycling",
    "request_reason": "Missed Trash Pick-Up",
    "date_created": "2024-06-03T15:12:35.000",
    "date_modified": "2024-06-03T16:40:01.000",
    "case_close_date": "2024-06-03T11:40:01.000",
    "request_status": "Closed",
    "responsible_agency": "Department of Sanitation",
    "final_address": "54 W Park Pl",
    "address_councildis": "A",
    "status": "Invalid Request",
    "contractor": "IV Waste",
    "contractor_action": "Invalid Request",
    "rowid": "1099430",
    "final_x": "3669699.89089",
    "final_y": "544634.727311",
    "longitude": "-90.10488695115596",
    "latitude": "29.99190977300646",
    "geocoded_column": {
      "latitude": "29.99190977300646",
      "longitude": "-90.10488695115596"
    }
  },
  {
    "service_request": "2024-1099429",
    "request_type": "Abandoned Vehicles",
    "request_reason": "Abandoned/Junk Vehicles",
    "date_created": "2024-06-03T15:09:32.000",
    "date_modified": "2024-06-03T15:09:32.000",
    "request_status": "Pending",
    "responsible_agency": "Department of Public Works",
    "final_address": "2401 Bienville Ave",
    "address_councildis": "B",
    "status": "Pending",
    "rowid": "1099429",
    "final_x": "3676865.25345",
    "final_y": "535023.914822",
    "longitude": "-90.08258442150571",
    "latitude": "29.96527017544061",
    "geocoded_column": {
      "latitude": "29.96527017544061",
      "longitude": "-90.08258442150571"
    }
  },
  {
    "service_request": "2024-1099428",
    "request_type": "Trash/Recycling",
    "request_reason": "Replace Recycling Cart",
    "date_created": "2024-06-03T15:08:59.000",
    "date_modified": "2024-06-03T15:09:00.000",
    "request_status": "Pending",
    "responsible_agency": "Department of Sanitation",
    "final_address": "4315 S Liberty St",
    "address_councildis": "B",
    "status": "Pending",
    "rowid": "1099428",
    "final_x": "3670861.30305",
    "final_y": "523420.463995",
    "longitude": "-90.1019384311558",
    "latitude": "29.933543329375276",
    "geocoded_column": {
      "latitude": "29.933543329375276",
      "longitude": "-90.1019384311558"
    }
  },
  {
    "service_request": "2024-1099427",
    "request_type": "Trash/Recycling",
    "request_reason": "Illegal Dumping",
    "date_created": "2024-06-03T15:08:51.000",
    "date_modified": "2024-06-03T15:08:51.000",
    "request_status": "Pending",
    "responsible_agency": "Department of Sanitation",
    "final_address": "14100 BLK Michoud Blvd",
    "address_councildis": "E",
    "status": "Pending",
    "rowid": "1099427",
    "final_x": "3726055.25815",
    "final_y": "571916.906151",
    "longitude": "-89.92581607057438",
    "latitude": "30.065142968330115",
    "geocoded_column": {
      "latitude": "30.065142968330115",
      "longitude": "-89.92581607057438"
    }
  },
  {
    "service_request": "2024-1099426",
    "request_type": "Parks & Parkways",
    "request_reason": "Request Grass Cutting Service (City Owned Property)",
    "date_created": "2024-06-03T15:08:16.000",
    "date_modified": "2024-06-03T15:08:16.000",
    "request_status": "Pending",
    "responsible_agency": "Department of Parks & Parkway",
    "final_address": "3660 Bennett St",
    "address_councildis": "C",
    "status": "Pending",
    "rowid": "1099426",
    "final_x": "3710363.15601",
    "final_y": "516947.060789",
    "longitude": "-89.97747624688263",
    "latitude": "29.914517376667195",
    "geocoded_column": {
      "latitude": "29.914517376667195",
      "longitude": "-89.97747624688263"
    }
  },
  {
    "service_request": "2024-1099425",
    "request_type": "Trash/Recycling",
    "request_reason": "Repair Trash Cart",
    "date_created": "2024-06-03T15:07:29.000",
    "date_modified": "2024-06-03T15:07:30.000",
    "request_status": "Pending",
    "responsible_agency": "Department of Sanitation",
    "final_address": "4315 S Liberty St",
    "address_councildis": "B",
    "status": "Assigned to Contractor",
    "contractor": "IV Waste",
    "rowid": "1099425",
    "final_x": "3670861.30305",
    "final_y": "523420.463995",
    "longitude": "-90.1019384311558",
    "latitude": "29.933543329375276",
    "geocoded_column": {
      "latitude": "29.933543329375276",
      "longitude": "-90.1019384311558"
    }
  },
  {
    "service_request": "2024-1099424",
    "request_type": "Trash/Recycling",
    "request_reason": "Order Recycling Cart",
    "date_created": "2024-06-03T15:05:43.000",
    "date_modified": "2024-06-03T15:05:43.000",
    "request_status": "Pending",
    "responsible_agency": "Department of Sanitation",
    "final_address": "4840 Dauphine St",
    "address_councildis": "E",
    "status": "Pending",
    "rowid": "1099424",
    "final_x": "3695024.30794",
    "final_y": "533262.444804",
    "longitude": "-90.02530282691886",
    "latitude": "29.95986923399664",
    "geocoded_column": {
      "latitude": "29.95986923399664",
      "longitude": "-90.02530282691886"
    }
  },
  {
    "service_request": "2024-1099423",
    "request_type": "Traffic Signals/Signs/Striping/Streetlights",
    "request_reason": "Street Light Outage/Malfunction",
    "date_created": "2024-06-03T15:05:27.000",
    "date_modified": "2024-06-03T15:05:28.000",
    "request_status": "Pending",
    "responsible_agency": "Department of Public Works",
    "final_address": "4816 Crowder Blvd",
    "address_councildis": "E",
    "status": "Assigned to Contractor",
    "contractor": "Legacy Professional Services",
    "rowid": "1099423",
    "final_x": "3706285.56452",
    "final_y": "556117.323482",
    "longitude": "-89.98889578897932",
    "latitude": "30.02235330616904",
    "geocoded_column": {
      "latitude": "30.02235330616904",
      "longitude": "-89.98889578897932"
    }
  },
  {
    "service_request": "2024-1099422",
    "request_type": "Traffic Signals/Signs/Striping/Streetlights",
    "request_reason": "Street Light Outage/Malfunction",
    "date_created": "2024-06-03T15:05:10.000",
    "date_modified": "2024-06-03T15:05:11.000",
    "request_status": "Pending",
    "responsible_agency": "Department of Public Works",
    "final_address": "6011 Chatham Dr",
    "address_councildis": "D",
    "status": "Assigned to Contractor",
    "contractor": "Legacy Professional Services",
    "rowid": "1099422",
    "final_x": "3679679.44527",
    "final_y": "554559.114392",
    "longitude": "-90.07301880493173",
    "latitude": "30.018900327949655",
    "geocoded_column": {
      "latitude": "30.018900327949655",
      "longitude": "-90.07301880493173"
    }
  },
  {
    "service_request": "2024-1099421",
    "request_type": "Trash/Recycling",
    "request_reason": "Request a Large Item Pick Up",
    "date_created": "2024-06-03T15:04:50.000",
    "date_modified": "2024-06-03T15:04:50.000",
    "request_status": "Pending",
    "responsible_agency": "Department of Sanitation",
    "final_address": "10810 Kinneil Rd",
    "address_councildis": "E",
    "status": "Assigned to Contractor",
    "contractor": "Waste Pro",
    "rowid": "1099421",
    "final_x": "3711138.22667",
    "final_y": "563981.390497",
    "longitude": "-89.97326777059305",
    "latitude": "30.043818918755456",
    "geocoded_column": {
      "latitude": "30.043818918755456",
      "longitude": "-89.97326777059305"
    }
  },
  {
    "service_request": "2024-1099420",
    "request_type": "Trash/Recycling",
    "request_reason": "Repair Trash Cart",
    "date_created": "2024-06-03T15:04:09.000",
    "date_modified": "2024-06-03T15:04:10.000",
    "request_status": "Pending",
    "responsible_agency": "Department of Sanitation",
    "final_address": "318 N Norman C Francis Prkwy",
    "address_councildis": "B",
    "status": "Assigned to Contractor",
    "contractor": "IV Waste",
    "rowid": "1099420",
    "final_x": "3673903.21089",
    "final_y": "537408.285128",
    "longitude": "-90.09185683448105",
    "latitude": "29.97191495865169",
    "geocoded_column": {
      "latitude": "29.97191495865169",
      "longitude": "-90.09185683448105"
    }
  },
  {
    "service_request": "2024-1099419",
    "request_type": "Abandoned Vehicles",
    "request_reason": "Abandoned/Junk Vehicles",
    "date_created": "2024-06-03T15:02:57.000",
    "date_modified": "2024-06-03T15:02:58.000",
    "request_status": "Pending",
    "responsible_agency": "Department of Public Works",
    "final_address": "1537 Camp St",
    "address_councildis": "B",
    "status": "Pending",
    "rowid": "1099419",
    "final_x": "3679620.71343",
    "final_y": "523662.692475",
    "longitude": "-90.07427705097123",
    "latitude": "29.93394763303682",
    "geocoded_column": {
      "latitude": "29.93394763303682",
      "longitude": "-90.07427705097123"
    }
  },
  {
    "service_request": "2024-1099418",
    "request_type": "Healthy Homes",
    "request_reason": "Healthy Homes",
    "date_created": "2024-06-03T15:02:37.000",
    "date_modified": "2024-06-03T15:02:37.000",
    "request_status": "Pending",
    "responsible_agency": "Department of Code Enforcement",
    "final_address": "4000 Prytania St",
    "address_councildis": "B",
    "status": "Pending",
    "rowid": "1099418",
    "final_x": "3672337.46235",
    "final_y": "520424.18028",
    "longitude": "-90.09738029716965",
    "latitude": "29.925260810600854",
    "geocoded_column": {
      "latitude": "29.925260810600854",
      "longitude": "-90.09738029716965"
    }
  },
  {
    "service_request": "2024-1099417",
    "request_type": "Trash/Recycling",
    "request_reason": "Missed Trash Pick-Up",
    "date_created": "2024-06-03T15:01:04.000",
    "date_modified": "2024-06-03T16:38:40.000",
    "case_close_date": "2024-06-03T11:38:40.000",
    "request_status": "Closed",
    "responsible_agency": "Department of Sanitation",
    "final_address": "712 N Dupre St",
    "address_councildis": "A",
    "status": "Invalid Request",
    "contractor": "IV Waste",
    "contractor_action": "Invalid Request",
    "rowid": "1099417",
    "final_x": "3676046.92341",
    "final_y": "537479.685",
    "longitude": "-90.08508418549205",
    "latitude": "29.972047245317654",
    "geocoded_column": {
      "latitude": "29.972047245317654",
      "longitude": "-90.08508418549205"
    }
  },
  {
    "service_request": "2024-1099415",
    "request_type": "Trash/Recycling",
    "request_reason": "Request a Large Item Pick Up",
    "date_created": "2024-06-03T14:57:44.000",
    "date_modified": "2024-06-03T14:57:44.000",
    "request_status": "Pending",
    "responsible_agency": "Department of Sanitation",
    "final_address": "11301 Prentiss Ave",
    "address_councildis": "E",
    "status": "Assigned to Contractor",
    "contractor": "Waste Pro",
    "rowid": "1099415",
    "final_x": "3717039.43122",
    "final_y": "556840.331994",
    "longitude": "-89.95488911059726",
    "latitude": "30.023989967248013",
    "geocoded_column": {
      "latitude": "30.023989967248013",
      "longitude": "-89.95488911059726"
    }
  },
  {
    "service_request": "2024-1099414",
    "request_type": "Roads/Drainage",
    "request_reason": "Damaged Sidewalk",
    "date_created": "2024-06-03T14:54:56.000",
    "date_modified": "2024-06-03T14:54:56.000",
    "request_status": "Pending",
    "responsible_agency": "Department of Public Works",
    "final_address": "342 N Rampart St",
    "address_councildis": "C",
    "status": "Pending",
    "rowid": "1099414",
    "final_x": "3680749.65141",
    "final_y": "532421.833411",
    "longitude": "-90.07040826461947",
    "latitude": "29.95799818006114",
    "geocoded_column": {
      "latitude": "29.95799818006114",
      "longitude": "-90.07040826461947"
    }
  },
  {
    "service_request": "2024-1099413",
    "request_type": "Trash/Recycling",
    "request_reason": "Request a Large Item Pick Up",
    "date_created": "2024-06-03T14:53:10.000",
    "date_modified": "2024-06-03T14:53:11.000",
    "request_status": "Pending",
    "responsible_agency": "Department of Sanitation",
    "final_address": "707 Fats Domino Ave",
    "address_councildis": "E",
    "status": "Assigned to Contractor",
    "contractor": "Waste Pro",
    "rowid": "1099413",
    "final_x": "3697695.42339",
    "final_y": "532333.076611",
    "longitude": "-90.01690180130872",
    "latitude": "29.9572296875873",
    "geocoded_column": {
      "latitude": "29.9572296875873",
      "longitude": "-90.01690180130872"
    }
  },
  {
    "service_request": "2024-1099412",
    "request_type": "Abandoned Vehicles",
    "request_reason": "Abandoned/Junk Vehicles",
    "date_created": "2024-06-03T14:51:36.000",
    "date_modified": "2024-06-03T14:51:37.000",
    "request_status": "Pending",
    "responsible_agency": "Department of Public Works",
    "final_address": "PIEDMONT DR & HUMANITY ST & BAY ST",
    "address_councildis": "D",
    "status": "Pending",
    "rowid": "1099412",
    "final_x": "3686640.6",
    "final_y": "544992.38",
    "longitude": "-90.05136224615117",
    "latitude": "29.99238292177512",
    "geocoded_column": {
      "latitude": "29.99238292177512",
      "longitude": "-90.05136224615117"
    }
  },
  {
    "service_request": "2024-1099411",
    "request_type": "Roads/Drainage",
    "request_reason": "Damaged Sidewalk",
    "date_created": "2024-06-03T14:49:17.000",
    "date_modified": "2024-06-03T14:49:17.000",
    "request_status": "Pending",
    "responsible_agency": "Department of Public Works",
    "final_address": "310 N Rampart St",
    "address_councildis": "C",
    "status": "Pending",
    "rowid": "1099411",
    "final_x": "3680606.5245",
    "final_y": "532235.294339",
    "longitude": "-90.07086670891782",
    "latitude": "29.95748959775532",
    "geocoded_column": {
      "latitude": "29.95748959775532",
      "longitude": "-90.07086670891782"
    }
  },
  {
    "service_request": "2024-1099409",
    "request_type": "Trash/Recycling",
    "request_reason": "Return Trash Cart",
    "date_created": "2024-06-03T14:47:57.000",
    "date_modified": "2024-06-03T14:47:57.000",
    "request_status": "Pending",
    "responsible_agency": "Department of Sanitation",
    "final_address": "815 Eliza St",
    "address_councildis": "C",
    "status": "Assigned to Contractor",
    "contractor": "Richards Disposal",
    "rowid": "1099409",
    "final_x": "3688008.03587",
    "final_y": "529871.898817",
    "longitude": "-90.04757873849523",
    "latitude": "29.950764766728657",
    "geocoded_column": {
      "latitude": "29.950764766728657",
      "longitude": "-90.04757873849523"
    }
  },