[
  {
    "service_request": "2025-1196845",
    "request_type": "Roads and Streets",
    "request_reason": "Pothole",
    "date_created": "2025-05-31T23:48:20.000",
    "date_modified": "2025-05-31T23:48:21.000",
    "request_status": "Pending",
    "responsible_agency": "Department of Public Works",
    "final_address": "8126 Oak St",
    "address_councildis": "A",
    "status": "Pending",
    "rowid": "1196845",
    "final_x": "3661777.42931",
    "final_y": "528490.765568",
    "longitude": "-90.13044783702584",
    "latitude": "29.947750350121428",
    "geocoded_column": {
      "latitude": "29.947750350121428",
      "longitude": "-90.13044783702584"
    }
  },
  {
    "service_request": "2025-1196844",
    "request_type": "Roads and Streets",
    "request_reason": "Pothole",
    "date_created": "2025-05-31T23:40:04.000",
    "date_modified": "2025-05-31T23:40:11.000",
    "request_status": "Pending",
    "responsible_agency": "Department of Public Works",
    "final_address": "147 Alvin Callender St",
    "address_councildis": "A",
    "status": "Pending",
    "rowid": "1196844",
    "final_x": "3661191.19802",
    "final_y": "523429.398587",
    "longitude": "-90.13246629261687",
    "latitude": "29.933850104242122",
    "geocoded_column": {
      "latitude": "29.933850104242122",
      "longitude": "-90.13246629261687"
    }
  },
  {
    "service_request": "2025-1196843",
    "request_type": "Streetlights",
    "request_reason": "Streetlight Outage/Malfunction",
    "date_created": "2025-05-31T23:34:44.000",
    "date_modified": "2025-05-31T23:34:47.000",
    "request_status": "Pending",
    "responsible_agency": "Department of Public Works",
    "final_address": "8501 Dixon St",
    "address_councildis": "A",
    "status": "Pending",
    "contractor": "Legacy Professional Services",
    "rowid": "1196843",
    "final_x": "3667313.38925",
    "final_y": "536612.515655",
    "longitude": "-90.11269538855723",
    "latitude": "29.969921533450812",
    "geocoded_column": {
      "latitude": "29.969921533450812",
      "longitude": "-90.11269538855723"
    }
  },
  {
    "service_request": "2025-1196842",
    "request_type": "Streetlights",
    "request_reason": "Streetlight Outage/Malfunction",
    "date_created": "2025-05-31T23:29:02.000",
    "date_modified": "2025-05-31T23:29:04.000",
    "request_status": "Pending",
    "responsible_agency": "Department of Public Works",
    "final_address": "147 Alvin Callender St",
    "address_councildis": "A",
    "status": "Pending",
    "contractor": "Legacy Professional Services",
    "rowid": "1196842",
    "final_x": "3661191.19802",
    "final_y": "523429.398587",
    "longitude": "-90.13246629261687",
    "latitude": "29.933850104242122",
    "geocoded_column": {
      "latitude": "29.933850104242122",
      "longitude": "-90.13246629261687"
    }
  },
  {
    "service_request": "2025-1196841",
    "request_type": "General Services",
    "request_reason": "General Service Request",
    "date_created": "2025-05-31T22:58:53.000",
    "date_modified": "2025-05-31T22:58:56.000",
    "request_status": "Pending",
    "responsible_agency": "Orleans Parish Communication District",
    "final_address": "2910 N Rampart St",
    "address_councildis": "C",
    "status": "Pending",
    "rowid": "1196841",
    "final_x": "3688166.89052",
    "final_y": "535712.937415",
    "longitude": "-90.04687009372843",
    "latitude": "29.96682069969533",
    "geocoded_column": {
      "latitude": "29.96682069969533",
      "longitude": "-90.04687009372843"
    }
  },
  {
    "service_request": "2025-1196840",
    "request_type": "Trash/Recycling",
    "request_reason": "Replace Trash Cart",
    "date_created": "2025-05-31T22:30:55.000",
    "date_modified": "2025-05-31T22:30:57.000",
    "request_status": "Pending",
    "responsible_agency": "Department of Sanitation",
    "final_address": "5820 Pembrook Drive New Orleans,  LA  70131",
    "status": "Assigned to Contractor",
    "rowid": "1196840",
    "longitude": "0.0",
    "latitude": "0.0",
    "geocoded_column": {
      "latitude": "0.0",
      "longitude": "0.0"
    }
  },
  {
    "service_request": "2025-1196839",
    "request_type": "Streetlights",
    "request_reason": "Streetlight Outage/Malfunction",
    "date_created": "2025-05-31T22:16:20.000",
    "date_modified": "2025-05-31T22:16:23.000",
    "request_status": "Pending",
    "responsible_agency": "Department of Public Works",
    "final_address": "1600 BLK Allen Toussaint Blvd",
    "address_councildis": "D",
    "status": "Pending",
    "contractor": "Legacy Professional Services",
    "rowid": "1196839",
    "final_x": "3679007.99136",
    "final_y": "555416.643876",
    "longitude": "-90.07511061030337",
    "latitude": "30.021278512240485",
    "geocoded_column": {
      "latitude": "30.021278512240485",
      "longitude": "-90.07511061030337"
    }
  },
  {
    "service_request": "2025-1196838",
    "request_type": "Trash/Recycling",
    "request_reason": "Order Recycling Cart",
    "date_created": "2025-05-31T22:07:43.000",
    "date_modified": "2025-05-31T22:07:45.000",
    "request_status": "Pending",
    "responsible_agency": "Department of Sanitation",
    "final_address": "4110 Duplessis St",
    "address_councildis": "D",
    "status": "Pending",
    "rowid": "1196838",
    "final_x": "3678293.83694",
    "final_y": "547362.429777",
    "longitude": "-90.07764602876286",
    "latitude": "29.999153855431963",
    "geocoded_column": {
      "latitude": "29.999153855431963",
      "longitude": "-90.07764602876286"
    }
  },
  {
    "service_request": "2025-1196837",
    "request_type": "Street and Traffic Signs",
    "request_reason": "Stop Sign Missing or Damaged",
    "date_created": "2025-05-31T21:36:48.000",
    "date_modified": "2025-05-31T21:36:51.000",
    "request_status": "Pending",
    "responsible_agency": "Department of Public Works",
    "final_address": "MARAIS ST & FRANKLIN AVE",
    "address_councildis": "C",
    "status": "Pending",
    "rowid": "1196837",
    "final_x": "3687138.8",
    "final_y": "536839.28",
    "longitude": "-90.05007695833918",
    "latitude": "29.96994944707801",
    "geocoded_column": {
      "latitude": "29.96994944707801",
      "longitude": "-90.05007695833918"
    }
  },
  {
    "service_request": "2025-1196836",
    "request_type": "Trash/Recycling",
    "request_reason": "Order Recycling Cart",
    "date_created": "2025-05-31T21:29:40.000",
    "date_modified": "2025-05-31T21:29:41.000",
    "request_status": "Pending",
    "responsible_agency": "Department of Sanitation",
    "final_address": "2438 Allen Toussaint Blvd",
    "address_councildis": "D",
    "status": "Pending",
    "rowid": "1196836",
    "final_x": "3685340.46325",
    "final_y": "555801.948377",
    "longitude": "-90.05508821101299",
    "latitude": "30.02214523971712",
    "geocoded_column": {
      "latitude": "30.02214523971712",
      "longitude": "-90.05508821101299"
    }
  },
  {
    "service_request": "2025-1196835",
    "request_type": "Roads and Streets",
    "request_reason": "Pothole",
    "date_created": "2025-05-31T21:26:18.000",
    "date_modified": "2025-05-31T21:26:19.000",
    "request_status": "Pending",
    "responsible_agency": "Department of Public Works",
    "final_address": "1834 Broadway St",
    "address_councildis": "A",
    "status": "Pending",
    "rowid": "1196835",
    "final_x": "3665456.008",
    "final_y": "528520.851968",
    "longitude": "-90.118832057248",
    "latitude": "29.947726380948694",
    "geocoded_column": {
      "latitude": "29.947726380948694",
      "longitude": "-90.118832057248"
    }
  },
  {
    "service_request": "2025-1196834",
    "request_type": "Drainage",
    "request_reason": "Catch Basin Clogged",
    "date_created": "2025-05-31T21:23:30.000",
    "date_modified": "2025-05-31T21:23:32.000",
    "request_status": "Pending",
    "responsible_agency": "Sewerage & Water Board",
    "final_address": "1834 Broadway St",
    "address_councildis": "A",
    "status": "Pending",
    "rowid": "1196834",
    "final_x": "3665456.008",
    "final_y": "528520.851968",
    "longitude": "-90.118832057248",
    "latitude": "29.947726380948694",
    "geocoded_column": {
      "latitude": "29.947726380948694",
      "longitude": "-90.118832057248"
    }
  },
  {
    "service_request": "2025-1196833",
    "request_type": "Drainage",
    "request_reason": "Catch Basin Clogged",
    "date_created": "2025-05-31T21:22:13.000",
    "date_modified": "2025-05-31T21:22:15.000",
    "request_status": "Pending",
    "responsible_agency": "Sewerage & Water Board",
    "final_address": "1834 Broadway St",
    "address_councildis": "A",
    "status": "Pending",
    "rowid": "1196833",
    "final_x": "3665456.008",
    "final_y": "528520.851968",
    "longitude": "-90.118832057248",
    "latitude": "29.947726380948694",
    "geocoded_column": {
      "latitude": "29.947726380948694",
      "longitude": "-90.118832057248"
    }
  },
  {
    "service_request": "2025-1196832",
    "request_type": "Streetlights",
    "request_reason": "Streetlight Outage/Malfunction",
    "date_created": "2025-05-31T21:15:41.000",
    "date_modified": "2025-05-31T21:15:43.000",
    "request_status": "Pending",
    "responsible_agency": "Department of Public Works",
    "final_address": "1834 Broadway St",
    "address_councildis": "A",
    "status": "Pending",
    "contractor": "Legacy Professional Services",
    "rowid": "1196832",
    "final_x": "3665456.008",
    "final_y": "528520.851968",
    "longitude": "-90.118832057248",
    "latitude": "29.947726380948694",
    "geocoded_column": {
      "latitude": "29.947726380948694",
      "longitude": "-90.118832057248"
    }
  },
  {
    "service_request": "2025-1196831",
    "request_type": "Street and Traffic Signs",
    "request_reason": "Street Name Sign Damaged or Missing",
    "date_created": "2025-05-31T21:14:18.000",
    "date_modified": "2025-05-31T21:14:20.000",
    "request_status": "Pending",
    "responsible_agency": "Department of Public Works",
    "final_address": "1834 Broadway St",
    "address_councildis": "A",
    "status": "Pending",
    "rowid": "1196831",
    "final_x": "3665456.008",
    "final_y": "528520.851968",
    "longitude": "-90.118832057248",
    "latitude": "29.947726380948694",
    "geocoded_column": {
      "latitude": "29.947726380948694",
      "longitude": "-90.118832057248"
    }
  },
  {
    "service_request": "2025-1196830",
    "request_type": "Street and Traffic Signs",
    "request_reason": "Street Name Sign Damaged or Missing",
    "date_created": "2025-05-31T21:08:06.000",
    "date_modified": "2025-05-31T21:08:08.000",
    "request_status": "Pending",
    "responsible_agency": "Department of Public Works",
    "final_address": "PORT ST & URQUHART ST",
    "address_councildis": "C",
    "status": "Pending",
    "rowid": "1196830",
    "final_x": "3687605.6",
    "final_y": "537118.08",
    "longitude": "-90.04859289021704",
    "latitude": "29.97070166655572",
    "geocoded_column": {
      "latitude": "29.97070166655572",
      "longitude": "-90.04859289021704"
    }
  },
  {
    "service_request": "2025-1196829",
    "request_type": "Streetlights",
    "request_reason": "Streetlight Outage/Malfunction",
    "date_created": "2025-05-31T21:00:41.000",
    "date_modified": "2025-05-31T21:00:42.000",
    "request_status": "Pending",
    "responsible_agency": "Department of Public Works",
    "final_address": "2321 Laurel St",
    "address_councildis": "B",
    "status": "Pending",
    "contractor": "Legacy Professional Services",
    "rowid": "1196829",
    "final_x": "3678817.63592",
    "final_y": "521160.475129",
    "longitude": "-90.07689895173172",
    "latitude": "29.927091594306507",
    "geocoded_column": {
      "latitude": "29.927091594306507",
      "longitude": "-90.07689895173172"
    }
  },
  {
    "service_request": "2025-1196826",
    "request_type": "Streetlights",
    "request_reason": "Streetlight Outage/Malfunction",
    "date_created": "2025-05-31T21:00:40.000",
    "date_modified": "2025-05-31T21:00:41.000",
    "request_status": "Pending",
    "responsible_agency": "Department of Public Works",
    "final_address": "2321 Laurel St",
    "address_councildis": "B",
    "status": "Pending",
    "contractor": "Legacy Professional Services",
    "rowid": "1196826",
    "final_x": "3678817.63592",
    "final_y": "521160.475129",
    "longitude": "-90.07689895173172",
    "latitude": "29.927091594306507",
    "geocoded_column": {
      "latitude": "29.927091594306507",
      "longitude": "-90.07689895173172"
    }
  },
  {
    "service_request": "2025-1196827",
    "request_type": "Streetlights",
    "request_reason": "Streetlight Outage/Malfunction",
    "date_created": "2025-05-31T21:00:40.000",
    "date_modified": "2025-05-31T21:00:42.000",
    "request_status": "Pending",
    "responsible_agency": "Department of Public Works",
    "final_address": "2321 Laurel St",
    "address_councildis": "B",
    "status": "Pending",
    "contractor": "Legacy Professional Services",
    "rowid": "1196827",
    "final_x": "3678817.63592",
    "final_y": "521160.475129",
    "longitude": "-90.07689895173172",
    "latitude": "29.927091594306507",
    "geocoded_column": {
      "latitude": "29.927091594306507",
      "longitude": "-90.07689895173172"
    }
  },
  {
    "service_request": "2025-1196828",
    "request_type": "Streetlights",
    "request_reason": "Streetlight Outage/Malfunction",
    "date_created": "2025-05-31T21:00:40.000",
    "date_modified": "2025-05-31T21:00:43.000",
    "request_status": "Pending",
    "responsible_agency": "Department of Public Works",
    "final_address": "2321 Laurel St",
    "address_councildis": "B",
    "status": "Pending",
    "contractor": "Legacy Professional Services",
    "rowid": "1196828",
    "final_x": "3678817.63592",
    "final_y": "521160.475129",
    "longitude": "-90.07689895173172",
    "latitude": "29.927091594306507",
    "geocoded_column": {
      "latitude": "29.927091594306507",
      "longitude": "-90.07689895173172"
    }
  },
  {
    "service_request": "2025-1196825",
    "request_type": "Streetlights",
    "request_reason": "Streetlight Outage/Malfunction",
    "date_created": "2025-05-31T21:00:40.000",
    "date_modified": "2025-05-31T21:00:41.000",
    "request_status": "Pending",
    "responsible_agency": "Department of Public Works",
    "final_address": "2321 Laurel St",
    "address_councildis": "B",
    "status": "Pending",
    "contractor": "Legacy Professional Services",
    "rowid": "1196825",
    "final_x": "3678817.63592",
    "final_y": "521160.475129",
    "longitude": "-90.07689895173172",
    "latitude": "29.927091594306507",
    "geocoded_column": {
      "latitude": "29.927091594306507",
      "longitude": "-90.07689895173172"
    }
  },
  {
    "service_request": "2025-1196822",
    "request_type": "Streetlights",
    "request_reason": "Streetlight Outage/Malfunction",
    "date_created": "2025-05-31T21:00:36.000",
    "date_modified": "2025-05-31T21:00:37.000",
    "request_status": "Pending",
    "responsible_agency": "Department of Public Works",
    "final_address": "2321 Laurel St",
    "address_councildis": "B",
    "status": "Pending",
    "contractor": "Legacy Professional Services",
    "rowid": "1196822",
    "final_x": "3678817.63592",
    "final_y": "521160.475129",
    "longitude": "-90.07689895173172",
    "latitude": "29.927091594306507",
    "geocoded_column": {
      "latitude": "29.927091594306507",
      "longitude": "-90.07689895173172"
    }
  },
  {
    "service_request": "2025-1196819",
    "request_type": "Streetlights",
    "request_reason": "Streetlight Outage/Malfunction",
    "date_created": "2025-05-31T21:00:36.000",
    "date_modified": "2025-05-31T21:00:37.000",
    "request_status": "Pending",
    "responsible_agency": "Department of Public Works",
    "final_address": "2321 Laurel St",
    "address_councildis": "B",
    "status": "Pending",
    "contractor": "Legacy Professional Services",
    "rowid": "1196819",
    "final_x": "3678817.63592",
    "final_y": "521160.475129",
    "longitude": "-90.07689895173172",
    "latitude": "29.927091594306507",
    "geocoded_column": {
      "latitude": "29.927091594306507",
      "longitude": "-90.07689895173172"
    }
  },
  {
    "service_request": "2025-1196818",
    "request_type": "Streetlights",
    "request_reason": "Streetlight Outage/Malfunction",
    "date_created": "2025-05-31T21:00:36.000",
    "date_modified": "2025-05-31T21:00:37.000",
    "request_status": "Pending",
    "responsible_agency": "Department of Public Works",
    "final_address": "2321 Laurel St",
    "address_councildis": "B",
    "status": "Pending",
    "contractor": "Legacy Professional Services",
    "rowid": "1196818",
    "final_x": "3678817.63592",
    "final_y": "521160.475129",
    "longitude": "-90.07689895173172",
    "latitude": "29.927091594306507",
    "geocoded_column": {
      "latitude": "29.927091594306507",
      "longitude": "-90.07689895173172"
    }
  },
  {
    "service_request": "2025-1196823",
    "request_type": "Streetlights",
    "request_reason": "Streetlight Outage/Malfunction",
    "date_created": "2025-05-31T21:00:36.000",
    "date_modified": "2025-05-31T21:00:38.000",
    "request_status": "Pending",
    "responsible_agency": "Department of Public Works",
    "final_address": "2321 Laurel St",
    "address_councildis": "B",
    "status": "Pending",
    "contractor": "Legacy Professional Services",
    "rowid": "1196823",
    "final_x": "3678817.63592",
    "final_y": "521160.475129",
    "longitude": "-90.07689895173172",
    "latitude": "29.927091594306507",
    "geocoded_column": {
      "latitude": "29.927091594306507",
      "longitude": "-90.07689895173172"
    }
  },
  {
    "service_request": "2025-1196824",
    "request_type": "Streetlights",
    "request_reason": "Streetlight Outage/Malfunction",
    "date_created": "2025-05-31T21:00:36.000",
    "date_modified": "2025-05-31T21:00:37.000",
    "request_status": "Pending",
    "responsible_agency": "Department of Public Works",
    "final_address": "2321 Laurel St",
    "address_councildis": "B",
    "status": "Pending",
    "contractor": "Legacy Professional Services",
    "rowid": "1196824",
    "final_x": "3678817.63592",
    "final_y": "521160.475129",
    "longitude": "-90.07689895173172",
    "latitude": "29.927091594306507",
    "geocoded_column": {
      "latitude": "29.927091594306507",
      "longitude": "-90.07689895173172"
    }
  },
  {
    "service_request": "2025-1196820",
    "request_type": "Streetlights",
    "request_reason": "Streetlight Outage/Malfunction",
    "date_created": "2025-05-31T21:00:36.000",
    "date_modified": "2025-05-31T21:00:37.000",
    "request_status": "Pending",
    "responsible_agency": "Department of Public Works",
    "final_address": "2321 Laurel St",
    "address_councildis": "B",
    "status": "Pending",
    "contractor": "Legacy Professional Services",
    "rowid": "1196820",
    "final_x": "3678817.63592",
    "final_y": "521160.475129",
    "longitude": "-90.07689895173172",
    "latitude": "29.927091594306507",
    "geocoded_column": {
      "latitude": "29.927091594306507",
      "longitude": "-90.07689895173172"
    }
  },
  {
    "service_request": "2025-1196821",
    "request_type": "Streetlights",
    "request_reason": "Streetlight Outage/Malfunction",
    "date_created": "2025-05-31T21:00:36.000",
    "date_modified": "2025-05-31T21:00:37.000",
    "request_status": "Pending",
    "responsible_agency": "Department of Public Works",
    "final_address": "2321 Laurel St",
    "address_councildis": "B",
    "status": "Pending",
    "contractor": "Legacy Professional Services",
    "rowid": "1196821",
    "final_x": "3678817.63592",
    "final_y": "521160.475129",
    "longitude": "-90.07689895173172",
    "latitude": "29.927091594306507",
    "geocoded_column": {
      "latitude": "29.927091594306507",
      "longitude": "-90.07689895173172"
    }
  },
  {
    "service_request": "2025-1196817",
    "request_type": "Streetlights",
    "request_reason": "Streetlight Outage/Malfunction",
    "date_created": "2025-05-31T21:00:20.000",
    "date_modified": "2025-05-31T21:00:21.000",
    "request_status": "Pending",
    "responsible_agency": "Department of Public Works",
    "final_address": "2321 Laurel St",
    "address_councildis": "B",
    "status": "Pending",
    "contractor": "Legacy Professional Services",
    "rowid": "1196817",
    "final_x": "3678817.63592",
    "final_y": "521160.475129",
    "longitude": "-90.07689895173172",
    "latitude": "29.927091594306507",
    "geocoded_column": {
      "latitude": "29.927091594306507",
      "longitude": "-90.07689895173172"
    }
  },
  {
    "service_request": "2025-1196816",
    "request_type": "Streetlights",
    "request_reason": "Streetlight Outage/Malfunction",
    "date_created": "2025-05-31T20:39:30.000",
    "date_modified": "2025-05-31T20:39:33.000",
    "request_status": "Pending",
    "responsible_agency": "Department of Public Works",
    "final_address": "7820 Mullet St",
    "address_councildis": "E",
    "status": "Pending",
    "contractor": "Legacy Professional Services",
    "rowid": "1196816",
    "final_x": "3698814.42416",
    "final_y": "560748.36387",
    "longitude": "-90.01233393347266",
    "latitude": "30.035325804735667",
    "geocoded_column": {
      "latitude": "30.035325804735667",
      "longitude": "-90.01233393347266"
    }
  },
  {
    "service_request": "2025-1196815",
    "request_type": "Trash/Recycling",
    "request_reason": "Replace Trash Cart",
    "date_created": "2025-05-31T20:24:12.000",
    "date_modified": "2025-05-31T20:24:14.000",
    "request_status": "Pending",
    "responsible_agency": "Department of Sanitation",
    "final_address": "8121 Aberdeen Rd",
    "address_councildis": "E",
    "status": "Assigned to Contractor",
    "contractor": "Waste Pro",
    "rowid": "1196815",
    "final_x": "3702711.29098",
    "final_y": "561376.059422",
    "longitude": "-89.99999618851304",
    "latitude": "30.036927617801375",
    "geocoded_column": {
      "latitude": "30.036927617801375",
      "longitude": "-89.99999618851304"
    }
  },
  {
    "service_request": "2025-1196814",
    "request_type": "Trash/Recycling",
    "request_reason": "Request a Large Item Pick Up",
    "date_created": "2025-05-31T20:22:08.000",
    "date_modified": "2025-05-31T20:22:11.000",
    "request_status": "Pending",
    "responsible_agency": "Department of Sanitation",
    "final_address": "8121 Aberdeen Rd",
    "address_councildis": "E",
    "status": "Assigned to Contractor",
    "contractor": "Waste Pro",
    "rowid": "1196814",
    "final_x": "3702711.29098",
    "final_y": "561376.059422",
    "longitude": "-89.99999618851304",
    "latitude": "30.036927617801375",
    "geocoded_column": {
      "latitude": "30.036927617801375",
      "longitude": "-89.99999618851304"
    }
  },
  {
    "service_request": "2025-1196813",
    "request_type": "Trash/Recycling",
    "request_reason": "Request a Large Item Pick Up",
    "date_created": "2025-05-31T19:33:32.000",
    "date_modified": "2025-05-31T19:33:35.000",
    "request_status": "Pending",
    "responsible_agency": "Department of Sanitation",
    "final_address": "2122 Calhoun St",
    "address_councildis": "A",
    "status": "Assigned to Contractor",
    "contractor": "IV Waste",
    "rowid": "1196813",
    "final_x": "3665663.10522",
    "final_y": "524939.672317",
    "longitude": "-90.11829806735155",
    "latitude": "29.93787325020039",
    "geocoded_column": {
      "latitude": "29.93787325020039",
      "longitude": "-90.11829806735155"
    }
  },
  {
    "service_request": "2025-1196812",
    "request_type": "Utility Poles",
    "request_reason": "Wires Sagging/Hanging Low",
    "date_created": "2025-05-31T19:05:07.000",
    "date_modified": "2025-05-31T19:05:10.000",
    "request_status": "Pending",
    "responsible_agency": "Utility Company Collective",
    "final_address": "5435 Pratt Dr",
    "address_councildis": "D",
    "status": "Pending",
    "rowid": "1196812",
    "final_x": "3680462.42229",
    "final_y": "552635.046358",
    "longitude": "-90.07061186957341",
    "latitude": "30.013586136274693",
    "geocoded_column": {
      "latitude": "30.013586136274693",
      "longitude": "-90.07061186957341"
    }
  },
  {
    "service_request": "2025-1196811",
    "request_type": "Roads and Streets",
    "request_reason": "Debris in Driving Lanes",
    "date_created": "2025-05-31T17:54:09.000",
    "date_modified": "2025-05-31T17:54:11.000",
    "request_status": "Pending",
    "responsible_agency": "Department of Public Works",
    "final_address": "100 BLK Broadway St",
    "address_councildis": "A",
    "status": "Pending",
    "rowid": "1196811",
    "final_x": "3660988.30397",
    "final_y": "521775.838454",
    "longitude": "-90.1331615009617",
    "latitude": "29.92930917745673",
    "geocoded_column": {
      "latitude": "29.92930917745673",
      "longitude": "-90.1331615009617"
    }
  },
  {
    "service_request": "2025-1196810",
    "request_type": "Roads and Streets",
    "request_reason": "Debris in Driving Lanes",
    "date_created": "2025-05-31T17:45:56.000",
    "date_modified": "2025-05-31T17:45:58.000",
    "request_status": "Pending",
    "responsible_agency": "Department of Public Works",
    "final_address": "402 Audubon St",
    "address_councildis": "A",
    "status": "Pending",
    "rowid": "1196810",
    "final_x": "3662089.68135",
    "final_y": "522932.876091",
    "longitude": "-90.12964627301545",
    "latitude": "29.932458901345072",
    "geocoded_column": {
      "latitude": "29.932458901345072",
      "longitude": "-90.12964627301545"
    }
  },
  {
    "service_request": "2025-1196809",
    "request_type": "Parks & Parkways",
    "request_reason": "Request Tree Service (Right of Way/Public Property)",
    "date_created": "2025-05-31T17:36:52.000",
    "date_modified": "2025-05-31T17:36:54.000",
    "request_status": "Pending",
    "responsible_agency": "Department of Parks & Parkway",
    "final_address": "623 Montegut St",
    "address_councildis": "C",
    "status": "Pending",
    "rowid": "1196809",
    "final_x": "3688061.37967",
    "final_y": "534473.338821",
    "longitude": "-90.04724723372523",
    "latitude": "29.963415492180644",
    "geocoded_column": {
      "latitude": "29.963415492180644",
      "longitude": "-90.04724723372523"
    }
  },
  {
    "service_request": "2025-1196808",
    "request_type": "Trash/Recycling",
    "request_reason": "Illegal Dumping",
    "date_created": "2025-05-31T17:32:06.000",
    "date_modified": "2025-05-31T17:32:08.000",
    "request_status": "Pending",
    "responsible_agency": "Department of Sanitation",
    "final_address": "3912 Patterson St",
    "address_councildis": "C",
    "status": "Pending",
    "rowid": "1196808",
    "final_x": "3698695.50359",
    "final_y": "526616.236094",
    "longitude": "-90.01395173264007",
    "latitude": "29.94147875465989",
    "geocoded_column": {
      "latitude": "29.94147875465989",
      "longitude": "-90.01395173264007"
    }
  },
  {
    "service_request": "2025-1196807",
    "request_type": "Property Maintenance",
    "request_reason": "Property Maintenance",
    "date_created": "2025-05-31T17:25:46.000",
    "date_modified": "2025-05-31T17:25:48.000",
    "request_status": "Pending",
    "responsible_agency": "Department of Code Enforcement",
    "final_address": "5703 Annunciation St",
    "address_councildis": "A",
    "status": "Pending",
    "rowid": "1196807",
    "final_x": "3665439.40154",
    "final_y": "517676.95967",
    "longitude": "-90.11924726773178",
    "latitude": "29.917909603758293",
    "geocoded_column": {
      "latitude": "29.917909603758293",
      "longitude": "-90.11924726773178"
    }
  },
  {
    "service_request": "2025-1196806",
    "request_type": "Trash/Recycling",
    "request_reason": "Request a Large Item Pick Up",
    "date_created": "2025-05-31T17:23:05.000",
    "date_modified": "2025-05-31T17:23:07.000",
    "request_status": "Pending",
    "responsible_agency": "Department of Sanitation",
    "final_address": "14554 Duane Rd",
    "address_councildis": "E",
    "status": "Assigned to Contractor",
    "contractor": "Waste Pro",
    "rowid": "1196806",
    "final_x": "3720895.35647",
    "final_y": "573378.00849",
    "longitude": "-89.94207080691999",
    "latitude": "30.069333650944582",
    "geocoded_column": {
      "latitude": "30.069333650944582",
      "longitude": "-89.94207080691999"
    }
  },
  {
    "service_request": "2025-1196805",
    "request_type": "Property Maintenance",
    "request_reason": "Property Maintenance",
    "date_created": "2025-05-31T17:16:31.000",
    "date_modified": "2025-05-31T17:16:33.000",
    "request_status": "Pending",
    "responsible_agency": "Department of Code Enforcement",
    "final_address": "5332 Laurel St",
    "address_councildis": "B",
    "status": "Pending",
    "rowid": "1196805",
    "final_x": "3667102.46324",
    "final_y": "517845.751926",
    "longitude": "-90.11399220629596",
    "latitude": "29.918325172333816",
    "geocoded_column": {
      "latitude": "29.918325172333816",
      "longitude": "-90.11399220629596"
    }
  },
  {
    "service_request": "2025-1196804",
    "request_type": "Roads and Streets",
    "request_reason": "Pothole",
    "date_created": "2025-05-31T17:06:18.000",
    "date_modified": "2025-05-31T17:06:20.000",
    "request_status": "Pending",
    "responsible_agency": "Department of Public Works",
    "final_address": "3821 Indiana St",
    "address_councildis": "C",
    "status": "Pending",
    "rowid": "1196804",
    "final_x": "3692899.4463",
    "final_y": "519548.605751",
    "longitude": "-90.03250426841258",
    "latitude": "29.92222741087994",
    "geocoded_column": {
      "latitude": "29.92222741087994",
      "longitude": "-90.03250426841258"
    }
  },
  {
    "service_request": "2025-1196803",
    "request_type": "Trash/Recycling",
    "request_reason": "Request a Large Item Pick Up",
    "date_created": "2025-05-31T16:55:52.000",
    "date_modified": "2025-05-31T16:55:59.000",
    "request_status": "Pending",
    "responsible_agency": "Department of Sanitation",
    "final_address": "12930 Mcraven Ct",
    "address_councildis": "E",
    "status": "Assigned to Contractor",
    "contractor": "Waste Pro",
    "rowid": "1196803",
    "final_x": "3716487.34981",
    "final_y": "568210.974437",
    "longitude": "-89.95620174883621",
    "latitude": "30.055272879584454",
    "geocoded_column": {
      "latitude": "30.055272879584454",
      "longitude": "-89.95620174883621"
    }
  },
  {
    "service_request": "2025-1196802",
    "request_type": "Street and Traffic Signs",
    "request_reason": "One Way Sign Missing or Damaged",
    "date_created": "2025-05-31T16:45:54.000",
    "date_modified": "2025-05-31T16:45:57.000",
    "request_status": "Pending",
    "responsible_agency": "Department of Public Works",
    "final_address": "1544 Camp St Apt 7",
    "address_councildis": "B",
    "status": "Pending",
    "rowid": "1196802",
    "final_x": "3679758.98741",
    "final_y": "523497.693755",
    "longitude": "-90.07384625143573",
    "latitude": "29.93348976244954",
    "geocoded_column": {
      "latitude": "29.93348976244954",
      "longitude": "-90.07384625143573"
    }
  },
  {
    "service_request": "2025-1196801",
    "request_type": "Trash/Recycling",
    "request_reason": "Request a Large Item Pick Up",
    "date_created": "2025-05-31T15:41:42.000",
    "date_modified": "2025-05-31T15:41:44.000",
    "request_status": "Pending",
    "responsible_agency": "Department of Sanitation",
    "final_address": "7562 Forum Blvd",
    "address_councildis": "E",
    "status": "Assigned to Contractor",
    "contractor": "Waste Pro",
    "rowid": "1196801",
    "final_x": "3720473.77433",
    "final_y": "572886.461737",
    "longitude": "-89.94342236305155",
    "latitude": "30.067996172754388",
    "geocoded_column": {
      "latitude": "30.067996172754388",
      "longitude": "-89.94342236305155"
    }
  },
  {
    "service_request": "2025-1196800",
    "request_type": "Trash/Recycling",
    "request_reason": "Request a Large Item Pick Up",
    "date_created": "2025-05-31T15:23:27.000",
    "date_modified": "2025-05-31T15:23:29.000",
    "request_status": "Pending",
    "responsible_agency": "Department of Sanitation",
    "final_address": "2030 Jefferson Ave",
    "address_councildis": "A",
    "status": "Assigned to Contractor",
    "contractor": "IV Waste",
    "rowid": "1196800",
    "final_x": "3667652.09274",
    "final_y": "523277.828155",
    "longitude": "-90.1120745672925",
    "latitude": "29.933245567747143",
    "geocoded_column": {
      "latitude": "29.933245567747143",
      "longitude": "-90.1120745672925"
    }
  },
  {
    "service_request": "2025-1196799",
    "request_type": "Abandoned Vehicles",
    "request_reason": "Abandoned/Junk Vehicles",
    "date_created": "2025-05-31T15:07:22.000",
    "date_modified": "2025-05-31T15:07:24.000",
    "request_status": "Pending",
    "responsible_agency": "Department of Public Works",
    "final_address": "4793 Citrus Dr",
    "address_councildis": "E",
    "status": "Pending",
    "rowid": "1196799",
    "final_x": "3710818.41925",
    "final_y": "556157.047962",
    "longitude": "-89.97457172467413",
    "latitude": "30.02231551534476",
    "geocoded_column": {
      "latitude": "30.02231551534476",
      "longitude": "-89.97457172467413"
    }
  },
  {
    "service_request": "2025-1196798",
    "request_type": "Abandoned Vehicles",
    "request_reason": "Abandoned/Junk Vehicles",
    "date_created": "2025-05-31T15:02:24.000",
    "date_modified": "2025-05-31T15:02:26.000",
    "request_status": "Pending",
    "responsible_agency": "Department of Public Works",
    "final_address": "4793 Citrus Dr",
    "address_councildis": "E",
    "status": "Pending",
    "rowid": "1196798",
    "final_x": "3710818.41925",
    "final_y": "556157.047962",
    "longitude": "-89.97457172467413",
    "latitude": "30.02231551534476",
    "geocoded_column": {
      "latitude": "30.02231551534476",
      "longitude": "-89.97457172467413"
    }
  },
  {
    "service_request": "2025-1196797",
    "request_type": "Property Maintenance",
    "request_reason": "Property Maintenance",
    "date_created": "2025-05-31T14:59:13.000",
    "date_modified": "2025-05-31T14:59:17.000",
    "request_status": "Pending",
    "responsible_agency": "Department of Code Enforcement",
    "final_address": "4788 Donna Dr",
    "address_councildis": "E",
    "status": "Pending",
    "rowid": "1196797",
    "final_x": "3710904.33195",
    "final_y": "556155.86153",
    "longitude": "-89.97430030871489",
    "latitude": "30.022309451603167",
    "geocoded_column": {
      "latitude": "30.022309451603167",
      "longitude": "-89.97430030871489"
    }
  },
  {
    "service_request": "2025-1196796",
    "request_type": "Trash/Recycling",
    "request_reason": "Repair Recycling Cart",
    "date_created": "2025-05-31T14:56:14.000",
    "date_modified": "2025-05-31T14:56:16.000",
    "request_status": "Pending",
    "responsible_agency": "Department of Sanitation",
    "final_address": "1618 Lisbon St",
    "address_councildis": "D",
    "status": "Pending",
    "rowid": "1196796",
    "final_x": "3679175.77666",
    "final_y": "556137.679194",
    "longitude": "-90.07455542702402",
    "latitude": "30.02325602943658",
    "geocoded_column": {
      "latitude": "30.02325602943658",
      "longitude": "-90.07455542702402"
    }
  },
  {
    "service_request": "2025-1196795",
    "request_type": "Trash/Recycling",
    "request_reason": "Repair Trash Cart",
    "date_created": "2025-05-31T14:50:59.000",
    "date_modified": "2025-05-31T14:51:01.000",
    "request_status": "Pending",
    "responsible_agency": "Department of Sanitation",
    "final_address": "1421 Bordeaux St",
    "address_councildis": "B",
    "status": "Assigned to Contractor",
    "contractor": "IV Waste",
    "rowid": "1196795",
    "final_x": "3669455.27054",
    "final_y": "520337.851896",
    "longitude": "-90.10648140887105",
    "latitude": "29.925108603849974",
    "geocoded_column": {
      "latitude": "29.925108603849974",
      "longitude": "-90.10648140887105"
    }
  },
  {
    "service_request": "2025-1196794",
    "request_type": "Abandoned Vehicles",
    "request_reason": "Abandoned/Junk Vehicles",
    "date_created": "2025-05-31T14:49:14.000",
    "date_modified": "2025-05-31T14:49:24.000",
    "request_status": "Pending",
    "responsible_agency": "Department of Public Works",
    "final_address": "1005 Dufossat St",
    "address_councildis": "B",
    "status": "Pending",
    "rowid": "1196794",
    "final_x": "3668102.4962",
    "final_y": "519083.448311",
    "longitude": "-90.11079394505757",
    "latitude": "29.921699148092983",
    "geocoded_column": {
      "latitude": "29.921699148092983",
      "longitude": "-90.11079394505757"
    }
  },
  {
    "service_request": "2025-1196793",
    "request_type": "Abandoned Vehicles",
    "request_reason": "Abandoned/Junk Vehicles",
    "date_created": "2025-05-31T14:47:28.000",
    "date_modified": "2025-05-31T14:47:30.000",
    "request_status": "Pending",
    "responsible_agency": "Department of Public Works",
    "final_address": "1005 Dufossat St",
    "address_councildis": "B",
    "status": "Pending",
    "rowid": "1196793",
    "final_x": "3668102.4962",
    "final_y": "519083.448311",
    "longitude": "-90.11079394505757",
    "latitude": "29.921699148092983",
    "geocoded_column": {
      "latitude": "29.921699148092983",
      "longitude": "-90.11079394505757"
    }
  },
  {
    "service_request": "2025-1196792",
    "request_type": "Trash/Recycling",
    "request_reason": "Return Recycling Cart",
    "date_created": "2025-05-31T14:46:53.000",
    "date_modified": "2025-05-31T14:46:55.000",
    "request_status": "Pending",
    "responsible_agency": "Department of Sanitation",
    "final_address": "139 N Rendon St",
    "address_councildis": "B",
    "status": "Pending",
    "rowid": "1196792",
    "final_x": "3673783.64212",
    "final_y": "536782.641992",
    "longitude": "-90.09225585342725",
    "latitude": "29.97019821356145",
    "geocoded_column": {
      "latitude": "29.97019821356145",
      "longitude": "-90.09225585342725"
    }
  },
  {
    "service_request": "2025-1196791",
    "request_type": "Trash/Recycling",
    "request_reason": "Request a Large Item Pick Up",
    "date_created": "2025-05-31T14:13:54.000",
    "date_modified": "2025-05-31T14:13:56.000",
    "request_status": "Pending",
    "responsible_agency": "Department of Sanitation",
    "final_address": "752 Pontalba St",
    "address_councildis": "A",
    "status": "Assigned to Contractor",
    "contractor": "IV Waste",
    "rowid": "1196791",
    "final_x": "3668691.72046",
    "final_y": "544358.889807",
    "longitude": "-90.10808087936815",
    "latitude": "29.991180995575448",
    "geocoded_column": {
      "latitude": "29.991180995575448",
      "longitude": "-90.10808087936815"
    }
  },
  {
    "service_request": "2025-1196790",
    "request_type": "Trash/Recycling",
    "request_reason": "Illegal Dumping",
    "date_created": "2025-05-31T14:06:57.000",
    "date_modified": "2025-05-31T14:07:05.000",
    "request_status": "Pending",
    "responsible_agency": "Department of Sanitation",
    "final_address": "4975 Camelia St",
    "address_councildis": "E",
    "status": "Pending",
    "rowid": "1196790",
    "final_x": "3701472.78199",
    "final_y": "555633.461081",
    "longitude": "-90.0041206413683",
    "latitude": "30.02117726169599",
    "geocoded_column": {
      "latitude": "30.02117726169599",
      "longitude": "-90.0041206413683"
    }
  },
  {
    "service_request": "2025-1196789",
    "request_type": "Roads and Streets",
    "request_reason": "Debris in Driving Lanes",
    "date_created": "2025-05-31T13:59:22.000",
    "date_modified": "2025-05-31T13:59:23.000",
    "request_status": "Pending",
    "responsible_agency": "Department of Public Works",
    "final_address": "402 Audubon St",
    "address_councildis": "A",
    "status": "Pending",
    "rowid": "1196789",
    "final_x": "3662089.68135",
    "final_y": "522932.876091",
    "longitude": "-90.12964627301545",
    "latitude": "29.932458901345072",
    "geocoded_column": {
      "latitude": "29.932458901345072",
      "longitude": "-90.12964627301545"
    }
  },
  {
    "service_request": "2025-1196787",
    "request_type": "Trash/Recycling",
    "request_reason": "Order Recycling Cart",
    "date_created": "2025-05-31T13:56:57.000",
    "date_modified": "2025-05-31T13:56:58.000",
    "request_status": "Pending",
    "responsible_agency": "Department of Sanitation",
    "final_address": "217 S Pierce St",
    "address_councildis": "A",
    "status": "Pending",
    "rowid": "1196787",
    "final_x": "3671074.08865",
    "final_y": "537595.00436",
    "longitude": "-90.10078533243733",
    "latitude": "29.972512354251517",
    "geocoded_column": {
      "latitude": "29.972512354251517",
      "longitude": "-90.10078533243733"
    }
  },
  {
    "service_request": "2025-1196788",
    "request_type": "Trash/Recycling",
    "request_reason": "Order Recycling Cart",
    "date_created": "2025-05-31T13:56:57.000",
    "date_modified": "2025-05-31T13:56:58.000",
    "request_status": "Pending",
    "responsible_agency": "Department of Sanitation",
    "final_address": "217 S Pierce St",
    "address_councildis": "A",
    "status": "Pending",
    "rowid": "1196788",
    "final_x": "3671074.08865",
    "final_y": "537595.00436",
    "longitude": "-90.10078533243733",
    "latitude": "29.972512354251517",
    "geocoded_column": {
      "latitude": "29.972512354251517",
      "longitude": "-90.10078533243733"
    }
  },
  {
    "service_request": "2025-1196786",
    "request_type": "Abandoned Vehicles",
    "request_reason": "Abandoned/Junk Vehicles",
    "date_created": "2025-05-31T13:56:05.000",
    "date_modified": "2025-05-31T13:56:07.000",
    "request_status": "Pending",
    "responsible_agency": "Department of Public Works",
    "final_address": "7524 Jonlee Dr",
    "address_councildis": "E",
    "status": "Pending",
    "rowid": "1196786",
    "final_x": "3717366.24076",
    "final_y": "570034.265127",
    "longitude": "-89.95335437749056",
    "latitude": "30.060257100620625",
    "geocoded_column": {
      "latitude": "30.060257100620625",
      "longitude": "-89.95335437749056"
    }
  },
  {
    "service_request": "2025-1196785",
    "request_type": "Abandoned Vehicles",
    "request_reason": "Abandoned/Junk Vehicles",
    "date_created": "2025-05-31T13:53:27.000",
    "date_modified": "2025-05-31T13:53:28.000",
    "request_status": "Pending",
    "responsible_agency": "Department of Public Works",
    "final_address": "7524 Jonlee Dr",
    "address_councildis": "E",
    "status": "Pending",
    "rowid": "1196785",
    "final_x": "3717366.24076",
    "final_y": "570034.265127",
    "longitude": "-89.95335437749056",
    "latitude": "30.060257100620625",
    "geocoded_column": {
      "latitude": "30.060257100620625",
      "longitude": "-89.95335437749056"
    }
  },
  {
    "service_request": "2025-1196784",
    "request_type": "Abandoned Vehicles",
    "request_reason": "Abandoned/Junk Vehicles",
    "date_created": "2025-05-31T13:50:55.000",
    "date_modified": "2025-05-31T13:50:57.000",
    "request_status": "Pending",
    "responsible_agency": "Department of Public Works",
    "final_address": "7524 Jonlee Dr",
    "address_councildis": "E",
    "status": "Pending",
    "rowid": "1196784",
    "final_x": "3717366.24076",
    "final_y": "570034.265127",
    "longitude": "-89.95335437749056",
    "latitude": "30.060257100620625",
    "geocoded_column": {
      "latitude": "30.060257100620625",
      "longitude": "-89.95335437749056"
    }
  },
  {
    "service_request": "2025-1196783",
    "request_type": "Trash/Recycling",
    "request_reason": "Request a Large Item Pick Up",
    "date_created": "2025-05-31T13:46:58.000",
    "date_modified": "2025-05-31T13:47:00.000",
    "request_status": "Pending",
    "responsible_agency": "Department of Sanitation",
    "final_address": "6024 Freret St",
    "address_councildis": "A",
    "status": "Assigned to Contractor",
    "contractor": "IV Waste",
    "rowid": "1196783",
    "final_x": "3666147.19866",
    "final_y": "524399.992508",
    "longitude": "-90.11678782804054",
    "latitude": "29.936375179513394",
    "geocoded_column": {
      "latitude": "29.936375179513394",
      "longitude": "-90.11678782804054"
    }
  },
  {
    "service_request": "2025-1196782",
    "request_type": "Health Related Request",
    "request_reason": "Noise Ordinance Complaint",
    "date_created": "2025-05-31T13:35:15.000",
    "date_modified": "2025-05-31T13:35:17.000",
    "request_status": "Pending",
    "responsible_agency": "Health Department",
    "final_address": "2014 St Andrew St",
    "address_councildis": "B",
    "status": "Pending",
    "rowid": "1196782",
    "final_x": "525502.464445",
    "final_y": "525502.464445",
    "longitude": "-100.01662903170528",
    "latitude": "29.657816039318146",
    "geocoded_column": {
      "latitude": "29.657816039318146",
      "longitude": "-100.01662903170528"
    }
  },
  {
    "service_request": "2025-1196781",
    "request_type": "Trash/Recycling",
    "request_reason": "Request a Large Item Pick Up",
    "date_created": "2025-05-31T13:32:38.000",
    "date_modified": "2025-05-31T13:32:39.000",
    "request_status": "Pending",
    "responsible_agency": "Department of Sanitation",
    "final_address": "4888 Savoie Ct",
    "address_councildis": "E",
    "status": "Assigned to Contractor",
    "contractor": "Waste Pro",
    "rowid": "1196781",
    "final_x": "3725175.74617",
    "final_y": "561478.792991",
    "longitude": "-89.929000661561",
    "latitude": "30.036472197569157",
    "geocoded_column": {
      "latitude": "30.036472197569157",
      "longitude": "-89.929000661561"
    }
  },
  {
    "service_request": "2025-1196780",
    "request_type": "Abandoned Vehicles",
    "request_reason": "Abandoned/Junk Vehicles",
    "date_created": "2025-05-31T13:29:16.000",
    "date_modified": "2025-05-31T13:29:17.000",
    "request_status": "Pending",
    "responsible_agency": "Department of Public Works",
    "final_address": "1221 Cambronne St",
    "address_councildis": "A",
    "status": "Pending",
    "rowid": "1196780",
    "final_x": "3661324.46227",
    "final_y": "529213.839488",
    "longitude": "-90.13185410146949",
    "latitude": "29.949751639370586",
    "geocoded_column": {
      "latitude": "29.949751639370586",
      "longitude": "-90.13185410146949"
    }
  },
  {
    "service_request": "2025-1196779",
    "request_type": "Abandoned Vehicles",
    "request_reason": "Abandoned/Junk Vehicles",
    "date_created": "2025-05-31T13:13:10.000",
    "date_modified": "2025-05-31T13:13:12.000",
    "request_status": "Pending",
    "responsible_agency": "Department of Public Works",
    "final_address": "7524 Jonlee Dr",
    "address_councildis": "E",
    "status": "Pending",
    "rowid": "1196779",
    "final_x": "3717366.24076",
    "final_y": "570034.265127",
    "longitude": "-89.95335437749056",
    "latitude": "30.060257100620625",
    "geocoded_column": {
      "latitude": "30.060257100620625",
      "longitude": "-89.95335437749056"
    }
  },
  {
    "service_request": "2025-1196778",
    "request_type": "Trash/Recycling",
    "request_reason": "Repair Recycling Cart",
    "date_created": "2025-05-31T12:36:42.000",
    "date_modified": "2025-05-31T12:36:44.000",
    "request_status": "Pending",
    "responsible_agency": "Department of Sanitation",
    "final_address": "727 Lyons St",
    "address_councildis": "B",
    "status": "Pending",
    "rowid": "1196778",
    "final_x": "3669342.18727",
    "final_y": "518098.750262",
    "longitude": "-90.10691402930436",
    "latitude": "29.91895511229648",
    "geocoded_column": {
      "latitude": "29.91895511229648",
      "longitude": "-90.10691402930436"
    }
  },
  {
    "service_request": "2025-1196777",
    "request_type": "General Services",
    "request_reason": "General Service Request",
    "date_created": "2025-05-31T12:32:43.000",
    "date_modified": "2025-05-31T12:32:45.000",
    "request_status": "Pending",
    "responsible_agency": "Orleans Parish Communication District",
    "final_address": "3701 Canal St",
    "address_councildis": "B",
    "status": "Pending",
    "rowid": "1196777",
    "final_x": "3672362.74459",
    "final_y": "537516.817352",
    "longitude": "-90.09671818360438",
    "latitude": "29.97225918853493",
    "geocoded_column": {
      "latitude": "29.97225918853493",
      "longitude": "-90.09671818360438"
    }
  },
  {
    "service_request": "2025-1196776",
    "request_type": "Abandoned Vehicles",
    "request_reason": "Abandoned/Junk Vehicles",
    "date_created": "2025-05-31T12:28:22.000",
    "date_modified": "2025-05-31T12:28:24.000",
    "request_status": "Pending",
    "responsible_agency": "Department of Public Works",
    "final_address": "7524 Jonlee Dr",
    "address_councildis": "E",
    "status": "Pending",
    "rowid": "1196776",
    "final_x": "3717366.24076",
    "final_y": "570034.265127",
    "longitude": "-89.95335437749056",
    "latitude": "30.060257100620625",
    "geocoded_column": {
      "latitude": "30.060257100620625",
      "longitude": "-89.95335437749056"
    }
  },
  {
    "service_request": "2025-1196775",
    "request_type": "Abandoned Vehicles",
    "request_reason": "Abandoned/Junk Vehicles",
    "date_created": "2025-05-31T12:24:29.000",
    "date_modified": "2025-05-31T12:24:31.000",
    "request_status": "Pending",
    "responsible_agency": "Department of Public Works",
    "final_address": "7524 Jonlee Dr",
    "address_councildis": "E",
    "status": "Pending",
    "rowid": "1196775",
    "final_x": "3717366.24076",
    "final_y": "570034.265127",
    "longitude": "-89.95335437749056",
    "latitude": "30.060257100620625",
    "geocoded_column": {
      "latitude": "30.060257100620625",
      "longitude": "-89.95335437749056"
    }
  },
  {
    "service_request": "2025-1196774",
    "request_type": "Parks & Parkways",
    "request_reason": "Request Tree Service (Right of Way/Public Property)",
    "date_created": "2025-05-31T12:22:57.000",
    "date_modified": "2025-05-31T12:22:59.000",
    "request_status": "Pending",
    "responsible_agency": "Department of Parks & Parkway",
    "final_address": "6828 Canal Blvd",
    "address_councildis": "A",
    "status": "Pending",
    "rowid": "1196774",
    "final_x": "3668834.88276",
    "final_y": "552944.804567",
    "longitude": "-90.10733847996597",
    "latitude": "30.01478506486074",
    "geocoded_column": {
      "latitude": "30.01478506486074",
      "longitude": "-90.10733847996597"
    }
  },
  {
    "service_request": "2025-1196773",
    "request_type": "Trash/Recycling",
    "request_reason": "Request a Large Item Pick Up",
    "date_created": "2025-05-31T12:12:08.000",
    "date_modified": "2025-05-31T12:12:10.000",
    "request_status": "Pending",
    "responsible_agency": "Department of Sanitation",
    "final_address": "4439 Banks St",
    "address_councildis": "A",
    "status": "Assigned to Contractor",
    "contractor": "IV Waste",
    "rowid": "1196773",
    "final_x": "3669052.54266",
    "final_y": "538461.263177",
    "longitude": "-90.1071404781968",
    "latitude": "29.974953911974616",
    "geocoded_column": {
      "latitude": "29.974953911974616",
      "longitude": "-90.1071404781968"
    }
  },
  {
    "service_request": "2025-1196772",
    "request_type": "Trash/Recycling",
    "request_reason": "Request a Large Item Pick Up",
    "date_created": "2025-05-31T11:54:23.000",
    "date_modified": "2025-05-31T11:54:25.000",
    "request_status": "Pending",
    "responsible_agency": "Department of Sanitation",
    "final_address": "1425 Gordon St",
    "address_councildis": "E",
    "status": "Assigned to Contractor",
    "contractor": "Waste Pro",
    "rowid": "1196772",
    "final_x": "3699691.26589",
    "final_y": "534675.20775",
    "longitude": "-90.01051419989311",
    "latitude": "29.963606513151383",
    "geocoded_column": {
      "latitude": "29.963606513151383",
      "longitude": "-90.01051419989311"
    }
  },
  {
    "service_request": "2025-1196771",
    "request_type": "Drainage",
    "request_reason": "Catch Basin Clogged",
    "date_created": "2025-05-31T11:41:46.000",
    "date_modified": "2025-05-31T11:41:47.000",
    "request_status": "Pending",
    "responsible_agency": "Sewerage & Water Board",
    "final_address": "720 Amethyst St",
    "address_councildis": "D",
    "status": "Pending",
    "rowid": "1196771",
    "final_x": "3669597.39028",
    "final_y": "556649.93577",
    "longitude": "-90.10480380532462",
    "latitude": "30.024950402963196",
    "geocoded_column": {
      "latitude": "30.024950402963196",
      "longitude": "-90.10480380532462"
    }
  },
  {
    "service_request": "2025-1196770",
    "request_type": "Trash/Recycling",
    "request_reason": "Illegal Dumping",
    "date_created": "2025-05-31T11:38:10.000",
    "date_modified": "2025-05-31T11:38:21.000",
    "request_status": "Pending",
    "responsible_agency": "Department of Sanitation",
    "final_address": "1218 Lesseps St",
    "address_councildis": "D",
    "status": "Pending",
    "rowid": "1196770",
    "final_x": "3692788.236",
    "final_y": "535596.923846",
    "longitude": "-90.0322801136052",
    "latitude": "29.966358228284104",
    "geocoded_column": {
      "latitude": "29.966358228284104",
      "longitude": "-90.0322801136052"
    }
  },
  {
    "service_request": "2025-1196769",
    "request_type": "Drainage",
    "request_reason": "Catch Basin Clogged",
    "date_created": "2025-05-31T11:32:04.000",
    "date_modified": "2025-05-31T11:32:05.000",
    "request_status": "Pending",
    "responsible_agency": "Sewerage & Water Board",
    "final_address": "1306 Treme St",
    "address_councildis": "C",
    "status": "Pending",
    "rowid": "1196769",
    "final_x": "3682218.58767",
    "final_y": "535587.886726",
    "longitude": "-90.06565917577286",
    "latitude": "29.96665914314262",
    "geocoded_column": {
      "latitude": "29.96665914314262",
      "longitude": "-90.06565917577286"
    }
  },
  {
    "service_request": "2025-1196768",
    "request_type": "Trash/Recycling",
    "request_reason": "Missed Trash Pick-Up",
    "date_created": "2025-05-31T11:29:43.000",
    "date_modified": "2025-05-31T11:29:45.000",
    "request_status": "Pending",
    "responsible_agency": "Department of Sanitation",
    "final_address": "4734 Bonita Dr",
    "address_councildis": "E",
    "status": "Assigned to Contractor",
    "contractor": "Waste Pro",
    "rowid": "1196768",
    "final_x": "3704431.2961",
    "final_y": "555224.748441",
    "longitude": "-89.99478772628613",
    "latitude": "30.019958761129878",
    "geocoded_column": {
      "latitude": "30.019958761129878",
      "longitude": "-89.99478772628613"
    }
  },
  {
    "service_request": "2025-1196767",
    "request_type": "Street and Traffic Signs",
    "request_reason": "Stop Sign Missing or Damaged",
    "date_created": "2025-05-31T11:23:34.000",
    "date_modified": "2025-05-31T11:23:35.000",
    "request_status": "Pending",
    "responsible_agency": "Department of Public Works",
    "final_address": "1200 BLK Saint Ferdinand St",
    "address_councildis": "C",
    "status": "Pending",
    "rowid": "1196767",
    "final_x": "3687854.43298",
    "final_y": "536856.853895",
    "longitude": "-90.04781630308278",
    "latitude": "29.969975712460414",
    "geocoded_column": {
      "latitude": "29.969975712460414",
      "longitude": "-90.04781630308278"
    }
  },
  {
    "service_request": "2025-1196766",
    "request_type": "Trash/Recycling",
    "request_reason": "Request a Large Item Pick Up",
    "date_created": "2025-05-31T11:22:23.000",
    "date_modified": "2025-05-31T11:22:24.000",
    "request_status": "Pending",
    "responsible_agency": "Department of Sanitation",
    "final_address": "5645 Canal Blvd",
    "address_councildis": "A",
    "status": "Assigned to Contractor",
    "contractor": "IV Waste",
    "rowid": "1196766",
    "final_x": "3668452.59431",
    "final_y": "545214.729807",
    "longitude": "-90.10880733567973",
    "latitude": "29.99354129064789",
    "geocoded_column": {
      "latitude": "29.99354129064789",
      "longitude": "-90.10880733567973"
    }
  },
  {
    "service_request": "2025-1196765",
    "request_type": "Street and Traffic Signs",
    "request_reason": "Additional Signage Request",
    "date_created": "2025-05-31T11:21:15.000",
    "date_modified": "2025-05-31T11:21:16.000",
    "request_status": "Pending",
    "responsible_agency": "Department of Public Works",
    "final_address": "1453 N Villere St",
    "address_councildis": "C",
    "status": "Pending",
    "rowid": "1196765",
    "final_x": "3682094.20719",
    "final_y": "536571.410823",
    "longitude": "-90.06601761576057",
    "latitude": "29.969367278734495",
    "geocoded_column": {
      "latitude": "29.969367278734495",
      "longitude": "-90.06601761576057"
    }
  },
  {
    "service_request": "2025-1196764",
    "request_type": "Trash/Recycling",
    "request_reason": "Order Recycling Cart",
    "date_created": "2025-05-31T11:18:01.000",
    "date_modified": "2025-05-31T11:18:17.000",
    "request_status": "Pending",
    "responsible_agency": "Department of Sanitation",
    "final_address": "2617 Burgundy St",
    "address_councildis": "C",
    "status": "Pending",
    "rowid": "1196764",
    "final_x": "3687072.07766",
    "final_y": "535675.607943",
    "longitude": "-90.05032882252358",
    "latitude": "29.966751809265812",
    "geocoded_column": {
      "latitude": "29.966751809265812",
      "longitude": "-90.05032882252358"
    }
  },
  {
    "service_request": "2025-1196763",
    "request_type": "Drainage",
    "request_reason": "Catch Basin Damaged",
    "date_created": "2025-05-31T11:15:52.000",
    "date_modified": "2025-05-31T11:15:54.000",
    "request_status": "Pending",
    "responsible_agency": "Sewerage & Water Board",
    "final_address": "3000 Palmer Ave",
    "address_councildis": "A",
    "status": "Pending",
    "rowid": "1196763",
    "final_x": "3667046.59687",
    "final_y": "527521.686527",
    "longitude": "-90.11384349850496",
    "latitude": "29.944932546922274",
    "geocoded_column": {
      "latitude": "29.944932546922274",
      "longitude": "-90.11384349850496"
    }
  },
  {
    "service_request": "2025-1196762",
    "request_type": "Property Maintenance",
    "request_reason": "Property Maintenance",
    "date_created": "2025-05-31T11:08:25.000",
    "date_modified": "2025-05-31T11:08:27.000",
    "request_status": "Pending",
    "responsible_agency": "Department of Code Enforcement",
    "final_address": "2939 Calhoun St",
    "address_councildis": "A",
    "status": "Pending",
    "rowid": "1196762",
    "final_x": "3666877.48289",
    "final_y": "527495.946815",
    "longitude": "-90.11437830953827",
    "latitude": "29.944866718908496",
    "geocoded_column": {
      "latitude": "29.944866718908496",
      "longitude": "-90.11437830953827"
    }
  },
  {
    "service_request": "2025-1196761",
    "request_type": "Trash/Recycling",
    "request_reason": "Order Recycling Cart",
    "date_created": "2025-05-31T11:07:22.000",
    "date_modified": "2025-05-31T11:07:24.000",
    "request_status": "Pending",
    "responsible_agency": "Department of Sanitation",
    "final_address": "2368 Rousseau St",
    "address_councildis": "B",
    "status": "Pending",
    "rowid": "1196761",
    "final_x": "3679399.3245",
    "final_y": "519624.01484",
    "longitude": "-90.07511597025282",
    "latitude": "29.922849278320992",
    "geocoded_column": {
      "latitude": "29.922849278320992",
      "longitude": "-90.07511597025282"
    }
  },
  {
    "service_request": "2025-1196760",
    "request_type": "Trash/Recycling",
    "request_reason": "Damaged Caused By Contractor",
    "date_created": "2025-05-31T10:56:29.000",
    "date_modified": "2025-05-31T10:56:31.000",
    "request_status": "Pending",
    "responsible_agency": "Department of Sanitation",
    "final_address": "1931 Cambronne St",
    "address_councildis": "A",
    "status": "Assigned to Contractor",
    "contractor": "IV Waste",
    "rowid": "1196760",
    "final_x": "3663013.10311",
    "final_y": "531062.50093",
    "longitude": "-90.12646078323385",
    "latitude": "29.954786067037265",
    "geocoded_column": {
      "latitude": "29.954786067037265",
      "longitude": "-90.12646078323385"
    }
  },
  {
    "service_request": "2025-1196759",
    "request_type": "Trash/Recycling",
    "request_reason": "Request a Large Item Pick Up",
    "date_created": "2025-05-31T10:55:59.000",
    "date_modified": "2025-05-31T10:56:01.000",
    "request_status": "Pending",
    "responsible_agency": "Department of Sanitation",
    "final_address": "1419 Joseph St",
    "address_councildis": "A",
    "status": "Assigned to Contractor",
    "contractor": "IV Waste",
    "rowid": "1196759",
    "final_x": "3666637.98714",
    "final_y": "521132.275897",
    "longitude": "-90.1153480442838",
    "latitude": "29.92737566124701",
    "geocoded_column": {
      "latitude": "29.92737566124701",
      "longitude": "-90.1153480442838"
    }
  },
  {
    "service_request": "2025-1196758",
    "request_type": "Trash/Recycling",
    "request_reason": "Request a Large Item Pick Up",
    "date_created": "2025-05-31T10:53:49.000",
    "date_modified": "2025-05-31T10:53:51.000",
    "request_status": "Pending",
    "responsible_agency": "Department of Sanitation",
    "final_address": "5805 Fontainebleau Dr",
    "address_councildis": "B",
    "status": "Assigned to Contractor",
    "contractor": "IV Waste",
    "rowid": "1196758",
    "final_x": "3668477.80218",
    "final_y": "529867.832577",
    "longitude": "-90.10924559784861",
    "latitude": "29.951341724272368",
    "geocoded_column": {
      "latitude": "29.951341724272368",
      "longitude": "-90.10924559784861"
    }
  },
  {
    "service_request": "2025-1196757",
    "request_type": "Trash/Recycling",
    "request_reason": "Missed Trash Pick-Up",
    "date_created": "2025-05-31T10:51:41.000",
    "date_modified": "2025-05-31T13:16:09.000",
    "case_close_date": "2025-05-31T08:16:07.000",
    "request_status": "Closed",
    "responsible_agency": "Department of Sanitation",
    "final_address": "7320 Freret St",
    "address_councildis": "A",
    "status": "Assigned to Contractor",
    "contractor": "IV Waste",
    "contractor_action": "Invalid Request",
    "rowid": "1196757",
    "final_x": "3663345.97191",
    "final_y": "526144.307838",
    "longitude": "-90.12557339597585",
    "latitude": "29.941252972243237",
    "geocoded_column": {
      "latitude": "29.941252972243237",
      "longitude": "-90.12557339597585"
    }
  },
  {
    "service_request": "2025-1196756",
    "request_type": "Property Maintenance",
    "request_reason": "Property Maintenance",
    "date_created": "2025-05-31T10:42:12.000",
    "date_modified": "2025-05-31T10:42:15.000",
    "request_status": "Pending",
    "responsible_agency": "Department of Code Enforcement",
    "final_address": "5051 Mexico St",
    "address_councildis": "D",
    "status": "Pending",
    "rowid": "1196756",
    "final_x": "3691234.67683",
    "final_y": "556719.928282",
    "longitude": "-90.0364312076122",
    "latitude": "30.024487226151784",
    "geocoded_column": {
      "latitude": "30.024487226151784",
      "longitude": "-90.0364312076122"
    }
  },
  {
    "service_request": "2025-1196754",
    "request_type": "Trash/Recycling",
    "request_reason": "Illegal Dumping",
    "date_created": "2025-05-31T10:29:31.000",
    "date_modified": "2025-05-31T10:29:32.000",
    "request_status": "Pending",
    "responsible_agency": "Department of Sanitation",
    "final_address": "3133 General Meyer Ave",
    "address_councildis": "C",
    "status": "Pending",
    "rowid": "1196754",
    "final_x": "3695713.54173",
    "final_y": "526273.20275",
    "longitude": "-90.02337870546731",
    "latitude": "29.94062960685906",
    "geocoded_column": {
      "latitude": "29.94062960685906",
      "longitude": "-90.02337870546731"
    }
  },
  {
    "service_request": "2025-1196753",
    "request_type": "Trash/Recycling",
    "request_reason": "Request a Large Item Pick Up",
    "date_created": "2025-05-31T10:28:07.000",
    "date_modified": "2025-05-31T10:28:10.000",
    "request_status": "Pending",
    "responsible_agency": "Department of Sanitation",
    "final_address": "1926 Burdette St",
    "address_councildis": "A",
    "status": "Assigned to Contractor",
    "contractor": "IV Waste",
    "rowid": "1196753",
    "final_x": "3664566.11629",
    "final_y": "529625.166145",
    "longitude": "-90.1216049357288",
    "latitude": "29.950788793727185",
    "geocoded_column": {
      "latitude": "29.950788793727185",
      "longitude": "-90.1216049357288"
    }
  },
  {
    "service_request": "2025-1196752",
    "request_type": "Mosquito, Termite & Rodent Control",
    "request_reason": "Mosquito Complaint",
    "date_created": "2025-05-31T10:25:03.000",
    "date_modified": "2025-05-31T10:25:05.000",
    "request_status": "Pending",
    "responsible_agency": "Mosquito, Termite & Rodent Control Board",
    "final_address": "3133 General Meyer Ave",
    "address_councildis": "C",
    "status": "Pending",
    "rowid": "1196752",
    "final_x": "3695713.54173",
    "final_y": "526273.20275",
    "longitude": "-90.02337870546731",
    "latitude": "29.94062960685906",
    "geocoded_column": {
      "latitude": "29.94062960685906",
      "longitude": "-90.02337870546731"
    }
  },
  {
    "service_request": "2025-1196751",
    "request_type": "Safety & Permits",
    "request_reason": "Zoning Enforcement",
    "date_created": "2025-05-31T10:21:49.000",
    "date_modified": "2025-05-31T10:21:52.000",
    "request_status": "Pending",
    "responsible_agency": "Safety and Permits",
    "final_address": "2227 St Ann St",
    "address_councildis": "D",
    "status": "Pending",
    "rowid": "1196751",
    "final_x": "3678446.67746",
    "final_y": "536200.996999",
    "longitude": "-90.07754962540244",
    "latitude": "29.968459190383633",
    "geocoded_column": {
      "latitude": "29.968459190383633",
      "longitude": "-90.07754962540244"
    }
  },
  {
    "service_request": "2025-1196750",
    "request_type": "Roads and Streets",
    "request_reason": "Pothole",
    "date_created": "2025-05-31T10:20:05.000",
    "date_modified": "2025-05-31T10:20:06.000",
    "request_status": "Pending",
    "responsible_agency": "Department of Public Works",
    "final_address": "7709 Burthe St",
    "address_councildis": "A",
    "status": "Pending",
    "rowid": "1196750",
    "final_x": "3662296.33939",
    "final_y": "526698.869118",
    "longitude": "-90.1288688967734",
    "latitude": "29.942808218585252",
    "geocoded_column": {
      "latitude": "29.942808218585252",
      "longitude": "-90.1288688967734"
    }
  },
  {
    "service_request": "2025-1196749",
    "request_type": "Property Maintenance",
    "request_reason": "Property Maintenance",
    "date_created": "2025-05-31T10:16:06.000",
    "date_modified": "2025-05-31T10:16:09.000",
    "request_status": "Pending",
    "responsible_agency": "Department of Code Enforcement",
    "final_address": "7900 BLK Leeds St",
    "address_councildis": "E",
    "status": "Pending",
    "rowid": "1196749",
    "final_x": "3704656.81047",
    "final_y": "554958.594267",
    "longitude": "-89.99408500757286",
    "latitude": "30.01921969413309",
    "geocoded_column": {
      "latitude": "30.01921969413309",
      "longitude": "-89.99408500757286"
    }
  },
  {
    "service_request": "2025-1196748",
    "request_type": "Abandoned Vehicles",
    "request_reason": "Abandoned/Junk Vehicles",
    "date_created": "2025-05-31T10:06:58.000",
    "date_modified": "2025-05-31T10:07:00.000",
    "request_status": "Pending",
    "responsible_agency": "Department of Public Works",
    "final_address": "161 Millaudon St",
    "address_councildis": "A",
    "status": "Pending",
    "rowid": "1196748",
    "final_x": "3661031.89101",
    "final_y": "523623.974971",
    "longitude": "-90.13296278537648",
    "latitude": "29.93438971794905",
    "geocoded_column": {
      "latitude": "29.93438971794905",
      "longitude": "-90.13296278537648"
    }
  },
  {
    "service_request": "2025-1196747",
    "request_type": "Trash/Recycling",
    "request_reason": "Return Trash Cart",
    "date_created": "2025-05-31T10:00:05.000",
    "date_modified": "2025-05-31T10:00:09.000",
    "request_status": "Pending",
    "responsible_agency": "Department of Sanitation",
    "final_address": "1105 General Pershing St",
    "address_councildis": "B",
    "status": "Assigned to Contractor",
    "contractor": "IV Waste",
    "rowid": "1196747",
    "final_x": "3671419.86343",
    "final_y": "519628.351736",
    "longitude": "-90.10030390669442",
    "latitude": "29.923099719465373",
    "geocoded_column": {
      "latitude": "29.923099719465373",
      "longitude": "-90.10030390669442"
    }
  },
  {
    "service_request": "2025-1196746",
    "request_type": "Trash/Recycling",
    "request_reason": "Return Recycling Cart",
    "date_created": "2025-05-31T09:57:53.000",
    "date_modified": "2025-05-31T09:57:55.000",
    "request_status": "Pending",
    "responsible_agency": "Department of Sanitation",
    "final_address": "1105 General Pershing St",
    "address_councildis": "B",
    "status": "Pending",
    "rowid": "1196746",
    "final_x": "3671419.86343",
    "final_y": "519628.351736",
    "longitude": "-90.10030390669442",
    "latitude": "29.923099719465373",
    "geocoded_column": {
      "latitude": "29.923099719465373",
      "longitude": "-90.10030390669442"
    }
  },
  {
    "service_request": "2025-1196745",
    "request_type": "Trash/Recycling",
    "request_reason": "Request a Large Item Pick Up",
    "date_created": "2025-05-31T09:54:04.000",
    "date_modified": "2025-05-31T09:54:07.000",
    "request_status": "Pending",
    "responsible_agency": "Department of Sanitation",
    "final_address": "1105 General Pershing St",
    "address_councildis": "B",
    "status": "Assigned to Contractor",
    "contractor": "IV Waste",
    "rowid": "1196745",
    "final_x": "3671419.86343",
    "final_y": "519628.351736",
    "longitude": "-90.10030390669442",
    "latitude": "29.923099719465373",
    "geocoded_column": {
      "latitude": "29.923099719465373",
      "longitude": "-90.10030390669442"
    }
  },
  {
    "service_request": "2025-1196744",
    "request_type": "Trash/Recycling",
    "request_reason": "Request a Large Item Pick Up",
    "date_created": "2025-05-31T09:49:20.000",
    "date_modified": "2025-05-31T09:49:21.000",
    "request_status": "Pending",
    "responsible_agency": "Department of Sanitation",
    "final_address": "1105 General Pershing St",
    "address_councildis": "B",
    "status": "Assigned to Contractor",
    "contractor": "IV Waste",
    "rowid": "1196744",
    "final_x": "3671419.86343",
    "final_y": "519628.351736",
    "longitude": "-90.10030390669442",
    "latitude": "29.923099719465373",
    "geocoded_column": {
      "latitude": "29.923099719465373",
      "longitude": "-90.10030390669442"
    }
  },
  {
    "service_request": "2025-1196743",
    "request_type": "Trash/Recycling",
    "request_reason": "Request a Large Item Pick Up",
    "date_created": "2025-05-31T09:49:16.000",
    "date_modified": "2025-05-31T09:49:18.000",
    "request_status": "Pending",
    "responsible_agency": "Department of Sanitation",
    "final_address": "1105 General Pershing St",
    "address_councildis": "B",
    "status": "Assigned to Contractor",
    "contractor": "IV Waste",
    "rowid": "1196743",
    "final_x": "3671419.86343",
    "final_y": "519628.351736",
    "longitude": "-90.10030390669442",
    "latitude": "29.923099719465373",
    "geocoded_column": {
      "latitude": "29.923099719465373",
      "longitude": "-90.10030390669442"
    }
  },
  {
    "service_request": "2025-1196742",
    "request_type": "Trash/Recycling",
    "request_reason": "Repair Trash Cart",
    "date_created": "2025-05-31T09:33:39.000",
    "date_modified": "2025-05-31T09:33:41.000",
    "request_status": "Pending",
    "responsible_agency": "Department of Sanitation",
    "final_address": "5037 Pauger St",
    "address_councildis": "D",
    "status": "Assigned to Contractor",
    "contractor": "IV Waste",
    "rowid": "1196742",
    "final_x": "3682695.61992",
    "final_y": "551350.245461",
    "longitude": "-90.06360111799818",
    "latitude": "30.00998554266098",
    "geocoded_column": {
      "latitude": "30.00998554266098",
      "longitude": "-90.06360111799818"
    }
  },
  {
    "service_request": "2025-1196741",
    "request_type": "Trash/Recycling",
    "request_reason": "Order Recycling Cart",
    "date_created": "2025-05-31T09:22:18.000",
    "date_modified": "2025-05-31T09:22:20.000",
    "request_status": "Pending",
    "responsible_agency": "Department of Sanitation",
    "final_address": "3900 Delgado Dr",
    "address_councildis": "A",
    "status": "Pending",
    "rowid": "1196741",
    "final_x": "3674118.56974",
    "final_y": "540569.263371",
    "longitude": "-90.09106846630034",
    "latitude": "29.980600152984515",
    "geocoded_column": {
      "latitude": "29.980600152984515",
      "longitude": "-90.09106846630034"
    }
  },
  {
    "service_request": "2025-1196740",
    "request_type": "Property Maintenance",
    "request_reason": "Property Maintenance",
    "date_created": "2025-05-31T09:14:16.000",
    "date_modified": "2025-05-31T09:14:18.000",
    "request_status": "Pending",
    "responsible_agency": "Department of Code Enforcement",
    "final_address": "316 Olivier St",
    "address_councildis": "C",
    "status": "Pending",
    "rowid": "1196740",
    "final_x": "3687326.83606",
    "final_y": "530616.80173",
    "longitude": "-90.04970326631673",
    "latitude": "29.95283399479289",
    "geocoded_column": {
      "latitude": "29.95283399479289",
      "longitude": "-90.04970326631673"
    }
  },
  {
    "service_request": "2025-1196739",
    "request_type": "Property Maintenance",
    "request_reason": "Property Maintenance",
    "date_created": "2025-05-31T09:07:18.000",
    "date_modified": "2025-05-31T09:07:19.000",
    "request_status": "Pending",
    "responsible_agency": "Department of Code Enforcement",
    "final_address": "5719 Paris Ave",
    "address_councildis": "D",
    "status": "Pending",
    "rowid": "1196739",
    "final_x": "3679148.05851",
    "final_y": "553676.053143",
    "longitude": "-90.07472844722645",
    "latitude": "30.01648828991991",
    "geocoded_column": {
      "latitude": "30.01648828991991",
      "longitude": "-90.07472844722645"
    }
  },
  {
    "service_request": "2025-1196738",
    "request_type": "Abandoned Vehicles",
    "request_reason": "Abandoned/Junk Vehicles",
    "date_created": "2025-05-31T09:03:23.000",
    "date_modified": "2025-05-31T09:03:25.000",
    "request_status": "Pending",
    "responsible_agency": "Department of Public Works",
    "final_address": "1027 Marigny St",
    "address_councildis": "C",
    "status": "Pending",
    "rowid": "1196738",
    "final_x": "3685462.84156",
    "final_y": "536205.418631",
    "longitude": "-90.05539211383487",
    "latitude": "29.968258051917545",
    "geocoded_column": {
      "latitude": "29.968258051917545",
      "longitude": "-90.05539211383487"
    }
  },
  {
    "service_request": "2025-1196737",
    "request_type": "Abandoned Vehicles",
    "request_reason": "Abandoned/Junk Vehicles",
    "date_created": "2025-05-31T09:00:42.000",
    "date_modified": "2025-05-31T09:00:44.000",
    "request_status": "Pending",
    "responsible_agency": "Department of Public Works",
    "final_address": "1029 Marigny St",
    "address_councildis": "C",
    "status": "Pending",
    "rowid": "1196737",
    "final_x": "3685463.02338",
    "final_y": "536226.727879",
    "longitude": "-90.05539078910162",
    "latitude": "29.96831663937121",
    "geocoded_column": {
      "latitude": "29.96831663937121",
      "longitude": "-90.05539078910162"
    }
  },
  {
    "service_request": "2025-1196736",
    "request_type": "Abandoned Vehicles",
    "request_reason": "Abandoned/Junk Vehicles",
    "date_created": "2025-05-31T08:59:04.000",
    "date_modified": "2025-05-31T08:59:06.000",
    "request_status": "Pending",
    "responsible_agency": "Department of Public Works",
    "final_address": "3900 BLK S Carrollton Ave",
    "address_councildis": "B",
    "status": "Pending",
    "rowid": "1196736",
    "final_x": "3668462.32085",
    "final_y": "535344.351343",
    "longitude": "-90.10910972970814",
    "latitude": "29.9664008002624",
    "geocoded_column": {
      "latitude": "29.9664008002624",
      "longitude": "-90.10910972970814"
    }
  },
  {
    "service_request": "2025-1196735",
    "request_type": "Trash/Recycling",
    "request_reason": "Request a Large Item Pick Up",
    "date_created": "2025-05-31T08:58:16.000",
    "date_modified": "2025-05-31T08:58:19.000",
    "request_status": "Pending",
    "responsible_agency": "Department of Sanitation",
    "final_address": "2627 Nashville Ave",
    "address_councildis": "A",
    "status": "Assigned to Contractor",
    "contractor": "IV Waste",
    "rowid": "1196735",
    "final_x": "3667406.75329",
    "final_y": "525799.204861",
    "longitude": "-90.11276430143486",
    "latitude": "29.94018573347712",
    "geocoded_column": {
      "latitude": "29.94018573347712",
      "longitude": "-90.11276430143486"
    }
  },
  {
    "service_request": "2025-1196734",
    "request_type": "Trash/Recycling",
    "request_reason": "Request a Large Item Pick Up",
    "date_created": "2025-05-31T08:48:20.000",
    "date_modified": "2025-05-31T08:48:22.000",
    "request_status": "Pending",
    "responsible_agency": "Department of Sanitation",
    "final_address": "7229 Onyx St",
    "address_councildis": "D",
    "status": "Assigned to Contractor",
    "contractor": "IV Waste",
    "rowid": "1196734",
    "final_x": "3668908.69166",
    "final_y": "555310.269849",
    "longitude": "-90.10702529292583",
    "latitude": "30.021287084617313",
    "geocoded_column": {
      "latitude": "30.021287084617313",
      "longitude": "-90.10702529292583"
    }
  },
  {
    "service_request": "2025-1196733",
    "request_type": "Health Related Request",
    "request_reason": "Homeless Encampment Complaint",
    "date_created": "2025-05-31T08:47:45.000",
    "date_modified": "2025-05-31T08:47:47.000",
    "request_status": "Pending",
    "responsible_agency": "Health Department",
    "final_address": "5009 Camp St",
    "address_councildis": "B",
    "status": "Pending",
    "rowid": "1196733",
    "final_x": "3668560.62074",
    "final_y": "518999.077559",
    "longitude": "-90.10935068271841",
    "latitude": "29.921453707079813",
    "geocoded_column": {
      "latitude": "29.921453707079813",
      "longitude": "-90.10935068271841"
    }
  },
  {
    "service_request": "2025-1196732",
    "request_type": "Parks & Parkways",
    "request_reason": "Request Tree Service (Right of Way/Public Property)",
    "date_created": "2025-05-31T08:47:33.000",
    "date_modified": "2025-05-31T08:47:36.000",
    "request_status": "Pending",
    "responsible_agency": "Department of Parks & Parkway",
    "final_address": "3730 Rue Michelle",
    "address_councildis": "C",
    "status": "Pending",
    "rowid": "1196732",
    "final_x": "3703640.32702",
    "final_y": "516746.327541",
    "longitude": "-89.99870302501239",
    "latitude": "29.914182454520546",
    "geocoded_column": {
      "latitude": "29.914182454520546",
      "longitude": "-89.99870302501239"
    }
  },
  {
    "service_request": "2025-1196731",
    "request_type": "Trash/Recycling",
    "request_reason": "Missed Trash Pick-Up",
    "date_created": "2025-05-31T08:36:24.000",
    "date_modified": "2025-05-31T11:01:17.000",
    "case_close_date": "2025-05-31T06:01:16.000",
    "request_status": "Closed",
    "responsible_agency": "Department of Sanitation",
    "final_address": "2629 S Carrollton Ave",
    "address_councildis": "A",
    "status": "Invalid Request",
    "contractor": "IV Waste",
    "contractor_action": "Invalid",
    "rowid": "1196731",
    "final_x": "3665638.64736",
    "final_y": "532166.214275",
    "longitude": "-90.11813332478329",
    "latitude": "29.957744618307977",
    "geocoded_column": {
      "latitude": "29.957744618307977",
      "longitude": "-90.11813332478329"
    }
  },
  {
    "service_request": "2025-1196730",
    "request_type": "Trash/Recycling",
    "request_reason": "Order Recycling Cart",
    "date_created": "2025-05-31T08:36:02.000",
    "date_modified": "2025-05-31T08:36:03.000",
    "request_status": "Pending",
    "responsible_agency": "Department of Sanitation",
    "final_address": "3201 Iberville St",
    "address_councildis": "B",
    "status": "Pending",
    "rowid": "1196730",
    "final_x": "3674140.13012",
    "final_y": "536668.122055",
    "longitude": "-90.09113394591772",
    "latitude": "29.969872700782755",
    "geocoded_column": {
      "latitude": "29.969872700782755",
      "longitude": "-90.09113394591772"
    }
  },
  {
    "service_request": "2025-1196729",
    "request_type": "Trash/Recycling",
    "request_reason": "Order Trash Cart",
    "date_created": "2025-05-31T08:25:54.000",
    "date_modified": "2025-05-31T08:25:56.000",
    "request_status": "Pending",
    "responsible_agency": "Department of Sanitation",
    "final_address": "1234 Flanders St",
    "address_councildis": "C",
    "status": "Assigned to Contractor",
    "contractor": "Richards Disposal",
    "rowid": "1196729",
    "final_x": "3696784.97699",
    "final_y": "526686.773502",
    "longitude": "-90.01998105509297",
    "latitude": "29.94173305912602",
    "geocoded_column": {
      "latitude": "29.94173305912602",
      "longitude": "-90.01998105509297"
    }
  },
  {
    "service_request": "2025-1196728",
    "request_type": "Trash/Recycling",
    "request_reason": "Request a Large Item Pick Up",
    "date_created": "2025-05-31T08:25:14.000",
    "date_modified": "2025-05-31T08:25:16.000",
    "request_status": "Pending",
    "responsible_agency": "Department of Sanitation",
    "final_address": "3018 Palmyra St",
    "address_councildis": "B",
    "status": "Assigned to Contractor",
    "contractor": "IV Waste",
    "rowid": "1196728",
    "final_x": "3673696.66088",
    "final_y": "535302.081158",
    "longitude": "-90.09258118049216",
    "latitude": "29.96612976119895",
    "geocoded_column": {
      "latitude": "29.96612976119895",
      "longitude": "-90.09258118049216"
    }
  },
  {
    "service_request": "2025-1196727",
    "request_type": "General Services",
    "request_reason": "General Service Request",
    "date_created": "2025-05-31T08:19:45.000",
    "date_modified": "2025-05-31T08:19:46.000",
    "request_status": "Pending",
    "responsible_agency": "Orleans Parish Communication District",
    "final_address": "111 Audubon St Unit 401",
    "address_councildis": "A",
    "status": "Pending",
    "rowid": "1196727",
    "final_x": "3660949.89024",
    "final_y": "521075.947129",
    "longitude": "-90.13330590565415",
    "latitude": "29.927385801129475",
    "geocoded_column": {
      "latitude": "29.927385801129475",
      "longitude": "-90.13330590565415"
    }
  },
  {
    "service_request": "2025-1196726",
    "request_type": "General Services",
    "request_reason": "General Service Request",
    "date_created": "2025-05-31T08:15:59.000",
    "date_modified": "2025-05-31T08:16:00.000",
    "request_status": "Pending",
    "responsible_agency": "Orleans Parish Communication District",
    "final_address": "1823 S Rampart St",
    "address_councildis": "B",
    "status": "Pending",
    "rowid": "1196726",
    "final_x": "3677137.24763",
    "final_y": "525626.409021",
    "longitude": "-90.08204955509918",
    "latitude": "29.93942200933367",
    "geocoded_column": {
      "latitude": "29.93942200933367",
      "longitude": "-90.08204955509918"
    }
  },
  {
    "service_request": "2025-1196725",
    "request_type": "Trash/Recycling",
    "request_reason": "Request a Large Item Pick Up",
    "date_created": "2025-05-31T08:14:43.000",
    "date_modified": "2025-05-31T08:14:46.000",
    "request_status": "Pending",
    "responsible_agency": "Department of Sanitation",
    "final_address": "709 Flood St",
    "address_councildis": "E",
    "status": "Assigned to Contractor",
    "contractor": "Waste Pro",
    "rowid": "1196725",
    "final_x": "3697373.03357",
    "final_y": "532476.947332",
    "longitude": "-90.01791458890416",
    "latitude": "29.957635461657237",
    "geocoded_column": {
      "latitude": "29.957635461657237",
      "longitude": "-90.01791458890416"
    }
  },
  {
    "service_request": "2025-1196724",
    "request_type": "Trash/Recycling",
    "request_reason": "Return Recycling Cart",
    "date_created": "2025-05-31T07:56:53.000",
    "date_modified": "2025-05-31T07:56:55.000",
    "request_status": "Pending",
    "responsible_agency": "Department of Sanitation",
    "final_address": "4015 Orleans Ave",
    "address_councildis": "A",
    "status": "Pending",
    "rowid": "1196724",
    "final_x": "3672950.56347",
    "final_y": "540063.568395",
    "longitude": "-90.09477480892825",
    "latitude": "29.979244431620753",
    "geocoded_column": {
      "latitude": "29.979244431620753",
      "longitude": "-90.09477480892825"
    }
  },
  {
    "service_request": "2025-1196723",
    "request_type": "Abandoned Vehicles",
    "request_reason": "Abandoned/Junk Vehicles",
    "date_created": "2025-05-31T07:53:14.000",
    "date_modified": "2025-05-31T07:53:16.000",
    "request_status": "Pending",
    "responsible_agency": "Department of Public Works",
    "final_address": "1021 Marigny St",
    "address_councildis": "C",
    "status": "Pending",
    "rowid": "1196723",
    "final_x": "3685461.76757",
    "final_y": "536162.068487",
    "longitude": "-90.05539703237561",
    "latitude": "29.968138887014728",
    "geocoded_column": {
      "latitude": "29.968138887014728",
      "longitude": "-90.05539703237561"
    }
  },
  {
    "service_request": "2025-1196722",
    "request_type": "Trash/Recycling",
    "request_reason": "Request a Large Item Pick Up",
    "date_created": "2025-05-31T07:40:52.000",
    "date_modified": "2025-05-31T07:40:54.000",
    "request_status": "Pending",
    "responsible_agency": "Department of Sanitation",
    "final_address": "714 Ninth St",
    "address_councildis": "B",
    "status": "Assigned to Contractor",
    "contractor": "IV Waste",
    "rowid": "1196722",
    "final_x": "3676594.24059",
    "final_y": "518880.610103",
    "longitude": "-90.08399611146825",
    "latitude": "29.920889552299325",
    "geocoded_column": {
      "latitude": "29.920889552299325",
      "longitude": "-90.08399611146825"
    }
  },
  {
    "service_request": "2025-1196721",
    "request_type": "Drainage",
    "request_reason": "Catch Basin Clogged",
    "date_created": "2025-05-31T07:38:20.000",
    "date_modified": "2025-05-31T07:38:21.000",
    "request_status": "Pending",
    "responsible_agency": "Sewerage & Water Board",
    "final_address": "901 Pelican Ave",
    "address_councildis": "C",
    "status": "Pending",
    "rowid": "1196721",
    "final_x": "3688278.38351",
    "final_y": "530711.723202",
    "longitude": "-90.04669534511703",
    "latitude": "29.953065651254995",
    "geocoded_column": {
      "latitude": "29.953065651254995",
      "longitude": "-90.04669534511703"
    }
  },
  {
    "service_request": "2025-1196720",
    "request_type": "Trash/Recycling",
    "request_reason": "Order Trash Cart",
    "date_created": "2025-05-31T07:29:21.000",
    "date_modified": "2025-05-31T07:29:26.000",
    "request_status": "Pending",
    "responsible_agency": "Department of Sanitation",
    "final_address": "4801 Lynhuber Dr",
    "address_councildis": "D",
    "status": "Assigned to Contractor",
    "contractor": "Waste Pro",
    "rowid": "1196720",
    "final_x": "3698066.60048",
    "final_y": "554610.30524",
    "longitude": "-90.01492035442564",
    "latitude": "30.018472177405975",
    "geocoded_column": {
      "latitude": "30.018472177405975",
      "longitude": "-90.01492035442564"
    }
  },
  {
    "service_request": "2025-1196719",
    "request_type": "Streetlights",
    "request_reason": "Streetlight Outage/Malfunction",
    "date_created": "2025-05-31T07:22:19.000",
    "date_modified": "2025-05-31T07:22:21.000",
    "request_status": "Pending",
    "responsible_agency": "Department of Public Works",
    "final_address": "2617 Laurel St",
    "address_councildis": "B",
    "status": "Pending",
    "contractor": "Legacy Professional Services",
    "rowid": "1196719",
    "final_x": "3677836.89307",
    "final_y": "520493.393464",
    "longitude": "-90.08001793779636",
    "latitude": "29.925286870251444",
    "geocoded_column": {
      "latitude": "29.925286870251444",
      "longitude": "-90.08001793779636"
    }
  },
  {
    "service_request": "2025-1196718",
    "request_type": "Property Maintenance",
    "request_reason": "Property Maintenance",
    "date_created": "2025-05-31T06:57:15.000",
    "date_modified": "2025-05-31T06:57:17.000",
    "request_status": "Pending",
    "responsible_agency": "Department of Code Enforcement",
    "final_address": "5469 Dauphine St",
    "address_councildis": "E",
    "status": "Pending",
    "rowid": "1196718",
    "final_x": "3697374.76867",
    "final_y": "532746.245508",
    "longitude": "-90.01789934775803",
    "latitude": "29.958375881649026",
    "geocoded_column": {
      "latitude": "29.958375881649026",
      "longitude": "-90.01789934775803"
    }
  },
  {
    "service_request": "2025-1196717",
    "request_type": "Trash/Recycling",
    "request_reason": "Order Recycling Cart",
    "date_created": "2025-05-31T06:50:47.000",
    "date_modified": "2025-05-31T06:50:49.000",
    "request_status": "Pending",
    "responsible_agency": "Department of Sanitation",
    "final_address": "7610 Nelson St",
    "address_councildis": "A",
    "status": "Pending",
    "rowid": "1196717",
    "final_x": "3666186.32916",
    "final_y": "530750.695042",
    "longitude": "-90.1164513665173",
    "latitude": "29.95383642040453",
    "geocoded_column": {
      "latitude": "29.95383642040453",
      "longitude": "-90.1164513665173"
    }
  },
  {
    "service_request": "2025-1196716",
    "request_type": "Roads and Streets",
    "request_reason": "Sidewalk Damaged or Missing",
    "date_created": "2025-05-31T06:40:41.000",
    "date_modified": "2025-05-31T06:40:43.000",
    "request_status": "Pending",
    "responsible_agency": "Department of Public Works",
    "final_address": "6218 Berkley Dr",
    "address_councildis": "C",
    "status": "Pending",
    "rowid": "1196716",
    "final_x": "3707260.88318",
    "final_y": "518147.961526",
    "longitude": "-89.98722347123561",
    "latitude": "29.917920009549086",
    "geocoded_column": {
      "latitude": "29.917920009549086",
      "longitude": "-89.98722347123561"
    }
  },
  {
    "service_request": "2025-1196715",
    "request_type": "Trash/Recycling",
    "request_reason": "Damaged Caused By Contractor",
    "date_created": "2025-05-31T06:38:55.000",
    "date_modified": "2025-05-31T06:38:57.000",
    "request_status": "Pending",
    "responsible_agency": "Department of Sanitation",
    "final_address": "1905 Burgundy St",
    "address_councildis": "C",
    "status": "Assigned to Contractor",
    "contractor": "IV Waste",
    "rowid": "1196715",
    "final_x": "3683999.17148",
    "final_y": "535536.662022",
    "longitude": "-90.0600379100841",
    "latitude": "29.96646400705384",
    "geocoded_column": {
      "latitude": "29.96646400705384",
      "longitude": "-90.0600379100841"
    }
  },
  {
    "service_request": "2025-1196714",
    "request_type": "Roads and Streets",
    "request_reason": "Street Subsidence (Sinking)",
    "date_created": "2025-05-31T06:35:30.000",
    "date_modified": "2025-05-31T06:35:33.000",
    "request_status": "Pending",
    "responsible_agency": "Department of Public Works",
    "final_address": "6218 Berkley Dr",
    "address_councildis": "C",
    "status": "Pending",
    "rowid": "1196714",
    "final_x": "3707260.88318",
    "final_y": "518147.961526",
    "longitude": "-89.98722347123561",
    "latitude": "29.917920009549086",
    "geocoded_column": {
      "latitude": "29.917920009549086",
      "longitude": "-89.98722347123561"
    }
  },
  {
    "service_request": "2025-1196713",
    "request_type": "General Services",
    "request_reason": "General Service Request",
    "date_created": "2025-05-31T05:28:39.000",
    "date_modified": "2025-05-31T05:28:40.000",
    "request_status": "Pending",
    "responsible_agency": "Orleans Parish Communication District",
    "final_address": "1410 Gordon St",
    "address_councildis": "E",
    "status": "Pending",
    "rowid": "1196713",
    "final_x": "3699579.9464",
    "final_y": "534606.131014",
    "longitude": "-90.01086825071684",
    "latitude": "29.963420110029883",
    "geocoded_column": {
      "latitude": "29.963420110029883",
      "longitude": "-90.01086825071684"
    }
  },
  {
    "service_request": "2025-1196712",
    "request_type": "Trash/Recycling",
    "request_reason": "Request a Large Item Pick Up",
    "date_created": "2025-05-31T05:26:27.000",
    "date_modified": "2025-05-31T14:09:13.000",
    "request_status": "Pending",
    "responsible_agency": "Department of Sanitation",
    "final_address": "1410 Gordon St",
    "address_councildis": "E",
    "status": "Assigned to Contractor",
    "contractor": "Waste Pro",
    "rowid": "1196712",
    "final_x": "3699579.9464",
    "final_y": "534606.131014",
    "longitude": "-90.01086825071684",
    "latitude": "29.963420110029883",
    "geocoded_column": {
      "latitude": "29.963420110029883",
      "longitude": "-90.01086825071684"
    }
  },
  {
    "service_request": "2025-1196711",
    "request_type": "Trash/Recycling",
    "request_reason": "Replace Trash Cart",
    "date_created": "2025-05-31T04:10:32.000",
    "date_modified": "2025-05-31T04:10:34.000",
    "request_status": "Pending",
    "responsible_agency": "Department of Sanitation",
    "final_address": "4416 S Saratoga St",
    "address_councildis": "B",
    "status": "Assigned to Contractor",
    "contractor": "IV Waste",
    "rowid": "1196711",
    "final_x": "3670468.07233",
    "final_y": "522597.96089",
    "longitude": "-90.103207718329",
    "latitude": "29.93129332418425",
    "geocoded_column": {
      "latitude": "29.93129332418425",
      "longitude": "-90.103207718329"
    }
  },
  {
    "service_request": "2025-1196710",
    "request_type": "Trash/Recycling",
    "request_reason": "Order Trash Cart",
    "date_created": "2025-05-31T00:53:40.000",
    "date_modified": "2025-05-31T00:53:42.000",
    "request_status": "Pending",
    "responsible_agency": "Department of Sanitation",
    "final_address": "3702 Monroe St",
    "address_councildis": "A",
    "status": "Assigned to Contractor",
    "contractor": "IV Waste",
    "rowid": "1196710",
    "final_x": "3666374.55917",
    "final_y": "536459.909319",
    "longitude": "-90.11566543737098",
    "latitude": "29.969529383078196",
    "geocoded_column": {
      "latitude": "29.969529383078196",
      "longitude": "-90.11566543737098"
    }
  },
  {
    "service_request": "2025-1196709",
    "request_type": "Streetlights",
    "request_reason": "Streetlight Outage/Malfunction",
    "date_created": "2025-05-30T23:24:25.000",
    "date_modified": "2025-05-30T23:24:26.000",
    "request_status": "Pending",
    "responsible_agency": "Department of Public Works",
    "final_address": "2309 DAbadie St",
    "address_councildis": "D",
    "status": "Pending",
    "contractor": "Legacy Professional Services",
    "rowid": "1196709",
    "final_x": "3680619.96488",
    "final_y": "539954.177674",
    "longitude": "-90.07055565434153",
    "latitude": "29.978713470161825",
    "geocoded_column": {
      "latitude": "29.978713470161825",
      "longitude": "-90.07055565434153"
    }
  },
  {
    "service_request": "2025-1196708",
    "request_type": "Trash/Recycling",
    "request_reason": "Repair Trash Cart",
    "date_created": "2025-05-30T23:23:07.000",
    "date_modified": "2025-05-30T23:23:09.000",
    "request_status": "Pending",
    "responsible_agency": "Department of Sanitation",
    "final_address": "2309 DAbadie St",
    "address_councildis": "D",
    "status": "Assigned to Contractor",
    "contractor": "IV Waste",
    "rowid": "1196708",
    "final_x": "3680619.96488",
    "final_y": "539954.177674",
    "longitude": "-90.07055565434153",
    "latitude": "29.978713470161825",
    "geocoded_column": {
      "latitude": "29.978713470161825",
      "longitude": "-90.07055565434153"
    }
  },
  {
    "service_request": "2025-1196707",
    "request_type": "Trash/Recycling",
    "request_reason": "Replace Trash Cart",
    "date_created": "2025-05-30T22:45:18.000",
    "date_modified": "2025-05-30T22:45:20.000",
    "request_status": "Pending",
    "responsible_agency": "Department of Sanitation",
    "final_address": "4222 Rayne Dr",
    "address_councildis": "D",
    "status": "Assigned to Contractor",
    "contractor": "IV Waste",
    "rowid": "1196707",
    "final_x": "3679777.25506",
    "final_y": "547580.015442",
    "longitude": "-90.07295231856841",
    "latitude": "29.999707356318268",
    "geocoded_column": {
      "latitude": "29.999707356318268",
      "longitude": "-90.07295231856841"
    }
  },
  {
    "service_request": "2025-1196706",
    "request_type": "Roads and Streets",
    "request_reason": "Pothole",
    "date_created": "2025-05-30T22:35:46.000",
    "date_modified": "2025-05-31T13:48:29.000",
    "request_status": "Pending",
    "responsible_agency": "Department of Public Works",
    "final_address": "4219 Loyola Ave",
    "address_councildis": "B",
    "status": "Pending",
    "rowid": "1196706",
    "final_x": "3671215.63137",
    "final_y": "523096.797499",
    "longitude": "-90.10083082408593",
    "latitude": "29.932642875720806",
    "geocoded_column": {
      "latitude": "29.932642875720806",
      "longitude": "-90.10083082408593"
    }
  },
  {
    "service_request": "2025-1196705",
    "request_type": "Roads and Streets",
    "request_reason": "Pothole",
    "date_created": "2025-05-30T22:06:54.000",
    "date_modified": "2025-05-31T13:49:45.000",
    "request_status": "Pending",
    "responsible_agency": "Department of Public Works",
    "final_address": "2207 Baronne St",
    "address_councildis": "B",
    "status": "Pending",
    "rowid": "1196705",
    "final_x": "3676922.4269",
    "final_y": "524481.288252",
    "longitude": "-90.08276723006465",
    "latitude": "29.93627975223341",
    "geocoded_column": {
      "latitude": "29.93627975223341",
      "longitude": "-90.08276723006465"
    }
  },