[
  {
    "service_request": "2025-1231533",
    "request_type": "Trash/Recycling",
    "request_reason": "Replace Recycling Cart",
    "date_created": "2025-10-06T22:56:10.000",
    "date_modified": "2025-10-06T22:56:12.000",
    "request_status": "Pending",
    "responsible_agency": "Department of Sanitation",
    "final_address": "1926 Robert St",
    "address_councildis": "B",
    "status": "Pending",
    "rowid": "1231533",
    "final_x": "3668735.75034",
    "final_y": "522711.202234",
    "longitude": "-90.10867263738325",
    "latitude": "29.931655725010938",
    "geocoded_column": {
      "latitude": "29.931655725010938",
      "longitude": "-90.10867263738325"
    }
  },
  {
    "service_request": "2025-1231532",
    "request_type": "Trash/Recycling",
    "request_reason": "Order Recycling Cart",
    "date_created": "2025-10-06T22:40:57.000",
    "date_modified": "2025-10-06T22:40:59.000",
    "request_status": "Pending",
    "responsible_agency": "Department of Sanitation",
    "final_address": "2710 Burgundy St",
    "address_councildis": "C",
    "status": "Pending",
    "rowid": "1231532",
    "final_x": "3687308.08694",
    "final_y": "535543.835782",
    "longitude": "-90.04958817016986",
    "latitude": "29.96638221333526",
    "geocoded_column": {
      "latitude": "29.96638221333526",
      "longitude": "-90.04958817016986"
    }
  },
  {
    "service_request": "2025-1231531",
    "request_type": "Streetlights",
    "request_reason": "Streetlight Outage/Malfunction",
    "date_created": "2025-10-06T22:10:39.000",
    "date_modified": "2025-10-06T22:10:42.000",
    "request_status": "Pending",
    "responsible_agency": "Department of Public Works",
    "final_address": "410 Leslie Ln",
    "address_councildis": "A",
    "status": "Pending",
    "rowid": "1231531",
    "final_x": "3664464.33831",
    "final_y": "547346.919633",
    "longitude": "-90.12133442856887",
    "latitude": "29.99952067525372",
    "geocoded_column": {
      "latitude": "29.99952067525372",
      "longitude": "-90.12133442856887"
    }
  },
  {
    "service_request": "2025-1231530",
    "request_type": "Streetlights",
    "request_reason": "Streetlight Outage/Malfunction",
    "date_created": "2025-10-06T21:29:39.000",
    "date_modified": "2025-10-06T21:29:40.000",
    "request_status": "Pending",
    "responsible_agency": "Department of Public Works",
    "final_address": "2913 Magnolia St",
    "address_councildis": "B",
    "status": "Pending",
    "rowid": "1231530",
    "final_x": "3673167.37454",
    "final_y": "525508.996157",
    "longitude": "-90.09458699624756",
    "latitude": "29.939217768705795",
    "geocoded_column": {
      "latitude": "29.939217768705795",
      "longitude": "-90.09458699624756"
    }
  },
  {
    "service_request": "2025-1231529",
    "request_type": "Streetlights",
    "request_reason": "Streetlight Outage/Malfunction",
    "date_created": "2025-10-06T21:28:19.000",
    "date_modified": "2025-10-06T21:28:20.000",
    "request_status": "Pending",
    "responsible_agency": "Department of Public Works",
    "final_address": "3307 Clara St",
    "address_councildis": "B",
    "status": "Pending",
    "rowid": "1231529",
    "final_x": "3672853.5419",
    "final_y": "525678.417981",
    "longitude": "-90.09557202903369",
    "latitude": "29.939692948819342",
    "geocoded_column": {
      "latitude": "29.939692948819342",
      "longitude": "-90.09557202903369"
    }
  },
  {
    "service_request": "2025-1231528",
    "request_type": "Drainage",
    "request_reason": "Catch Basin Not Draining",
    "date_created": "2025-10-06T21:25:27.000",
    "date_modified": "2025-10-06T21:25:29.000",
    "request_status": "Pending",
    "responsible_agency": "Sewerage & Water Board",
    "final_address": "1622 Shirley Dr",
    "address_councildis": "C",
    "status": "Pending",
    "rowid": "1231528",
    "final_x": "3693102.72425",
    "final_y": "524518.078716",
    "longitude": "-90.03168441079589",
    "latitude": "29.935885429339283",
    "geocoded_column": {
      "latitude": "29.935885429339283",
      "longitude": "-90.03168441079589"
    }
  },
  {
    "service_request": "2025-1231527",
    "request_type": "Streetlights",
    "request_reason": "Streetlight Outage/Malfunction",
    "date_created": "2025-10-06T21:03:16.000",
    "date_modified": "2025-10-06T21:03:17.000",
    "request_status": "Pending",
    "responsible_agency": "Department of Public Works",
    "final_address": "4503 Danneel St",
    "address_councildis": "B",
    "status": "Pending",
    "rowid": "1231527",
    "final_x": "3670215.28071",
    "final_y": "522275.945722",
    "longitude": "-90.10401665804706",
    "latitude": "29.930415345526526",
    "geocoded_column": {
      "latitude": "29.930415345526526",
      "longitude": "-90.10401665804706"
    }
  },
  {
    "service_request": "2025-1231526",
    "request_type": "Trash/Recycling",
    "request_reason": "Request a Large Item Pick Up",
    "date_created": "2025-10-06T21:02:58.000",
    "date_modified": "2025-10-06T21:03:01.000",
    "request_status": "Pending",
    "responsible_agency": "Department of Sanitation",
    "final_address": "13020 Ashland Dr",
    "address_councildis": "E",
    "status": "Assigned to Contractor",
    "contractor": "Waste Pro",
    "rowid": "1231526",
    "final_x": "3717576.75954",
    "final_y": "567553.200996",
    "longitude": "-89.95278343391202",
    "latitude": "30.053428228146448",
    "geocoded_column": {
      "latitude": "30.053428228146448",
      "longitude": "-89.95278343391202"
    }
  },
  {
    "service_request": "2025-1231525",
    "request_type": "Streetlights",
    "request_reason": "Streetlight Outage/Malfunction",
    "date_created": "2025-10-06T21:01:10.000",
    "date_modified": "2025-10-06T21:01:21.000",
    "request_status": "Pending",
    "responsible_agency": "Department of Public Works",
    "final_address": "4503 Danneel St",
    "address_councildis": "B",
    "status": "Pending",
    "rowid": "1231525",
    "final_x": "3670215.28071",
    "final_y": "522275.945722",
    "longitude": "-90.10401665804706",
    "latitude": "29.930415345526526",
    "geocoded_column": {
      "latitude": "29.930415345526526",
      "longitude": "-90.10401665804706"
    }
  },
  {
    "service_request": "2025-1231524",
    "request_type": "Streetlights",
    "request_reason": "Streetlight Outage/Malfunction",
    "date_created": "2025-10-06T20:37:47.000",
    "date_modified": "2025-10-06T20:37:49.000",
    "request_status": "Pending",
    "responsible_agency": "Department of Public Works",
    "final_address": "6170 Argonne Blvd",
    "address_councildis": "A",
    "status": "Pending",
    "rowid": "1231524",
    "final_x": "3670207.94138",
    "final_y": "548347.576978",
    "longitude": "-90.10315620725376",
    "latitude": "30.002103836993193",
    "geocoded_column": {
      "latitude": "30.002103836993193",
      "longitude": "-90.10315620725376"
    }
  },
  {
    "service_request": "2025-1231523",
    "request_type": "Trash/Recycling",
    "request_reason": "Return Recycling Cart",
    "date_created": "2025-10-06T20:28:04.000",
    "date_modified": "2025-10-06T20:28:05.000",
    "request_status": "Pending",
    "responsible_agency": "Department of Sanitation",
    "final_address": "56 Pinehurst Dr",
    "address_councildis": "C",
    "status": "Pending",
    "rowid": "1231523",
    "final_x": "3714578.31531",
    "final_y": "516030.068276",
    "longitude": "-89.96420648674534",
    "latitude": "29.911858151244346",
    "geocoded_column": {
      "latitude": "29.911858151244346",
      "longitude": "-89.96420648674534"
    }
  },
  {
    "service_request": "2025-1231522",
    "request_type": "Trash/Recycling",
    "request_reason": "Request a Large Item Pick Up",
    "date_created": "2025-10-06T20:27:10.000",
    "date_modified": "2025-10-06T20:27:12.000",
    "request_status": "Pending",
    "responsible_agency": "Department of Sanitation",
    "final_address": "243 Stafford Pl",
    "address_councildis": "A",
    "status": "Assigned to Contractor",
    "contractor": "IV Waste",
    "rowid": "1231522",
    "final_x": "3665664.07508",
    "final_y": "554018.661912",
    "longitude": "-90.11732073455657",
    "latitude": "30.017830699267385",
    "geocoded_column": {
      "latitude": "30.017830699267385",
      "longitude": "-90.11732073455657"
    }
  },
  {
    "service_request": "2025-1231521",
    "request_type": "Trash/Recycling",
    "request_reason": "Change Size of Trash Cart",
    "date_created": "2025-10-06T20:26:51.000",
    "date_modified": "2025-10-06T20:26:53.000",
    "request_status": "Pending",
    "responsible_agency": "Department of Sanitation",
    "final_address": "6953 Boston Dr",
    "address_councildis": "E",
    "status": "Assigned to Contractor",
    "contractor": "Waste Pro",
    "rowid": "1231521",
    "final_x": "3706561.13195",
    "final_y": "560469.828702",
    "longitude": "-89.98786358193469",
    "latitude": "30.03431210096067",
    "geocoded_column": {
      "latitude": "30.03431210096067",
      "longitude": "-89.98786358193469"
    }
  },
  {
    "service_request": "2025-1231520",
    "request_type": "Trash/Recycling",
    "request_reason": "Change Size of Trash Cart",
    "date_created": "2025-10-06T20:26:43.000",
    "date_modified": "2025-10-06T20:26:44.000",
    "request_status": "Pending",
    "responsible_agency": "Department of Sanitation",
    "final_address": "6953 Boston Dr",
    "address_councildis": "E",
    "status": "Assigned to Contractor",
    "contractor": "Waste Pro",
    "rowid": "1231520",
    "final_x": "3706561.13195",
    "final_y": "560469.828702",
    "longitude": "-89.98786358193469",
    "latitude": "30.03431210096067",
    "geocoded_column": {
      "latitude": "30.03431210096067",
      "longitude": "-89.98786358193469"
    }
  },
  {
    "service_request": "2025-1231519",
    "request_type": "Trash/Recycling",
    "request_reason": "Change Size of Trash Cart",
    "date_created": "2025-10-06T20:26:38.000",
    "date_modified": "2025-10-06T20:26:40.000",
    "request_status": "Pending",
    "responsible_agency": "Department of Sanitation",
    "final_address": "6953 Boston Dr",
    "address_councildis": "E",
    "status": "Assigned to Contractor",
    "contractor": "Waste Pro",
    "rowid": "1231519",
    "final_x": "3706561.13195",
    "final_y": "560469.828702",
    "longitude": "-89.98786358193469",
    "latitude": "30.03431210096067",
    "geocoded_column": {
      "latitude": "30.03431210096067",
      "longitude": "-89.98786358193469"
    }
  },
  {
    "service_request": "2025-1231518",
    "request_type": "Streetlights",
    "request_reason": "Streetlight Outage/Malfunction",
    "date_created": "2025-10-06T20:12:28.000",
    "date_modified": "2025-10-06T20:12:31.000",
    "request_status": "Pending",
    "responsible_agency": "Department of Public Works",
    "final_address": "0 BLK Beau Bassich Cir",
    "address_councildis": "A",
    "status": "Pending",
    "rowid": "1231518",
    "final_x": "3671367.28977",
    "final_y": "544649.837981",
    "longitude": "-90.09961945776817",
    "latitude": "29.991902063866586",
    "geocoded_column": {
      "latitude": "29.991902063866586",
      "longitude": "-90.09961945776817"
    }
  },
  {
    "service_request": "2025-1231517",
    "request_type": "Trash/Recycling",
    "request_reason": "Order Second Trash Cart",
    "date_created": "2025-10-06T20:02:17.000",
    "date_modified": "2025-10-06T20:02:18.000",
    "request_status": "Pending",
    "responsible_agency": "Department of Sanitation",
    "final_address": "7221 E Renaissance Ct",
    "address_councildis": "E",
    "status": "Assigned to Contractor",
    "contractor": "Waste Pro",
    "rowid": "1231517",
    "final_x": "3717025.27852",
    "final_y": "568356.158245",
    "longitude": "-89.95449596203733",
    "latitude": "30.055654287632233",
    "geocoded_column": {
      "latitude": "30.055654287632233",
      "longitude": "-89.95449596203733"
    }
  },
  {
    "service_request": "2025-1231516",
    "request_type": "Streetlights",
    "request_reason": "Streetlight Outage/Malfunction",
    "date_created": "2025-10-06T19:41:57.000",
    "date_modified": "2025-10-06T19:42:00.000",
    "request_status": "Pending",
    "responsible_agency": "Department of Public Works",
    "final_address": "1300 BLK Royal St",
    "address_councildis": "C",
    "status": "Pending",
    "rowid": "1231516",
    "final_x": "3683952.96375",
    "final_y": "534294.563416",
    "longitude": "-90.06022741522669",
    "latitude": "29.963050075872392",
    "geocoded_column": {
      "latitude": "29.963050075872392",
      "longitude": "-90.06022741522669"
    }
  },
  {
    "service_request": "2025-1231515",
    "request_type": "Mosquito, Termite & Rodent Control",
    "request_reason": "Rodent Complaint (Mice & Rats)",
    "date_created": "2025-10-06T19:31:56.000",
    "date_modified": "2025-10-06T19:31:59.000",
    "request_status": "Pending",
    "responsible_agency": "Mosquito, Termite & Rodent Control Board",
    "final_address": "342 S Diamond St",
    "address_councildis": "B",
    "status": "Pending",
    "rowid": "1231515",
    "final_x": "3681927.0404",
    "final_y": "526781.876286",
    "longitude": "-90.06688724319858",
    "latitude": "29.942454466271816",
    "geocoded_column": {
      "latitude": "29.942454466271816",
      "longitude": "-90.06688724319858"
    }
  },
  {
    "service_request": "2025-1231514",
    "request_type": "Trash/Recycling",
    "request_reason": "Return Trash Cart",
    "date_created": "2025-10-06T19:17:08.000",
    "date_modified": "2025-10-06T19:17:09.000",
    "request_status": "Pending",
    "responsible_agency": "Department of Sanitation",
    "final_address": "731 Pacific Ave",
    "address_councildis": "C",
    "status": "Assigned to Contractor",
    "contractor": "Richards Disposal",
    "rowid": "1231514",
    "final_x": "3688415.99356",
    "final_y": "528816.208256",
    "longitude": "-90.04632805958335",
    "latitude": "29.94784938583992",
    "geocoded_column": {
      "latitude": "29.94784938583992",
      "longitude": "-90.04632805958335"
    }
  },
  {
    "service_request": "2025-1231513",
    "request_type": "Abandoned Vehicles",
    "request_reason": "Abandoned/Junk Vehicles",
    "date_created": "2025-10-06T19:15:17.000",
    "date_modified": "2025-10-06T19:15:19.000",
    "request_status": "Pending",
    "responsible_agency": "Department of Public Works",
    "final_address": "2407 St Anthony St",
    "address_councildis": "D",
    "status": "Pending",
    "rowid": "1231513",
    "final_x": "3683207.45288",
    "final_y": "541052.936524",
    "longitude": "-90.0623449145158",
    "latitude": "29.981656010734717",
    "geocoded_column": {
      "latitude": "29.981656010734717",
      "longitude": "-90.0623449145158"
    }
  },
  {
    "service_request": "2025-1231512",
    "request_type": "Trash/Recycling",
    "request_reason": "Request a Large Item Pick Up",
    "date_created": "2025-10-06T19:08:44.000",
    "date_modified": "2025-10-06T19:08:47.000",
    "request_status": "Pending",
    "responsible_agency": "Department of Sanitation",
    "final_address": "806 Opelousas Ave",
    "address_councildis": "C",
    "status": "Assigned to Contractor",
    "contractor": "Richards Disposal",
    "rowid": "1231512",
    "final_x": "3687901.85539",
    "final_y": "529190.67392",
    "longitude": "-90.0479381307274",
    "latitude": "29.94889490713998",
    "geocoded_column": {
      "latitude": "29.94889490713998",
      "longitude": "-90.0479381307274"
    }
  },
  {
    "service_request": "2025-1231511",
    "request_type": "Trash/Recycling",
    "request_reason": "Request a Large Item Pick Up",
    "date_created": "2025-10-06T18:49:56.000",
    "date_modified": "2025-10-06T18:49:58.000",
    "request_status": "Pending",
    "responsible_agency": "Department of Sanitation",
    "final_address": "1320 Hillary St",
    "address_councildis": "A",
    "status": "Assigned to Contractor",
    "contractor": "IV Waste",
    "rowid": "1231511",
    "final_x": "3663626.98842",
    "final_y": "527593.024575",
    "longitude": "-90.12463792176302",
    "latitude": "29.94522833234713",
    "geocoded_column": {
      "latitude": "29.94522833234713",
      "longitude": "-90.12463792176302"
    }
  },
  {
    "service_request": "2025-1231510",
    "request_type": "Trash/Recycling",
    "request_reason": "Request a Large Item Pick Up",
    "date_created": "2025-10-06T18:41:26.000",
    "date_modified": "2025-10-06T18:41:28.000",
    "request_status": "Pending",
    "responsible_agency": "Department of Sanitation",
    "final_address": "532 Seguin St",
    "address_councildis": "C",
    "status": "Assigned to Contractor",
    "contractor": "Richards Disposal",
    "rowid": "1231510",
    "final_x": "3686609.64918",
    "final_y": "529762.961601",
    "longitude": "-90.05199796722688",
    "latitude": "29.950508298511348",
    "geocoded_column": {
      "latitude": "29.950508298511348",
      "longitude": "-90.05199796722688"
    }
  },
  {
    "service_request": "2025-1231509",
    "request_type": "Trash/Recycling",
    "request_reason": "Request a Large Item Pick Up",
    "date_created": "2025-10-06T18:38:05.000",
    "date_modified": "2025-10-06T18:38:16.000",
    "request_status": "Pending",
    "responsible_agency": "Department of Sanitation",
    "final_address": "4651 Gabriel Dr",
    "address_councildis": "E",
    "status": "Assigned to Contractor",
    "contractor": "Waste Pro",
    "rowid": "1231509",
    "final_x": "3709005.96715",
    "final_y": "555173.864281",
    "longitude": "-89.98033525927221",
    "latitude": "30.0196711151423",
    "geocoded_column": {
      "latitude": "30.0196711151423",
      "longitude": "-89.98033525927221"
    }
  },
  {
    "service_request": "2025-1231508",
    "request_type": "Property Maintenance",
    "request_reason": "Property Maintenance",
    "date_created": "2025-10-06T18:35:44.000",
    "date_modified": "2025-10-06T18:35:46.000",
    "request_status": "Pending",
    "responsible_agency": "Department of Code Enforcement",
    "final_address": "816 Bartholomew St",
    "address_councildis": "C",
    "status": "Pending",
    "rowid": "1231508",
    "final_x": "3691504.54275",
    "final_y": "534299.886533",
    "longitude": "-90.03638034255653",
    "latitude": "29.962831847009642",
    "geocoded_column": {
      "latitude": "29.962831847009642",
      "longitude": "-90.03638034255653"
    }
  },
  {
    "service_request": "2025-1231507",
    "request_type": "Parks & Parkways",
    "request_reason": "Park Maintenance/Clean Up",
    "date_created": "2025-10-06T18:10:30.000",
    "date_modified": "2025-10-06T18:10:32.000",
    "request_status": "Pending",
    "responsible_agency": "Department of Parks & Parkway",
    "final_address": "1300 BLK Lyons St",
    "address_councildis": "B",
    "status": "Pending",
    "rowid": "1231507",
    "final_x": "3669099.4764",
    "final_y": "520014.262581",
    "longitude": "-90.10761546680781",
    "latitude": "29.924229306030213",
    "geocoded_column": {
      "latitude": "29.924229306030213",
      "longitude": "-90.10761546680781"
    }
  },
  {
    "service_request": "2025-1231506",
    "request_type": "Trash/Recycling",
    "request_reason": "Request a Large Item Pick Up",
    "date_created": "2025-10-06T18:03:09.000",
    "date_modified": "2025-10-06T18:03:11.000",
    "request_status": "Pending",
    "responsible_agency": "Department of Sanitation",
    "final_address": "7566 Lehigh St",
    "address_councildis": "E",
    "status": "Assigned to Contractor",
    "contractor": "Waste Pro",
    "rowid": "1231506",
    "final_x": "3710664.75582",
    "final_y": "565405.84861",
    "longitude": "-89.97471075160608",
    "latitude": "30.047751049365516",
    "geocoded_column": {
      "latitude": "30.047751049365516",
      "longitude": "-89.97471075160608"
    }
  },
  {
    "service_request": "2025-1231505",
    "request_type": "Trash/Recycling",
    "request_reason": "Change Size of Trash Cart",
    "date_created": "2025-10-06T17:52:20.000",
    "date_modified": "2025-10-06T17:52:21.000",
    "request_status": "Pending",
    "responsible_agency": "Department of Sanitation",
    "final_address": "1930 Port St",
    "address_councildis": "D",
    "status": "Assigned to Contractor",
    "contractor": "IV Waste",
    "rowid": "1231505",
    "final_x": "3688213.73046",
    "final_y": "539636.811018",
    "longitude": "-90.04658301938981",
    "latitude": "29.97760852765532",
    "geocoded_column": {
      "latitude": "29.97760852765532",
      "longitude": "-90.04658301938981"
    }
  },
  {
    "service_request": "2025-1231504",
    "request_type": "Trash/Recycling",
    "request_reason": "General Service Request",
    "date_created": "2025-10-06T17:51:12.000",
    "date_modified": "2025-10-06T17:51:15.000",
    "request_status": "Pending",
    "responsible_agency": "Orleans Parish Communication District",
    "final_address": "7300 Wayside Dr",
    "address_councildis": "E",
    "status": "Pending",
    "rowid": "1231504",
    "final_x": "3716990.33356",
    "final_y": "568554.013029",
    "longitude": "-89.95459889028147",
    "latitude": "30.05619946277999",
    "geocoded_column": {
      "latitude": "30.05619946277999",
      "longitude": "-89.95459889028147"
    }
  },
  {
    "service_request": "2025-1231503",
    "request_type": "Trash/Recycling",
    "request_reason": "Repair Trash Cart",
    "date_created": "2025-10-06T17:48:03.000",
    "date_modified": "2025-10-06T17:48:04.000",
    "request_status": "Pending",
    "responsible_agency": "Department of Sanitation",
    "final_address": "3142 Dauphine St",
    "address_councildis": "C",
    "status": "Assigned to Contractor",
    "contractor": "IV Waste",
    "rowid": "1231503",
    "final_x": "3689046.4255",
    "final_y": "534742.695174",
    "longitude": "-90.04412700600031",
    "latitude": "29.964125690964966",
    "geocoded_column": {
      "latitude": "29.964125690964966",
      "longitude": "-90.04412700600031"
    }
  },
  {
    "service_request": "2025-1231502",
    "request_type": "General Services",
    "request_reason": "General Service Request",
    "date_created": "2025-10-06T17:45:57.000",
    "date_modified": "2025-10-06T17:46:00.000",
    "request_status": "Pending",
    "responsible_agency": "Orleans Parish Communication District",
    "final_address": "2015 Calhoun St",
    "address_councildis": "A",
    "status": "Pending",
    "rowid": "1231502",
    "final_x": "3665612.03284",
    "final_y": "524546.792892",
    "longitude": "-90.11847245839458",
    "latitude": "29.936794446230707",
    "geocoded_column": {
      "latitude": "29.936794446230707",
      "longitude": "-90.11847245839458"
    }
  },
  {
    "service_request": "2025-1231501",
    "request_type": "Property Maintenance",
    "request_reason": "Property Maintenance",
    "date_created": "2025-10-06T17:29:34.000",
    "date_modified": "2025-10-06T17:29:35.000",
    "request_status": "Pending",
    "responsible_agency": "Department of Code Enforcement",
    "final_address": "3421 Baronne St",
    "address_councildis": "B",
    "status": "Pending",
    "rowid": "1231501",
    "final_x": "3673686.76526",
    "final_y": "522173.026938",
    "longitude": "-90.09306121264684",
    "latitude": "29.930029487143866",
    "geocoded_column": {
      "latitude": "29.930029487143866",
      "longitude": "-90.09306121264684"
    }
  },
  {
    "service_request": "2025-1231500",
    "request_type": "Property Maintenance",
    "request_reason": "Property Maintenance",
    "date_created": "2025-10-06T17:28:42.000",
    "date_modified": "2025-10-06T17:28:44.000",
    "request_status": "Pending",
    "responsible_agency": "Department of Code Enforcement",
    "final_address": "3423 Baronne St",
    "address_councildis": "B",
    "status": "Pending",
    "rowid": "1231500",
    "final_x": "3673676.34856",
    "final_y": "522168.165818",
    "longitude": "-90.0930942625976",
    "latitude": "29.93001643066075",
    "geocoded_column": {
      "latitude": "29.93001643066075",
      "longitude": "-90.0930942625976"
    }
  },
  {
    "service_request": "2025-1231499",
    "request_type": "General Services",
    "request_reason": "General Service Request",
    "date_created": "2025-10-06T17:16:58.000",
    "date_modified": "2025-10-06T17:17:00.000",
    "request_status": "Pending",
    "responsible_agency": "Orleans Parish Communication District",
    "final_address": "9600 Lake Forest Blvd",
    "address_councildis": "E",
    "status": "Pending",
    "rowid": "1231499",
    "final_x": "3708616.80081",
    "final_y": "558345.998684",
    "longitude": "-89.98144663383816",
    "latitude": "30.028405874469446",
    "geocoded_column": {
      "latitude": "30.028405874469446",
      "longitude": "-89.98144663383816"
    }
  },
  {
    "service_request": "2025-1231498",
    "request_type": "Road Striping",
    "request_reason": "Lane Striping or other Pavement Markings",
    "date_created": "2025-10-06T17:11:50.000",
    "date_modified": "2025-10-06T17:11:52.000",
    "request_status": "Pending",
    "responsible_agency": "Department of Public Works",
    "final_address": "8500 BLK Lake Forest Blvd",
    "address_councildis": "E",
    "status": "Pending",
    "rowid": "1231498",
    "final_x": "3705865.20733",
    "final_y": "558114.582377",
    "longitude": "-89.9901500271503",
    "latitude": "30.027858546353464",
    "geocoded_column": {
      "latitude": "30.027858546353464",
      "longitude": "-89.9901500271503"
    }
  },
  {
    "service_request": "2025-1231497",
    "request_type": "Roads and Streets",
    "request_reason": "Pothole",
    "date_created": "2025-10-06T17:07:02.000",
    "date_modified": "2025-10-06T17:07:03.000",
    "request_status": "Pending",
    "responsible_agency": "Department of Public Works",
    "final_address": "1201 Eliza St",
    "address_councildis": "C",
    "status": "Pending",
    "rowid": "1231497",
    "final_x": "3689152.62281",
    "final_y": "529469.535297",
    "longitude": "-90.04397902323058",
    "latitude": "29.949623040406905",
    "geocoded_column": {
      "latitude": "29.949623040406905",
      "longitude": "-90.04397902323058"
    }
  },
  {
    "service_request": "2025-1231496",
    "request_type": "Property Maintenance",
    "request_reason": "Property Maintenance",
    "date_created": "2025-10-06T17:06:40.000",
    "date_modified": "2025-10-06T17:06:42.000",
    "request_status": "Pending",
    "responsible_agency": "Department of Code Enforcement",
    "final_address": "8501 Lake Forest Blvd",
    "address_councildis": "E",
    "status": "Pending",
    "rowid": "1231496",
    "final_x": "3705934.16228",
    "final_y": "558213.466524",
    "longitude": "-89.98992847266243",
    "latitude": "30.028128216452462",
    "geocoded_column": {
      "latitude": "30.028128216452462",
      "longitude": "-89.98992847266243"
    }
  },
  {
    "service_request": "2025-1231495",
    "request_type": "Property Maintenance",
    "request_reason": "Property Maintenance",
    "date_created": "2025-10-06T17:01:07.000",
    "date_modified": "2025-10-06T17:01:08.000",
    "request_status": "Pending",
    "responsible_agency": "Department of Code Enforcement",
    "final_address": "4604 Haydel St",
    "address_councildis": "E",
    "status": "Pending",
    "rowid": "1231495",
    "final_x": "3699031.89789",
    "final_y": "553662.861719",
    "longitude": "-90.0119049098662",
    "latitude": "30.01583649220384",
    "geocoded_column": {
      "latitude": "30.01583649220384",
      "longitude": "-90.0119049098662"
    }
  },
  {
    "service_request": "2025-1231494",
    "request_type": "Trash/Recycling",
    "request_reason": "Illegal Dumping",
    "date_created": "2025-10-06T16:54:21.000",
    "date_modified": "2025-10-06T16:54:23.000",
    "request_status": "Pending",
    "responsible_agency": "Department of Sanitation",
    "final_address": "2074 Florida Ave",
    "address_councildis": "D",
    "status": "Pending",
    "rowid": "1231494",
    "final_x": "3683636.32745",
    "final_y": "542659.627149",
    "longitude": "-90.06093397800102",
    "latitude": "29.986060756766904",
    "geocoded_column": {
      "latitude": "29.986060756766904",
      "longitude": "-90.06093397800102"
    }
  },
  {
    "service_request": "2025-1231493",
    "request_type": "Trash/Recycling",
    "request_reason": "Request a Large Item Pick Up",
    "date_created": "2025-10-06T16:43:52.000",
    "date_modified": "2025-10-06T16:43:54.000",
    "request_status": "Pending",
    "responsible_agency": "Department of Sanitation",
    "final_address": "4606 Haydel St",
    "address_councildis": "E",
    "status": "Assigned to Contractor",
    "contractor": "Waste Pro",
    "rowid": "1231493",
    "final_x": "3699032.24036",
    "final_y": "553671.975063",
    "longitude": "-90.01190349575742",
    "latitude": "30.015861539588467",
    "geocoded_column": {
      "latitude": "30.015861539588467",
      "longitude": "-90.01190349575742"
    }
  },
  {
    "service_request": "2025-1231492",
    "request_type": "Roads and Streets",
    "request_reason": "Pothole",
    "date_created": "2025-10-06T16:41:32.000",
    "date_modified": "2025-10-06T16:41:33.000",
    "request_status": "Pending",
    "responsible_agency": "Department of Public Works",
    "final_address": "HOMEDALE ST & CATINA ST",
    "address_councildis": "A",
    "status": "Pending",
    "rowid": "1231492",
    "final_x": "3666632.2",
    "final_y": "544719.78",
    "longitude": "-90.1145743288583",
    "latitude": "29.992233714009227",
    "geocoded_column": {
      "latitude": "29.992233714009227",
      "longitude": "-90.1145743288583"
    }
  },
  {
    "service_request": "2025-1231491",
    "request_type": "Trash/Recycling",
    "request_reason": "Request a Large Item Pick Up",
    "date_created": "2025-10-06T16:40:07.000",
    "date_modified": "2025-10-06T16:40:08.000",
    "request_status": "Pending",
    "responsible_agency": "Department of Sanitation",
    "final_address": "5820 Norland Ave",
    "address_councildis": "C",
    "status": "Assigned to Contractor",
    "contractor": "Richards Disposal",
    "rowid": "1231491",
    "final_x": "3705217.88823",
    "final_y": "520449.099832",
    "longitude": "-89.99358710743185",
    "latitude": "29.924313177635266",
    "geocoded_column": {
      "latitude": "29.924313177635266",
      "longitude": "-89.99358710743185"
    }
  },
  {
    "service_request": "2025-1231490",
    "request_type": "Property Maintenance",
    "request_reason": "Property Maintenance",
    "date_created": "2025-10-06T16:36:22.000",
    "date_modified": "2025-10-06T16:36:24.000",
    "request_status": "Pending",
    "responsible_agency": "Department of Code Enforcement",
    "final_address": "1101 Teche St",
    "address_councildis": "C",
    "status": "Pending",
    "rowid": "1231490",
    "final_x": "3686557.7965",
    "final_y": "527491.564607",
    "longitude": "-90.05224187511668",
    "latitude": "29.944264323914595",
    "geocoded_column": {
      "latitude": "29.944264323914595",
      "longitude": "-90.05224187511668"
    }
  },
  {
    "service_request": "2025-1231489",
    "request_type": "Trash/Recycling",
    "request_reason": "Start Trash Service",
    "date_created": "2025-10-06T16:29:39.000",
    "date_modified": "2025-10-06T16:29:40.000",
    "request_status": "Pending",
    "responsible_agency": "Department of Sanitation",
    "final_address": "6100 Duplessis St",
    "address_councildis": "D",
    "status": "Assigned to Contractor",
    "contractor": "IV Waste",
    "rowid": "1231489",
    "final_x": "3677899.00386",
    "final_y": "554905.264088",
    "longitude": "-90.0786323979944",
    "latitude": "30.019905840573998",
    "geocoded_column": {
      "latitude": "30.019905840573998",
      "longitude": "-90.0786323979944"
    }
  },
  {
    "service_request": "2025-1231488",
    "request_type": "Trash/Recycling",
    "request_reason": "Start Trash Service",
    "date_created": "2025-10-06T16:28:52.000",
    "date_modified": "2025-10-06T16:28:54.000",
    "request_status": "Pending",
    "responsible_agency": "Department of Sanitation",
    "final_address": "5701 Wildair Dr",
    "address_councildis": "D",
    "status": "Assigned to Contractor",
    "contractor": "IV Waste",
    "rowid": "1231488",
    "final_x": "3681605.42434",
    "final_y": "553732.024535",
    "longitude": "-90.0669622766804",
    "latitude": "30.016567743723037",
    "geocoded_column": {
      "latitude": "30.016567743723037",
      "longitude": "-90.0669622766804"
    }
  },
  {
    "service_request": "2025-1231487",
    "request_type": "Trash/Recycling",
    "request_reason": "Start Trash Service",
    "date_created": "2025-10-06T16:27:11.000",
    "date_modified": "2025-10-06T16:27:13.000",
    "request_status": "Pending",
    "responsible_agency": "Department of Sanitation",
    "final_address": "4313 Randolph Ave",
    "address_councildis": "D",
    "status": "Assigned to Contractor",
    "contractor": "IV Waste",
    "rowid": "1231487",
    "final_x": "3677791.1227",
    "final_y": "548166.828178",
    "longitude": "-90.07920630215249",
    "latitude": "30.00138080470222",
    "geocoded_column": {
      "latitude": "30.00138080470222",
      "longitude": "-90.07920630215249"
    }
  },
  {
    "service_request": "2025-1231486",
    "request_type": "Trash/Recycling",
    "request_reason": "Request a Large Item Pick Up",
    "date_created": "2025-10-06T16:26:54.000",
    "date_modified": "2025-10-06T16:26:55.000",
    "request_status": "Pending",
    "responsible_agency": "Department of Sanitation",
    "final_address": "2303 St Charles Ave",
    "address_councildis": "B",
    "status": "Assigned to Contractor",
    "contractor": "IV Waste",
    "rowid": "1231486",
    "final_x": "3677060.18824",
    "final_y": "523395.865147",
    "longitude": "-90.08236972376496",
    "latitude": "29.933291059403455",
    "geocoded_column": {
      "latitude": "29.933291059403455",
      "longitude": "-90.08236972376496"
    }
  },
  {
    "service_request": "2025-1231485",
    "request_type": "Property Maintenance",
    "request_reason": "Property Maintenance",
    "date_created": "2025-10-06T16:26:10.000",
    "date_modified": "2025-10-06T16:26:12.000",
    "request_status": "Pending",
    "responsible_agency": "Department of Code Enforcement",
    "final_address": "8914 Olive St",
    "address_councildis": "A",
    "status": "Pending",
    "rowid": "1231485",
    "final_x": "3665036.5177",
    "final_y": "536142.854535",
    "longitude": "-90.11990170605308",
    "latitude": "29.968696617392155",
    "geocoded_column": {
      "latitude": "29.968696617392155",
      "longitude": "-90.11990170605308"
    }
  },
  {
    "service_request": "2025-1231484",
    "request_type": "Trash/Recycling",
    "request_reason": "Dead Animal Pick Up",
    "date_created": "2025-10-06T16:19:22.000",
    "date_modified": "2025-10-06T16:19:23.000",
    "request_status": "Pending",
    "responsible_agency": "Department of Sanitation",
    "final_address": "1816 N Claiborne Ave",
    "address_councildis": "C",
    "status": "Assigned to Contractor",
    "contractor": "IV Waste",
    "rowid": "1231484",
    "final_x": "3683531.19113",
    "final_y": "537835.242057",
    "longitude": "-90.06143520942292",
    "latitude": "29.97279859705589",
    "geocoded_column": {
      "latitude": "29.97279859705589",
      "longitude": "-90.06143520942292"
    }
  },
  {
    "service_request": "2025-1231483",
    "request_type": "Parks & Parkways",
    "request_reason": "Request Grass Cutting Service (City Owned Property)",
    "date_created": "2025-10-06T16:18:34.000",
    "date_modified": "2025-10-06T16:18:35.000",
    "request_status": "Pending",
    "responsible_agency": "Department of Parks & Parkway",
    "final_address": "4709 Flake Ave",
    "address_councildis": "E",
    "status": "Pending",
    "rowid": "1231483",
    "final_x": "3706170.69175",
    "final_y": "555238.787865",
    "longitude": "-89.98929131713705",
    "latitude": "30.019941379052614",
    "geocoded_column": {
      "latitude": "30.019941379052614",
      "longitude": "-89.98929131713705"
    }
  },
  {
    "service_request": "2025-1231482",
    "request_type": "Health Related Request",
    "request_reason": "Homeless Encampment Complaint",
    "date_created": "2025-10-06T16:17:22.000",
    "date_modified": "2025-10-06T16:17:24.000",
    "request_status": "Pending",
    "responsible_agency": "Office Of Homeless Services And Strategy",
    "final_address": "10 Elysian Fields Ave",
    "address_councildis": "D",
    "status": "Pending",
    "rowid": "1231482",
    "final_x": "3683547.89602",
    "final_y": "552090.847318",
    "longitude": "-90.06088248659371",
    "latitude": "30.011995932794086",
    "geocoded_column": {
      "latitude": "30.011995932794086",
      "longitude": "-90.06088248659371"
    }
  },
  {
    "service_request": "2025-1231481",
    "request_type": "Trash/Recycling",
    "request_reason": "Request a Large Item Pick Up",
    "date_created": "2025-10-06T16:14:32.000",
    "date_modified": "2025-10-06T16:14:33.000",
    "request_status": "Pending",
    "responsible_agency": "Department of Sanitation",
    "final_address": "3640 Marigny St",
    "address_councildis": "D",
    "status": "Assigned to Contractor",
    "contractor": "IV Waste",
    "rowid": "1231481",
    "final_x": "3684581.64885",
    "final_y": "546235.948432",
    "longitude": "-90.05782233847862",
    "latitude": "29.99586547003265",
    "geocoded_column": {
      "latitude": "29.99586547003265",
      "longitude": "-90.05782233847862"
    }
  },
  {
    "service_request": "2025-1231480",
    "request_type": "Abandoned Vehicles",
    "request_reason": "Abandoned/Junk Vehicles",
    "date_created": "2025-10-06T16:14:29.000",
    "date_modified": "2025-10-06T16:14:31.000",
    "request_status": "Pending",
    "responsible_agency": "Department of Public Works",
    "final_address": "4401 Majestic Oaks Dr",
    "address_councildis": "D",
    "status": "Pending",
    "rowid": "1231480",
    "final_x": "3698013.59946",
    "final_y": "552436.647382",
    "longitude": "-90.01516682565902",
    "latitude": "30.012497116015457",
    "geocoded_column": {
      "latitude": "30.012497116015457",
      "longitude": "-90.01516682565902"
    }
  },
  {
    "service_request": "2025-1231479",
    "request_type": "Trash/Recycling",
    "request_reason": "Replace Trash Cart",
    "date_created": "2025-10-06T16:10:49.000",
    "date_modified": "2025-10-06T16:33:43.000",
    "request_status": "Pending",
    "responsible_agency": "Department of Sanitation",
    "final_address": "6081 Winchester Park Dr",
    "address_councildis": "E",
    "status": "Assigned to Contractor",
    "contractor": "Waste Pro",
    "rowid": "1231479",
    "final_x": "3713939.86693",
    "final_y": "563879.338209",
    "longitude": "-89.96441731341052",
    "latitude": "30.04344658198146",
    "geocoded_column": {
      "latitude": "30.04344658198146",
      "longitude": "-89.96441731341052"
    }
  },
  {
    "service_request": "2025-1231478",
    "request_type": "Utility Poles",
    "request_reason": "Wires Sagging/Hanging Low",
    "date_created": "2025-10-06T16:08:37.000",
    "date_modified": "2025-10-06T16:08:40.000",
    "request_status": "Pending",
    "responsible_agency": "Utility Company Collective",
    "final_address": "1719 Fourth St",
    "address_councildis": "B",
    "status": "Pending",
    "rowid": "1231478",
    "final_x": "3675907.23573",
    "final_y": "523187.294395",
    "longitude": "-90.08601669394668",
    "latitude": "29.932752118379188",
    "geocoded_column": {
      "latitude": "29.932752118379188",
      "longitude": "-90.08601669394668"
    }
  },
  {
    "service_request": "2025-1231477",
    "request_type": "Mosquito, Termite & Rodent Control",
    "request_reason": "Non-Rodent Complaint (Possums & Snakes)",
    "date_created": "2025-10-06T16:07:25.000",
    "date_modified": "2025-10-06T16:07:27.000",
    "request_status": "Pending",
    "responsible_agency": "Mosquito, Termite & Rodent Control Board",
    "final_address": "2101 Fats Domino Ave",
    "address_councildis": "E",
    "status": "Pending",
    "rowid": "1231477",
    "final_x": "3699096.77104",
    "final_y": "537515.39444",
    "longitude": "-90.01228813751293",
    "latitude": "29.97143486540345",
    "geocoded_column": {
      "latitude": "29.97143486540345",
      "longitude": "-90.01228813751293"
    }
  },
  {
    "service_request": "2025-1231476",
    "request_type": "Trash/Recycling",
    "request_reason": "Request a Large Item Pick Up",
    "date_created": "2025-10-06T16:06:51.000",
    "date_modified": "2025-10-06T16:06:54.000",
    "request_status": "Pending",
    "responsible_agency": "Department of Sanitation",
    "final_address": "11040 Roger Dr",
    "address_councildis": "E",
    "status": "Assigned to Contractor",
    "contractor": "Waste Pro",
    "rowid": "1231476",
    "final_x": "3712397.49253",
    "final_y": "563579.453024",
    "longitude": "-89.96930310364468",
    "latitude": "30.042672594059926",
    "geocoded_column": {
      "latitude": "30.042672594059926",
      "longitude": "-89.96930310364468"
    }
  },
  {
    "service_request": "2025-1231475",
    "request_type": "Trash/Recycling",
    "request_reason": "Request a Large Item Pick Up",
    "date_created": "2025-10-06T16:05:10.000",
    "date_modified": "2025-10-06T16:05:12.000",
    "request_status": "Pending",
    "responsible_agency": "Department of Sanitation",
    "final_address": "826 Mazant St",
    "address_councildis": "C",
    "status": "Assigned to Contractor",
    "contractor": "IV Waste",
    "rowid": "1231475",
    "final_x": "3691841.1567",
    "final_y": "534290.979653",
    "longitude": "-90.03531768152541",
    "latitude": "29.962796875554574",
    "geocoded_column": {
      "latitude": "29.962796875554574",
      "longitude": "-90.03531768152541"
    }
  },
  {
    "service_request": "2025-1231474",
    "request_type": "Trash/Recycling",
    "request_reason": "Request a Large Item Pick Up",
    "date_created": "2025-10-06T16:05:03.000",
    "date_modified": "2025-10-06T16:05:07.000",
    "request_status": "Pending",
    "responsible_agency": "Department of Sanitation",
    "final_address": "10951 Roger Dr",
    "address_councildis": "E",
    "status": "Assigned to Contractor",
    "contractor": "Waste Pro",
    "rowid": "1231474",
    "final_x": "3712069.00805",
    "final_y": "563436.469408",
    "longitude": "-89.97034661065726",
    "latitude": "30.04229019447439",
    "geocoded_column": {
      "latitude": "30.04229019447439",
      "longitude": "-89.97034661065726"
    }
  },
  {
    "service_request": "2025-1231473",
    "request_type": "Trash/Recycling",
    "request_reason": "Request a Large Item Pick Up",
    "date_created": "2025-10-06T16:04:53.000",
    "date_modified": "2025-10-06T16:04:55.000",
    "request_status": "Pending",
    "responsible_agency": "Department of Sanitation",
    "final_address": "4612 S Saratoga St",
    "address_councildis": "B",
    "status": "Assigned to Contractor",
    "contractor": "IV Waste",
    "rowid": "1231473",
    "final_x": "3669782.5929",
    "final_y": "522464.060474",
    "longitude": "-90.10537622682318",
    "latitude": "29.93094535803166",
    "geocoded_column": {
      "latitude": "29.93094535803166",
      "longitude": "-90.10537622682318"
    }
  },
  {
    "service_request": "2025-1231472",
    "request_type": "Trash/Recycling",
    "request_reason": "Request a Large Item Pick Up",
    "date_created": "2025-10-06T16:02:34.000",
    "date_modified": "2025-10-06T16:02:35.000",
    "request_status": "Pending",
    "responsible_agency": "Department of Sanitation",
    "final_address": "3049 Burgundy St",
    "address_councildis": "C",
    "status": "Assigned to Contractor",
    "contractor": "IV Waste",
    "rowid": "1231472",
    "final_x": "3688623.96239",
    "final_y": "535288.808966",
    "longitude": "-90.04544172013118",
    "latitude": "29.965640376380243",
    "geocoded_column": {
      "latitude": "29.965640376380243",
      "longitude": "-90.04544172013118"
    }
  },
  {
    "service_request": "2025-1231471",
    "request_type": "Trash/Recycling",
    "request_reason": "Request a Large Item Pick Up",
    "date_created": "2025-10-06T16:02:17.000",
    "date_modified": "2025-10-06T16:02:19.000",
    "request_status": "Pending",
    "responsible_agency": "Department of Sanitation",
    "final_address": "6455 Bellaire Dr",
    "address_councildis": "A",
    "status": "Assigned to Contractor",
    "contractor": "IV Waste",
    "rowid": "1231471",
    "final_x": "3664531.91149",
    "final_y": "551071.406677",
    "longitude": "-90.12099647570342",
    "latitude": "30.00975976411123",
    "geocoded_column": {
      "latitude": "30.00975976411123",
      "longitude": "-90.12099647570342"
    }
  },
  {
    "service_request": "2025-1231470",
    "request_type": "Trash/Recycling",
    "request_reason": "Dead Animal Pick Up",
    "date_created": "2025-10-06T15:59:52.000",
    "date_modified": "2025-10-06T15:59:53.000",
    "request_status": "Pending",
    "responsible_agency": "Department of Sanitation",
    "final_address": "14400 BLK Chef Menteur Hwy",
    "address_councildis": "E",
    "status": "Assigned to Contractor",
    "contractor": "Waste Pro",
    "rowid": "1231470",
    "final_x": "3730988.95334",
    "final_y": "561642.432277",
    "longitude": "-89.91062362607137",
    "latitude": "30.036724956478782",
    "geocoded_column": {
      "latitude": "30.036724956478782",
      "longitude": "-89.91062362607137"
    }
  },
  {
    "service_request": "2025-1231469",
    "request_type": "Trash/Recycling",
    "request_reason": "Request a Large Item Pick Up",
    "date_created": "2025-10-06T15:59:45.000",
    "date_modified": "2025-10-06T15:59:47.000",
    "request_status": "Pending",
    "responsible_agency": "Department of Sanitation",
    "final_address": "444 Leboeuf St",
    "address_councildis": "C",
    "status": "Assigned to Contractor",
    "contractor": "Richards Disposal",
    "rowid": "1231469",
    "final_x": "3689891.23638",
    "final_y": "529893.833857",
    "longitude": "-90.04163179002695",
    "latitude": "29.950766841676007",
    "geocoded_column": {
      "latitude": "29.950766841676007",
      "longitude": "-90.04163179002695"
    }
  },
  {
    "service_request": "2025-1231468",
    "request_type": "Trash/Recycling",
    "request_reason": "Request a Large Item Pick Up",
    "date_created": "2025-10-06T15:59:07.000",
    "date_modified": "2025-10-06T15:59:09.000",
    "request_status": "Pending",
    "responsible_agency": "Department of Sanitation",
    "final_address": "3305 Kabel Dr",
    "address_councildis": "C",
    "status": "Assigned to Contractor",
    "contractor": "Richards Disposal",
    "rowid": "1231468",
    "final_x": "3700508.46775",
    "final_y": "519078.320759",
    "longitude": "-90.0085030480407",
    "latitude": "29.92069457264763",
    "geocoded_column": {
      "latitude": "29.92069457264763",
      "longitude": "-90.0085030480407"
    }
  },
  {
    "service_request": "2025-1231467",
    "request_type": "Trash/Recycling",
    "request_reason": "Missed Trash Pick-Up",
    "date_created": "2025-10-06T15:57:28.000",
    "date_modified": "2025-10-06T16:57:47.000",
    "case_close_date": "2025-10-06T11:57:46.000",
    "request_status": "Closed",
    "responsible_agency": "Department of Sanitation",
    "final_address": "2249 St Claude Ave",
    "address_councildis": "C",
    "status": "Invalid Request",
    "contractor": "IV Waste",
    "contractor_action": "Invalid",
    "rowid": "1231467",
    "final_x": "3685523.39106",
    "final_y": "536452.770503",
    "longitude": "-90.05519218283078",
    "latitude": "29.96893632661225",
    "geocoded_column": {
      "latitude": "29.96893632661225",
      "longitude": "-90.05519218283078"
    }
  },
  {
    "service_request": "2025-1231466",
    "request_type": "Trash/Recycling",
    "request_reason": "Illegal Dumping",
    "date_created": "2025-10-06T15:56:30.000",
    "date_modified": "2025-10-06T15:56:31.000",
    "request_status": "Pending",
    "responsible_agency": "Department of Sanitation",
    "final_address": "CHEF MENTEUR HWY & PAPANIA DR",
    "address_councildis": "E",
    "status": "Pending",
    "rowid": "1231466",
    "final_x": "3715732.4",
    "final_y": "555678.38",
    "longitude": "-89.95906306607667",
    "latitude": "30.020838229136608",
    "geocoded_column": {
      "latitude": "30.020838229136608",
      "longitude": "-89.95906306607667"
    }
  },
  {
    "service_request": "2025-1231465",
    "request_type": "Trash/Recycling",
    "request_reason": "Request a Large Item Pick Up",
    "date_created": "2025-10-06T15:55:49.000",
    "date_modified": "2025-10-06T15:58:30.000",
    "request_status": "Pending",
    "responsible_agency": "Department of Sanitation",
    "final_address": "8631 Cohn St",
    "address_councildis": "A",
    "status": "Assigned to Contractor",
    "contractor": "IV Waste",
    "rowid": "1231465",
    "final_x": "3662152.29402",
    "final_y": "531573.520643",
    "longitude": "-90.12916194524814",
    "latitude": "29.956216108082657",
    "geocoded_column": {
      "latitude": "29.956216108082657",
      "longitude": "-90.12916194524814"
    }
  },
  {
    "service_request": "2025-1231464",
    "request_type": "Trash/Recycling",
    "request_reason": "MIssed Recycling Pick-Up",
    "date_created": "2025-10-06T15:55:03.000",
    "date_modified": "2025-10-06T16:56:21.000",
    "case_close_date": "2025-10-06T11:56:19.000",
    "request_status": "Closed",
    "responsible_agency": "Department of Sanitation",
    "final_address": "2247 St Claude Ave",
    "address_councildis": "C",
    "status": "Invalid Request",
    "contractor": "IV Waste",
    "contractor_action": "Invalid",
    "rowid": "1231464",
    "final_x": "3685510.8911",
    "final_y": "536451.937223",
    "longitude": "-90.05523168779702",
    "latitude": "29.968934418766807",
    "geocoded_column": {
      "latitude": "29.968934418766807",
      "longitude": "-90.05523168779702"
    }
  },
  {
    "service_request": "2025-1231463",
    "request_type": "Trash/Recycling",
    "request_reason": "Request a Large Item Pick Up",
    "date_created": "2025-10-06T15:51:31.000",
    "date_modified": "2025-10-06T15:51:41.000",
    "request_status": "Pending",
    "responsible_agency": "Department of Sanitation",
    "final_address": "4311 Baudin St",
    "address_councildis": "A",
    "status": "Assigned to Contractor",
    "contractor": "IV Waste",
    "rowid": "1231463",
    "final_x": "3669251.08148",
    "final_y": "537773.075144",
    "longitude": "-90.10653671033768",
    "latitude": "29.9730557828114",
    "geocoded_column": {
      "latitude": "29.9730557828114",
      "longitude": "-90.10653671033768"
    }
  },
  {
    "service_request": "2025-1231462",
    "request_type": "Parks & Parkways",
    "request_reason": "Request Tree Service (Right of Way/Public Property)",
    "date_created": "2025-10-06T15:50:10.000",
    "date_modified": "2025-10-06T15:50:11.000",
    "request_status": "Pending",
    "responsible_agency": "Department of Parks & Parkway",
    "final_address": "4937 Maid Marion Dr",
    "address_councildis": "E",
    "status": "Pending",
    "rowid": "1231462",
    "final_x": "3716959.71474",
    "final_y": "557870.565339",
    "longitude": "-89.95510184090823",
    "latitude": "30.026825334539513",
    "geocoded_column": {
      "latitude": "30.026825334539513",
      "longitude": "-89.95510184090823"
    }
  },
  {
    "service_request": "2025-1231461",
    "request_type": "Trash/Recycling",
    "request_reason": "Repair Trash Cart",
    "date_created": "2025-10-06T15:50:05.000",
    "date_modified": "2025-10-06T15:50:07.000",
    "request_status": "Pending",
    "responsible_agency": "Department of Sanitation",
    "final_address": "2122 N Galvez St",
    "address_councildis": "D",
    "status": "Assigned to Contractor",
    "contractor": "IV Waste",
    "rowid": "1231461",
    "final_x": "3684470.40597",
    "final_y": "539913.303818",
    "longitude": "-90.05839597445943",
    "latitude": "29.978483840988005",
    "geocoded_column": {
      "latitude": "29.978483840988005",
      "longitude": "-90.05839597445943"
    }
  },
  {
    "service_request": "2025-1231460",
    "request_type": "Property Maintenance",
    "request_reason": "Property Maintenance",
    "date_created": "2025-10-06T15:50:00.000",
    "date_modified": "2025-10-06T15:50:01.000",
    "request_status": "Pending",
    "responsible_agency": "Department of Code Enforcement",
    "final_address": "5720 Albany Ct",
    "address_councildis": "C",
    "status": "Pending",
    "rowid": "1231460",
    "final_x": "3704803.7667",
    "final_y": "521461.973049",
    "longitude": "-89.99485698718277",
    "latitude": "29.927111533837603",
    "geocoded_column": {
      "latitude": "29.927111533837603",
      "longitude": "-89.99485698718277"
    }
  },
  {
    "service_request": "2025-1231459",
    "request_type": "Roads and Streets",
    "request_reason": "Pothole",
    "date_created": "2025-10-06T15:49:29.000",
    "date_modified": "2025-10-06T15:49:30.000",
    "request_status": "Pending",
    "responsible_agency": "Department of Public Works",
    "final_address": "2500 Louisa St",
    "address_councildis": "D",
    "status": "Pending",
    "rowid": "1231459",
    "final_x": "3690855.46716",
    "final_y": "541198.25134",
    "longitude": "-90.03818380569375",
    "latitude": "29.98182009611967",
    "geocoded_column": {
      "latitude": "29.98182009611967",
      "longitude": "-90.03818380569375"
    }
  },
  {
    "service_request": "2025-1231458",
    "request_type": "Trash/Recycling",
    "request_reason": "Request a Large Item Pick Up",
    "date_created": "2025-10-06T15:48:50.000",
    "date_modified": "2025-10-06T15:49:08.000",
    "request_status": "Pending",
    "responsible_agency": "Department of Sanitation",
    "final_address": "5430 Berkley Dr",
    "address_councildis": "C",
    "status": "Assigned to Contractor",
    "contractor": "Richards Disposal",
    "rowid": "1231458",
    "final_x": "3704130.04062",
    "final_y": "518230.31487",
    "longitude": "-89.9971027155176",
    "latitude": "29.918247215804985",
    "geocoded_column": {
      "latitude": "29.918247215804985",
      "longitude": "-89.9971027155176"
    }
  },
  {
    "service_request": "2025-1231457",
    "request_type": "Trash/Recycling",
    "request_reason": "Repair Trash Cart",
    "date_created": "2025-10-06T15:48:19.000",
    "date_modified": "2025-10-06T15:48:21.000",
    "request_status": "Pending",
    "responsible_agency": "Department of Sanitation",
    "final_address": "2122 N Galvez St",
    "address_councildis": "D",
    "status": "Assigned to Contractor",
    "contractor": "IV Waste",
    "rowid": "1231457",
    "final_x": "3684470.40597",
    "final_y": "539913.303818",
    "longitude": "-90.05839597445943",
    "latitude": "29.978483840988005",
    "geocoded_column": {
      "latitude": "29.978483840988005",
      "longitude": "-90.05839597445943"
    }
  },
  {
    "service_request": "2025-1231456",
    "request_type": "Traffic Signals",
    "request_reason": "Traffic Signal Malfunctioning or Damaged",
    "date_created": "2025-10-06T15:47:18.000",
    "date_modified": "2025-10-06T15:47:46.000",
    "request_status": "Pending",
    "responsible_agency": "Department of Public Works",
    "final_address": "6320 Lincoln Beach Blvd Unit 16C",
    "address_councildis": "E",
    "status": "Pending",
    "rowid": "1231456",
    "final_x": "3696156.0888",
    "final_y": "560325.969693",
    "longitude": "-90.02074996615868",
    "latitude": "30.03424838306764",
    "geocoded_column": {
      "latitude": "30.03424838306764",
      "longitude": "-90.02074996615868"
    }
  },
  {
    "service_request": "2025-1231455",
    "request_type": "Trash/Recycling",
    "request_reason": "Repair Trash Cart",
    "date_created": "2025-10-06T15:46:51.000",
    "date_modified": "2025-10-06T15:46:53.000",
    "request_status": "Pending",
    "responsible_agency": "Department of Sanitation",
    "final_address": "5430 Berkley Dr",
    "address_councildis": "C",
    "status": "Assigned to Contractor",
    "contractor": "Richards Disposal",
    "rowid": "1231455",
    "final_x": "3704130.04062",
    "final_y": "518230.31487",
    "longitude": "-89.9971027155176",
    "latitude": "29.918247215804985",
    "geocoded_column": {
      "latitude": "29.918247215804985",
      "longitude": "-89.9971027155176"
    }
  },
  {
    "service_request": "2025-1231454",
    "request_type": "Trash/Recycling",
    "request_reason": "Request a Large Item Pick Up",
    "date_created": "2025-10-06T15:46:18.000",
    "date_modified": "2025-10-06T15:46:20.000",
    "request_status": "Pending",
    "responsible_agency": "Department of Sanitation",
    "final_address": "4716 Raymond Joseph Dr",
    "address_councildis": "E",
    "status": "Assigned to Contractor",
    "contractor": "Waste Pro",
    "rowid": "1231454",
    "final_x": "3703651.12068",
    "final_y": "555131.960281",
    "longitude": "-89.99725623140382",
    "latitude": "30.019728665973123",
    "geocoded_column": {
      "latitude": "30.019728665973123",
      "longitude": "-89.99725623140382"
    }
  },
  {
    "service_request": "2025-1231453",
    "request_type": "Trash/Recycling",
    "request_reason": "Order Trash Cart",
    "date_created": "2025-10-06T15:42:19.000",
    "date_modified": "2025-10-06T15:42:20.000",
    "request_status": "Pending",
    "responsible_agency": "Department of Sanitation",
    "final_address": "2916 Baudin St",
    "address_councildis": "B",
    "status": "Assigned to Contractor",
    "contractor": "IV Waste",
    "rowid": "1231453",
    "final_x": "3673487.11982",
    "final_y": "534452.089157",
    "longitude": "-90.09327195714557",
    "latitude": "29.963798806138172",
    "geocoded_column": {
      "latitude": "29.963798806138172",
      "longitude": "-90.09327195714557"
    }
  },
  {
    "service_request": "2025-1231452",
    "request_type": "Street and Traffic Signs",
    "request_reason": "Additional Signage Request",
    "date_created": "2025-10-06T15:42:18.000",
    "date_modified": "2025-10-06T15:42:20.000",
    "request_status": "Pending",
    "responsible_agency": "Department of Public Works",
    "final_address": "1526 Ursulines Ave",
    "address_councildis": "C",
    "status": "Pending",
    "rowid": "1231452",
    "final_x": "3681020.07919",
    "final_y": "535465.905158",
    "longitude": "-90.06944830429948",
    "latitude": "29.96636014011149",
    "geocoded_column": {
      "latitude": "29.96636014011149",
      "longitude": "-90.06944830429948"
    }
  },
  {
    "service_request": "2025-1231451",
    "request_type": "Trash/Recycling",
    "request_reason": "Order Recycling Cart",
    "date_created": "2025-10-06T15:41:53.000",
    "date_modified": "2025-10-06T15:41:54.000",
    "request_status": "Pending",
    "responsible_agency": "Department of Sanitation",
    "final_address": "2300 BLK Saint Andrew St",
    "address_councildis": "B",
    "status": "Pending",
    "rowid": "1231451",
    "final_x": "3676424.12841",
    "final_y": "526365.091086",
    "longitude": "-90.08427554611815",
    "latitude": "29.94147453541956",
    "geocoded_column": {
      "latitude": "29.94147453541956",
      "longitude": "-90.08427554611815"
    }
  },
  {
    "service_request": "2025-1231450",
    "request_type": "Trash/Recycling",
    "request_reason": "Replace Trash Cart",
    "date_created": "2025-10-06T15:41:06.000",
    "date_modified": "2025-10-06T15:41:08.000",
    "request_status": "Pending",
    "responsible_agency": "Department of Sanitation",
    "final_address": "2200 Dumaine St",
    "address_councildis": "D",
    "status": "Assigned to Contractor",
    "contractor": "IV Waste",
    "rowid": "1231450",
    "final_x": "3678687.22402",
    "final_y": "536247.258439",
    "longitude": "-90.07678836507824",
    "latitude": "29.968579142499063",
    "geocoded_column": {
      "latitude": "29.968579142499063",
      "longitude": "-90.07678836507824"
    }
  },
  {
    "service_request": "2025-1231449",
    "request_type": "Trash/Recycling",
    "request_reason": "Order Recycling Cart",
    "date_created": "2025-10-06T15:40:31.000",
    "date_modified": "2025-10-06T15:41:36.000",
    "request_status": "Pending",
    "responsible_agency": "Department of Sanitation",
    "final_address": "3619 Cherry St",
    "address_councildis": "A",
    "status": "Pending",
    "rowid": "1231449",
    "final_x": "3664759.04858",
    "final_y": "537605.165",
    "longitude": "-90.12072910184173",
    "latitude": "29.972725563312384",
    "geocoded_column": {
      "latitude": "29.972725563312384",
      "longitude": "-90.12072910184173"
    }
  },
  {
    "service_request": "2025-1231448",
    "request_type": "Streetlights",
    "request_reason": "Streetlight Outage/Malfunction",
    "date_created": "2025-10-06T15:40:10.000",
    "date_modified": "2025-10-06T15:40:11.000",
    "request_status": "Pending",
    "responsible_agency": "Department of Public Works",
    "final_address": "62 Curtis Dr",
    "address_councildis": "E",
    "status": "Pending",
    "rowid": "1231448",
    "final_x": "3698086.21699",
    "final_y": "560955.936862",
    "longitude": "-90.01462762762769",
    "latitude": "30.03591961386303",
    "geocoded_column": {
      "latitude": "30.03591961386303",
      "longitude": "-90.01462762762769"
    }
  },
  {
    "service_request": "2025-1231447",
    "request_type": "Trash/Recycling",
    "request_reason": "Replace Trash Cart",
    "date_created": "2025-10-06T15:37:55.000",
    "date_modified": "2025-10-06T15:37:57.000",
    "request_status": "Pending",
    "responsible_agency": "Department of Sanitation",
    "final_address": "2324 Milan St",
    "address_councildis": "B",
    "status": "Assigned to Contractor",
    "contractor": "IV Waste",
    "rowid": "1231447",
    "final_x": "3671286.36206",
    "final_y": "523631.923131",
    "longitude": "-90.10058935791005",
    "latitude": "29.9341122065508",
    "geocoded_column": {
      "latitude": "29.9341122065508",
      "longitude": "-90.10058935791005"
    }
  },
  {
    "service_request": "2025-1231446",
    "request_type": "Streetlights",
    "request_reason": "Streetlight Outage/Malfunction",
    "date_created": "2025-10-06T15:37:31.000",
    "date_modified": "2025-10-06T15:37:34.000",
    "request_status": "Pending",
    "responsible_agency": "Department of Public Works",
    "final_address": "3706 LaSalle St",
    "address_councildis": "B",
    "status": "Pending",
    "rowid": "1231446",
    "final_x": "3672379.50388",
    "final_y": "523890.799932",
    "longitude": "-90.09712952491388",
    "latitude": "29.934791651216468",
    "geocoded_column": {
      "latitude": "29.934791651216468",
      "longitude": "-90.09712952491388"
    }
  },
  {
    "service_request": "2025-1231445",
    "request_type": "Parks & Parkways",
    "request_reason": "Request Tree Service (Right of Way/Public Property)",
    "date_created": "2025-10-06T15:36:57.000",
    "date_modified": "2025-10-06T15:38:19.000",
    "request_status": "Pending",
    "responsible_agency": "Department of Parks & Parkway",
    "final_address": "1469 N Dorgenois St",
    "address_councildis": "D",
    "status": "Pending",
    "rowid": "1231445",
    "final_x": "3679058.01935",
    "final_y": "539211.529482",
    "longitude": "-90.07551461166895",
    "latitude": "29.97671868307224",
    "geocoded_column": {
      "latitude": "29.97671868307224",
      "longitude": "-90.07551461166895"
    }
  },
  {
    "service_request": "2025-1231444",
    "request_type": "Streetlights",
    "request_reason": "Streetlight Outage/Malfunction",
    "date_created": "2025-10-06T15:35:58.000",
    "date_modified": "2025-10-06T15:36:00.000",
    "request_status": "Pending",
    "responsible_agency": "Department of Public Works",
    "final_address": "2514 Columbus St",
    "address_councildis": "D",
    "status": "Pending",
    "rowid": "1231444",
    "final_x": "3678990.9636",
    "final_y": "539255.703178",
    "longitude": "-90.07572486340479",
    "latitude": "29.97684216929969",
    "geocoded_column": {
      "latitude": "29.97684216929969",
      "longitude": "-90.07572486340479"
    }
  },
  {
    "service_request": "2025-1231443",
    "request_type": "Abandoned Vehicles",
    "request_reason": "Abandoned/Junk Vehicles",
    "date_created": "2025-10-06T15:34:42.000",
    "date_modified": "2025-10-06T15:36:34.000",
    "request_status": "Pending",
    "responsible_agency": "Department of Public Works",
    "final_address": "6920 Boston Dr",
    "address_councildis": "E",
    "status": "Pending",
    "rowid": "1231443",
    "final_x": "3706579.40734",
    "final_y": "560255.010013",
    "longitude": "-89.98781380126108",
    "latitude": "30.033720844021715",
    "geocoded_column": {
      "latitude": "30.033720844021715",
      "longitude": "-89.98781380126108"
    }
  },
  {
    "service_request": "2025-1231442",
    "request_type": "Trash/Recycling",
    "request_reason": "Illegal Dumping",
    "date_created": "2025-10-06T15:34:07.000",
    "date_modified": "2025-10-06T15:34:09.000",
    "request_status": "Pending",
    "responsible_agency": "Department of Sanitation",
    "final_address": "COLAPISSA ST & FERN ST",
    "address_councildis": "B",
    "status": "Pending",
    "rowid": "1231442",
    "final_x": "3667112.4",
    "final_y": "532877.28",
    "longitude": "-90.11345571877828",
    "latitude": "29.95965675698388",
    "geocoded_column": {
      "latitude": "29.95965675698388",
      "longitude": "-90.11345571877828"
    }
  },
  {
    "service_request": "2025-1231441",
    "request_type": "Trash/Recycling",
    "request_reason": "Request a Large Item Pick Up",
    "date_created": "2025-10-06T15:28:46.000",
    "date_modified": "2025-10-06T15:28:48.000",
    "request_status": "Pending",
    "responsible_agency": "Department of Sanitation",
    "final_address": "2539 Gravier St",
    "address_councildis": "B",
    "status": "Assigned to Contractor",
    "contractor": "IV Waste",
    "rowid": "1231441",
    "final_x": "3674637.22881",
    "final_y": "533059.749572",
    "longitude": "-90.08968774169156",
    "latitude": "29.95993606525798",
    "geocoded_column": {
      "latitude": "29.95993606525798",
      "longitude": "-90.08968774169156"
    }
  },
  {
    "service_request": "2025-1231440",
    "request_type": "Trash/Recycling",
    "request_reason": "Order Recycling Cart",
    "date_created": "2025-10-06T15:28:15.000",
    "date_modified": "2025-10-06T15:33:03.000",
    "request_status": "Pending",
    "responsible_agency": "Department of Sanitation",
    "final_address": "2100 Jefferson Ave",
    "address_councildis": "A",
    "status": "Pending",
    "rowid": "1231440",
    "final_x": "3667719.66061",
    "final_y": "523375.601723",
    "longitude": "-90.11185796872135",
    "latitude": "29.933512433467673",
    "geocoded_column": {
      "latitude": "29.933512433467673",
      "longitude": "-90.11185796872135"
    }
  },
  {
    "service_request": "2025-1231439",
    "request_type": "Trash/Recycling",
    "request_reason": "Request a Large Item Pick Up",
    "date_created": "2025-10-06T15:27:26.000",
    "date_modified": "2025-10-06T15:27:31.000",
    "request_status": "Pending",
    "responsible_agency": "Department of Sanitation",
    "final_address": "7935 Michigan St",
    "address_councildis": "E",
    "status": "Assigned to Contractor",
    "contractor": "Waste Pro",
    "rowid": "1231439",
    "final_x": "3711057.82161",
    "final_y": "567662.78122",
    "longitude": "-89.97338379506311",
    "latitude": "30.05394387900348",
    "geocoded_column": {
      "latitude": "30.05394387900348",
      "longitude": "-89.97338379506311"
    }
  },
  {
    "service_request": "2025-1231438",
    "request_type": "Trash/Recycling",
    "request_reason": "Replace Trash Cart",
    "date_created": "2025-10-06T15:22:48.000",
    "date_modified": "2025-10-06T15:22:50.000",
    "request_status": "Pending",
    "responsible_agency": "Department of Sanitation",
    "final_address": "2437 Milan St",
    "address_councildis": "B",
    "status": "Assigned to Contractor",
    "contractor": "IV Waste",
    "rowid": "1231438",
    "final_x": "3671330.00366",
    "final_y": "524091.432188",
    "longitude": "-90.10043597394943",
    "latitude": "29.935374416992573",
    "geocoded_column": {
      "latitude": "29.935374416992573",
      "longitude": "-90.10043597394943"
    }
  },
  {
    "service_request": "2025-1231437",
    "request_type": "Trash/Recycling",
    "request_reason": "Illegal Dumping",
    "date_created": "2025-10-06T15:14:50.000",
    "date_modified": "2025-10-06T15:14:51.000",
    "request_status": "Pending",
    "responsible_agency": "Department of Sanitation",
    "final_address": "4700 Painters St",
    "address_councildis": "D",
    "status": "Pending",
    "rowid": "1231437",
    "final_x": "3686073.61999",
    "final_y": "550418.69058",
    "longitude": "-90.05296169191897",
    "latitude": "30.007320748118996",
    "geocoded_column": {
      "latitude": "30.007320748118996",
      "longitude": "-90.05296169191897"
    }
  },
  {
    "service_request": "2025-1231436",
    "request_type": "Streetlights",
    "request_reason": "Streetlight Outage/Malfunction",
    "date_created": "2025-10-06T15:12:05.000",
    "date_modified": "2025-10-06T15:12:07.000",
    "request_status": "Pending",
    "responsible_agency": "Department of Public Works",
    "final_address": "2123 Broadway St",
    "address_councildis": "A",
    "status": "Pending",
    "rowid": "1231436",
    "final_x": "3666112.92826",
    "final_y": "529285.727937",
    "longitude": "-90.11673225146713",
    "latitude": "29.9498103802666",
    "geocoded_column": {
      "latitude": "29.9498103802666",
      "longitude": "-90.11673225146713"
    }
  },
  {
    "service_request": "2025-1231435",
    "request_type": "Roads and Streets",
    "request_reason": "Pothole",
    "date_created": "2025-10-06T15:11:26.000",
    "date_modified": "2025-10-06T15:11:27.000",
    "request_status": "Pending",
    "responsible_agency": "Department of Public Works",
    "final_address": "3211 Pittari Pl",
    "address_councildis": "C",
    "status": "Pending",
    "rowid": "1231435",
    "final_x": "3709663.42481",
    "final_y": "518963.757047",
    "longitude": "-89.97960961603066",
    "latitude": "29.920085334890807",
    "geocoded_column": {
      "latitude": "29.920085334890807",
      "longitude": "-89.97960961603066"
    }
  },
  {
    "service_request": "2025-1231434",
    "request_type": "Trash/Recycling",
    "request_reason": "Request a Large Item Pick Up",
    "date_created": "2025-10-06T15:08:55.000",
    "date_modified": "2025-10-06T15:08:56.000",
    "request_status": "Pending",
    "responsible_agency": "Department of Sanitation",
    "final_address": "520 S Norman C Francis Prkwy",
    "address_councildis": "B",
    "status": "Assigned to Contractor",
    "contractor": "IV Waste",
    "rowid": "1231434",
    "final_x": "3672234.07092",
    "final_y": "535206.463686",
    "longitude": "-90.09720327226256",
    "latitude": "29.96591031160644",
    "geocoded_column": {
      "latitude": "29.96591031160644",
      "longitude": "-90.09720327226256"
    }
  },
  {
    "service_request": "2025-1231433",
    "request_type": "Street and Traffic Signs",
    "request_reason": "Additional Signage Request",
    "date_created": "2025-10-06T15:06:42.000",
    "date_modified": "2025-10-06T15:06:43.000",
    "request_status": "Pending",
    "responsible_agency": "Department of Public Works",
    "final_address": "6600 BLK Marconi Dr",
    "address_councildis": "A",
    "status": "Pending",
    "rowid": "1231433",
    "final_x": "3671974.78495",
    "final_y": "553070.645615",
    "longitude": "-90.0974135955153",
    "latitude": "30.015038333804622",
    "geocoded_column": {
      "latitude": "30.015038333804622",
      "longitude": "-90.0974135955153"
    }
  },
  {
    "service_request": "2025-1231432",
    "request_type": "Parks & Parkways",
    "request_reason": "Request Tree Service (Right of Way/Public Property)",
    "date_created": "2025-10-06T15:03:24.000",
    "date_modified": "2025-10-06T15:04:31.000",
    "request_status": "Pending",
    "responsible_agency": "Department of Parks & Parkway",
    "final_address": "1006 Lamanche St",
    "address_councildis": "E",
    "status": "Pending",
    "rowid": "1231432",
    "final_x": "3698216.63952",
    "final_y": "533326.321028",
    "longitude": "-90.01521989059758",
    "latitude": "29.959944281957675",
    "geocoded_column": {
      "latitude": "29.959944281957675",
      "longitude": "-90.01521989059758"
    }
  },
  {
    "service_request": "2025-1231431",
    "request_type": "Roads and Streets",
    "request_reason": "Street Subsidence (Sinking)",
    "date_created": "2025-10-06T15:02:01.000",
    "date_modified": "2025-10-06T15:02:10.000",
    "request_status": "Pending",
    "responsible_agency": "Sewerage & Water Board",
    "final_address": "13800 Old Gentilly Rd",
    "address_councildis": "E",
    "status": "Pending",
    "rowid": "1231431",
    "final_x": "3727435.23309",
    "final_y": "556225.911066",
    "longitude": "-89.92206478628862",
    "latitude": "30.02195259142992",
    "geocoded_column": {
      "latitude": "30.02195259142992",
      "longitude": "-89.92206478628862"
    }
  },
  {
    "service_request": "2025-1231430",
    "request_type": "Trash/Recycling",
    "request_reason": "Request a Large Item Pick Up",
    "date_created": "2025-10-06T15:00:07.000",
    "date_modified": "2025-10-06T15:00:09.000",
    "request_status": "Pending",
    "responsible_agency": "Department of Sanitation",
    "final_address": "7441 Scottsdale Dr",
    "address_councildis": "E",
    "status": "Assigned to Contractor",
    "contractor": "Waste Pro",
    "rowid": "1231430",
    "final_x": "3704242.54244",
    "final_y": "561849.205663",
    "longitude": "-89.9951396745282",
    "latitude": "30.038179501986388",
    "geocoded_column": {
      "latitude": "30.038179501986388",
      "longitude": "-89.9951396745282"
    }
  },
  {
    "service_request": "2025-1231429",
    "request_type": "Trash/Recycling",
    "request_reason": "Request a Large Item Pick Up",
    "date_created": "2025-10-06T14:56:35.000",
    "date_modified": "2025-10-06T14:56:37.000",
    "request_status": "Pending",
    "responsible_agency": "Department of Sanitation",
    "final_address": "75 Audubon Blvd",
    "address_councildis": "A",
    "status": "Assigned to Contractor",
    "contractor": "IV Waste",
    "rowid": "1231429",
    "final_x": "3665859.15303",
    "final_y": "527585.328575",
    "longitude": "-90.11759050464175",
    "latitude": "29.945142238060036",
    "geocoded_column": {
      "latitude": "29.945142238060036",
      "longitude": "-90.11759050464175"
    }
  },
  {
    "service_request": "2025-1231428",
    "request_type": "Drainage",
    "request_reason": "Catch Basin Not Draining",
    "date_created": "2025-10-06T14:55:58.000",
    "date_modified": "2025-10-06T14:55:59.000",
    "request_status": "Pending",
    "responsible_agency": "Sewerage & Water Board",
    "final_address": "4121 Camp St",
    "address_councildis": "B",
    "status": "Pending",
    "rowid": "1231428",
    "final_x": "3671929.01371",
    "final_y": "519296.933047",
    "longitude": "-90.09870798391356",
    "latitude": "29.922173348715315",
    "geocoded_column": {
      "latitude": "29.922173348715315",
      "longitude": "-90.09870798391356"
    }
  },
  {
    "service_request": "2025-1231427",
    "request_type": "Roads and Streets",
    "request_reason": "Debris in Driving Lanes",
    "date_created": "2025-10-06T14:53:37.000",
    "date_modified": "2025-10-06T14:53:38.000",
    "request_status": "Pending",
    "responsible_agency": "Department of Public Works",
    "final_address": "6800 BLK Parc Brittany Blvd",
    "address_councildis": "E",
    "status": "Pending",
    "rowid": "1231427",
    "final_x": "3702765.0298",
    "final_y": "557733.155647",
    "longitude": "-89.99996032832304",
    "latitude": "30.026909330455236",
    "geocoded_column": {
      "latitude": "30.026909330455236",
      "longitude": "-89.99996032832304"
    }
  },
  {
    "service_request": "2025-1231426",
    "request_type": "Abandoned Vehicles",
    "request_reason": "Abandoned/Junk Vehicles",
    "date_created": "2025-10-06T14:53:19.000",
    "date_modified": "2025-10-06T14:53:21.000",
    "request_status": "Pending",
    "responsible_agency": "Department of Public Works",
    "final_address": "3200 BLK Palmyra St",
    "address_councildis": "B",
    "status": "Pending",
    "rowid": "1231426",
    "final_x": "3673246.23287",
    "final_y": "535703.848327",
    "longitude": "-90.09398990100269",
    "latitude": "29.96724788912383",
    "geocoded_column": {
      "latitude": "29.96724788912383",
      "longitude": "-90.09398990100269"
    }
  },
  {
    "service_request": "2025-1231425",
    "request_type": "Trash/Recycling",
    "request_reason": "Order Recycling Cart",
    "date_created": "2025-10-06T14:52:40.000",
    "date_modified": "2025-10-06T14:52:42.000",
    "request_status": "Pending",
    "responsible_agency": "Department of Sanitation",
    "final_address": "2521 Acacia St",
    "address_councildis": "D",
    "status": "Pending",
    "rowid": "1231425",
    "final_x": "3686550.62959",
    "final_y": "546350.333776",
    "longitude": "-90.05159846232687",
    "latitude": "29.99611957486053",
    "geocoded_column": {
      "latitude": "29.99611957486053",
      "longitude": "-90.05159846232687"
    }
  },
  {
    "service_request": "2025-1231424",
    "request_type": "Trash/Recycling",
    "request_reason": "Request a Large Item Pick Up",
    "date_created": "2025-10-06T14:50:52.000",
    "date_modified": "2025-10-06T14:50:54.000",
    "request_status": "Pending",
    "responsible_agency": "Department of Sanitation",
    "final_address": "4215 N Villere St",
    "address_councildis": "D",
    "status": "Assigned to Contractor",
    "contractor": "IV Waste",
    "rowid": "1231424",
    "final_x": "3692820.45814",
    "final_y": "536272.071623",
    "longitude": "-90.03215414557606",
    "latitude": "29.96821364011136",
    "geocoded_column": {
      "latitude": "29.96821364011136",
      "longitude": "-90.03215414557606"
    }
  },
  {
    "service_request": "2025-1231423",
    "request_type": "Trash/Recycling",
    "request_reason": "Repair Trash Cart",
    "date_created": "2025-10-06T14:48:58.000",
    "date_modified": "2025-10-06T14:49:00.000",
    "request_status": "Pending",
    "responsible_agency": "Department of Sanitation",
    "final_address": "2521 Acacia St",
    "address_councildis": "D",
    "status": "Assigned to Contractor",
    "contractor": "IV Waste",
    "rowid": "1231423",
    "final_x": "3686550.62959",
    "final_y": "546350.333776",
    "longitude": "-90.05159846232687",
    "latitude": "29.99611957486053",
    "geocoded_column": {
      "latitude": "29.99611957486053",
      "longitude": "-90.05159846232687"
    }
  },
  {
    "service_request": "2025-1231422",
    "request_type": "Roads and Streets",
    "request_reason": "Street Subsidence (Sinking)",
    "date_created": "2025-10-06T14:40:52.000",
    "date_modified": "2025-10-06T14:40:53.000",
    "request_status": "Pending",
    "responsible_agency": "Sewerage & Water Board",
    "final_address": "3700 BLK Pitt St",
    "address_councildis": "B",
    "status": "Pending",
    "rowid": "1231422",
    "final_x": "3673015.68051",
    "final_y": "520826.743895",
    "longitude": "-90.0952256421681",
    "latitude": "29.926347598475463",
    "geocoded_column": {
      "latitude": "29.926347598475463",
      "longitude": "-90.0952256421681"
    }
  },
  {
    "service_request": "2025-1231421",
    "request_type": "Abandoned Vehicles",
    "request_reason": "Abandoned/Junk Vehicles",
    "date_created": "2025-10-06T14:40:34.000",
    "date_modified": "2025-10-06T14:40:37.000",
    "request_status": "Pending",
    "responsible_agency": "Department of Public Works",
    "final_address": "CHEF MENTEUR HWY & I 510 N ONRAMP",
    "address_councildis": "E",
    "status": "Pending",
    "rowid": "1231421",
    "final_x": "3722940.55",
    "final_y": "558442.66",
    "longitude": "-89.93618123044908",
    "latitude": "30.02819920384384",
    "geocoded_column": {
      "latitude": "30.02819920384384",
      "longitude": "-89.93618123044908"
    }
  },
  {
    "service_request": "2025-1231420",
    "request_type": "Abandoned Vehicles",
    "request_reason": "Abandoned/Junk Vehicles",
    "date_created": "2025-10-06T14:39:02.000",
    "date_modified": "2025-10-06T14:39:03.000",
    "request_status": "Pending",
    "responsible_agency": "Department of Public Works",
    "final_address": "6232 Pitt St",
    "address_councildis": "A",
    "status": "Pending",
    "rowid": "1231420",
    "final_x": "3664334.78842",
    "final_y": "521491.453881",
    "longitude": "-90.12260671942369",
    "latitude": "29.92843040467591",
    "geocoded_column": {
      "latitude": "29.92843040467591",
      "longitude": "-90.12260671942369"
    }
  },
  {
    "service_request": "2025-1231419",
    "request_type": "Property Maintenance",
    "request_reason": "Property Maintenance",
    "date_created": "2025-10-06T14:37:38.000",
    "date_modified": "2025-10-06T14:37:39.000",
    "request_status": "Pending",
    "responsible_agency": "Department of Code Enforcement",
    "final_address": "4642 Perelli Dr",
    "address_councildis": "E",
    "status": "Pending",
    "rowid": "1231419",
    "final_x": "3711692.18021",
    "final_y": "555407.116313",
    "longitude": "-89.97183903751684",
    "latitude": "30.020224979066633",
    "geocoded_column": {
      "latitude": "30.020224979066633",
      "longitude": "-89.97183903751684"
    }
  },
  {
    "service_request": "2025-1231418",
    "request_type": "Trash/Recycling",
    "request_reason": "Repair Trash Cart",
    "date_created": "2025-10-06T14:34:29.000",
    "date_modified": "2025-10-06T14:34:31.000",
    "request_status": "Pending",
    "responsible_agency": "Department of Sanitation",
    "final_address": "4221 Loyola Ave",
    "address_councildis": "B",
    "status": "Assigned to Contractor",
    "contractor": "IV Waste",
    "rowid": "1231418",
    "final_x": "3671199.53025",
    "final_y": "523094.319675",
    "longitude": "-90.10088173824245",
    "latitude": "29.93263653870552",
    "geocoded_column": {
      "latitude": "29.93263653870552",
      "longitude": "-90.10088173824245"
    }
  },
  {
    "service_request": "2025-1231417",
    "request_type": "Trash/Recycling",
    "request_reason": "Replace Recycling Cart",
    "date_created": "2025-10-06T14:28:44.000",
    "date_modified": "2025-10-06T14:28:46.000",
    "request_status": "Pending",
    "responsible_agency": "Department of Sanitation",
    "final_address": "4422 Coliseum St",
    "address_councildis": "B",
    "status": "Pending",
    "rowid": "1231417",
    "final_x": "3670722.11406",
    "final_y": "519712.761848",
    "longitude": "-90.1025035764086",
    "latitude": "29.92335244770715",
    "geocoded_column": {
      "latitude": "29.92335244770715",
      "longitude": "-90.1025035764086"
    }
  },
  {
    "service_request": "2025-1231416",
    "request_type": "Trash/Recycling",
    "request_reason": "Change Size of Trash Cart",
    "date_created": "2025-10-06T14:26:32.000",
    "date_modified": "2025-10-06T14:26:33.000",
    "request_status": "Pending",
    "responsible_agency": "Department of Sanitation",
    "final_address": "1815 Burgundy St",
    "address_councildis": "C",
    "status": "Assigned to Contractor",
    "contractor": "IV Waste",
    "rowid": "1231416",
    "final_x": "3683715.56828",
    "final_y": "535504.964614",
    "longitude": "-90.06093463563069",
    "latitude": "29.9663855125974",
    "geocoded_column": {
      "latitude": "29.9663855125974",
      "longitude": "-90.06093463563069"
    }
  },
  {
    "service_request": "2025-1231415",
    "request_type": "Trash/Recycling",
    "request_reason": "Request a Large Item Pick Up",
    "date_created": "2025-10-06T14:25:58.000",
    "date_modified": "2025-10-06T14:26:00.000",
    "request_status": "Pending",
    "responsible_agency": "Department of Sanitation",
    "final_address": "2004 Philip St",
    "address_councildis": "B",
    "status": "Assigned to Contractor",
    "contractor": "IV Waste",
    "rowid": "1231415",
    "final_x": "3676287.13781",
    "final_y": "524582.833724",
    "longitude": "-90.08476936659471",
    "latitude": "29.9365780186295",
    "geocoded_column": {
      "latitude": "29.9365780186295",
      "longitude": "-90.08476936659471"
    }
  },
  {
    "service_request": "2025-1231414",
    "request_type": "Trash/Recycling",
    "request_reason": "Request a Large Item Pick Up",
    "date_created": "2025-10-06T14:21:43.000",
    "date_modified": "2025-10-06T14:21:44.000",
    "request_status": "Pending",
    "responsible_agency": "Department of Sanitation",
    "final_address": "4419 Orleans Ave",
    "address_councildis": "A",
    "status": "Assigned to Contractor",
    "contractor": "IV Waste",
    "rowid": "1231414",
    "final_x": "3671372.92398",
    "final_y": "541239.435532",
    "longitude": "-90.09971764034044",
    "latitude": "29.982524461088904",
    "geocoded_column": {
      "latitude": "29.982524461088904",
      "longitude": "-90.09971764034044"
    }
  },
  {
    "service_request": "2025-1231413",
    "request_type": "Trash/Recycling",
    "request_reason": "Illegal Dumping",
    "date_created": "2025-10-06T14:20:51.000",
    "date_modified": "2025-10-06T14:20:52.000",
    "request_status": "Pending",
    "responsible_agency": "Department of Sanitation",
    "final_address": "5126 Revel St",
    "address_councildis": "E",
    "status": "Pending",
    "rowid": "1231413",
    "final_x": "3725025.08288",
    "final_y": "562364.308383",
    "longitude": "-89.92944249520656",
    "latitude": "30.038912076514045",
    "geocoded_column": {
      "latitude": "30.038912076514045",
      "longitude": "-89.92944249520656"
    }
  },
  {
    "service_request": "2025-1231412",
    "request_type": "Trash/Recycling",
    "request_reason": "Request a Large Item Pick Up",
    "date_created": "2025-10-06T14:19:14.000",
    "date_modified": "2025-10-06T14:19:16.000",
    "request_status": "Pending",
    "responsible_agency": "Department of Sanitation",
    "final_address": "85 Fontainebleau Dr",
    "address_councildis": "A",
    "status": "Assigned to Contractor",
    "contractor": "IV Waste",
    "rowid": "1231412",
    "final_x": "3666954.32385",
    "final_y": "530824.753218",
    "longitude": "-90.11402385891815",
    "latitude": "29.954017607303598",
    "geocoded_column": {
      "latitude": "29.954017607303598",
      "longitude": "-90.11402385891815"
    }
  },
  {
    "service_request": "2025-1231411",
    "request_type": "Utility Poles",
    "request_reason": "Utility Pole Leaning",
    "date_created": "2025-10-06T14:16:59.000",
    "date_modified": "2025-10-06T14:17:01.000",
    "request_status": "Pending",
    "responsible_agency": "Utility Company Collective",
    "final_address": "3300 Royal St",
    "address_councildis": "C",
    "status": "Pending",
    "rowid": "1231411",
    "final_x": "3689585.83292",
    "final_y": "534228.821765",
    "longitude": "-90.04244189162401",
    "latitude": "29.962696019802443",
    "geocoded_column": {
      "latitude": "29.962696019802443",
      "longitude": "-90.04244189162401"
    }
  },
  {
    "service_request": "2025-1231410",
    "request_type": "Trash/Recycling",
    "request_reason": "Request a Large Item Pick Up",
    "date_created": "2025-10-06T14:15:09.000",
    "date_modified": "2025-10-06T14:15:48.000",
    "request_status": "Pending",
    "responsible_agency": "Department of Sanitation",
    "final_address": "7560 Branch Dr",
    "address_councildis": "E",
    "status": "Assigned to Contractor",
    "contractor": "Waste Pro",
    "rowid": "1231410",
    "final_x": "3714955.73483",
    "final_y": "568325.891941",
    "longitude": "-89.96103847270346",
    "latitude": "30.055639380700672",
    "geocoded_column": {
      "latitude": "30.055639380700672",
      "longitude": "-89.96103847270346"
    }
  },
  {
    "service_request": "2025-1231409",
    "request_type": "Parks & Parkways",
    "request_reason": "Request Tree Service (Right of Way/Public Property)",
    "date_created": "2025-10-06T14:14:31.000",
    "date_modified": "2025-10-06T14:14:32.000",
    "request_status": "Pending",
    "responsible_agency": "Department of Parks & Parkway",
    "final_address": "5641 Read Blvd",
    "address_councildis": "E",
    "status": "Pending",
    "rowid": "1231409",
    "final_x": "3711572.00325",
    "final_y": "559780.275677",
    "longitude": "-89.97205459784215",
    "latitude": "30.032253368105852",
    "geocoded_column": {
      "latitude": "30.032253368105852",
      "longitude": "-89.97205459784215"
    }
  },
  {
    "service_request": "2025-1231408",
    "request_type": "Trash/Recycling",
    "request_reason": "Request a Large Item Pick Up",
    "date_created": "2025-10-06T14:13:49.000",
    "date_modified": "2025-10-06T14:13:51.000",
    "request_status": "Pending",
    "responsible_agency": "Department of Sanitation",
    "final_address": "4042 S Pin Oak Ave",
    "address_councildis": "C",
    "status": "Assigned to Contractor",
    "contractor": "Richards Disposal",
    "rowid": "1231408",
    "final_x": "3704791.23351",
    "final_y": "513080.066417",
    "longitude": "-89.99520554786011",
    "latitude": "29.904064580852157",
    "geocoded_column": {
      "latitude": "29.904064580852157",
      "longitude": "-89.99520554786011"
    }
  },
  {
    "service_request": "2025-1231407",
    "request_type": "Traffic Signals",
    "request_reason": "Traffic Signal Malfunctioning or Damaged",
    "date_created": "2025-10-06T14:13:48.000",
    "date_modified": "2025-10-06T14:13:49.000",
    "request_status": "Pending",
    "responsible_agency": "Department of Public Works",
    "final_address": "10 Poland Ave",
    "address_councildis": "D",
    "status": "Pending",
    "rowid": "1231407",
    "final_x": "3693446.47849",
    "final_y": "538558.748681",
    "longitude": "-90.03009502169525",
    "latitude": "29.974481627496722",
    "geocoded_column": {
      "latitude": "29.974481627496722",
      "longitude": "-90.03009502169525"
    }
  },
  {
    "service_request": "2025-1231406",
    "request_type": "Trash/Recycling",
    "request_reason": "Request a Large Item Pick Up",
    "date_created": "2025-10-06T14:11:22.000",
    "date_modified": "2025-10-06T14:11:24.000",
    "request_status": "Pending",
    "responsible_agency": "Department of Sanitation",
    "final_address": "1235 Elysian Fields Ave",
    "address_councildis": "C",
    "status": "Assigned to Contractor",
    "contractor": "IV Waste",
    "rowid": "1231406",
    "final_x": "3685067.56636",
    "final_y": "536961.939144",
    "longitude": "-90.05661378786662",
    "latitude": "29.97035033628305",
    "geocoded_column": {
      "latitude": "29.97035033628305",
      "longitude": "-90.05661378786662"
    }
  },
  {
    "service_request": "2025-1231405",
    "request_type": "Trash/Recycling",
    "request_reason": "Request a Large Item Pick Up",
    "date_created": "2025-10-06T14:10:42.000",
    "date_modified": "2025-10-06T14:10:44.000",
    "request_status": "Pending",
    "responsible_agency": "Department of Sanitation",
    "final_address": "4734 Charlene Dr",
    "address_councildis": "E",
    "status": "Assigned to Contractor",
    "contractor": "Waste Pro",
    "rowid": "1231405",
    "final_x": "3707849.84862",
    "final_y": "555478.379289",
    "longitude": "-89.9839768509684",
    "latitude": "30.020545898584068",
    "geocoded_column": {
      "latitude": "30.020545898584068",
      "longitude": "-89.9839768509684"
    }
  },
  {
    "service_request": "2025-1231404",
    "request_type": "Roads and Streets",
    "request_reason": "Street Subsidence (Sinking)",
    "date_created": "2025-10-06T14:09:15.000",
    "date_modified": "2025-10-06T14:09:17.000",
    "request_status": "Pending",
    "responsible_agency": "Sewerage & Water Board",
    "final_address": "6899 West End Blvd",
    "address_councildis": "A",
    "status": "Pending",
    "rowid": "1231404",
    "final_x": "3666883.71463",
    "final_y": "553598.775127",
    "longitude": "-90.11348125455079",
    "latitude": "30.016640512688532",
    "geocoded_column": {
      "latitude": "30.016640512688532",
      "longitude": "-90.11348125455079"
    }
  },
  {
    "service_request": "2025-1231403",
    "request_type": "Property Maintenance",
    "request_reason": "Property Maintenance",
    "date_created": "2025-10-06T14:08:25.000",
    "date_modified": "2025-10-06T14:16:11.000",
    "case_close_date": "2025-10-06T09:16:03.000",
    "request_status": "Closed",
    "responsible_agency": "Department of Code Enforcement",
    "final_address": "8901 Olive St",
    "address_councildis": "A",
    "status": "Referred to Code Enforcement",
    "rowid": "1231403",
    "final_x": "3665157.47668",
    "final_y": "536126.898567",
    "longitude": "-90.11952024281686",
    "latitude": "29.968649221048647",
    "geocoded_column": {
      "latitude": "29.968649221048647",
      "longitude": "-90.11952024281686"
    }
  },
  {
    "service_request": "2025-1231402",
    "request_type": "Trash/Recycling",
    "request_reason": "Request a Large Item Pick Up",
    "date_created": "2025-10-06T14:08:11.000",
    "date_modified": "2025-10-06T14:08:41.000",
    "request_status": "Pending",
    "responsible_agency": "Department of Sanitation",
    "final_address": "4219 S Liberty St",
    "address_councildis": "B",
    "status": "Assigned to Contractor",
    "contractor": "IV Waste",
    "rowid": "1231402",
    "final_x": "3671170.72865",
    "final_y": "523451.513851",
    "longitude": "-90.10096053481031",
    "latitude": "29.933619559384514",
    "geocoded_column": {
      "latitude": "29.933619559384514",
      "longitude": "-90.10096053481031"
    }
  },
  {
    "service_request": "2025-1231401",
    "request_type": "Trash/Recycling",
    "request_reason": "Repair Trash Cart",
    "date_created": "2025-10-06T14:06:17.000",
    "date_modified": "2025-10-06T14:06:19.000",
    "request_status": "Pending",
    "responsible_agency": "Department of Sanitation",
    "final_address": "4409 Wellington Ave",
    "address_councildis": "D",
    "status": "Assigned to Contractor",
    "contractor": "IV Waste",
    "rowid": "1231401",
    "final_x": "3677291.59406",
    "final_y": "548585.850067",
    "longitude": "-90.08076989000195",
    "latitude": "30.002547990283077",
    "geocoded_column": {
      "latitude": "30.002547990283077",
      "longitude": "-90.08076989000195"
    }
  },
  {
    "service_request": "2025-1231400",
    "request_type": "Parks & Parkways",
    "request_reason": "Request Tree Service (Right of Way/Public Property)",
    "date_created": "2025-10-06T14:00:28.000",
    "date_modified": "2025-10-06T14:00:35.000",
    "request_status": "Pending",
    "responsible_agency": "Department of Parks & Parkway",
    "final_address": "4906 Danneel St",
    "address_councildis": "B",
    "status": "Pending",
    "rowid": "1231400",
    "final_x": "3669029.50874",
    "final_y": "522089.822586",
    "longitude": "-90.1077662540024",
    "latitude": "29.92993849327629",
    "geocoded_column": {
      "latitude": "29.92993849327629",
      "longitude": "-90.1077662540024"
    }
  },
  {
    "service_request": "2025-1231399",
    "request_type": "Trash/Recycling",
    "request_reason": "Request a Large Item Pick Up",
    "date_created": "2025-10-06T13:58:09.000",
    "date_modified": "2025-10-06T13:58:27.000",
    "request_status": "Pending",
    "responsible_agency": "Department of Sanitation",
    "final_address": "732 Frenchmen St",
    "address_councildis": "C",
    "status": "Assigned to Contractor",
    "contractor": "IV Waste",
    "rowid": "1231399",
    "final_x": "3684658.9926",
    "final_y": "535093.388358",
    "longitude": "-90.05796978790707",
    "latitude": "29.965224980346417",
    "geocoded_column": {
      "latitude": "29.965224980346417",
      "longitude": "-90.05796978790707"
    }
  },
  {
    "service_request": "2025-1231398",
    "request_type": "Drainage",
    "request_reason": "Catch Basin Not Draining",
    "date_created": "2025-10-06T13:58:05.000",
    "date_modified": "2025-10-06T13:58:06.000",
    "request_status": "Pending",
    "responsible_agency": "Sewerage & Water Board",
    "final_address": "15202 Chef Menteur Hwy",
    "address_councildis": "E",
    "status": "Pending",
    "rowid": "1231398",
    "final_x": "3735564.04404",
    "final_y": "563383.27664",
    "longitude": "-89.89609662859448",
    "latitude": "30.04135455587441",
    "geocoded_column": {
      "latitude": "30.04135455587441",
      "longitude": "-89.89609662859448"
    }
  },
  {
    "service_request": "2025-1231397",
    "request_type": "Mosquito, Termite & Rodent Control",
    "request_reason": "Non-Rodent Complaint (Possums & Snakes)",
    "date_created": "2025-10-06T13:56:28.000",
    "date_modified": "2025-10-06T13:56:30.000",
    "request_status": "Pending",
    "responsible_agency": "Mosquito, Termite & Rodent Control Board",
    "final_address": "8907 Olive St",
    "address_councildis": "A",
    "status": "Pending",
    "rowid": "1231397",
    "final_x": "3665128.48391",
    "final_y": "536153.381895",
    "longitude": "-90.11961091808841",
    "latitude": "29.96872288590257",
    "geocoded_column": {
      "latitude": "29.96872288590257",
      "longitude": "-90.11961091808841"
    }
  },
  {
    "service_request": "2025-1231396",
    "request_type": "Trash/Recycling",
    "request_reason": "Order Trash Cart",
    "date_created": "2025-10-06T13:53:07.000",
    "date_modified": "2025-10-06T13:53:09.000",
    "request_status": "Pending",
    "responsible_agency": "Department of Sanitation",
    "final_address": "1000 S Carrollton Ave",
    "address_councildis": "A",
    "status": "Assigned to Contractor",
    "contractor": "IV Waste",
    "rowid": "1231396",
    "final_x": "3661499.09901",
    "final_y": "527897.039551",
    "longitude": "-90.13134630516834",
    "latitude": "29.946125824521033",
    "geocoded_column": {
      "latitude": "29.946125824521033",
      "longitude": "-90.13134630516834"
    }
  },
  {
    "service_request": "2025-1231395",
    "request_type": "Property Maintenance",
    "request_reason": "Property Maintenance",
    "date_created": "2025-10-06T13:46:56.000",
    "date_modified": "2025-10-06T13:58:11.000",
    "case_close_date": "2025-10-06T08:58:10.000",
    "request_status": "Closed",
    "responsible_agency": "Department of Code Enforcement",
    "final_address": "8907 Olive St",
    "address_councildis": "A",
    "status": "Referred to Code Enforcement",
    "rowid": "1231395",
    "final_x": "3665128.48391",
    "final_y": "536153.381895",
    "longitude": "-90.11961091808841",
    "latitude": "29.96872288590257",
    "geocoded_column": {
      "latitude": "29.96872288590257",
      "longitude": "-90.11961091808841"
    }
  },