[
  {
    "service_request": "2026-1255684",
    "request_type": "General Services",
    "request_reason": "General Service Request",
    "date_created": "2026-01-31T23:14:34.000",
    "date_modified": "2026-01-31T23:14:37.000",
    "request_status": "Pending",
    "responsible_agency": "Orleans Parish Communication District",
    "final_address": "734 Louque Pl",
    "address_councildis": "A",
    "status": "Pending",
    "rowid": "1255684",
    "final_x": "3668528.94017",
    "final_y": "543482.595214",
    "longitude": "-90.10862465179494",
    "latitude": "29.988776270322468",
    "geocoded_column": {
      "latitude": "29.988776270322468",
      "longitude": "-90.10862465179494"
    }
  },
  {
    "service_request": "2026-1255683",
    "request_type": "General Services",
    "request_reason": "General Service Request",
    "date_created": "2026-01-31T22:21:55.000",
    "date_modified": "2026-01-31T22:21:57.000",
    "request_status": "Pending",
    "responsible_agency": "Orleans Parish Communication District",
    "final_address": "907 Washington Ave",
    "address_councildis": "B",
    "status": "Pending",
    "rowid": "1255683",
    "final_x": "3677458.32354",
    "final_y": "520288.516152",
    "longitude": "-90.08122003009265",
    "latitude": "29.92473490447262",
    "geocoded_column": {
      "latitude": "29.92473490447262",
      "longitude": "-90.08122003009265"
    }
  },
  {
    "service_request": "2026-1255682",
    "request_type": "Abandoned Vehicles",
    "request_reason": "Abandoned/Junk Vehicles",
    "date_created": "2026-01-31T21:32:19.000",
    "date_modified": "2026-01-31T21:32:21.000",
    "request_status": "Pending",
    "responsible_agency": "Department of Public Works",
    "final_address": "3806 Piedmont Dr",
    "address_councildis": "D",
    "status": "Pending",
    "rowid": "1255682",
    "final_x": "3685528.59036",
    "final_y": "546749.796049",
    "longitude": "-90.05481292233443",
    "latitude": "29.99724934846459",
    "geocoded_column": {
      "latitude": "29.99724934846459",
      "longitude": "-90.05481292233443"
    }
  },
  {
    "service_request": "2026-1255681",
    "request_type": "Trash/Recycling",
    "request_reason": "Replace Trash Cart",
    "date_created": "2026-01-31T21:26:46.000",
    "date_modified": "2026-01-31T21:26:49.000",
    "request_status": "Pending",
    "responsible_agency": "Department of Sanitation",
    "final_address": "1378 Harrison Ave",
    "address_councildis": "D",
    "status": "Assigned to Contractor",
    "contractor": "IV Waste",
    "rowid": "1255681",
    "final_x": "3677922.61435",
    "final_y": "547514.464402",
    "longitude": "-90.0788134711707",
    "latitude": "29.999583077485827",
    "geocoded_column": {
      "latitude": "29.999583077485827",
      "longitude": "-90.0788134711707"
    }
  },
  {
    "service_request": "2026-1255680",
    "request_type": "Trash/Recycling",
    "request_reason": "Order Trash Cart",
    "date_created": "2026-01-31T20:33:07.000",
    "date_modified": "2026-01-31T20:33:08.000",
    "request_status": "Pending",
    "responsible_agency": "Department of Sanitation",
    "final_address": "7640 Morrison Rd",
    "address_councildis": "E",
    "status": "Assigned to Contractor",
    "contractor": "Waste Pro",
    "rowid": "1255680",
    "final_x": "3701631.15946",
    "final_y": "559759.055197",
    "longitude": "-90.00346892404156",
    "latitude": "30.032516000937527",
    "geocoded_column": {
      "latitude": "30.032516000937527",
      "longitude": "-90.00346892404156"
    }
  },
  {
    "service_request": "2026-1255679",
    "request_type": "Trash/Recycling",
    "request_reason": "Request a Large Item Pick Up",
    "date_created": "2026-01-31T18:59:31.000",
    "date_modified": "2026-01-31T18:59:34.000",
    "request_status": "Pending",
    "responsible_agency": "Department of Sanitation",
    "final_address": "3327 River Oaks Dr",
    "address_councildis": "C",
    "status": "Assigned to Contractor",
    "contractor": "Richards Disposal",
    "rowid": "1255679",
    "final_x": "3701364.34609",
    "final_y": "518848.887287",
    "longitude": "-90.00580984360721",
    "latitude": "29.920036471583398",
    "geocoded_column": {
      "latitude": "29.920036471583398",
      "longitude": "-90.00580984360721"
    }
  },
  {
    "service_request": "2026-1255678",
    "request_type": "Trash/Recycling",
    "request_reason": "Request a Large Item Pick Up",
    "date_created": "2026-01-31T18:30:03.000",
    "date_modified": "2026-01-31T18:30:05.000",
    "request_status": "Pending",
    "responsible_agency": "Department of Sanitation",
    "final_address": "326 Vallette St",
    "address_councildis": "C",
    "status": "Assigned to Contractor",
    "contractor": "Richards Disposal",
    "rowid": "1255678",
    "final_x": "3687603.99958",
    "final_y": "530548.077698",
    "longitude": "-90.0488305419127",
    "latitude": "29.95263648687249",
    "geocoded_column": {
      "latitude": "29.95263648687249",
      "longitude": "-90.0488305419127"
    }
  },
  {
    "service_request": "2026-1255677",
    "request_type": "Trash/Recycling",
    "request_reason": "Order Recycling Cart",
    "date_created": "2026-01-31T18:04:21.000",
    "date_modified": "2026-01-31T18:04:22.000",
    "request_status": "Pending",
    "responsible_agency": "Department of Sanitation",
    "final_address": "1625 Frenchmen St",
    "address_councildis": "D",
    "status": "Pending",
    "rowid": "1255677",
    "final_x": "3684452.41961",
    "final_y": "538325.284809",
    "longitude": "-90.05850858322077",
    "latitude": "29.974117894342854",
    "geocoded_column": {
      "latitude": "29.974117894342854",
      "longitude": "-90.05850858322077"
    }
  },
  {
    "service_request": "2026-1255676",
    "request_type": "Property Maintenance",
    "request_reason": "Property Maintenance",
    "date_created": "2026-01-31T17:56:43.000",
    "date_modified": "2026-01-31T17:56:45.000",
    "request_status": "Pending",
    "responsible_agency": "Department of Code Enforcement",
    "final_address": "126 Country Club Dr",
    "address_councildis": "A",
    "status": "Pending",
    "rowid": "1255676",
    "final_x": "3665634.4528",
    "final_y": "544229.675598",
    "longitude": "-90.11774245205824",
    "latitude": "29.990915236469046",
    "geocoded_column": {
      "latitude": "29.990915236469046",
      "longitude": "-90.11774245205824"
    }
  },
  {
    "service_request": "2026-1255675",
    "request_type": "Trash/Recycling",
    "request_reason": "Illegal Dumping",
    "date_created": "2026-01-31T17:36:40.000",
    "date_modified": "2026-01-31T17:36:41.000",
    "request_status": "Pending",
    "responsible_agency": "Department of Sanitation",
    "final_address": "2510 Orleans Ave",
    "address_councildis": "D",
    "status": "Pending",
    "rowid": "1255675",
    "final_x": "3677430.4139",
    "final_y": "536437.001287",
    "longitude": "-90.08075089095324",
    "latitude": "29.96913870756965",
    "geocoded_column": {
      "latitude": "29.96913870756965",
      "longitude": "-90.08075089095324"
    }
  },
  {
    "service_request": "2026-1255674",
    "request_type": "Trash/Recycling",
    "request_reason": "Order Recycling Cart",
    "date_created": "2026-01-31T17:34:07.000",
    "date_modified": "2026-01-31T17:34:10.000",
    "request_status": "Pending",
    "responsible_agency": "Department of Sanitation",
    "final_address": "8363 Curran Rd",
    "address_councildis": "E",
    "status": "Pending",
    "rowid": "1255674",
    "final_x": "3703046.00068",
    "final_y": "562130.780511",
    "longitude": "-89.99891066442669",
    "latitude": "30.03899209142723",
    "geocoded_column": {
      "latitude": "30.03899209142723",
      "longitude": "-89.99891066442669"
    }
  },
  {
    "service_request": "2026-1255673",
    "request_type": "Roads and Streets",
    "request_reason": "Sidewalk Damaged or Missing",
    "date_created": "2026-01-31T17:06:21.000",
    "date_modified": "2026-01-31T17:06:23.000",
    "request_status": "Pending",
    "responsible_agency": "Department of Public Works",
    "final_address": "600 BLK Royal St",
    "address_councildis": "C",
    "status": "Pending",
    "rowid": "1255673",
    "final_x": "3682427.70105",
    "final_y": "532299.837747",
    "longitude": "-90.06511372414272",
    "latitude": "29.957611771426947",
    "geocoded_column": {
      "latitude": "29.957611771426947",
      "longitude": "-90.06511372414272"
    }
  },
  {
    "service_request": "2026-1255672",
    "request_type": "Trash/Recycling",
    "request_reason": "Request a Large Item Pick Up",
    "date_created": "2026-01-31T16:35:11.000",
    "date_modified": "2026-01-31T16:35:13.000",
    "request_status": "Pending",
    "responsible_agency": "Department of Sanitation",
    "final_address": "2012 Mediamolle Dr",
    "address_councildis": "C",
    "status": "Assigned to Contractor",
    "contractor": "Richards Disposal",
    "rowid": "1255672",
    "final_x": "3699300.55632",
    "final_y": "523907.95814",
    "longitude": "-90.01214006493375",
    "latitude": "29.934012761278595",
    "geocoded_column": {
      "latitude": "29.934012761278595",
      "longitude": "-90.01214006493375"
    }
  },
  {
    "service_request": "2026-1255671",
    "request_type": "Property Maintenance",
    "request_reason": "Property Maintenance",
    "date_created": "2026-01-31T16:26:52.000",
    "date_modified": "2026-01-31T16:26:55.000",
    "request_status": "Pending",
    "responsible_agency": "Department of Code Enforcement",
    "final_address": "0 BLK Audubon Blvd",
    "address_councildis": "A",
    "status": "Pending",
    "rowid": "1255671",
    "final_x": "3665405.01594",
    "final_y": "526946.754949",
    "longitude": "-90.11904572932777",
    "latitude": "29.94339960723005",
    "geocoded_column": {
      "latitude": "29.94339960723005",
      "longitude": "-90.11904572932777"
    }
  },
  {
    "service_request": "2026-1255670",
    "request_type": "Parks & Parkways",
    "request_reason": "Request Tree Service (Right of Way/Public Property)",
    "date_created": "2026-01-31T16:20:07.000",
    "date_modified": "2026-01-31T16:20:09.000",
    "request_status": "Pending",
    "responsible_agency": "Department of Parks & Parkway",
    "final_address": "8830 Lake Forest Blvd",
    "address_councildis": "E",
    "status": "Pending",
    "rowid": "1255670",
    "final_x": "3707067.0611",
    "final_y": "558237.613084",
    "longitude": "-89.98634771495844",
    "latitude": "30.02815803998893",
    "geocoded_column": {
      "latitude": "30.02815803998893",
      "longitude": "-89.98634771495844"
    }
  },
  {
    "service_request": "2026-1255669",
    "request_type": "General Services",
    "request_reason": "General Service Request",
    "date_created": "2026-01-31T15:57:29.000",
    "date_modified": "2026-01-31T15:57:31.000",
    "request_status": "Pending",
    "responsible_agency": "Orleans Parish Communication District",
    "final_address": "3118 Burgundy St",
    "address_councildis": "C",
    "status": "Pending",
    "rowid": "1255669",
    "final_x": "3688935.51369",
    "final_y": "535154.50855",
    "longitude": "-90.04446262678692",
    "latitude": "29.965261464858838",
    "geocoded_column": {
      "latitude": "29.965261464858838",
      "longitude": "-90.04446262678692"
    }
  },
  {
    "service_request": "2026-1255668",
    "request_type": "Trash/Recycling",
    "request_reason": "Request a Large Item Pick Up",
    "date_created": "2026-01-31T15:43:58.000",
    "date_modified": "2026-01-31T15:44:00.000",
    "request_status": "Pending",
    "responsible_agency": "Department of Sanitation",
    "final_address": "2501 N Derbigny St",
    "address_councildis": "D",
    "status": "Assigned to Contractor",
    "contractor": "IV Waste",
    "rowid": "1255668",
    "final_x": "3687064.48297",
    "final_y": "538727.122505",
    "longitude": "-90.05024489710529",
    "latitude": "29.975142640727455",
    "geocoded_column": {
      "latitude": "29.975142640727455",
      "longitude": "-90.05024489710529"
    }
  },
  {
    "service_request": "2026-1255667",
    "request_type": "Roads and Streets",
    "request_reason": "Abandoned Service Cut",
    "date_created": "2026-01-31T15:24:08.000",
    "date_modified": "2026-01-31T15:24:10.000",
    "request_status": "Pending",
    "responsible_agency": "Department of Public Works",
    "final_address": "1541 St Roch Ave",
    "address_councildis": "C",
    "status": "Pending",
    "rowid": "1255667",
    "final_x": "3686470.14076",
    "final_y": "538237.511561",
    "longitude": "-90.05213927095564",
    "latitude": "29.973814668775066",
    "geocoded_column": {
      "latitude": "29.973814668775066",
      "longitude": "-90.05213927095564"
    }
  },
  {
    "service_request": "2026-1255665",
    "request_type": "Trash/Recycling",
    "request_reason": "Request a Large Item Pick Up",
    "date_created": "2026-01-31T14:34:47.000",
    "date_modified": "2026-01-31T14:34:49.000",
    "request_status": "Pending",
    "responsible_agency": "Department of Sanitation",
    "final_address": "4926 Brittany Ct",
    "address_councildis": "E",
    "status": "Assigned to Contractor",
    "contractor": "Waste Pro",
    "rowid": "1255665",
    "final_x": "3727090.10822",
    "final_y": "561996.061471",
    "longitude": "-89.92293085876243",
    "latitude": "30.037829820813396",
    "geocoded_column": {
      "latitude": "30.037829820813396",
      "longitude": "-89.92293085876243"
    }
  },
  {
    "service_request": "2026-1255664",
    "request_type": "Trash/Recycling",
    "request_reason": "Repair Trash Cart",
    "date_created": "2026-01-31T14:34:13.000",
    "date_modified": "2026-01-31T14:34:15.000",
    "request_status": "Pending",
    "responsible_agency": "Department of Sanitation",
    "final_address": "4523 Constance St",
    "address_councildis": "B",
    "status": "Assigned to Contractor",
    "contractor": "IV Waste",
    "rowid": "1255664",
    "final_x": "3670495.517",
    "final_y": "518397.310966",
    "longitude": "-90.10326343604194",
    "latitude": "29.919742066298326",
    "geocoded_column": {
      "latitude": "29.919742066298326",
      "longitude": "-90.10326343604194"
    }
  },
  {
    "service_request": "2026-1255662",
    "request_type": "Trash/Recycling",
    "request_reason": "Repair Recycling Cart",
    "date_created": "2026-01-31T14:28:31.000",
    "date_modified": "2026-01-31T14:28:33.000",
    "request_status": "Pending",
    "responsible_agency": "Department of Sanitation",
    "final_address": "4134 Annunciation St",
    "address_councildis": "B",
    "status": "Pending",
    "rowid": "1255662",
    "final_x": "3671975.82804",
    "final_y": "517801.141046",
    "longitude": "-90.09861108863142",
    "latitude": "29.918059009576517",
    "geocoded_column": {
      "latitude": "29.918059009576517",
      "longitude": "-90.09861108863142"
    }
  },
  {
    "service_request": "2026-1255661",
    "request_type": "Trash/Recycling",
    "request_reason": "Replace Trash Cart",
    "date_created": "2026-01-31T14:25:29.000",
    "date_modified": "2026-01-31T14:25:31.000",
    "request_status": "Pending",
    "responsible_agency": "Department of Sanitation",
    "final_address": "4134 Annunciation St",
    "address_councildis": "B",
    "status": "Assigned to Contractor",
    "contractor": "IV Waste",
    "rowid": "1255661",
    "final_x": "3671975.82804",
    "final_y": "517801.141046",
    "longitude": "-90.09861108863142",
    "latitude": "29.918059009576517",
    "geocoded_column": {
      "latitude": "29.918059009576517",
      "longitude": "-90.09861108863142"
    }
  },
  {
    "service_request": "2026-1255660",
    "request_type": "Trash/Recycling",
    "request_reason": "Request a Large Item Pick Up",
    "date_created": "2026-01-31T14:22:09.000",
    "date_modified": "2026-01-31T14:22:11.000",
    "request_status": "Pending",
    "responsible_agency": "Department of Sanitation",
    "final_address": "2209 State St",
    "address_councildis": "A",
    "status": "Assigned to Contractor",
    "contractor": "IV Waste",
    "rowid": "1255660",
    "final_x": "3666597.9298",
    "final_y": "524757.595516",
    "longitude": "-90.11535284826368",
    "latitude": "29.937345307316434",
    "geocoded_column": {
      "latitude": "29.937345307316434",
      "longitude": "-90.11535284826368"
    }
  },
  {
    "service_request": "2026-1255659",
    "request_type": "Trash/Recycling",
    "request_reason": "Request a Large Item Pick Up",
    "date_created": "2026-01-31T13:39:32.000",
    "date_modified": "2026-01-31T13:39:33.000",
    "request_status": "Pending",
    "responsible_agency": "Department of Sanitation",
    "final_address": "2901 Laurel St",
    "address_councildis": "B",
    "status": "Assigned to Contractor",
    "contractor": "IV Waste",
    "rowid": "1255659",
    "final_x": "3676972.91848",
    "final_y": "519931.53356",
    "longitude": "-90.08276459191325",
    "latitude": "29.923767893950686",
    "geocoded_column": {
      "latitude": "29.923767893950686",
      "longitude": "-90.08276459191325"
    }
  },
  {
    "service_request": "2026-1255658",
    "request_type": "General Services",
    "request_reason": "General Service Request",
    "date_created": "2026-01-31T13:35:00.000",
    "date_modified": "2026-01-31T13:35:02.000",
    "request_status": "Pending",
    "responsible_agency": "Orleans Parish Communication District",
    "final_address": "1300 Nashville Avenue",
    "address_councildis": "A",
    "status": "Pending",
    "rowid": "1255658",
    "final_x": "3665841.45338",
    "final_y": "520724.890617",
    "longitude": "-90.11787615403254",
    "latitude": "29.92627873738019",
    "geocoded_column": {
      "latitude": "29.92627873738019",
      "longitude": "-90.11787615403254"
    }
  },
  {
    "service_request": "2026-1255657",
    "request_type": "Abandoned Vehicles",
    "request_reason": "Abandoned/Junk Vehicles",
    "date_created": "2026-01-31T13:19:02.000",
    "date_modified": "2026-01-31T13:19:04.000",
    "request_status": "Pending",
    "responsible_agency": "Department of Public Works",
    "final_address": "2032 Adams St",
    "address_councildis": "A",
    "status": "Pending",
    "rowid": "1255657",
    "final_x": "3665094.72538",
    "final_y": "529666.435585",
    "longitude": "-90.11993447038766",
    "latitude": "29.950886889948777",
    "geocoded_column": {
      "latitude": "29.950886889948777",
      "longitude": "-90.11993447038766"
    }
  },
  {
    "service_request": "2026-1255656",
    "request_type": "Streetlights",
    "request_reason": "Streetlight Outage/Malfunction",
    "date_created": "2026-01-31T12:49:10.000",
    "date_modified": "2026-01-31T12:49:11.000",
    "request_status": "Pending",
    "responsible_agency": "Department of Public Works",
    "final_address": "4208 Orleans Ave",
    "address_councildis": "A",
    "status": "Pending",
    "rowid": "1255656",
    "final_x": "3671885.94907",
    "final_y": "540607.251723",
    "longitude": "-90.09811877436721",
    "latitude": "29.980770974475018",
    "geocoded_column": {
      "latitude": "29.980770974475018",
      "longitude": "-90.09811877436721"
    }
  },
  {
    "service_request": "2026-1255655",
    "request_type": "Streetlights",
    "request_reason": "Streetlight Outage/Malfunction",
    "date_created": "2026-01-31T12:40:53.000",
    "date_modified": "2026-01-31T12:40:55.000",
    "request_status": "Pending",
    "responsible_agency": "Department of Public Works",
    "final_address": "4208 Orleans Ave",
    "address_councildis": "A",
    "status": "Pending",
    "rowid": "1255655",
    "final_x": "3671885.94907",
    "final_y": "540607.251723",
    "longitude": "-90.09811877436721",
    "latitude": "29.980770974475018",
    "geocoded_column": {
      "latitude": "29.980770974475018",
      "longitude": "-90.09811877436721"
    }
  },
  {
    "service_request": "2026-1255654",
    "request_type": "Streetlights",
    "request_reason": "Streetlight Outage/Malfunction",
    "date_created": "2026-01-31T12:37:54.000",
    "date_modified": "2026-01-31T12:37:56.000",
    "request_status": "Pending",
    "responsible_agency": "Department of Public Works",
    "final_address": "5817 General Haig St",
    "address_councildis": "A",
    "status": "Pending",
    "rowid": "1255654",
    "final_x": "3670497.84871",
    "final_y": "545925.268688",
    "longitude": "-90.10232256574588",
    "latitude": "29.995434769293002",
    "geocoded_column": {
      "latitude": "29.995434769293002",
      "longitude": "-90.10232256574588"
    }
  },
  {
    "service_request": "2026-1255653",
    "request_type": "Trash/Recycling",
    "request_reason": "Repair Trash Cart",
    "date_created": "2026-01-31T12:31:59.000",
    "date_modified": "2026-01-31T12:32:00.000",
    "request_status": "Pending",
    "responsible_agency": "Department of Sanitation",
    "final_address": "1421 Hillary St",
    "address_councildis": "A",
    "status": "Assigned to Contractor",
    "contractor": "IV Waste",
    "rowid": "1255653",
    "final_x": "3663961.97338",
    "final_y": "527763.687359",
    "longitude": "-90.12357457497043",
    "latitude": "29.945687879730954",
    "geocoded_column": {
      "latitude": "29.945687879730954",
      "longitude": "-90.12357457497043"
    }
  },
  {
    "service_request": "2026-1255652",
    "request_type": "General Services",
    "request_reason": "General Service Request",
    "date_created": "2026-01-31T12:31:11.000",
    "date_modified": "2026-01-31T12:31:13.000",
    "request_status": "Pending",
    "responsible_agency": "Orleans Parish Communication District",
    "final_address": "7522 Benjamin St",
    "address_councildis": "A",
    "status": "Pending",
    "rowid": "1255652",
    "final_x": "3661291.05312",
    "final_y": "524665.586172",
    "longitude": "-90.13211014065003",
    "latitude": "29.93724635262009",
    "geocoded_column": {
      "latitude": "29.93724635262009",
      "longitude": "-90.13211014065003"
    }
  },
  {
    "service_request": "2026-1255651",
    "request_type": "Trash/Recycling",
    "request_reason": "Request a Large Item Pick Up",
    "date_created": "2026-01-31T12:27:38.000",
    "date_modified": "2026-01-31T12:27:39.000",
    "request_status": "Pending",
    "responsible_agency": "Department of Sanitation",
    "final_address": "749 S Genois St",
    "address_councildis": "B",
    "status": "Assigned to Contractor",
    "contractor": "IV Waste",
    "rowid": "1255651",
    "final_x": "3670881.31438",
    "final_y": "535010.131846",
    "longitude": "-90.10148191227124",
    "latitude": "29.96541052252787",
    "geocoded_column": {
      "latitude": "29.96541052252787",
      "longitude": "-90.10148191227124"
    }
  },
  {
    "service_request": "2026-1255647",
    "request_type": "Trash/Recycling",
    "request_reason": "Request a Large Item Pick Up",
    "date_created": "2026-01-31T12:23:01.000",
    "date_modified": "2026-01-31T12:23:02.000",
    "request_status": "Pending",
    "responsible_agency": "Department of Sanitation",
    "final_address": "1900 Esplanade Ave",
    "address_councildis": "D",
    "status": "Assigned to Contractor",
    "contractor": "IV Waste",
    "rowid": "1255647",
    "final_x": "3680351.80571",
    "final_y": "537204.224584",
    "longitude": "-90.07149824731196",
    "latitude": "29.97116017312894",
    "geocoded_column": {
      "latitude": "29.97116017312894",
      "longitude": "-90.07149824731196"
    }
  },
  {
    "service_request": "2026-1255648",
    "request_type": "Trash/Recycling",
    "request_reason": "Request a Large Item Pick Up",
    "date_created": "2026-01-31T12:23:01.000",
    "date_modified": "2026-01-31T12:23:02.000",
    "request_status": "Pending",
    "responsible_agency": "Department of Sanitation",
    "final_address": "1900 Esplanade Ave",
    "address_councildis": "D",
    "status": "Assigned to Contractor",
    "contractor": "IV Waste",
    "rowid": "1255648",
    "final_x": "3680351.80571",
    "final_y": "537204.224584",
    "longitude": "-90.07149824731196",
    "latitude": "29.97116017312894",
    "geocoded_column": {
      "latitude": "29.97116017312894",
      "longitude": "-90.07149824731196"
    }
  },
  {
    "service_request": "2026-1255650",
    "request_type": "Trash/Recycling",
    "request_reason": "Request a Large Item Pick Up",
    "date_created": "2026-01-31T12:23:01.000",
    "date_modified": "2026-01-31T12:23:02.000",
    "request_status": "Pending",
    "responsible_agency": "Department of Sanitation",
    "final_address": "1900 Esplanade Ave",
    "address_councildis": "D",
    "status": "Assigned to Contractor",
    "contractor": "IV Waste",
    "rowid": "1255650",
    "final_x": "3680351.80571",
    "final_y": "537204.224584",
    "longitude": "-90.07149824731196",
    "latitude": "29.97116017312894",
    "geocoded_column": {
      "latitude": "29.97116017312894",
      "longitude": "-90.07149824731196"
    }
  },
  {
    "service_request": "2026-1255649",
    "request_type": "Trash/Recycling",
    "request_reason": "Request a Large Item Pick Up",
    "date_created": "2026-01-31T12:23:01.000",
    "date_modified": "2026-01-31T12:23:03.000",
    "request_status": "Pending",
    "responsible_agency": "Department of Sanitation",
    "final_address": "1900 Esplanade Ave",
    "address_councildis": "D",
    "status": "Assigned to Contractor",
    "contractor": "IV Waste",
    "rowid": "1255649",
    "final_x": "3680351.80571",
    "final_y": "537204.224584",
    "longitude": "-90.07149824731196",
    "latitude": "29.97116017312894",
    "geocoded_column": {
      "latitude": "29.97116017312894",
      "longitude": "-90.07149824731196"
    }
  },
  {
    "service_request": "2026-1255646",
    "request_type": "Trash/Recycling",
    "request_reason": "Request a Large Item Pick Up",
    "date_created": "2026-01-31T12:21:37.000",
    "date_modified": "2026-01-31T12:21:38.000",
    "request_status": "Pending",
    "responsible_agency": "Department of Sanitation",
    "final_address": "7522 Benjamin St",
    "address_councildis": "A",
    "status": "Assigned to Contractor",
    "contractor": "IV Waste",
    "rowid": "1255646",
    "final_x": "3661291.05312",
    "final_y": "524665.586172",
    "longitude": "-90.13211014065003",
    "latitude": "29.93724635262009",
    "geocoded_column": {
      "latitude": "29.93724635262009",
      "longitude": "-90.13211014065003"
    }
  },
  {
    "service_request": "2026-1255645",
    "request_type": "Roads and Streets",
    "request_reason": "Street Subsidence (Sinking)",
    "date_created": "2026-01-31T12:18:36.000",
    "date_modified": "2026-01-31T12:18:38.000",
    "request_status": "Pending",
    "responsible_agency": "Sewerage & Water Board",
    "final_address": "2633 Burgundy St",
    "address_councildis": "C",
    "status": "Pending",
    "rowid": "1255645",
    "final_x": "3687185.90697",
    "final_y": "535646.203462",
    "longitude": "-90.04997039092378",
    "latitude": "29.966667452106925",
    "geocoded_column": {
      "latitude": "29.966667452106925",
      "longitude": "-90.04997039092378"
    }
  },
  {
    "service_request": "2026-1255644",
    "request_type": "Roads and Streets",
    "request_reason": "Street Subsidence (Sinking)",
    "date_created": "2026-01-31T12:15:35.000",
    "date_modified": "2026-01-31T12:15:36.000",
    "request_status": "Pending",
    "responsible_agency": "Sewerage & Water Board",
    "final_address": "5212 S Claiborne Ave",
    "address_councildis": "B",
    "status": "Pending",
    "rowid": "1255644",
    "final_x": "3668494.46337",
    "final_y": "526081.829182",
    "longitude": "-90.10932068890092",
    "latitude": "29.940930955324554",
    "geocoded_column": {
      "latitude": "29.940930955324554",
      "longitude": "-90.10932068890092"
    }
  },
  {
    "service_request": "2026-1255643",
    "request_type": "Trash/Recycling",
    "request_reason": "Request a Large Item Pick Up",
    "date_created": "2026-01-31T12:07:52.000",
    "date_modified": "2026-01-31T12:07:54.000",
    "request_status": "Pending",
    "responsible_agency": "Department of Sanitation",
    "final_address": "5000 BLK Perrier St",
    "address_councildis": "B",
    "status": "Assigned to Contractor",
    "contractor": "IV Waste",
    "rowid": "1255643",
    "final_x": "3668533.44964",
    "final_y": "519893.863215",
    "longitude": "-90.10940628097809",
    "latitude": "29.923914882660526",
    "geocoded_column": {
      "latitude": "29.923914882660526",
      "longitude": "-90.10940628097809"
    }
  },
  {
    "service_request": "2026-1255642",
    "request_type": "Property Maintenance",
    "request_reason": "Property Maintenance",
    "date_created": "2026-01-31T12:02:23.000",
    "date_modified": "2026-01-31T12:02:25.000",
    "request_status": "Pending",
    "responsible_agency": "Department of Code Enforcement",
    "final_address": "2500 Conti St",
    "address_councildis": "B",
    "status": "Pending",
    "rowid": "1255642",
    "final_x": "3676797.33947",
    "final_y": "535427.196102",
    "longitude": "-90.08278499136586",
    "latitude": "29.966381100378964",
    "geocoded_column": {
      "latitude": "29.966381100378964",
      "longitude": "-90.08278499136586"
    }
  },
  {
    "service_request": "2026-1255641",
    "request_type": "Streetlights",
    "request_reason": "Streetlight Outage/Malfunction",
    "date_created": "2026-01-31T11:56:00.000",
    "date_modified": "2026-01-31T11:56:01.000",
    "request_status": "Pending",
    "responsible_agency": "Department of Public Works",
    "final_address": "4219 Burgundy St",
    "address_councildis": "C",
    "status": "Pending",
    "rowid": "1255641",
    "final_x": "3692358.07395",
    "final_y": "534417.754629",
    "longitude": "-90.03368078939074",
    "latitude": "29.96312935100636",
    "geocoded_column": {
      "latitude": "29.96312935100636",
      "longitude": "-90.03368078939074"
    }
  },
  {
    "service_request": "2026-1255640",
    "request_type": "Trash/Recycling",
    "request_reason": "Repair Recycling Cart",
    "date_created": "2026-01-31T11:52:56.000",
    "date_modified": "2026-01-31T11:53:00.000",
    "request_status": "Pending",
    "responsible_agency": "Department of Sanitation",
    "final_address": "4217 Burgundy St",
    "address_councildis": "C",
    "status": "Pending",
    "rowid": "1255640",
    "final_x": "3692358.07395",
    "final_y": "534417.754629",
    "longitude": "-90.03368078939074",
    "latitude": "29.96312935100636",
    "geocoded_column": {
      "latitude": "29.96312935100636",
      "longitude": "-90.03368078939074"
    }
  },
  {
    "service_request": "2026-1255639",
    "request_type": "Trash/Recycling",
    "request_reason": "Illegal Dumping",
    "date_created": "2026-01-31T11:43:13.000",
    "date_modified": "2026-01-31T11:43:16.000",
    "request_status": "Pending",
    "responsible_agency": "Department of Sanitation",
    "final_address": "7527 Vanderkloot Ave",
    "address_councildis": "E",
    "status": "Pending",
    "rowid": "1255639",
    "final_x": "3706108.98635",
    "final_y": "563016.9752",
    "longitude": "-89.98919798844709",
    "latitude": "30.0413303388575",
    "geocoded_column": {
      "latitude": "30.0413303388575",
      "longitude": "-89.98919798844709"
    }
  },
  {
    "service_request": "2026-1255638",
    "request_type": "Trash/Recycling",
    "request_reason": "Request a Large Item Pick Up",
    "date_created": "2026-01-31T11:39:54.000",
    "date_modified": "2026-01-31T11:39:57.000",
    "request_status": "Pending",
    "responsible_agency": "Department of Sanitation",
    "final_address": "1123 Touro St",
    "address_councildis": "C",
    "status": "Assigned to Contractor",
    "contractor": "IV Waste",
    "rowid": "1255638",
    "final_x": "3684250.20117",
    "final_y": "536440.616455",
    "longitude": "-90.05921342018718",
    "latitude": "29.968941896235403",
    "geocoded_column": {
      "latitude": "29.968941896235403",
      "longitude": "-90.05921342018718"
    }
  },
  {
    "service_request": "2026-1255637",
    "request_type": "Abandoned Vehicles",
    "request_reason": "Abandoned/Junk Vehicles",
    "date_created": "2026-01-31T10:54:31.000",
    "date_modified": "2026-01-31T10:54:32.000",
    "request_status": "Pending",
    "responsible_agency": "Department of Public Works",
    "final_address": "1334 Pacific Ave",
    "address_councildis": "C",
    "status": "Pending",
    "rowid": "1255637",
    "final_x": "3688407.18863",
    "final_y": "526510.626366",
    "longitude": "-90.04643761787393",
    "latitude": "29.941510093349684",
    "geocoded_column": {
      "latitude": "29.941510093349684",
      "longitude": "-90.04643761787393"
    }
  },
  {
    "service_request": "2026-1255636",
    "request_type": "Roads and Streets",
    "request_reason": "Sidewalk Damaged or Missing",
    "date_created": "2026-01-31T10:54:23.000",
    "date_modified": "2026-01-31T10:54:25.000",
    "request_status": "Pending",
    "responsible_agency": "Department of Public Works",
    "final_address": "1800 BLK Saint Roch Ave",
    "address_councildis": "D",
    "status": "Pending",
    "rowid": "1255636",
    "final_x": "3686098.62252",
    "final_y": "539171.635683",
    "longitude": "-90.05327964745959",
    "latitude": "29.976394599523815",
    "geocoded_column": {
      "latitude": "29.976394599523815",
      "longitude": "-90.05327964745959"
    }
  },
  {
    "service_request": "2026-1255635",
    "request_type": "Parks & Parkways",
    "request_reason": "Request Tree Service (Right of Way/Public Property)",
    "date_created": "2026-01-31T10:47:58.000",
    "date_modified": "2026-01-31T10:48:00.000",
    "request_status": "Pending",
    "responsible_agency": "Department of Parks & Parkway",
    "final_address": "5810 Brunswick Ct",
    "address_councildis": "C",
    "status": "Pending",
    "rowid": "1255635",
    "final_x": "3705107.47083",
    "final_y": "517220.952885",
    "longitude": "-89.99405475794667",
    "latitude": "29.915440440842023",
    "geocoded_column": {
      "latitude": "29.915440440842023",
      "longitude": "-89.99405475794667"
    }
  },
  {
    "service_request": "2026-1255634",
    "request_type": "Street and Traffic Signs",
    "request_reason": "Additional Signage Request",
    "date_created": "2026-01-31T10:45:41.000",
    "date_modified": "2026-01-31T10:45:43.000",
    "request_status": "Pending",
    "responsible_agency": "Department of Public Works",
    "final_address": "9317 Hammond St",
    "address_councildis": "E",
    "status": "Pending",
    "rowid": "1255634",
    "final_x": "3709731.18744",
    "final_y": "556175.468122",
    "longitude": "-89.97800639002523",
    "latitude": "30.022401568663312",
    "geocoded_column": {
      "latitude": "30.022401568663312",
      "longitude": "-89.97800639002523"
    }
  },
  {
    "service_request": "2026-1255633",
    "request_type": "Drainage",
    "request_reason": "Catch Basin Not Draining",
    "date_created": "2026-01-31T10:41:34.000",
    "date_modified": "2026-01-31T10:41:35.000",
    "request_status": "Pending",
    "responsible_agency": "Sewerage & Water Board",
    "final_address": "9317 Hammond St",
    "address_councildis": "E",
    "status": "Pending",
    "rowid": "1255633",
    "final_x": "3709731.18744",
    "final_y": "556175.468122",
    "longitude": "-89.97800639002523",
    "latitude": "30.022401568663312",
    "geocoded_column": {
      "latitude": "30.022401568663312",
      "longitude": "-89.97800639002523"
    }
  },
  {
    "service_request": "2026-1255632",
    "request_type": "Abandoned Vehicles",
    "request_reason": "Abandoned/Junk Vehicles",
    "date_created": "2026-01-31T10:37:01.000",
    "date_modified": "2026-01-31T10:37:02.000",
    "request_status": "Pending",
    "responsible_agency": "Department of Public Works",
    "final_address": "4836 Perrault Walk",
    "address_councildis": "E",
    "status": "Pending",
    "rowid": "1255632",
    "final_x": "3709685.31883",
    "final_y": "556537.508186",
    "longitude": "-89.97813779269516",
    "latitude": "30.023398528898273",
    "geocoded_column": {
      "latitude": "30.023398528898273",
      "longitude": "-89.97813779269516"
    }
  },
  {
    "service_request": "2026-1255631",
    "request_type": "Trash/Recycling",
    "request_reason": "Replace Trash Cart",
    "date_created": "2026-01-31T10:36:48.000",
    "date_modified": "2026-01-31T10:36:50.000",
    "request_status": "Pending",
    "responsible_agency": "Department of Sanitation",
    "final_address": "1123 Touro St",
    "address_councildis": "C",
    "status": "Assigned to Contractor",
    "contractor": "IV Waste",
    "rowid": "1255631",
    "final_x": "3684250.20117",
    "final_y": "536440.616455",
    "longitude": "-90.05921342018718",
    "latitude": "29.968941896235403",
    "geocoded_column": {
      "latitude": "29.968941896235403",
      "longitude": "-90.05921342018718"
    }
  },
  {
    "service_request": "2026-1255630",
    "request_type": "General Services",
    "request_reason": "General Service Request",
    "date_created": "2026-01-31T10:29:20.000",
    "date_modified": "2026-01-31T10:29:22.000",
    "request_status": "Pending",
    "responsible_agency": "Orleans Parish Communication District",
    "final_address": "1238 Pauline St",
    "address_councildis": "D",
    "status": "Pending",
    "rowid": "1255630",
    "final_x": "3691355.09667",
    "final_y": "536161.827527",
    "longitude": "-90.03678574136555",
    "latitude": "29.967956181036808",
    "geocoded_column": {
      "latitude": "29.967956181036808",
      "longitude": "-90.03678574136555"
    }
  },
  {
    "service_request": "2026-1255629",
    "request_type": "Property Maintenance",
    "request_reason": "Property Maintenance",
    "date_created": "2026-01-31T10:25:12.000",
    "date_modified": "2026-01-31T10:25:14.000",
    "request_status": "Pending",
    "responsible_agency": "Department of Code Enforcement",
    "final_address": "9317 Hammond St",
    "address_councildis": "E",
    "status": "Pending",
    "rowid": "1255629",
    "final_x": "3709731.18744",
    "final_y": "556175.468122",
    "longitude": "-89.97800639002523",
    "latitude": "30.022401568663312",
    "geocoded_column": {
      "latitude": "30.022401568663312",
      "longitude": "-89.97800639002523"
    }
  },
  {
    "service_request": "2026-1255628",
    "request_type": "Mosquito, Termite & Rodent Control",
    "request_reason": "Non-Rodent Complaint (Possums & Snakes)",
    "date_created": "2026-01-31T10:22:49.000",
    "date_modified": "2026-01-31T10:22:50.000",
    "request_status": "Pending",
    "responsible_agency": "Mosquito, Termite & Rodent Control Board",
    "final_address": "9317 Hammond St",
    "address_councildis": "E",
    "status": "Pending",
    "rowid": "1255628",
    "final_x": "3709731.18744",
    "final_y": "556175.468122",
    "longitude": "-89.97800639002523",
    "latitude": "30.022401568663312",
    "geocoded_column": {
      "latitude": "30.022401568663312",
      "longitude": "-89.97800639002523"
    }
  },
  {
    "service_request": "2026-1255627",
    "request_type": "Abandoned Vehicles",
    "request_reason": "Abandoned/Junk Vehicles",
    "date_created": "2026-01-31T10:22:15.000",
    "date_modified": "2026-01-31T10:22:18.000",
    "request_status": "Pending",
    "responsible_agency": "Department of Public Works",
    "final_address": "3820 Perrier St",
    "address_councildis": "B",
    "status": "Pending",
    "rowid": "1255627",
    "final_x": "3672900.47764",
    "final_y": "520247.119096",
    "longitude": "-90.0956090701772",
    "latitude": "29.924757238539314",
    "geocoded_column": {
      "latitude": "29.924757238539314",
      "longitude": "-90.0956090701772"
    }
  },
  {
    "service_request": "2026-1255626",
    "request_type": "Property Maintenance",
    "request_reason": "Property Maintenance",
    "date_created": "2026-01-31T10:05:36.000",
    "date_modified": "2026-01-31T10:05:38.000",
    "request_status": "Pending",
    "responsible_agency": "Department of Code Enforcement",
    "final_address": "9317 Hammond St",
    "address_councildis": "E",
    "status": "Pending",
    "rowid": "1255626",
    "final_x": "3709731.18744",
    "final_y": "556175.468122",
    "longitude": "-89.97800639002523",
    "latitude": "30.022401568663312",
    "geocoded_column": {
      "latitude": "30.022401568663312",
      "longitude": "-89.97800639002523"
    }
  },
  {
    "service_request": "2026-1255625",
    "request_type": "Abandoned Vehicles",
    "request_reason": "Abandoned/Junk Vehicles",
    "date_created": "2026-01-31T09:56:55.000",
    "date_modified": "2026-01-31T09:56:57.000",
    "request_status": "Pending",
    "responsible_agency": "Department of Public Works",
    "final_address": "1219 Kentucky St",
    "address_councildis": "D",
    "status": "Pending",
    "rowid": "1255625",
    "final_x": "3693523.56374",
    "final_y": "535413.52199",
    "longitude": "-90.02996455891095",
    "latitude": "29.965830959720016",
    "geocoded_column": {
      "latitude": "29.965830959720016",
      "longitude": "-90.02996455891095"
    }
  },
  {
    "service_request": "2026-1255624",
    "request_type": "Trash/Recycling",
    "request_reason": "Illegal Dumping",
    "date_created": "2026-01-31T09:54:50.000",
    "date_modified": "2026-01-31T09:54:51.000",
    "request_status": "Pending",
    "responsible_agency": "Department of Sanitation",
    "final_address": "3418 Canal St",
    "address_councildis": "B",
    "status": "Pending",
    "rowid": "1255624",
    "final_x": "3672933.76283",
    "final_y": "536836.22548",
    "longitude": "-90.09493803775248",
    "latitude": "29.970370833772147",
    "geocoded_column": {
      "latitude": "29.970370833772147",
      "longitude": "-90.09493803775248"
    }
  },
  {
    "service_request": "2026-1255623",
    "request_type": "Abandoned Vehicles",
    "request_reason": "Abandoned/Junk Vehicles",
    "date_created": "2026-01-31T09:52:05.000",
    "date_modified": "2026-01-31T09:52:06.000",
    "request_status": "Pending",
    "responsible_agency": "Department of Public Works",
    "final_address": "4131 Davey St",
    "address_councildis": "D",
    "status": "Pending",
    "rowid": "1255623",
    "final_x": "3676214.9972",
    "final_y": "547344.190353",
    "longitude": "-90.0842137630851",
    "latitude": "29.999166180126632",
    "geocoded_column": {
      "latitude": "29.999166180126632",
      "longitude": "-90.0842137630851"
    }
  },
  {
    "service_request": "2026-1255622",
    "request_type": "Street and Traffic Signs",
    "request_reason": "One Way Sign Missing or Damaged",
    "date_created": "2026-01-31T09:51:27.000",
    "date_modified": "2026-01-31T09:51:29.000",
    "request_status": "Pending",
    "responsible_agency": "Department of Public Works",
    "final_address": "10 Mandeville St",
    "address_councildis": "D",
    "status": "Pending",
    "rowid": "1255622",
    "final_x": "3685597.11778",
    "final_y": "539615.48225",
    "longitude": "-90.05484790668602",
    "latitude": "29.977630417105065",
    "geocoded_column": {
      "latitude": "29.977630417105065",
      "longitude": "-90.05484790668602"
    }
  },
  {
    "service_request": "2026-1255621",
    "request_type": "Roads and Streets",
    "request_reason": "Street Subsidence (Sinking)",
    "date_created": "2026-01-31T09:46:28.000",
    "date_modified": "2026-01-31T09:46:30.000",
    "request_status": "Pending",
    "responsible_agency": "Sewerage & Water Board",
    "final_address": "3700 Canal St",
    "address_councildis": "A",
    "status": "Pending",
    "rowid": "1255621",
    "final_x": "3672195.54247",
    "final_y": "537375.247048",
    "longitude": "-90.09725106065791",
    "latitude": "29.971874878673788",
    "geocoded_column": {
      "latitude": "29.971874878673788",
      "longitude": "-90.09725106065791"
    }
  },
  {
    "service_request": "2026-1255620",
    "request_type": "Trash/Recycling",
    "request_reason": "Request a Large Item Pick Up",
    "date_created": "2026-01-31T09:18:48.000",
    "date_modified": "2026-01-31T09:18:50.000",
    "request_status": "Pending",
    "responsible_agency": "Department of Sanitation",
    "final_address": "1433 N Galvez St",
    "address_councildis": "D",
    "status": "Assigned to Contractor",
    "contractor": "IV Waste",
    "rowid": "1255620",
    "final_x": "3680012.90331",
    "final_y": "537925.267721",
    "longitude": "-90.07254349085856",
    "latitude": "29.97315305110597",
    "geocoded_column": {
      "latitude": "29.97315305110597",
      "longitude": "-90.07254349085856"
    }
  },
  {
    "service_request": "2026-1255619",
    "request_type": "Trash/Recycling",
    "request_reason": "Order Recycling Cart",
    "date_created": "2026-01-31T09:17:13.000",
    "date_modified": "2026-01-31T09:17:16.000",
    "request_status": "Pending",
    "responsible_agency": "Department of Sanitation",
    "final_address": "1011 N Derbigny St",
    "address_councildis": "D",
    "status": "Pending",
    "rowid": "1255619",
    "final_x": "3680181.62312",
    "final_y": "535826.296327",
    "longitude": "-90.07208360671831",
    "latitude": "29.967376495562362",
    "geocoded_column": {
      "latitude": "29.967376495562362",
      "longitude": "-90.07208360671831"
    }
  },
  {
    "service_request": "2026-1255618",
    "request_type": "Trash/Recycling",
    "request_reason": "Order Trash Cart",
    "date_created": "2026-01-31T09:16:07.000",
    "date_modified": "2026-01-31T09:16:09.000",
    "request_status": "Pending",
    "responsible_agency": "Department of Sanitation",
    "final_address": "1011 N Derbigny St",
    "address_councildis": "D",
    "status": "Assigned to Contractor",
    "contractor": "IV Waste",
    "rowid": "1255618",
    "final_x": "3680181.62312",
    "final_y": "535826.296327",
    "longitude": "-90.07208360671831",
    "latitude": "29.967376495562362",
    "geocoded_column": {
      "latitude": "29.967376495562362",
      "longitude": "-90.07208360671831"
    }
  },
  {
    "service_request": "2026-1255617",
    "request_type": "New Orleans Recreation Development Commission (NORDC)",
    "request_reason": "Facilities and Parks Maintenance/Clean Up",
    "date_created": "2026-01-31T09:14:42.000",
    "date_modified": "2026-01-31T09:14:43.000",
    "request_status": "Pending",
    "responsible_agency": "New Orleans Recreation Development Commission",
    "final_address": "9020 Tilford Rd",
    "address_councildis": "E",
    "status": "Pending",
    "rowid": "1255617",
    "final_x": "3708234.5546",
    "final_y": "557231.005787",
    "longitude": "-89.98269603152393",
    "latitude": "30.025352475560588",
    "geocoded_column": {
      "latitude": "30.025352475560588",
      "longitude": "-89.98269603152393"
    }
  },
  {
    "service_request": "2026-1255616",
    "request_type": "Trash/Recycling",
    "request_reason": "Request a Large Item Pick Up",
    "date_created": "2026-01-31T09:13:42.000",
    "date_modified": "2026-01-31T09:13:43.000",
    "request_status": "Pending",
    "responsible_agency": "Department of Sanitation",
    "final_address": "7606 Kingsport Blvd",
    "address_councildis": "E",
    "status": "Assigned to Contractor",
    "contractor": "Waste Pro",
    "rowid": "1255616",
    "final_x": "3720013.26425",
    "final_y": "572847.502249",
    "longitude": "-89.94487960258256",
    "latitude": "30.06790440185178",
    "geocoded_column": {
      "latitude": "30.06790440185178",
      "longitude": "-89.94487960258256"
    }
  },
  {
    "service_request": "2026-1255615",
    "request_type": "Traffic Signals",
    "request_reason": "Traffic Signal Malfunctioning or Damaged",
    "date_created": "2026-01-31T08:54:18.000",
    "date_modified": "2026-01-31T08:54:22.000",
    "request_status": "Pending",
    "responsible_agency": "Department of Public Works",
    "final_address": "5402 S Claiborne Ave",
    "address_councildis": "A",
    "status": "Pending",
    "rowid": "1255615",
    "final_x": "3668326.26535",
    "final_y": "526195.272958",
    "longitude": "-90.10984789757504",
    "latitude": "29.94124782843077",
    "geocoded_column": {
      "latitude": "29.94124782843077",
      "longitude": "-90.10984789757504"
    }
  },
  {
    "service_request": "2026-1255614",
    "request_type": "Property Maintenance",
    "request_reason": "Property Maintenance",
    "date_created": "2026-01-31T08:38:50.000",
    "date_modified": "2026-01-31T08:38:53.000",
    "request_status": "Pending",
    "responsible_agency": "Department of Code Enforcement",
    "final_address": "10000 S Interstate 10 Service Rd",
    "address_councildis": "E",
    "status": "Pending",
    "rowid": "1255614",
    "final_x": "3710675.7939",
    "final_y": "561344.626206",
    "longitude": "-89.97482804515226",
    "latitude": "30.036583955662017",
    "geocoded_column": {
      "latitude": "30.036583955662017",
      "longitude": "-89.97482804515226"
    }
  },
  {
    "service_request": "2026-1255613",
    "request_type": "Trash/Recycling",
    "request_reason": "Order Trash Cart",
    "date_created": "2026-01-31T08:15:46.000",
    "date_modified": "2026-01-31T08:15:47.000",
    "request_status": "Pending",
    "responsible_agency": "Department of Sanitation",
    "final_address": "5232 Chestnut St",
    "address_councildis": "B",
    "status": "Assigned to Contractor",
    "contractor": "IV Waste",
    "rowid": "1255613",
    "final_x": "3667770.6626",
    "final_y": "519322.936247",
    "longitude": "-90.11183334613955",
    "latitude": "29.92236739531293",
    "geocoded_column": {
      "latitude": "29.92236739531293",
      "longitude": "-90.11183334613955"
    }
  },
  {
    "service_request": "2026-1255612",
    "request_type": "Trash/Recycling",
    "request_reason": "Illegal Dumping",
    "date_created": "2026-01-31T07:25:09.000",
    "date_modified": "2026-01-31T07:25:12.000",
    "request_status": "Pending",
    "responsible_agency": "Department of Sanitation",
    "final_address": "8415 S Claiborne Ave",
    "address_councildis": "A",
    "status": "Pending",
    "rowid": "1255612",
    "final_x": "3664028.86919",
    "final_y": "532414.782915",
    "longitude": "-90.12320827256829",
    "latitude": "29.9584749457659",
    "geocoded_column": {
      "latitude": "29.9584749457659",
      "longitude": "-90.12320827256829"
    }
  },
  {
    "service_request": "2026-1255611",
    "request_type": "Trash/Recycling",
    "request_reason": "Request a Large Item Pick Up",
    "date_created": "2026-01-31T07:05:26.000",
    "date_modified": "2026-01-31T07:05:29.000",
    "request_status": "Pending",
    "responsible_agency": "Department of Sanitation",
    "final_address": "4317 S Galvez St",
    "address_councildis": "B",
    "status": "Assigned to Contractor",
    "contractor": "IV Waste",
    "rowid": "1255611",
    "final_x": "3670391.49012",
    "final_y": "527616.074047",
    "longitude": "-90.10327942096858",
    "latitude": "29.9450937728407",
    "geocoded_column": {
      "latitude": "29.9450937728407",
      "longitude": "-90.10327942096858"
    }
  },
  {
    "service_request": "2026-1255610",
    "request_type": "General Services",
    "request_reason": "General Service Request",
    "date_created": "2026-01-31T05:39:59.000",
    "date_modified": "2026-01-31T05:40:00.000",
    "request_status": "Pending",
    "responsible_agency": "Orleans Parish Communication District",
    "final_address": "4726 Conti St",
    "address_councildis": "A",
    "status": "Pending",
    "rowid": "1255610",
    "final_x": "3669620.96417",
    "final_y": "540882.907595",
    "longitude": "-90.10526328218744",
    "latitude": "29.981595877125358",
    "geocoded_column": {
      "latitude": "29.981595877125358",
      "longitude": "-90.10526328218744"
    }
  },
  {
    "service_request": "2026-1255609",
    "request_type": "Streetlights",
    "request_reason": "Streetlight Outage/Malfunction",
    "date_created": "2026-01-30T21:54:50.000",
    "date_modified": "2026-01-30T21:54:52.000",
    "request_status": "Pending",
    "responsible_agency": "Department of Public Works",
    "final_address": "4030 Hollygrove St",
    "address_councildis": "A",
    "status": "Pending",
    "rowid": "1255609",
    "final_x": "3666445.2482",
    "final_y": "538074.322569",
    "longitude": "-90.11538800170479",
    "latitude": "29.97396641608486",
    "geocoded_column": {
      "latitude": "29.97396641608486",
      "longitude": "-90.11538800170479"
    }
  },
  {
    "service_request": "2026-1255608",
    "request_type": "Abandoned Vehicles",
    "request_reason": "Vehicle Blocking Your Driveway",
    "date_created": "2026-01-30T21:47:06.000",
    "date_modified": "2026-01-30T21:47:08.000",
    "request_status": "Pending",
    "responsible_agency": "Department of Public Works",
    "final_address": "1336 Music St, New Orleans, Louisiana, 70117",
    "address_councildis": "C",
    "status": "Pending",
    "rowid": "1255608",
    "final_x": "3686730.26044",
    "final_y": "537483.992776",
    "longitude": "-90.05134438316418",
    "latitude": "29.971734756186624",
    "geocoded_column": {
      "latitude": "29.971734756186624",
      "longitude": "-90.05134438316418"
    }
  },
  {
    "service_request": "2026-1255607",
    "request_type": "Abandoned Vehicles",
    "request_reason": "Vehicle Blocking Your Driveway",
    "date_created": "2026-01-30T21:45:43.000",
    "date_modified": "2026-01-30T21:45:45.000",
    "request_status": "Pending",
    "responsible_agency": "Department of Public Works",
    "final_address": "1439 Music St, New Orleans, Louisiana, 70117",
    "address_councildis": "C",
    "status": "Pending",
    "rowid": "1255607",
    "final_x": "3686769.86454",
    "final_y": "537890.685257",
    "longitude": "-90.05120493597015",
    "latitude": "29.97285179970832",
    "geocoded_column": {
      "latitude": "29.97285179970832",
      "longitude": "-90.05120493597015"
    }
  },
  {
    "service_request": "2026-1255606",
    "request_type": "Abandoned Vehicles",
    "request_reason": "Abandoned/Junk Vehicles",
    "date_created": "2026-01-30T19:43:21.000",
    "date_modified": "2026-01-30T19:43:24.000",
    "request_status": "Pending",
    "responsible_agency": "Department of Public Works",
    "final_address": "1627 Caton St",
    "address_councildis": "D",
    "status": "Pending",
    "rowid": "1255606",
    "final_x": "3679820.94965",
    "final_y": "546982.442833",
    "longitude": "-90.0728350521856",
    "latitude": "29.998062922223355",
    "geocoded_column": {
      "latitude": "29.998062922223355",
      "longitude": "-90.0728350521856"
    }
  },
  {
    "service_request": "2026-1255605",
    "request_type": "Abandoned Vehicles",
    "request_reason": "Abandoned/Junk Vehicles",
    "date_created": "2026-01-30T19:00:24.000",
    "date_modified": "2026-01-30T19:00:26.000",
    "request_status": "Pending",
    "responsible_agency": "Department of Public Works",
    "final_address": "4911 Hickerson Dr",
    "address_councildis": "E",
    "status": "Pending",
    "rowid": "1255605",
    "final_x": "3710268.42443",
    "final_y": "556784.790746",
    "longitude": "-89.9762860657091",
    "latitude": "30.02405948343988",
    "geocoded_column": {
      "latitude": "30.02405948343988",
      "longitude": "-89.9762860657091"
    }
  },
  {
    "service_request": "2026-1255604",
    "request_type": "Streetlights",
    "request_reason": "Streetlight Outage/Malfunction",
    "date_created": "2026-01-30T18:46:15.000",
    "date_modified": "2026-01-30T18:46:18.000",
    "request_status": "Pending",
    "responsible_agency": "Department of Public Works",
    "final_address": "5451 Edenboro Rd",
    "address_councildis": "E",
    "status": "Pending",
    "rowid": "1255604",
    "final_x": "3708282.29323",
    "final_y": "557986.086747",
    "longitude": "-89.9825170584101",
    "latitude": "30.02742710521423",
    "geocoded_column": {
      "latitude": "30.02742710521423",
      "longitude": "-89.9825170584101"
    }
  },
  {
    "service_request": "2026-1255603",
    "request_type": "Trash/Recycling",
    "request_reason": "Illegal Dumping",
    "date_created": "2026-01-30T18:19:06.000",
    "date_modified": "2026-01-30T18:19:09.000",
    "request_status": "Pending",
    "responsible_agency": "Department of Sanitation",
    "final_address": "0 BLK Acadiana Pl",
    "address_councildis": "E",
    "status": "Pending",
    "rowid": "1255603",
    "final_x": "3725131.4083",
    "final_y": "564393.680055",
    "longitude": "-89.92902788187175",
    "latitude": "30.04448842646984",
    "geocoded_column": {
      "latitude": "30.04448842646984",
      "longitude": "-89.92902788187175"
    }
  },
  {
    "service_request": "2026-1255602",
    "request_type": "Roads and Streets",
    "request_reason": "Pothole",
    "date_created": "2026-01-30T18:08:37.000",
    "date_modified": "2026-01-30T18:08:39.000",
    "request_status": "Pending",
    "responsible_agency": "Department of Public Works",
    "final_address": "5961 Magazine St",
    "address_councildis": "A",
    "status": "Pending",
    "rowid": "1255602",
    "final_x": "3664757.69831",
    "final_y": "519229.135159",
    "longitude": "-90.1213472178742",
    "latitude": "29.922197445052415",
    "geocoded_column": {
      "latitude": "29.922197445052415",
      "longitude": "-90.1213472178742"
    }
  },
  {
    "service_request": "2026-1255601",
    "request_type": "Trash/Recycling",
    "request_reason": "Order Trash Cart",
    "date_created": "2026-01-30T17:55:35.000",
    "date_modified": "2026-01-30T17:55:37.000",
    "request_status": "Pending",
    "responsible_agency": "Department of Sanitation",
    "final_address": "7408 Briarheath Dr",
    "address_councildis": "E",
    "status": "Assigned to Contractor",
    "contractor": "Waste Pro",
    "rowid": "1255601",
    "final_x": "3714113.11768",
    "final_y": "566717.601379",
    "longitude": "-89.96376255807893",
    "latitude": "30.05124496026621",
    "geocoded_column": {
      "latitude": "30.05124496026621",
      "longitude": "-89.96376255807893"
    }
  },
  {
    "service_request": "2026-1255600",
    "request_type": "Trash/Recycling",
    "request_reason": "Replace Trash Cart",
    "date_created": "2026-01-30T17:45:38.000",
    "date_modified": "2026-01-30T17:45:41.000",
    "request_status": "Pending",
    "responsible_agency": "Department of Sanitation",
    "final_address": "941 Delachaise St",
    "address_councildis": "B",
    "status": "Assigned to Contractor",
    "contractor": "IV Waste",
    "rowid": "1255600",
    "final_x": "3674889.68821",
    "final_y": "519047.164343",
    "longitude": "-90.08937090769832",
    "latitude": "29.92139851608912",
    "geocoded_column": {
      "latitude": "29.92139851608912",
      "longitude": "-90.08937090769832"
    }
  },
  {
    "service_request": "2026-1255599",
    "request_type": "Trash/Recycling",
    "request_reason": "Request a Large Item Pick Up",
    "date_created": "2026-01-30T17:35:38.000",
    "date_modified": "2026-01-30T17:35:39.000",
    "request_status": "Pending",
    "responsible_agency": "Department of Sanitation",
    "final_address": "10131 Willow Dr",
    "address_councildis": "C",
    "status": "Assigned to Contractor",
    "contractor": "Richards Disposal",
    "rowid": "1255599",
    "final_x": "3722381.56031",
    "final_y": "517393.954805",
    "longitude": "-89.93952539393518",
    "latitude": "29.915349668214276",
    "geocoded_column": {
      "latitude": "29.915349668214276",
      "longitude": "-89.93952539393518"
    }
  },
  {
    "service_request": "2026-1255598",
    "request_type": "Trash/Recycling",
    "request_reason": "Replace Trash Cart",
    "date_created": "2026-01-30T17:35:14.000",
    "date_modified": "2026-01-30T17:35:16.000",
    "request_status": "Pending",
    "responsible_agency": "Department of Sanitation",
    "final_address": "7800 Sun St",
    "address_councildis": "E",
    "status": "Assigned to Contractor",
    "contractor": "Waste Pro",
    "rowid": "1255598",
    "final_x": "3720539.71455",
    "final_y": "574164.192938",
    "longitude": "-89.94316491113484",
    "latitude": "30.071507194000926",
    "geocoded_column": {
      "latitude": "30.071507194000926",
      "longitude": "-89.94316491113484"
    }
  },
  {
    "service_request": "2026-1255597",
    "request_type": "Trash/Recycling",
    "request_reason": "Replace Trash Cart",
    "date_created": "2026-01-30T16:58:44.000",
    "date_modified": "2026-01-30T16:58:46.000",
    "request_status": "Pending",
    "responsible_agency": "Department of Sanitation",
    "final_address": "4859 Tchoupitoulas St",
    "address_councildis": "B",
    "status": "Assigned to Contractor",
    "contractor": "IV Waste",
    "rowid": "1255597",
    "final_x": "3669203.72698",
    "final_y": "517295.889397",
    "longitude": "-90.10737819239215",
    "latitude": "29.916751572143696",
    "geocoded_column": {
      "latitude": "29.916751572143696",
      "longitude": "-90.10737819239215"
    }
  },
  {
    "service_request": "2026-1255596",
    "request_type": "Parks & Parkways",
    "request_reason": "Request Grass Cutting Service (City Owned Property)",
    "date_created": "2026-01-30T16:49:35.000",
    "date_modified": "2026-01-30T16:49:37.000",
    "request_status": "Pending",
    "responsible_agency": "Department of Parks & Parkway",
    "final_address": "WRIGHT RD & LAKE FOREST BLVD",
    "address_councildis": "E",
    "status": "Pending",
    "rowid": "1255596",
    "final_x": "3714981.45",
    "final_y": "560709.45",
    "longitude": "-89.96124546777934",
    "latitude": "30.03469641146497",
    "geocoded_column": {
      "latitude": "30.03469641146497",
      "longitude": "-89.96124546777934"
    }
  },
  {
    "service_request": "2026-1255595",
    "request_type": "Property Maintenance",
    "request_reason": "Property Maintenance",
    "date_created": "2026-01-30T16:48:05.000",
    "date_modified": "2026-01-30T16:48:06.000",
    "request_status": "Pending",
    "responsible_agency": "Department of Code Enforcement",
    "final_address": "3737 Clematis St",
    "address_councildis": "D",
    "status": "Pending",
    "rowid": "1255595",
    "final_x": "3685999.82057",
    "final_y": "546811.502353",
    "longitude": "-90.0533221497647",
    "latitude": "29.997404552693684",
    "geocoded_column": {
      "latitude": "29.997404552693684",
      "longitude": "-90.0533221497647"
    }
  },
  {
    "service_request": "2026-1255594",
    "request_type": "Roads and Streets",
    "request_reason": "Sidewalk Damaged or Missing",
    "date_created": "2026-01-30T16:45:51.000",
    "date_modified": "2026-01-30T16:45:53.000",
    "request_status": "Pending",
    "responsible_agency": "Department of Public Works",
    "final_address": "3001 Tulane Ave",
    "address_councildis": "B",
    "status": "Pending",
    "rowid": "1255594",
    "final_x": "3673197.32155",
    "final_y": "534432.755781",
    "longitude": "-90.09418777376447",
    "latitude": "29.9637542663639",
    "geocoded_column": {
      "latitude": "29.9637542663639",
      "longitude": "-90.09418777376447"
    }
  },
  {
    "service_request": "2026-1255593",
    "request_type": "Trash/Recycling",
    "request_reason": "Order Second Trash Cart",
    "date_created": "2026-01-30T16:45:44.000",
    "date_modified": "2026-01-30T16:45:45.000",
    "request_status": "Pending",
    "responsible_agency": "Department of Sanitation",
    "final_address": "12531 N Lake Carmel Dr",
    "address_councildis": "E",
    "status": "Assigned to Contractor",
    "contractor": "Waste Pro",
    "rowid": "1255593",
    "final_x": "3715730.36492",
    "final_y": "567959.178213",
    "longitude": "-89.95860394763403",
    "latitude": "30.054605537319873",
    "geocoded_column": {
      "latitude": "30.054605537319873",
      "longitude": "-89.95860394763403"
    }
  },
  {
    "service_request": "2026-1255592",
    "request_type": "Trash/Recycling",
    "request_reason": "Request a Large Item Pick Up",
    "date_created": "2026-01-30T16:45:15.000",
    "date_modified": "2026-01-30T16:45:18.000",
    "request_status": "Pending",
    "responsible_agency": "Department of Sanitation",
    "final_address": "6317 Bellaire Dr",
    "address_councildis": "A",
    "status": "Assigned to Contractor",
    "contractor": "IV Waste",
    "rowid": "1255592",
    "final_x": "3664475.07072",
    "final_y": "549817.81282",
    "longitude": "-90.12121795316585",
    "latitude": "30.00631446877442",
    "geocoded_column": {
      "latitude": "30.00631446877442",
      "longitude": "-90.12121795316585"
    }
  },
  {
    "service_request": "2026-1255591",
    "request_type": "Trash/Recycling",
    "request_reason": "Return Trash Cart",
    "date_created": "2026-01-30T16:40:36.000",
    "date_modified": "2026-01-31T07:04:07.000",
    "request_status": "Pending",
    "responsible_agency": "Department of Sanitation",
    "final_address": "1819 N Broad St",
    "address_councildis": "D",
    "status": "Assigned to Contractor",
    "contractor": "IV Waste",
    "rowid": "1255591",
    "final_x": "3680041.274",
    "final_y": "541548.82382",
    "longitude": "-90.07232794959057",
    "latitude": "29.983115715498162",
    "geocoded_column": {
      "latitude": "29.983115715498162",
      "longitude": "-90.07232794959057"
    }
  },
  {
    "service_request": "2026-1255590",
    "request_type": "Trash/Recycling",
    "request_reason": "Request a Large Item Pick Up",
    "date_created": "2026-01-30T16:38:40.000",
    "date_modified": "2026-01-30T16:38:41.000",
    "request_status": "Pending",
    "responsible_agency": "Department of Sanitation",
    "final_address": "6571 Coveview Ct",
    "address_councildis": "E",
    "status": "Assigned to Contractor",
    "contractor": "Waste Pro",
    "rowid": "1255590",
    "final_x": "3698890.06423",
    "final_y": "555807.193881",
    "longitude": "-90.01227492632552",
    "latitude": "30.021737087754722",
    "geocoded_column": {
      "latitude": "30.021737087754722",
      "longitude": "-90.01227492632552"
    }
  },
  {
    "service_request": "2026-1255589",
    "request_type": "Roads and Streets",
    "request_reason": "Pothole",
    "date_created": "2026-01-30T16:33:07.000",
    "date_modified": "2026-01-30T16:33:09.000",
    "request_status": "Pending",
    "responsible_agency": "Department of Public Works",
    "final_address": "MIRABEAU AVE & ST ANTHONY AVE",
    "address_councildis": "D",
    "status": "Pending",
    "rowid": "1255589",
    "final_x": "3682329.0",
    "final_y": "550551.88",
    "longitude": "-90.06478732741007",
    "latitude": "30.00780149179829",
    "geocoded_column": {
      "latitude": "30.00780149179829",
      "longitude": "-90.06478732741007"
    }
  },
  {
    "service_request": "2026-1255588",
    "request_type": "Street and Traffic Signs",
    "request_reason": "Traffic or Parking Sign Damaged or Missing",
    "date_created": "2026-01-30T16:24:37.000",
    "date_modified": "2026-01-30T16:24:39.000",
    "request_status": "Pending",
    "responsible_agency": "Department of Public Works",
    "final_address": "1111 Canal St",
    "address_councildis": "C",
    "status": "Pending",
    "rowid": "1255588",
    "final_x": "3679986.71823",
    "final_y": "531707.587395",
    "longitude": "-90.07284220329849",
    "latitude": "29.956057344840524",
    "geocoded_column": {
      "latitude": "29.956057344840524",
      "longitude": "-90.07284220329849"
    }
  },
  {
    "service_request": "2026-1255587",
    "request_type": "General Services",
    "request_reason": "General Service Request",
    "date_created": "2026-01-30T16:22:07.000",
    "date_modified": "2026-01-30T16:24:06.000",
    "case_close_date": "2026-01-30T10:24:06.000",
    "request_status": "Closed",
    "responsible_agency": "Orleans Parish Communication District",
    "final_address": "437 Dearmas St",
    "address_councildis": "C",
    "status": "Referred to Risk Management",
    "rowid": "1255587",
    "final_x": "3686932.60617",
    "final_y": "527125.620671",
    "longitude": "-90.05107142658487",
    "latitude": "29.9432465744065",
    "geocoded_column": {
      "latitude": "29.9432465744065",
      "longitude": "-90.05107142658487"
    }
  },
  {
    "service_request": "2026-1255586",
    "request_type": "Trash/Recycling",
    "request_reason": "Request a Large Item Pick Up",
    "date_created": "2026-01-30T16:20:09.000",
    "date_modified": "2026-01-30T16:20:10.000",
    "request_status": "Pending",
    "responsible_agency": "Department of Sanitation",
    "final_address": "708 Opelousas Ave",
    "address_councildis": "C",
    "status": "Assigned to Contractor",
    "contractor": "Richards Disposal",
    "rowid": "1255586",
    "final_x": "3687591.3007",
    "final_y": "529191.32928",
    "longitude": "-90.04891866004225",
    "latitude": "29.948906284720604",
    "geocoded_column": {
      "latitude": "29.948906284720604",
      "longitude": "-90.04891866004225"
    }
  },
  {
    "service_request": "2026-1255585",
    "request_type": "Trash/Recycling",
    "request_reason": "Replace Trash Cart",
    "date_created": "2026-01-30T16:19:56.000",
    "date_modified": "2026-01-30T16:19:58.000",
    "request_status": "Pending",
    "responsible_agency": "Department of Sanitation",
    "final_address": "100 BLK Camp St",
    "address_councildis": "B",
    "status": "Assigned to Contractor",
    "contractor": "IV Waste",
    "rowid": "1255585",
    "final_x": "3681384.35832",
    "final_y": "530284.107527",
    "longitude": "-90.068478554501",
    "latitude": "29.952100907296813",
    "geocoded_column": {
      "latitude": "29.952100907296813",
      "longitude": "-90.068478554501"
    }
  },
  {
    "service_request": "2026-1255584",
    "request_type": "Abandoned Vehicles",
    "request_reason": "Abandoned/Junk Vehicles",
    "date_created": "2026-01-30T16:09:49.000",
    "date_modified": "2026-01-30T16:09:51.000",
    "request_status": "Pending",
    "responsible_agency": "Department of Public Works",
    "final_address": "CAMP ST & BELLECASTLE ST",
    "address_councildis": "B",
    "status": "Pending",
    "rowid": "1255584",
    "final_x": "3667708.1",
    "final_y": "518987.48",
    "longitude": "-90.11204211767738",
    "latitude": "29.92144683013037",
    "geocoded_column": {
      "latitude": "29.92144683013037",
      "longitude": "-90.11204211767738"
    }
  },
  {
    "service_request": "2026-1255583",
    "request_type": "Streetlights",
    "request_reason": "Streetlight Outage/Malfunction",
    "date_created": "2026-01-30T16:02:14.000",
    "date_modified": "2026-01-30T16:02:16.000",
    "request_status": "Pending",
    "responsible_agency": "Department of Public Works",
    "final_address": "2472 Bedford Dr",
    "address_councildis": "C",
    "status": "Pending",
    "rowid": "1255583",
    "final_x": "3705275.6387",
    "final_y": "521779.81849",
    "longitude": "-89.99335568763448",
    "latitude": "29.92797033317305",
    "geocoded_column": {
      "latitude": "29.92797033317305",
      "longitude": "-89.99335568763448"
    }
  },
  {
    "service_request": "2026-1255582",
    "request_type": "Abandoned Vehicles",
    "request_reason": "Abandoned/Junk Vehicles",
    "date_created": "2026-01-30T16:00:58.000",
    "date_modified": "2026-01-30T16:01:00.000",
    "request_status": "Pending",
    "responsible_agency": "Department of Public Works",
    "final_address": "1662 Abundance St",
    "address_councildis": "D",
    "status": "Pending",
    "rowid": "1255582",
    "final_x": "3680434.6525",
    "final_y": "543303.392334",
    "longitude": "-90.07102440727711",
    "latitude": "29.987928255139828",
    "geocoded_column": {
      "latitude": "29.987928255139828",
      "longitude": "-90.07102440727711"
    }
  },
  {
    "service_request": "2026-1255581",
    "request_type": "Abandoned Vehicles",
    "request_reason": "Abandoned/Junk Vehicles",
    "date_created": "2026-01-30T16:00:57.000",
    "date_modified": "2026-01-30T16:01:00.000",
    "request_status": "Pending",
    "responsible_agency": "Department of Public Works",
    "final_address": "1662 Abundance St",
    "address_councildis": "D",
    "status": "Pending",
    "rowid": "1255581",
    "final_x": "3680434.6525",
    "final_y": "543303.392334",
    "longitude": "-90.07102440727711",
    "latitude": "29.987928255139828",
    "geocoded_column": {
      "latitude": "29.987928255139828",
      "longitude": "-90.07102440727711"
    }
  },
  {
    "service_request": "2026-1255580",
    "request_type": "Trash/Recycling",
    "request_reason": "Request a Large Item Pick Up",
    "date_created": "2026-01-30T15:56:47.000",
    "date_modified": "2026-01-30T16:01:10.000",
    "request_status": "Pending",
    "responsible_agency": "Department of Sanitation",
    "final_address": "7091 Queensway Dr",
    "address_councildis": "E",
    "status": "Pending",
    "contractor": "Waste Pro",
    "rowid": "1255580",
    "final_x": "3719064.71052",
    "final_y": "569697.868966",
    "longitude": "-89.94799850951951",
    "latitude": "30.05927579783677",
    "geocoded_column": {
      "latitude": "30.05927579783677",
      "longitude": "-89.94799850951951"
    }
  },
  {
    "service_request": "2026-1255579",
    "request_type": "Trash/Recycling",
    "request_reason": "Illegal Dumping",
    "date_created": "2026-01-30T15:56:36.000",
    "date_modified": "2026-01-30T16:00:40.000",
    "request_status": "Pending",
    "responsible_agency": "Department of Sanitation",
    "final_address": "5431 Montegut Dr",
    "address_councildis": "D",
    "status": "Pending",
    "rowid": "1255579",
    "final_x": "3689750.23299",
    "final_y": "553429.536599",
    "longitude": "-90.04123901551117",
    "latitude": "30.015485989095204",
    "geocoded_column": {
      "latitude": "30.015485989095204",
      "longitude": "-90.04123901551117"
    }
  },
  {
    "service_request": "2026-1255578",
    "request_type": "Trash/Recycling",
    "request_reason": "Request a Large Item Pick Up",
    "date_created": "2026-01-30T15:48:42.000",
    "date_modified": "2026-01-30T15:48:59.000",
    "request_status": "Pending",
    "responsible_agency": "Department of Sanitation",
    "final_address": "5423 Montegut Dr",
    "address_councildis": "D",
    "status": "Assigned to Contractor",
    "contractor": "IV Waste",
    "rowid": "1255578",
    "final_x": "3689756.99561",
    "final_y": "553380.422551",
    "longitude": "-90.0412193986869",
    "latitude": "30.01535073397896",
    "geocoded_column": {
      "latitude": "30.01535073397896",
      "longitude": "-90.0412193986869"
    }
  },
  {
    "service_request": "2026-1255577",
    "request_type": "Healthy Homes",
    "request_reason": "Healthy Homes",
    "date_created": "2026-01-30T15:44:18.000",
    "date_modified": "2026-01-30T15:44:20.000",
    "request_status": "Pending",
    "responsible_agency": "Department of Code Enforcement",
    "final_address": "2640 St Peter St",
    "address_councildis": "D",
    "status": "Pending",
    "rowid": "1255577",
    "final_x": "3676762.90696",
    "final_y": "536717.189063",
    "longitude": "-90.08284927061939",
    "latitude": "29.969929175596306",
    "geocoded_column": {
      "latitude": "29.969929175596306",
      "longitude": "-90.08284927061939"
    }
  },
  {
    "service_request": "2026-1255576",
    "request_type": "Trash/Recycling",
    "request_reason": "Repair Trash Cart",
    "date_created": "2026-01-30T15:39:44.000",
    "date_modified": "2026-01-30T15:39:45.000",
    "request_status": "Pending",
    "responsible_agency": "Department of Sanitation",
    "final_address": "7640 Shaw Ave",
    "address_councildis": "E",
    "status": "Assigned to Contractor",
    "contractor": "Waste Pro",
    "rowid": "1255576",
    "final_x": "3707083.16964",
    "final_y": "564363.889249",
    "longitude": "-89.98606919733932",
    "latitude": "30.04500235851049",
    "geocoded_column": {
      "latitude": "30.04500235851049",
      "longitude": "-89.98606919733932"
    }
  },
  {
    "service_request": "2026-1255575",
    "request_type": "Trash/Recycling",
    "request_reason": "Request a Large Item Pick Up",
    "date_created": "2026-01-30T15:39:08.000",
    "date_modified": "2026-01-30T15:39:10.000",
    "request_status": "Pending",
    "responsible_agency": "Department of Sanitation",
    "final_address": "1523 Cambronne St",
    "address_councildis": "A",
    "status": "Assigned to Contractor",
    "contractor": "IV Waste",
    "rowid": "1255575",
    "final_x": "3662037.79827",
    "final_y": "529998.105857",
    "longitude": "-90.1295757468722",
    "latitude": "29.951887533736425",
    "geocoded_column": {
      "latitude": "29.951887533736425",
      "longitude": "-90.1295757468722"
    }
  },
  {
    "service_request": "2026-1255574",
    "request_type": "Trash/Recycling",
    "request_reason": "Damaged Caused By Contractor",
    "date_created": "2026-01-30T15:36:29.000",
    "date_modified": "2026-01-30T15:41:18.000",
    "case_close_date": "2026-01-30T09:41:18.000",
    "request_status": "Closed",
    "responsible_agency": "Department of Sanitation",
    "final_address": "2735 Ap Tureaud Ave",
    "address_councildis": "D",
    "status": "Invalid Request",
    "contractor": "IV Waste",
    "contractor_action": "Invalid Request",
    "rowid": "1255574",
    "final_x": "3681568.37519",
    "final_y": "542531.005197",
    "longitude": "-90.06747031066075",
    "latitude": "29.98577007133452",
    "geocoded_column": {
      "latitude": "29.98577007133452",
      "longitude": "-90.06747031066075"
    }
  },
  {
    "service_request": "2026-1255573",
    "request_type": "Trash/Recycling",
    "request_reason": "Order Recycling Cart",
    "date_created": "2026-01-30T15:34:33.000",
    "date_modified": "2026-01-30T15:34:35.000",
    "request_status": "Pending",
    "responsible_agency": "Department of Sanitation",
    "final_address": "3327 First St Apt B",
    "address_councildis": "B",
    "status": "Pending",
    "rowid": "1255573",
    "final_x": "3673572.22747",
    "final_y": "528524.210368",
    "longitude": "-90.09320579550489",
    "latitude": "29.947496578088195",
    "geocoded_column": {
      "latitude": "29.947496578088195",
      "longitude": "-90.09320579550489"
    }
  },
  {
    "service_request": "2026-1255572",
    "request_type": "Trash/Recycling",
    "request_reason": "Request a Large Item Pick Up",
    "date_created": "2026-01-30T15:29:40.000",
    "date_modified": "2026-01-30T15:29:43.000",
    "request_status": "Pending",
    "responsible_agency": "Department of Sanitation",
    "final_address": "11429 N St Andrews Cir",
    "address_councildis": "E",
    "status": "Assigned to Contractor",
    "contractor": "Waste Pro",
    "rowid": "1255572",
    "final_x": "3719160.18482",
    "final_y": "560393.763166",
    "longitude": "-89.94805227635207",
    "latitude": "30.03369015213004",
    "geocoded_column": {
      "latitude": "30.03369015213004",
      "longitude": "-89.94805227635207"
    }
  },
  {
    "service_request": "2026-1255571",
    "request_type": "Trash/Recycling",
    "request_reason": "Request a Large Item Pick Up",
    "date_created": "2026-01-30T15:27:25.000",
    "date_modified": "2026-01-30T15:27:26.000",
    "request_status": "Pending",
    "responsible_agency": "Department of Sanitation",
    "final_address": "7620 Hansbrough Ave",
    "address_councildis": "E",
    "status": "Assigned to Contractor",
    "contractor": "Waste Pro",
    "rowid": "1255571",
    "final_x": "3707578.44171",
    "final_y": "564487.094049",
    "longitude": "-89.98449933284098",
    "latitude": "30.0453251012345",
    "geocoded_column": {
      "latitude": "30.0453251012345",
      "longitude": "-89.98449933284098"
    }
  },
  {
    "service_request": "2026-1255570",
    "request_type": "Trash/Recycling",
    "request_reason": "Illegal Dumping",
    "date_created": "2026-01-30T15:23:49.000",
    "date_modified": "2026-01-30T15:25:05.000",
    "request_status": "Pending",
    "responsible_agency": "Department of Sanitation",
    "final_address": "7520 Brevard Ave",
    "address_councildis": "E",
    "status": "Pending",
    "rowid": "1255570",
    "final_x": "3706483.06174",
    "final_y": "563141.610464",
    "longitude": "-89.98801116170256",
    "latitude": "30.041660965434193",
    "geocoded_column": {
      "latitude": "30.041660965434193",
      "longitude": "-89.98801116170256"
    }
  },
  {
    "service_request": "2026-1255569",
    "request_type": "Roads and Streets",
    "request_reason": "Sidewalk Damaged or Missing",
    "date_created": "2026-01-30T15:19:13.000",
    "date_modified": "2026-01-30T15:19:14.000",
    "request_status": "Pending",
    "responsible_agency": "Department of Public Works",
    "final_address": "1713 Fern St",
    "address_councildis": "A",
    "status": "Pending",
    "rowid": "1255569",
    "final_x": "3663854.39283",
    "final_y": "529238.022081",
    "longitude": "-90.12386510922182",
    "latitude": "29.949744948624172",
    "geocoded_column": {
      "latitude": "29.949744948624172",
      "longitude": "-90.12386510922182"
    }
  },
  {
    "service_request": "2026-1255568",
    "request_type": "Streetlights",
    "request_reason": "Streetlight Outage/Malfunction",
    "date_created": "2026-01-30T15:13:32.000",
    "date_modified": "2026-01-30T15:13:34.000",
    "request_status": "Pending",
    "responsible_agency": "Department of Public Works",
    "final_address": "600 BLK Mardi Gras Blvd",
    "address_councildis": "C",
    "status": "Pending",
    "rowid": "1255568",
    "final_x": "3687888.68882",
    "final_y": "525302.464931",
    "longitude": "-90.04811740350154",
    "latitude": "29.938204060357087",
    "geocoded_column": {
      "latitude": "29.938204060357087",
      "longitude": "-90.04811740350154"
    }
  },
  {
    "service_request": "2026-1255567",
    "request_type": "Abandoned Vehicles",
    "request_reason": "Abandoned/Junk Vehicles",
    "date_created": "2026-01-30T15:02:37.000",
    "date_modified": "2026-01-30T15:02:44.000",
    "request_status": "Pending",
    "responsible_agency": "Department of Public Works",
    "final_address": "1870 Mirabeau Ave",
    "address_councildis": "D",
    "status": "Pending",
    "rowid": "1255567",
    "final_x": "3681536.65941",
    "final_y": "550422.513428",
    "longitude": "-90.06729507973083",
    "latitude": "30.00746987612331",
    "geocoded_column": {
      "latitude": "30.00746987612331",
      "longitude": "-90.06729507973083"
    }
  },
  {
    "service_request": "2026-1255566",
    "request_type": "Trash/Recycling",
    "request_reason": "Replace Trash Cart",
    "date_created": "2026-01-30T15:01:41.000",
    "date_modified": "2026-01-30T15:01:43.000",
    "request_status": "Pending",
    "responsible_agency": "Department of Sanitation",
    "final_address": "3337 Plymouth Pl",
    "address_councildis": "C",
    "status": "Assigned to Contractor",
    "contractor": "Richards Disposal",
    "rowid": "1255566",
    "final_x": "3702737.18455",
    "final_y": "518857.702455",
    "longitude": "-90.00147616215847",
    "latitude": "29.920016905006744",
    "geocoded_column": {
      "latitude": "29.920016905006744",
      "longitude": "-90.00147616215847"
    }
  },
  {
    "service_request": "2026-1255565",
    "request_type": "Trash/Recycling",
    "request_reason": "Illegal Dumping",
    "date_created": "2026-01-30T14:52:10.000",
    "date_modified": "2026-01-30T14:52:11.000",
    "request_status": "Pending",
    "responsible_agency": "Department of Sanitation",
    "final_address": "4013 Lennox Blvd",
    "address_councildis": "C",
    "status": "Pending",
    "rowid": "1255565",
    "final_x": "3700721.20106",
    "final_y": "515977.5733",
    "longitude": "-90.00794476433357",
    "latitude": "29.912161810227953",
    "geocoded_column": {
      "latitude": "29.912161810227953",
      "longitude": "-90.00794476433357"
    }
  },
  {
    "service_request": "2026-1255564",
    "request_type": "Trash/Recycling",
    "request_reason": "Repair Trash Cart",
    "date_created": "2026-01-30T14:48:30.000",
    "date_modified": "2026-01-30T14:48:32.000",
    "request_status": "Pending",
    "responsible_agency": "Department of Sanitation",
    "final_address": "8626 Jeannette St",
    "address_councildis": "A",
    "status": "Assigned to Contractor",
    "contractor": "IV Waste",
    "rowid": "1255564",
    "final_x": "3661163.29094",
    "final_y": "530472.677186",
    "longitude": "-90.13232133475933",
    "latitude": "29.953217684878474",
    "geocoded_column": {
      "latitude": "29.953217684878474",
      "longitude": "-90.13232133475933"
    }
  },
  {
    "service_request": "2026-1255563",
    "request_type": "Trash/Recycling",
    "request_reason": "Illegal Dumping",
    "date_created": "2026-01-30T14:46:21.000",
    "date_modified": "2026-01-30T14:46:23.000",
    "request_status": "Pending",
    "responsible_agency": "Department of Sanitation",
    "final_address": "ANNETTE ST & N ROMAN ST",
    "address_councildis": "D",
    "status": "Pending",
    "rowid": "1255563",
    "final_x": "3682939.8",
    "final_y": "538727.28",
    "longitude": "-90.06327170497366",
    "latitude": "29.97526942829095",
    "geocoded_column": {
      "latitude": "29.97526942829095",
      "longitude": "-90.06327170497366"
    }
  },
  {
    "service_request": "2026-1255562",
    "request_type": "Trash/Recycling",
    "request_reason": "Order Trash Cart",
    "date_created": "2026-01-30T14:45:47.000",
    "date_modified": "2026-01-30T14:45:48.000",
    "request_status": "Pending",
    "responsible_agency": "Department of Sanitation",
    "final_address": "10331 Brookfield Dr",
    "address_councildis": "E",
    "status": "Assigned to Contractor",
    "contractor": "Waste Pro",
    "rowid": "1255562",
    "final_x": "3710528.48203",
    "final_y": "563261.666144",
    "longitude": "-89.97522177133592",
    "latitude": "30.041859851412045",
    "geocoded_column": {
      "latitude": "30.041859851412045",
      "longitude": "-89.97522177133592"
    }
  },
  {
    "service_request": "2026-1255561",
    "request_type": "Abandoned Vehicles",
    "request_reason": "Abandoned/Junk Vehicles",
    "date_created": "2026-01-30T14:45:32.000",
    "date_modified": "2026-01-30T14:45:34.000",
    "request_status": "Pending",
    "responsible_agency": "Department of Public Works",
    "final_address": "8240 Curran Rd",
    "address_councildis": "E",
    "status": "Pending",
    "rowid": "1255561",
    "final_x": "3702958.69207",
    "final_y": "561906.285599",
    "longitude": "-89.99919484292683",
    "latitude": "30.038377613964986",
    "geocoded_column": {
      "latitude": "30.038377613964986",
      "longitude": "-89.99919484292683"
    }
  },
  {
    "service_request": "2026-1255560",
    "request_type": "Trash/Recycling",
    "request_reason": "Request a Large Item Pick Up",
    "date_created": "2026-01-30T14:43:07.000",
    "date_modified": "2026-01-30T14:43:09.000",
    "request_status": "Pending",
    "responsible_agency": "Department of Sanitation",
    "final_address": "4300 S Claiborne Ave",
    "address_councildis": "B",
    "status": "Assigned to Contractor",
    "contractor": "IV Waste",
    "rowid": "1255560",
    "final_x": "3670711.16743",
    "final_y": "525764.146685",
    "longitude": "-90.10233291455414",
    "latitude": "29.939992135030806",
    "geocoded_column": {
      "latitude": "29.939992135030806",
      "longitude": "-90.10233291455414"
    }
  },
  {
    "service_request": "2026-1255559",
    "request_type": "Trash/Recycling",
    "request_reason": "Request a Large Item Pick Up",
    "date_created": "2026-01-30T14:41:57.000",
    "date_modified": "2026-01-30T14:41:59.000",
    "request_status": "Pending",
    "responsible_agency": "Department of Sanitation",
    "final_address": "1615 Cambronne St",
    "address_councildis": "A",
    "status": "Assigned to Contractor",
    "contractor": "IV Waste",
    "rowid": "1255559",
    "final_x": "3662250.89165",
    "final_y": "530227.969281",
    "longitude": "-90.12889526648325",
    "latitude": "29.952513426865636",
    "geocoded_column": {
      "latitude": "29.952513426865636",
      "longitude": "-90.12889526648325"
    }
  },
  {
    "service_request": "2026-1255558",
    "request_type": "Street and Traffic Signs",
    "request_reason": "Traffic or Parking Sign Damaged or Missing",
    "date_created": "2026-01-30T14:40:45.000",
    "date_modified": "2026-01-30T14:40:46.000",
    "request_status": "Pending",
    "responsible_agency": "Department of Public Works",
    "final_address": "N CLAIBORNE AVE & MANDEVILLE ST",
    "address_councildis": "D",
    "status": "Pending",
    "rowid": "1255558",
    "final_x": "3685635.8",
    "final_y": "538210.08",
    "longitude": "-90.05477526385536",
    "latitude": "29.973764866665686",
    "geocoded_column": {
      "latitude": "29.973764866665686",
      "longitude": "-90.05477526385536"
    }
  },
  {
    "service_request": "2026-1255557",
    "request_type": "Healthy Homes",
    "request_reason": "Healthy Homes",
    "date_created": "2026-01-30T14:40:23.000",
    "date_modified": "2026-01-30T14:50:35.000",
    "case_close_date": "2026-01-30T08:50:34.000",
    "request_status": "Closed",
    "responsible_agency": "Department of Code Enforcement",
    "final_address": "4213 St Anthony Ave",
    "address_councildis": "D",
    "status": "Referred to Code Enforcement",
    "rowid": "1255557",
    "final_x": "3682676.03087",
    "final_y": "548107.333906",
    "longitude": "-90.06377652437463",
    "latitude": "30.00106930115234",
    "geocoded_column": {
      "latitude": "30.00106930115234",
      "longitude": "-90.06377652437463"
    }
  },
  {
    "service_request": "2026-1255556",
    "request_type": "Abandoned Vehicles",
    "request_reason": "Abandoned/Junk Vehicles",
    "date_created": "2026-01-30T14:36:34.000",
    "date_modified": "2026-01-30T14:36:36.000",
    "request_status": "Pending",
    "responsible_agency": "Department of Public Works",
    "final_address": "1630 Philip St",
    "address_councildis": "B",
    "status": "Pending",
    "rowid": "1255556",
    "final_x": "3676930.54325",
    "final_y": "523589.523323",
    "longitude": "-90.08277233276483",
    "latitude": "29.93382744726861",
    "geocoded_column": {
      "latitude": "29.93382744726861",
      "longitude": "-90.08277233276483"
    }
  },
  {
    "service_request": "2026-1255555",
    "request_type": "Trash/Recycling",
    "request_reason": "Request a Large Item Pick Up",
    "date_created": "2026-01-30T14:26:33.000",
    "date_modified": "2026-01-30T15:39:29.000",
    "request_status": "Pending",
    "responsible_agency": "Department of Sanitation",
    "final_address": "5630 Orleans Ave",
    "address_councildis": "A",
    "status": "Assigned to Contractor",
    "contractor": "IV Waste",
    "rowid": "1255555",
    "final_x": "3670584.94612",
    "final_y": "544689.228495",
    "longitude": "-90.10208938821238",
    "latitude": "29.992033512438606",
    "geocoded_column": {
      "latitude": "29.992033512438606",
      "longitude": "-90.10208938821238"
    }
  },
  {
    "service_request": "2026-1255554",
    "request_type": "Trash/Recycling",
    "request_reason": "Request a Large Item Pick Up",
    "date_created": "2026-01-30T14:19:01.000",
    "date_modified": "2026-01-30T14:19:02.000",
    "request_status": "Pending",
    "responsible_agency": "Department of Sanitation",
    "final_address": "108 Larchmont Pl",
    "address_councildis": "C",
    "status": "Assigned to Contractor",
    "contractor": "Richards Disposal",
    "rowid": "1255554",
    "final_x": "3707400.54833",
    "final_y": "520728.545593",
    "longitude": "-89.98668689948846",
    "latitude": "29.925011203125184",
    "geocoded_column": {
      "latitude": "29.925011203125184",
      "longitude": "-89.98668689948846"
    }
  },
  {
    "service_request": "2026-1255553",
    "request_type": "Abandoned Vehicles",
    "request_reason": "Abandoned/Junk Vehicles",
    "date_created": "2026-01-30T14:17:24.000",
    "date_modified": "2026-01-30T14:17:25.000",
    "request_status": "Pending",
    "responsible_agency": "Department of Public Works",
    "final_address": "1300 Treme St",
    "address_councildis": "C",
    "status": "Pending",
    "rowid": "1255553",
    "final_x": "3682185.7316",
    "final_y": "535554.563014",
    "longitude": "-90.06576409908153",
    "latitude": "29.96656851384437",
    "geocoded_column": {
      "latitude": "29.96656851384437",
      "longitude": "-90.06576409908153"
    }
  },
  {
    "service_request": "2026-1255552",
    "request_type": "Property Maintenance",
    "request_reason": "Property Maintenance",
    "date_created": "2026-01-30T14:15:19.000",
    "date_modified": "2026-01-30T14:15:20.000",
    "request_status": "Pending",
    "responsible_agency": "Department of Code Enforcement",
    "final_address": "5430 Bundy Rd",
    "address_councildis": "E",
    "status": "Pending",
    "rowid": "1255552",
    "final_x": "3708410.0378",
    "final_y": "558000.921435",
    "longitude": "-89.98211284702188",
    "latitude": "30.02746375333436",
    "geocoded_column": {
      "latitude": "30.02746375333436",
      "longitude": "-89.98211284702188"
    }
  },
  {
    "service_request": "2026-1255550",
    "request_type": "Parks & Parkways",
    "request_reason": "Request Tree Service (Right of Way/Public Property)",
    "date_created": "2026-01-30T14:12:52.000",
    "date_modified": "2026-01-30T14:12:55.000",
    "request_status": "Pending",
    "responsible_agency": "Department of Parks & Parkway",
    "final_address": "5200 BLK Michoud Blvd",
    "address_councildis": "E",
    "status": "Pending",
    "rowid": "1255550",
    "final_x": "3724746.43761",
    "final_y": "562618.620613",
    "longitude": "-89.93031323904569",
    "latitude": "30.039620714465073",
    "geocoded_column": {
      "latitude": "30.039620714465073",
      "longitude": "-89.93031323904569"
    }
  },
  {
    "service_request": "2026-1255549",
    "request_type": "Abandoned Vehicles",
    "request_reason": "Abandoned/Junk Vehicles",
    "date_created": "2026-01-30T14:09:51.000",
    "date_modified": "2026-01-30T14:09:52.000",
    "request_status": "Pending",
    "responsible_agency": "Department of Public Works",
    "final_address": "9020 Tilford Rd",
    "address_councildis": "E",
    "status": "Pending",
    "rowid": "1255549",
    "final_x": "3708234.5546",
    "final_y": "557231.005787",
    "longitude": "-89.98269603152393",
    "latitude": "30.025352475560588",
    "geocoded_column": {
      "latitude": "30.025352475560588",
      "longitude": "-89.98269603152393"
    }
  },
  {
    "service_request": "2026-1255548",
    "request_type": "Trash/Recycling",
    "request_reason": "MIssed Recycling Pick-Up",
    "date_created": "2026-01-30T14:09:16.000",
    "date_modified": "2026-01-30T15:28:05.000",
    "case_close_date": "2026-01-30T09:28:04.000",
    "request_status": "Closed",
    "responsible_agency": "Department of Sanitation",
    "final_address": "2105 Milan St",
    "address_councildis": "B",
    "status": "Invalid Request",
    "contractor": "IV Waste",
    "contractor_action": "Invalid",
    "rowid": "1255548",
    "final_x": "3671449.51105",
    "final_y": "522794.027899",
    "longitude": "-90.10010277080632",
    "latitude": "29.93180343745689",
    "geocoded_column": {
      "latitude": "29.93180343745689",
      "longitude": "-90.10010277080632"
    }
  },
  {
    "service_request": "2026-1255547",
    "request_type": "Abandoned Vehicles",
    "request_reason": "Abandoned/Junk Vehicles",
    "date_created": "2026-01-30T13:57:30.000",
    "date_modified": "2026-01-30T13:57:32.000",
    "request_status": "Pending",
    "responsible_agency": "Department of Public Works",
    "final_address": "5430 Bundy Rd",
    "address_councildis": "E",
    "status": "Pending",
    "rowid": "1255547",
    "final_x": "3708410.0378",
    "final_y": "558000.921435",
    "longitude": "-89.98211284702188",
    "latitude": "30.02746375333436",
    "geocoded_column": {
      "latitude": "30.02746375333436",
      "longitude": "-89.98211284702188"
    }
  },
  {
    "service_request": "2026-1255546",
    "request_type": "Trash/Recycling",
    "request_reason": "Request a Large Item Pick Up",
    "date_created": "2026-01-30T13:56:51.000",
    "date_modified": "2026-01-30T13:56:53.000",
    "request_status": "Pending",
    "responsible_agency": "Department of Sanitation",
    "final_address": "7539 Wayfarer St",
    "address_councildis": "E",
    "status": "Assigned to Contractor",
    "contractor": "Waste Pro",
    "rowid": "1255546",
    "final_x": "3725581.15993",
    "final_y": "570373.678823",
    "longitude": "-89.92737458355799",
    "latitude": "30.060915752051585",
    "geocoded_column": {
      "latitude": "30.060915752051585",
      "longitude": "-89.92737458355799"
    }
  },
  {
    "service_request": "2026-1255545",
    "request_type": "Trash/Recycling",
    "request_reason": "Request a Large Item Pick Up",
    "date_created": "2026-01-30T13:56:36.000",
    "date_modified": "2026-01-30T13:56:38.000",
    "request_status": "Pending",
    "responsible_agency": "Department of Sanitation",
    "final_address": "2216 Jena St",
    "address_councildis": "B",
    "status": "Assigned to Contractor",
    "contractor": "IV Waste",
    "rowid": "1255545",
    "final_x": "3670186.01492",
    "final_y": "523107.795707",
    "longitude": "-90.10408087402607",
    "latitude": "29.932703529417164",
    "geocoded_column": {
      "latitude": "29.932703529417164",
      "longitude": "-90.10408087402607"
    }
  },
  {
    "service_request": "2026-1255544",
    "request_type": "Abandoned Vehicles",
    "request_reason": "Abandoned/Junk Vehicles",
    "date_created": "2026-01-30T13:56:08.000",
    "date_modified": "2026-01-30T13:56:10.000",
    "request_status": "Pending",
    "responsible_agency": "Department of Public Works",
    "final_address": "2505 Athis St",
    "address_councildis": "D",
    "status": "Pending",
    "rowid": "1255544",
    "final_x": "3685819.59689",
    "final_y": "554438.13596",
    "longitude": "-90.05362239912705",
    "latitude": "30.018380553771816",
    "geocoded_column": {
      "latitude": "30.018380553771816",
      "longitude": "-90.05362239912705"
    }
  },
  {
    "service_request": "2026-1255543",
    "request_type": "Trash/Recycling",
    "request_reason": "Request a Large Item Pick Up",
    "date_created": "2026-01-30T13:53:28.000",
    "date_modified": "2026-01-30T13:53:30.000",
    "request_status": "Pending",
    "responsible_agency": "Department of Sanitation",
    "final_address": "7262 Canal Blvd",
    "address_councildis": "D",
    "status": "Assigned to Contractor",
    "contractor": "IV Waste",
    "rowid": "1255543",
    "final_x": "3669025.99828",
    "final_y": "555231.406361",
    "longitude": "-90.10665730303651",
    "latitude": "30.021066785539393",
    "geocoded_column": {
      "latitude": "30.021066785539393",
      "longitude": "-90.10665730303651"
    }
  },