[
  {
    "service_request": "2025-1187748",
    "request_type": "Trash/Recycling",
    "request_reason": "MIssed Recycling Pick-Up",
    "date_created": "2025-04-28T23:05:20.000",
    "date_modified": "2025-04-28T23:05:22.000",
    "request_status": "Pending",
    "responsible_agency": "Department of Sanitation",
    "final_address": "4355 General Meyer Ave",
    "address_councildis": "C",
    "status": "Assigned to Contractor",
    "contractor": "Richards Disposal",
    "rowid": "1187748",
    "final_x": "3699953.95274",
    "final_y": "524186.90854",
    "longitude": "-90.01006716171995",
    "latitude": "29.934759046262933",
    "geocoded_column": {
      "latitude": "29.934759046262933",
      "longitude": "-90.01006716171995"
    }
  },
  {
    "service_request": "2025-1187747",
    "request_type": "Trash/Recycling",
    "request_reason": "Request a Large Item Pick Up",
    "date_created": "2025-04-28T22:52:42.000",
    "date_modified": "2025-04-28T22:52:44.000",
    "request_status": "Pending",
    "responsible_agency": "Department of Sanitation",
    "final_address": "2231 Dreux Ave",
    "address_councildis": "D",
    "status": "Assigned to Contractor",
    "contractor": "IV Waste",
    "rowid": "1187747",
    "final_x": "3684067.08207",
    "final_y": "552092.586774",
    "longitude": "-90.05924209663395",
    "latitude": "30.01198485229877",
    "geocoded_column": {
      "latitude": "30.01198485229877",
      "longitude": "-90.05924209663395"
    }
  },
  {
    "service_request": "2025-1187746",
    "request_type": "Trash/Recycling",
    "request_reason": "Order Recycling Cart",
    "date_created": "2025-04-28T22:50:38.000",
    "date_modified": "2025-04-28T22:50:40.000",
    "request_status": "Pending",
    "responsible_agency": "Department of Sanitation",
    "final_address": "2231 Dreux Ave",
    "address_councildis": "D",
    "status": "Pending",
    "rowid": "1187746",
    "final_x": "3684067.08207",
    "final_y": "552092.586774",
    "longitude": "-90.05924209663395",
    "latitude": "30.01198485229877",
    "geocoded_column": {
      "latitude": "30.01198485229877",
      "longitude": "-90.05924209663395"
    }
  },
  {
    "service_request": "2025-1187745",
    "request_type": "Trash/Recycling",
    "request_reason": "Missed Trash Pick-Up",
    "date_created": "2025-04-28T22:46:46.000",
    "date_modified": "2025-04-28T22:46:48.000",
    "request_status": "Pending",
    "responsible_agency": "Department of Sanitation",
    "final_address": "5019 Michoud Blvd",
    "address_councildis": "E",
    "status": "Assigned to Contractor",
    "contractor": "Waste Pro",
    "rowid": "1187745",
    "final_x": "3724963.13868",
    "final_y": "561873.868511",
    "longitude": "-89.92965724026449",
    "latitude": "30.037565655624523",
    "geocoded_column": {
      "latitude": "30.037565655624523",
      "longitude": "-89.92965724026449"
    }
  },
  {
    "service_request": "2025-1187744",
    "request_type": "Abandoned Vehicles",
    "request_reason": "Abandoned/Junk Vehicles",
    "date_created": "2025-04-28T22:26:12.000",
    "date_modified": "2025-04-28T22:26:16.000",
    "request_status": "Pending",
    "responsible_agency": "Department of Public Works",
    "final_address": "600 N Bernadotte St",
    "address_councildis": "A",
    "status": "Pending",
    "rowid": "1187744",
    "final_x": "3669948.53332",
    "final_y": "541490.253708",
    "longitude": "-90.10420808618231",
    "latitude": "29.983256214868547",
    "geocoded_column": {
      "latitude": "29.983256214868547",
      "longitude": "-90.10420808618231"
    }
  },
  {
    "service_request": "2025-1187743",
    "request_type": "Abandoned Vehicles",
    "request_reason": "Abandoned/Junk Vehicles",
    "date_created": "2025-04-28T21:41:43.000",
    "date_modified": "2025-04-28T21:41:44.000",
    "request_status": "Pending",
    "responsible_agency": "Department of Public Works",
    "final_address": "4321 Baudin St",
    "address_councildis": "A",
    "status": "Pending",
    "rowid": "1187743",
    "final_x": "3669181.98426",
    "final_y": "537814.8258",
    "longitude": "-90.10675352204998",
    "latitude": "29.973172617086643",
    "geocoded_column": {
      "latitude": "29.973172617086643",
      "longitude": "-90.10675352204998"
    }
  },
  {
    "service_request": "2025-1187742",
    "request_type": "Trash/Recycling",
    "request_reason": "Request a Large Item Pick Up",
    "date_created": "2025-04-28T21:32:35.000",
    "date_modified": "2025-04-28T21:32:37.000",
    "request_status": "Pending",
    "responsible_agency": "Department of Sanitation",
    "final_address": "14021 Linden St",
    "address_councildis": "E",
    "status": "Assigned to Contractor",
    "contractor": "Waste Pro",
    "rowid": "1187742",
    "final_x": "3718384.33113",
    "final_y": "572516.798633",
    "longitude": "-89.95004154345258",
    "latitude": "30.067049277630513",
    "geocoded_column": {
      "latitude": "30.067049277630513",
      "longitude": "-89.95004154345258"
    }
  },
  {
    "service_request": "2025-1187741",
    "request_type": "Parks & Parkways",
    "request_reason": "Request Tree Service (Right of Way/Public Property)",
    "date_created": "2025-04-28T21:28:42.000",
    "date_modified": "2025-04-28T21:28:44.000",
    "request_status": "Pending",
    "responsible_agency": "Department of Parks & Parkway",
    "final_address": "5600 BLK Bullard Ave",
    "address_councildis": "E",
    "status": "Pending",
    "rowid": "1187741",
    "final_x": "3717097.12122",
    "final_y": "562082.552788",
    "longitude": "-89.95450749941907",
    "latitude": "30.038402060404337",
    "geocoded_column": {
      "latitude": "30.038402060404337",
      "longitude": "-89.95450749941907"
    }
  },
  {
    "service_request": "2025-1187740",
    "request_type": "Trash/Recycling",
    "request_reason": "Request a Large Item Pick Up",
    "date_created": "2025-04-28T21:25:14.000",
    "date_modified": "2025-04-28T21:25:16.000",
    "request_status": "Pending",
    "responsible_agency": "Department of Sanitation",
    "final_address": "4603 Arts St",
    "address_councildis": "D",
    "status": "Assigned to Contractor",
    "contractor": "IV Waste",
    "rowid": "1187740",
    "final_x": "3686075.61398",
    "final_y": "549639.599188",
    "longitude": "-90.05298289541811",
    "latitude": "30.00517846870325",
    "geocoded_column": {
      "latitude": "30.00517846870325",
      "longitude": "-90.05298289541811"
    }
  },
  {
    "service_request": "2025-1187739",
    "request_type": "Roads and Streets",
    "request_reason": "Street Subsidence (Sinking)",
    "date_created": "2025-04-28T21:07:58.000",
    "date_modified": "2025-04-28T21:08:01.000",
    "request_status": "Pending",
    "responsible_agency": "Department of Public Works",
    "final_address": "2704 Chippewa ",
    "address_councildis": "B",
    "status": "Pending",
    "rowid": "1187739",
    "final_x": "3678099.57474",
    "final_y": "519677.46828",
    "longitude": "-90.0792169244098",
    "latitude": "29.923035437907952",
    "geocoded_column": {
      "latitude": "29.923035437907952",
      "longitude": "-90.0792169244098"
    }
  },
  {
    "service_request": "2025-1187738",
    "request_type": "Trash/Recycling",
    "request_reason": "Request a Large Item Pick Up",
    "date_created": "2025-04-28T20:40:33.000",
    "date_modified": "2025-04-28T20:40:36.000",
    "request_status": "Pending",
    "responsible_agency": "Department of Sanitation",
    "final_address": "31 Honeysuckle Ln",
    "address_councildis": "E",
    "status": "Assigned to Contractor",
    "contractor": "Waste Pro",
    "rowid": "1187738",
    "final_x": "3713101.01355",
    "final_y": "568474.356453",
    "longitude": "-89.96689523863546",
    "latitude": "30.05610854322975",
    "geocoded_column": {
      "latitude": "30.05610854322975",
      "longitude": "-89.96689523863546"
    }
  },
  {
    "service_request": "2025-1187737",
    "request_type": "Trash/Recycling",
    "request_reason": "Order Recycling Cart",
    "date_created": "2025-04-28T20:30:07.000",
    "date_modified": "2025-04-28T20:30:09.000",
    "request_status": "Pending",
    "responsible_agency": "Department of Sanitation",
    "final_address": "1305 Milan St",
    "address_councildis": "B",
    "status": "Pending",
    "rowid": "1187737",
    "final_x": "3671727.29249",
    "final_y": "520209.107256",
    "longitude": "-90.09931372627864",
    "latitude": "29.92468751158915",
    "geocoded_column": {
      "latitude": "29.92468751158915",
      "longitude": "-90.09931372627864"
    }
  },
  {
    "service_request": "2025-1187736",
    "request_type": "Trash/Recycling",
    "request_reason": "Request a Large Item Pick Up",
    "date_created": "2025-04-28T20:21:12.000",
    "date_modified": "2025-04-28T20:21:16.000",
    "request_status": "Pending",
    "responsible_agency": "Department of Sanitation",
    "final_address": "5518 S Claiborne Ave",
    "address_councildis": "A",
    "status": "Assigned to Contractor",
    "contractor": "IV Waste",
    "rowid": "1187736",
    "final_x": "3667941.37281",
    "final_y": "526409.01203",
    "longitude": "-90.11105588189487",
    "latitude": "29.941846836728217",
    "geocoded_column": {
      "latitude": "29.941846836728217",
      "longitude": "-90.11105588189487"
    }
  },
  {
    "service_request": "2025-1187735",
    "request_type": "Trash/Recycling",
    "request_reason": "Replace Trash Cart",
    "date_created": "2025-04-28T20:14:12.000",
    "date_modified": "2025-04-28T20:14:14.000",
    "request_status": "Pending",
    "responsible_agency": "Department of Sanitation",
    "final_address": "3317 Short St, New Orleans, Louisiana, 70125",
    "address_councildis": "B",
    "status": "Assigned to Contractor",
    "contractor": "IV Waste",
    "rowid": "1187735",
    "final_x": "3667477.17185",
    "final_y": "533693.625093",
    "longitude": "-90.1122763780639",
    "latitude": "29.96189075381497",
    "geocoded_column": {
      "latitude": "29.96189075381497",
      "longitude": "-90.1122763780639"
    }
  },
  {
    "service_request": "2025-1187734",
    "request_type": "Trash/Recycling",
    "request_reason": "Request a Large Item Pick Up",
    "date_created": "2025-04-28T20:12:00.000",
    "date_modified": "2025-04-28T20:12:02.000",
    "request_status": "Pending",
    "responsible_agency": "Department of Sanitation",
    "final_address": "7230 Bunker Hill Rd",
    "address_councildis": "E",
    "status": "Assigned to Contractor",
    "contractor": "Waste Pro",
    "rowid": "1187734",
    "final_x": "3705501.7402",
    "final_y": "561134.244574",
    "longitude": "-89.99118678258259",
    "latitude": "30.036173145108922",
    "geocoded_column": {
      "latitude": "30.036173145108922",
      "longitude": "-89.99118678258259"
    }
  },
  {
    "service_request": "2025-1187733",
    "request_type": "Trash/Recycling",
    "request_reason": "Request a Large Item Pick Up",
    "date_created": "2025-04-28T20:09:12.000",
    "date_modified": "2025-04-28T20:09:15.000",
    "request_status": "Pending",
    "responsible_agency": "Department of Sanitation",
    "final_address": "7211 Bunker Hill Rd",
    "address_councildis": "E",
    "status": "Assigned to Contractor",
    "contractor": "Waste Pro",
    "rowid": "1187733",
    "final_x": "3705580.0659",
    "final_y": "561179.30851",
    "longitude": "-89.99093759177174",
    "latitude": "30.036294530338235",
    "geocoded_column": {
      "latitude": "30.036294530338235",
      "longitude": "-89.99093759177174"
    }
  },
  {
    "service_request": "2025-1187732",
    "request_type": "Trash/Recycling",
    "request_reason": "Request a Large Item Pick Up",
    "date_created": "2025-04-28T20:01:26.000",
    "date_modified": "2025-04-28T20:01:28.000",
    "request_status": "Pending",
    "responsible_agency": "Department of Sanitation",
    "final_address": "32 Marywood Ct",
    "address_councildis": "E",
    "status": "Assigned to Contractor",
    "contractor": "Waste Pro",
    "rowid": "1187732",
    "final_x": "3712386.95301",
    "final_y": "566925.27274",
    "longitude": "-89.96921052782896",
    "latitude": "30.051872589223922",
    "geocoded_column": {
      "latitude": "30.051872589223922",
      "longitude": "-89.96921052782896"
    }
  },
  {
    "service_request": "2025-1187731",
    "request_type": "Trash/Recycling",
    "request_reason": "Request a Large Item Pick Up",
    "date_created": "2025-04-28T19:56:15.000",
    "date_modified": "2025-04-28T19:56:17.000",
    "request_status": "Pending",
    "responsible_agency": "Department of Sanitation",
    "final_address": "4006 Annunciation St",
    "address_councildis": "B",
    "status": "Assigned to Contractor",
    "contractor": "IV Waste",
    "rowid": "1187731",
    "final_x": "3672530.69691",
    "final_y": "517853.182198",
    "longitude": "-90.0968578934684",
    "latitude": "29.91818565394963",
    "geocoded_column": {
      "latitude": "29.91818565394963",
      "longitude": "-90.0968578934684"
    }
  },
  {
    "service_request": "2025-1187730",
    "request_type": "Streetlights",
    "request_reason": "Streetlight Outage/Malfunction",
    "date_created": "2025-04-28T19:51:25.000",
    "date_modified": "2025-04-28T19:51:28.000",
    "request_status": "Pending",
    "responsible_agency": "Department of Public Works",
    "final_address": "4713 Bright Dr",
    "address_councildis": "E",
    "status": "Pending",
    "contractor": "Legacy Professional Services",
    "rowid": "1187730",
    "final_x": "3715915.48204",
    "final_y": "556782.904602",
    "longitude": "-89.95844271092068",
    "latitude": "30.023869194760447",
    "geocoded_column": {
      "latitude": "30.023869194760447",
      "longitude": "-89.95844271092068"
    }
  },
  {
    "service_request": "2025-1187729",
    "request_type": "Streetlights",
    "request_reason": "Streetlight Outage/Malfunction",
    "date_created": "2025-04-28T19:27:40.000",
    "date_modified": "2025-04-28T19:27:42.000",
    "request_status": "Pending",
    "responsible_agency": "Department of Public Works",
    "final_address": "0 BLK E Park Pl",
    "address_councildis": "A",
    "status": "Pending",
    "contractor": "Legacy Professional Services",
    "rowid": "1187729",
    "final_x": "3670186.73571",
    "final_y": "544765.904022",
    "longitude": "-90.10334465733308",
    "latitude": "29.992256103216462",
    "geocoded_column": {
      "latitude": "29.992256103216462",
      "longitude": "-90.10334465733308"
    }
  },
  {
    "service_request": "2025-1187728",
    "request_type": "Trash/Recycling",
    "request_reason": "Order Trash Cart",
    "date_created": "2025-04-28T19:12:30.000",
    "date_modified": "2025-04-28T19:12:33.000",
    "request_status": "Pending",
    "responsible_agency": "Department of Sanitation",
    "final_address": "8923 Palm St",
    "address_councildis": "A",
    "status": "Assigned to Contractor",
    "contractor": "IV Waste",
    "rowid": "1187728",
    "final_x": "3665518.39213",
    "final_y": "536747.210247",
    "longitude": "-90.1183596751716",
    "latitude": "29.970344354996584",
    "geocoded_column": {
      "latitude": "29.970344354996584",
      "longitude": "-90.1183596751716"
    }
  },
  {
    "service_request": "2025-1187727",
    "request_type": "General Services",
    "request_reason": "General Service Request",
    "date_created": "2025-04-28T19:09:07.000",
    "date_modified": "2025-04-28T19:09:09.000",
    "request_status": "Pending",
    "responsible_agency": "Orleans Parish Communication District",
    "final_address": "5900 Alfred St",
    "address_councildis": "D",
    "status": "Pending",
    "rowid": "1187727",
    "final_x": "3677094.92488",
    "final_y": "553967.891032",
    "longitude": "-90.08120539661627",
    "latitude": "30.017352588562474",
    "geocoded_column": {
      "latitude": "30.017352588562474",
      "longitude": "-90.08120539661627"
    }
  },
  {
    "service_request": "2025-1187726",
    "request_type": "Trash/Recycling",
    "request_reason": "Order Trash Cart",
    "date_created": "2025-04-28T19:06:55.000",
    "date_modified": "2025-04-28T19:06:58.000",
    "request_status": "Pending",
    "responsible_agency": "Department of Sanitation",
    "final_address": "8923 Palm St",
    "address_councildis": "A",
    "status": "Assigned to Contractor",
    "contractor": "IV Waste",
    "rowid": "1187726",
    "final_x": "3665518.39213",
    "final_y": "536747.210247",
    "longitude": "-90.1183596751716",
    "latitude": "29.970344354996584",
    "geocoded_column": {
      "latitude": "29.970344354996584",
      "longitude": "-90.1183596751716"
    }
  },
  {
    "service_request": "2025-1187725",
    "request_type": "Healthy Homes",
    "request_reason": "Healthy Homes",
    "date_created": "2025-04-28T19:06:15.000",
    "date_modified": "2025-04-28T19:06:17.000",
    "request_status": "Pending",
    "responsible_agency": "Department of Code Enforcement",
    "final_address": "1407 Napoleon Ave",
    "address_councildis": "B",
    "status": "Pending",
    "rowid": "1187725",
    "final_x": "3670998.53083",
    "final_y": "520430.918264",
    "longitude": "-90.10160666198563",
    "latitude": "29.925318981634103",
    "geocoded_column": {
      "latitude": "29.925318981634103",
      "longitude": "-90.10160666198563"
    }
  },
  {
    "service_request": "2025-1187724",
    "request_type": "Trash/Recycling",
    "request_reason": "Replace Trash Cart",
    "date_created": "2025-04-28T19:05:28.000",
    "date_modified": "2025-04-28T19:05:30.000",
    "request_status": "Pending",
    "responsible_agency": "Department of Sanitation",
    "final_address": "3801 Mimosa Dr",
    "address_councildis": "C",
    "status": "Assigned to Contractor",
    "contractor": "Richards Disposal",
    "rowid": "1187724",
    "final_x": "3703986.7379",
    "final_y": "513121.487345",
    "longitude": "-89.99774300345597",
    "latitude": "29.90420428302736",
    "geocoded_column": {
      "latitude": "29.90420428302736",
      "longitude": "-89.99774300345597"
    }
  },
  {
    "service_request": "2025-1187723",
    "request_type": "Trash/Recycling",
    "request_reason": "Order Trash Cart",
    "date_created": "2025-04-28T19:02:02.000",
    "date_modified": "2025-04-28T19:02:03.000",
    "request_status": "Pending",
    "responsible_agency": "Department of Sanitation",
    "final_address": "3521 Duplessis St",
    "address_councildis": "D",
    "status": "Assigned to Contractor",
    "contractor": "IV Waste",
    "rowid": "1187723",
    "final_x": "3678598.92782",
    "final_y": "545215.600463",
    "longitude": "-90.0767566127637",
    "latitude": "29.99324163589842",
    "geocoded_column": {
      "latitude": "29.99324163589842",
      "longitude": "-90.0767566127637"
    }
  },
  {
    "service_request": "2025-1187722",
    "request_type": "Trash/Recycling",
    "request_reason": "Request a Large Item Pick Up",
    "date_created": "2025-04-28T18:48:27.000",
    "date_modified": "2025-04-28T18:48:29.000",
    "request_status": "Pending",
    "responsible_agency": "Department of Sanitation",
    "final_address": "2223 St Thomas St",
    "address_councildis": "B",
    "status": "Assigned to Contractor",
    "contractor": "IV Waste",
    "rowid": "1187722",
    "final_x": "3679767.68328",
    "final_y": "520541.968504",
    "longitude": "-90.07392135824703",
    "latitude": "29.925362224462905",
    "geocoded_column": {
      "latitude": "29.925362224462905",
      "longitude": "-90.07392135824703"
    }
  },
  {
    "service_request": "2025-1187721",
    "request_type": "General Services",
    "request_reason": "General Service Request",
    "date_created": "2025-04-28T18:43:15.000",
    "date_modified": "2025-04-28T18:43:18.000",
    "request_status": "Pending",
    "responsible_agency": "Orleans Parish Communication District",
    "final_address": "3023 St Claude Ave",
    "address_councildis": "C",
    "status": "Pending",
    "rowid": "1187721",
    "final_x": "3688633.79318",
    "final_y": "536194.722759",
    "longitude": "-90.04537851840318",
    "latitude": "29.96813101884379",
    "geocoded_column": {
      "latitude": "29.96813101884379",
      "longitude": "-90.04537851840318"
    }
  },
  {
    "service_request": "2025-1187720",
    "request_type": "Trash/Recycling",
    "request_reason": "Repair Trash Cart",
    "date_created": "2025-04-28T18:38:43.000",
    "date_modified": "2025-04-28T18:38:46.000",
    "request_status": "Pending",
    "responsible_agency": "Department of Sanitation",
    "final_address": "213 N Salcedo St",
    "address_councildis": "B",
    "status": "Assigned to Contractor",
    "contractor": "IV Waste",
    "rowid": "1187720",
    "final_x": "3674380.04104",
    "final_y": "536541.411783",
    "longitude": "-90.0903806241502",
    "latitude": "29.969517136790166",
    "geocoded_column": {
      "latitude": "29.969517136790166",
      "longitude": "-90.0903806241502"
    }
  },
  {
    "service_request": "2025-1187719",
    "request_type": "Trash/Recycling",
    "request_reason": "Repair Recycling Cart",
    "date_created": "2025-04-28T18:38:01.000",
    "date_modified": "2025-04-28T18:38:03.000",
    "request_status": "Pending",
    "responsible_agency": "Department of Sanitation",
    "final_address": "409 Pelican Ave",
    "address_councildis": "C",
    "status": "Pending",
    "rowid": "1187719",
    "final_x": "3686603.99708",
    "final_y": "530507.983874",
    "longitude": "-90.05198950780117",
    "latitude": "29.95255702885355",
    "geocoded_column": {
      "latitude": "29.95255702885355",
      "longitude": "-90.05198950780117"
    }
  },
  {
    "service_request": "2025-1187718",
    "request_type": "Trash/Recycling",
    "request_reason": "Start Trash Service",
    "date_created": "2025-04-28T18:37:11.000",
    "date_modified": "2025-04-28T18:37:12.000",
    "request_status": "Pending",
    "responsible_agency": "Department of Sanitation",
    "final_address": "3637 Bruxelles St",
    "address_councildis": "D",
    "status": "Assigned to Contractor",
    "contractor": "IV Waste",
    "rowid": "1187718",
    "final_x": "3680112.30786",
    "final_y": "545832.994832",
    "longitude": "-90.071954627778",
    "latitude": "29.994893531324166",
    "geocoded_column": {
      "latitude": "29.994893531324166",
      "longitude": "-90.071954627778"
    }
  },
  {
    "service_request": "2025-1187717",
    "request_type": "Trash/Recycling",
    "request_reason": "Order Recycling Cart",
    "date_created": "2025-04-28T18:34:28.000",
    "date_modified": "2025-04-28T18:34:30.000",
    "request_status": "Pending",
    "responsible_agency": "Department of Sanitation",
    "final_address": "3635 Bruxelles St",
    "address_councildis": "D",
    "status": "Pending",
    "rowid": "1187717",
    "final_x": "3680117.16488",
    "final_y": "545812.583504",
    "longitude": "-90.07193999479793",
    "latitude": "29.99483726037286",
    "geocoded_column": {
      "latitude": "29.99483726037286",
      "longitude": "-90.07193999479793"
    }
  },
  {
    "service_request": "2025-1187716",
    "request_type": "Trash/Recycling",
    "request_reason": "Order Trash Cart",
    "date_created": "2025-04-28T18:32:51.000",
    "date_modified": "2025-04-28T18:32:53.000",
    "request_status": "Pending",
    "responsible_agency": "Department of Sanitation",
    "final_address": "3635 Bruxelles St",
    "address_councildis": "D",
    "status": "Assigned to Contractor",
    "contractor": "IV Waste",
    "rowid": "1187716",
    "final_x": "3680117.16488",
    "final_y": "545812.583504",
    "longitude": "-90.07193999479793",
    "latitude": "29.99483726037286",
    "geocoded_column": {
      "latitude": "29.99483726037286",
      "longitude": "-90.07193999479793"
    }
  },
  {
    "service_request": "2025-1187715",
    "request_type": "Trash/Recycling",
    "request_reason": "Order Recycling Cart",
    "date_created": "2025-04-28T18:30:48.000",
    "date_modified": "2025-04-28T18:30:50.000",
    "request_status": "Pending",
    "responsible_agency": "Department of Sanitation",
    "final_address": "3637 Bruxelles St",
    "address_councildis": "D",
    "status": "Pending",
    "rowid": "1187715",
    "final_x": "3680112.30786",
    "final_y": "545832.994832",
    "longitude": "-90.071954627778",
    "latitude": "29.994893531324166",
    "geocoded_column": {
      "latitude": "29.994893531324166",
      "longitude": "-90.071954627778"
    }
  },
  {
    "service_request": "2025-1187714",
    "request_type": "Abandoned Vehicles",
    "request_reason": "Abandoned/Junk Vehicles",
    "date_created": "2025-04-28T18:28:35.000",
    "date_modified": "2025-04-28T18:28:37.000",
    "request_status": "Pending",
    "responsible_agency": "Department of Public Works",
    "final_address": "518 Walnut St",
    "address_councildis": "A",
    "status": "Pending",
    "rowid": "1187714",
    "final_x": "3663029.47898",
    "final_y": "523813.527931",
    "longitude": "-90.1266501235132",
    "latitude": "29.934853236362184",
    "geocoded_column": {
      "latitude": "29.934853236362184",
      "longitude": "-90.1266501235132"
    }
  },
  {
    "service_request": "2025-1187713",
    "request_type": "Trash/Recycling",
    "request_reason": "Order Trash Cart",
    "date_created": "2025-04-28T18:26:53.000",
    "date_modified": "2025-04-28T18:26:56.000",
    "request_status": "Pending",
    "responsible_agency": "Department of Sanitation",
    "final_address": "3637 Bruxelles St",
    "address_councildis": "D",
    "status": "Assigned to Contractor",
    "contractor": "IV Waste",
    "rowid": "1187713",
    "final_x": "3680112.30786",
    "final_y": "545832.994832",
    "longitude": "-90.071954627778",
    "latitude": "29.994893531324166",
    "geocoded_column": {
      "latitude": "29.994893531324166",
      "longitude": "-90.071954627778"
    }
  },
  {
    "service_request": "2025-1187712",
    "request_type": "Abandoned Vehicles",
    "request_reason": "Abandoned/Junk Vehicles",
    "date_created": "2025-04-28T18:26:07.000",
    "date_modified": "2025-04-28T18:26:09.000",
    "request_status": "Pending",
    "responsible_agency": "Department of Public Works",
    "final_address": "518 Walnut St",
    "address_councildis": "A",
    "status": "Pending",
    "rowid": "1187712",
    "final_x": "3663029.47898",
    "final_y": "523813.527931",
    "longitude": "-90.1266501235132",
    "latitude": "29.934853236362184",
    "geocoded_column": {
      "latitude": "29.934853236362184",
      "longitude": "-90.1266501235132"
    }
  },
  {
    "service_request": "2025-1187711",
    "request_type": "Trash/Recycling",
    "request_reason": "Order Trash Cart",
    "date_created": "2025-04-28T18:23:24.000",
    "date_modified": "2025-04-28T18:23:26.000",
    "request_status": "Pending",
    "responsible_agency": "Department of Sanitation",
    "final_address": "3637 Bruxelles St",
    "address_councildis": "D",
    "status": "Assigned to Contractor",
    "contractor": "IV Waste",
    "rowid": "1187711",
    "final_x": "3680112.30786",
    "final_y": "545832.994832",
    "longitude": "-90.071954627778",
    "latitude": "29.994893531324166",
    "geocoded_column": {
      "latitude": "29.994893531324166",
      "longitude": "-90.071954627778"
    }
  },
  {
    "service_request": "2025-1187710",
    "request_type": "Property Maintenance",
    "request_reason": "Property Maintenance",
    "date_created": "2025-04-28T18:21:47.000",
    "date_modified": "2025-04-28T18:21:49.000",
    "request_status": "Pending",
    "responsible_agency": "Department of Code Enforcement",
    "final_address": "3710 Pittari Pl",
    "address_councildis": "C",
    "status": "Pending",
    "rowid": "1187710",
    "final_x": "3709600.53329",
    "final_y": "517150.107061",
    "longitude": "-89.97987575339556",
    "latitude": "29.915100474161846",
    "geocoded_column": {
      "latitude": "29.915100474161846",
      "longitude": "-89.97987575339556"
    }
  },
  {
    "service_request": "2025-1187709",
    "request_type": "Trash/Recycling",
    "request_reason": "Request a Large Item Pick Up",
    "date_created": "2025-04-28T18:21:40.000",
    "date_modified": "2025-04-28T18:21:42.000",
    "request_status": "Pending",
    "responsible_agency": "Department of Sanitation",
    "final_address": "2123 Fourth St",
    "address_councildis": "B",
    "status": "Assigned to Contractor",
    "contractor": "IV Waste",
    "rowid": "1187709",
    "final_x": "3675118.23387",
    "final_y": "524380.642556",
    "longitude": "-90.08846658423157",
    "latitude": "29.936057029617647",
    "geocoded_column": {
      "latitude": "29.936057029617647",
      "longitude": "-90.08846658423157"
    }
  },
  {
    "service_request": "2025-1187708",
    "request_type": "Property Maintenance",
    "request_reason": "Property Maintenance",
    "date_created": "2025-04-28T18:20:43.000",
    "date_modified": "2025-04-28T18:20:47.000",
    "request_status": "Pending",
    "responsible_agency": "Department of Code Enforcement",
    "final_address": "851 Allen Toussaint Blvd",
    "address_councildis": "D",
    "status": "Pending",
    "rowid": "1187708",
    "final_x": "3670326.35374",
    "final_y": "554704.59068",
    "longitude": "-90.10256641776434",
    "latitude": "30.019579888608856",
    "geocoded_column": {
      "latitude": "30.019579888608856",
      "longitude": "-90.10256641776434"
    }
  },
  {
    "service_request": "2025-1187707",
    "request_type": "Trash/Recycling",
    "request_reason": "Request a Large Item Pick Up",
    "date_created": "2025-04-28T18:07:17.000",
    "date_modified": "2025-04-28T18:07:19.000",
    "request_status": "Pending",
    "responsible_agency": "Department of Sanitation",
    "final_address": "422 Vallette St",
    "address_councildis": "C",
    "status": "Assigned to Contractor",
    "contractor": "Richards Disposal",
    "rowid": "1187707",
    "final_x": "3687578.80073",
    "final_y": "530146.242497",
    "longitude": "-90.04892433085668",
    "latitude": "29.951532354567913",
    "geocoded_column": {
      "latitude": "29.951532354567913",
      "longitude": "-90.04892433085668"
    }
  },
  {
    "service_request": "2025-1187706",
    "request_type": "Abandoned Vehicles",
    "request_reason": "Abandoned/Junk Vehicles",
    "date_created": "2025-04-28T17:43:02.000",
    "date_modified": "2025-04-28T17:43:04.000",
    "request_status": "Pending",
    "responsible_agency": "Department of Public Works",
    "final_address": "5411 Edenboro Rd",
    "address_councildis": "E",
    "status": "Pending",
    "rowid": "1187706",
    "final_x": "3708380.44875",
    "final_y": "557795.508443",
    "longitude": "-89.98221399886887",
    "latitude": "30.02689990750971",
    "geocoded_column": {
      "latitude": "30.02689990750971",
      "longitude": "-89.98221399886887"
    }
  },
  {
    "service_request": "2025-1187705",
    "request_type": "Abandoned Vehicles",
    "request_reason": "Abandoned/Junk Vehicles",
    "date_created": "2025-04-28T17:17:39.000",
    "date_modified": "2025-04-28T17:17:41.000",
    "request_status": "Pending",
    "responsible_agency": "Department of Public Works",
    "final_address": "1400 BLK Japonica St",
    "address_councildis": "D",
    "status": "Pending",
    "rowid": "1187705",
    "final_x": "3694036.40224",
    "final_y": "536127.500367",
    "longitude": "-90.02831935999477",
    "latitude": "29.9677780975449",
    "geocoded_column": {
      "latitude": "29.9677780975449",
      "longitude": "-90.02831935999477"
    }
  },
  {
    "service_request": "2025-1187704",
    "request_type": "Streetlights",
    "request_reason": "Streetlight Outage/Malfunction",
    "date_created": "2025-04-28T17:13:32.000",
    "date_modified": "2025-04-28T17:13:33.000",
    "request_status": "Pending",
    "responsible_agency": "Department of Public Works",
    "final_address": "15030 Curran Rd",
    "address_councildis": "E",
    "status": "Pending",
    "contractor": "Legacy Professional Services",
    "rowid": "1187704",
    "final_x": "3721017.11846",
    "final_y": "574262.008106",
    "longitude": "-89.94165195149267",
    "latitude": "30.07176020987764",
    "geocoded_column": {
      "latitude": "30.07176020987764",
      "longitude": "-89.94165195149267"
    }
  },
  {
    "service_request": "2025-1187703",
    "request_type": "Trash/Recycling",
    "request_reason": "Repair Trash Cart",
    "date_created": "2025-04-28T17:12:23.000",
    "date_modified": "2025-04-28T17:12:25.000",
    "request_status": "Pending",
    "responsible_agency": "Department of Sanitation",
    "final_address": "139 S Bernadotte St",
    "address_councildis": "A",
    "status": "Assigned to Contractor",
    "contractor": "IV Waste",
    "rowid": "1187703",
    "final_x": "3668554.82759",
    "final_y": "539800.528458",
    "longitude": "-90.10866718741545",
    "latitude": "29.97865107623254",
    "geocoded_column": {
      "latitude": "29.97865107623254",
      "longitude": "-90.10866718741545"
    }
  },
  {
    "service_request": "2025-1187702",
    "request_type": "Abandoned Vehicles",
    "request_reason": "Abandoned/Junk Vehicles",
    "date_created": "2025-04-28T17:12:05.000",
    "date_modified": "2025-04-28T17:12:07.000",
    "request_status": "Pending",
    "responsible_agency": "Department of Public Works",
    "final_address": "1410 Japonica St",
    "address_councildis": "D",
    "status": "Pending",
    "rowid": "1187702",
    "final_x": "3693926.31472",
    "final_y": "536047.561479",
    "longitude": "-90.02866989235584",
    "latitude": "29.967561740994427",
    "geocoded_column": {
      "latitude": "29.967561740994427",
      "longitude": "-90.02866989235584"
    }
  },
  {
    "service_request": "2025-1187701",
    "request_type": "Streetlights",
    "request_reason": "Streetlight Knocked Down/Leaning",
    "date_created": "2025-04-28T17:07:07.000",
    "date_modified": "2025-04-28T17:07:10.000",
    "request_status": "Pending",
    "responsible_agency": "Department of Public Works",
    "final_address": "847 Wilson Dr",
    "address_councildis": "A",
    "status": "Pending",
    "contractor": "Legacy Professional Services",
    "rowid": "1187701",
    "final_x": "3674018.87374",
    "final_y": "539613.990858",
    "longitude": "-90.09141605158872",
    "latitude": "29.977976452104045",
    "geocoded_column": {
      "latitude": "29.977976452104045",
      "longitude": "-90.09141605158872"
    }
  },
  {
    "service_request": "2025-1187700",
    "request_type": "Trash/Recycling",
    "request_reason": "Missed Trash Pick-Up",
    "date_created": "2025-04-28T17:04:59.000",
    "date_modified": "2025-04-28T17:05:00.000",
    "request_status": "Pending",
    "responsible_agency": "Department of Sanitation",
    "final_address": "14 Thrasher St, New Orleans, Louisiana, 70124",
    "address_councildis": "D",
    "status": "Assigned to Contractor",
    "contractor": "IV Waste",
    "rowid": "1187700",
    "final_x": "3672105.22318",
    "final_y": "556342.385114",
    "longitude": "-90.09688992657712",
    "latitude": "30.02403057835941",
    "geocoded_column": {
      "latitude": "30.02403057835941",
      "longitude": "-90.09688992657712"
    }
  },
  {
    "service_request": "2025-1187698",
    "request_type": "Trash/Recycling",
    "request_reason": "Illegal Dumping",
    "date_created": "2025-04-28T16:56:14.000",
    "date_modified": "2025-04-28T16:56:56.000",
    "request_status": "Pending",
    "responsible_agency": "Department of Sanitation",
    "final_address": "14001 Intrepid St",
    "address_councildis": "E",
    "status": "Pending",
    "rowid": "1187698",
    "final_x": "3726254.77574",
    "final_y": "570717.890343",
    "longitude": "-89.92523195954455",
    "latitude": "30.061839444165106",
    "geocoded_column": {
      "latitude": "30.061839444165106",
      "longitude": "-89.92523195954455"
    }
  },
  {
    "service_request": "2025-1187697",
    "request_type": "Trash/Recycling",
    "request_reason": "Request a Large Item Pick Up",
    "date_created": "2025-04-28T16:53:03.000",
    "date_modified": "2025-04-28T16:53:05.000",
    "request_status": "Pending",
    "responsible_agency": "Department of Sanitation",
    "final_address": "3300 Lancaster St",
    "address_councildis": "C",
    "status": "Assigned to Contractor",
    "contractor": "Richards Disposal",
    "rowid": "1187697",
    "final_x": "3709993.76248",
    "final_y": "518594.029687",
    "longitude": "-89.9785807069565",
    "latitude": "29.919057979021773",
    "geocoded_column": {
      "latitude": "29.919057979021773",
      "longitude": "-89.9785807069565"
    }
  },
  {
    "service_request": "2025-1187696",
    "request_type": "Health Related Request",
    "request_reason": "Homeless Encampment Complaint",
    "date_created": "2025-04-28T16:52:16.000",
    "date_modified": "2025-04-28T16:52:18.000",
    "request_status": "Pending",
    "responsible_agency": "Health Department",
    "final_address": "2901 First St",
    "address_councildis": "B",
    "status": "Pending",
    "rowid": "1187696",
    "final_x": "3674442.02587",
    "final_y": "527096.449919",
    "longitude": "-90.0905083970815",
    "latitude": "29.943544793989016",
    "geocoded_column": {
      "latitude": "29.943544793989016",
      "longitude": "-90.0905083970815"
    }
  },
  {
    "service_request": "2025-1187695",
    "request_type": "Trash/Recycling",
    "request_reason": "Replace Trash Cart",
    "date_created": "2025-04-28T16:49:35.000",
    "date_modified": "2025-04-28T16:49:38.000",
    "request_status": "Pending",
    "responsible_agency": "Department of Sanitation",
    "final_address": "6241 Perlita Dr",
    "address_councildis": "D",
    "status": "Assigned to Contractor",
    "contractor": "IV Waste",
    "rowid": "1187695",
    "final_x": "3678364.50613",
    "final_y": "555982.588441",
    "longitude": "-90.07712424099958",
    "latitude": "30.022854067032547",
    "geocoded_column": {
      "latitude": "30.022854067032547",
      "longitude": "-90.07712424099958"
    }
  },
  {
    "service_request": "2025-1187694",
    "request_type": "Trash/Recycling",
    "request_reason": "Order Recycling Cart",
    "date_created": "2025-04-28T16:47:53.000",
    "date_modified": "2025-04-28T16:47:55.000",
    "request_status": "Pending",
    "responsible_agency": "Department of Sanitation",
    "final_address": "7823 Means Ave",
    "address_councildis": "E",
    "status": "Pending",
    "rowid": "1187694",
    "final_x": "3707768.98654",
    "final_y": "565367.631778",
    "longitude": "-89.98386434947577",
    "latitude": "30.047740058798034",
    "geocoded_column": {
      "latitude": "30.047740058798034",
      "longitude": "-89.98386434947577"
    }
  },
  {
    "service_request": "2025-1187693",
    "request_type": "Trash/Recycling",
    "request_reason": "Request a Large Item Pick Up",
    "date_created": "2025-04-28T16:47:26.000",
    "date_modified": "2025-04-28T16:47:29.000",
    "request_status": "Pending",
    "responsible_agency": "Department of Sanitation",
    "final_address": "4327 Jena St",
    "address_councildis": "A",
    "status": "Assigned to Contractor",
    "contractor": "IV Waste",
    "rowid": "1187693",
    "final_x": "3669115.40462",
    "final_y": "529192.29952",
    "longitude": "-90.1072551803452",
    "latitude": "29.949465484650727",
    "geocoded_column": {
      "latitude": "29.949465484650727",
      "longitude": "-90.1072551803452"
    }
  },
  {
    "service_request": "2025-1187692",
    "request_type": "Streetlights",
    "request_reason": "Streetlight Knocked Down/Leaning",
    "date_created": "2025-04-28T16:46:09.000",
    "date_modified": "2025-04-28T16:46:11.000",
    "request_status": "Pending",
    "responsible_agency": "Department of Public Works",
    "final_address": "1616 Lakeshore Dr",
    "address_councildis": "D",
    "status": "Pending",
    "contractor": "Legacy Professional Services",
    "rowid": "1187692",
    "final_x": "3677954.48418",
    "final_y": "557627.146651",
    "longitude": "-90.07836290422878",
    "latitude": "30.027388355762362",
    "geocoded_column": {
      "latitude": "30.027388355762362",
      "longitude": "-90.07836290422878"
    }
  },
  {
    "service_request": "2025-1187691",
    "request_type": "Trash/Recycling",
    "request_reason": "Request a Large Item Pick Up",
    "date_created": "2025-04-28T16:45:48.000",
    "date_modified": "2025-04-28T16:45:50.000",
    "request_status": "Pending",
    "responsible_agency": "Department of Sanitation",
    "final_address": "1433 Shirley Dr",
    "address_councildis": "C",
    "status": "Assigned to Contractor",
    "contractor": "Richards Disposal",
    "rowid": "1187691",
    "final_x": "3692997.72733",
    "final_y": "525714.617085",
    "longitude": "-90.03197298479904",
    "latitude": "29.939178779754",
    "geocoded_column": {
      "latitude": "29.939178779754",
      "longitude": "-90.03197298479904"
    }
  },
  {
    "service_request": "2025-1187690",
    "request_type": "Abandoned Vehicles",
    "request_reason": "Abandoned/Junk Vehicles",
    "date_created": "2025-04-28T16:45:30.000",
    "date_modified": "2025-04-28T16:45:32.000",
    "request_status": "Pending",
    "responsible_agency": "Department of Public Works",
    "final_address": "2500 BLK Feliciana St",
    "address_councildis": "D",
    "status": "Pending",
    "rowid": "1187690",
    "final_x": "3690101.68767",
    "final_y": "541527.762205",
    "longitude": "-90.04055284780462",
    "latitude": "29.982749538890765",
    "geocoded_column": {
      "latitude": "29.982749538890765",
      "longitude": "-90.04055284780462"
    }
  },
  {
    "service_request": "2025-1187689",
    "request_type": "Trash/Recycling",
    "request_reason": "Request a Large Item Pick Up",
    "date_created": "2025-04-28T16:42:18.000",
    "date_modified": "2025-04-28T16:42:20.000",
    "request_status": "Pending",
    "responsible_agency": "Department of Sanitation",
    "final_address": "6423 Caldwell Dr",
    "address_councildis": "D",
    "status": "Assigned to Contractor",
    "contractor": "IV Waste",
    "rowid": "1187689",
    "final_x": "3678315.4909",
    "final_y": "557439.994459",
    "longitude": "-90.07722863583925",
    "latitude": "30.02686287904726",
    "geocoded_column": {
      "latitude": "30.02686287904726",
      "longitude": "-90.07722863583925"
    }
  },
  {
    "service_request": "2025-1187688",
    "request_type": "Trash/Recycling",
    "request_reason": "Repair Trash Cart",
    "date_created": "2025-04-28T16:41:53.000",
    "date_modified": "2025-04-28T16:41:56.000",
    "request_status": "Pending",
    "responsible_agency": "Department of Sanitation",
    "final_address": "2914 St Peter St",
    "address_councildis": "A",
    "status": "Assigned to Contractor",
    "contractor": "IV Waste",
    "rowid": "1187688",
    "final_x": "3675787.27739",
    "final_y": "537459.548488",
    "longitude": "-90.08590488329749",
    "latitude": "29.971999651669673",
    "geocoded_column": {
      "latitude": "29.971999651669673",
      "longitude": "-90.08590488329749"
    }
  },
  {
    "service_request": "2025-1187687",
    "request_type": "Utility Poles",
    "request_reason": "Wires Sagging/Hanging Low",
    "date_created": "2025-04-28T16:40:33.000",
    "date_modified": "2025-04-28T16:40:35.000",
    "request_status": "Pending",
    "responsible_agency": "Utility Company Collective",
    "final_address": "2617 Clara St",
    "address_councildis": "B",
    "status": "Pending",
    "rowid": "1187687",
    "final_x": "3673961.4818",
    "final_y": "526384.835134",
    "longitude": "-90.09204994190583",
    "latitude": "29.9416024097156",
    "geocoded_column": {
      "latitude": "29.9416024097156",
      "longitude": "-90.09204994190583"
    }
  },
  {
    "service_request": "2025-1187686",
    "request_type": "Streetlights",
    "request_reason": "Streetlight Knocked Down/Leaning",
    "date_created": "2025-04-28T16:39:10.000",
    "date_modified": "2025-04-28T16:39:12.000",
    "request_status": "Pending",
    "responsible_agency": "Department of Public Works",
    "final_address": "1265 Harrison Ave",
    "address_councildis": "D",
    "status": "Pending",
    "contractor": "Legacy Professional Services",
    "rowid": "1187686",
    "final_x": "3677036.55022",
    "final_y": "547591.845778",
    "longitude": "-90.08160991064881",
    "latitude": "29.999822493623423",
    "geocoded_column": {
      "latitude": "29.999822493623423",
      "longitude": "-90.08160991064881"
    }
  },
  {
    "service_request": "2025-1187685",
    "request_type": "Trash/Recycling",
    "request_reason": "Request a Large Item Pick Up",
    "date_created": "2025-04-28T16:33:13.000",
    "date_modified": "2025-04-28T16:33:14.000",
    "request_status": "Pending",
    "responsible_agency": "Department of Sanitation",
    "final_address": "1815 Marais St",
    "address_councildis": "C",
    "status": "Assigned to Contractor",
    "contractor": "IV Waste",
    "rowid": "1187685",
    "final_x": "3683616.7318",
    "final_y": "536592.648135",
    "longitude": "-90.06120862479816",
    "latitude": "29.969379283761157",
    "geocoded_column": {
      "latitude": "29.969379283761157",
      "longitude": "-90.06120862479816"
    }
  },
  {
    "service_request": "2025-1187684",
    "request_type": "Property Maintenance",
    "request_reason": "Property Maintenance",
    "date_created": "2025-04-28T16:31:23.000",
    "date_modified": "2025-04-28T16:31:25.000",
    "request_status": "Pending",
    "responsible_agency": "Department of Code Enforcement",
    "final_address": "3710 Pittari Pl",
    "address_councildis": "C",
    "status": "Pending",
    "rowid": "1187684",
    "final_x": "3709600.53329",
    "final_y": "517150.107061",
    "longitude": "-89.97987575339556",
    "latitude": "29.915100474161846",
    "geocoded_column": {
      "latitude": "29.915100474161846",
      "longitude": "-89.97987575339556"
    }
  },
  {
    "service_request": "2025-1187683",
    "request_type": "Trash/Recycling",
    "request_reason": "Request a Large Item Pick Up",
    "date_created": "2025-04-28T16:31:20.000",
    "date_modified": "2025-04-28T16:31:22.000",
    "request_status": "Pending",
    "responsible_agency": "Department of Sanitation",
    "final_address": "5236 Chartres St",
    "address_councildis": "E",
    "status": "Assigned to Contractor",
    "contractor": "Waste Pro",
    "rowid": "1187683",
    "final_x": "3696211.23018",
    "final_y": "532219.360451",
    "longitude": "-90.0215925165113",
    "latitude": "29.956963810735125",
    "geocoded_column": {
      "latitude": "29.956963810735125",
      "longitude": "-90.0215925165113"
    }
  },
  {
    "service_request": "2025-1187682",
    "request_type": "Streetlights",
    "request_reason": "Streetlight Outage/Malfunction",
    "date_created": "2025-04-28T16:31:04.000",
    "date_modified": "2025-04-28T16:31:05.000",
    "request_status": "Pending",
    "responsible_agency": "Department of Public Works",
    "final_address": "GENERAL DE GAULLE DR & WOODLAND HWY & WOODLAND DR & WOODLAND BRIDGE",
    "address_councildis": "C",
    "status": "Pending",
    "contractor": "Legacy Professional Services",
    "rowid": "1187682",
    "final_x": "3705400.3",
    "final_y": "514971.88",
    "longitude": "-89.99321351264551",
    "latitude": "29.90924684950023",
    "geocoded_column": {
      "latitude": "29.90924684950023",
      "longitude": "-89.99321351264551"
    }
  },
  {
    "service_request": "2025-1187681",
    "request_type": "Trash/Recycling",
    "request_reason": "Missed Trash Pick-Up",
    "date_created": "2025-04-28T16:29:58.000",
    "date_modified": "2025-04-28T16:30:00.000",
    "request_status": "Pending",
    "responsible_agency": "Department of Sanitation",
    "final_address": "13501 St Marie Dr",
    "address_councildis": "E",
    "status": "Assigned to Contractor",
    "contractor": "Waste Pro",
    "rowid": "1187681",
    "final_x": "3724042.27974",
    "final_y": "568867.905509",
    "longitude": "-89.93229707930419",
    "latitude": "30.056827337877333",
    "geocoded_column": {
      "latitude": "30.056827337877333",
      "longitude": "-89.93229707930419"
    }
  },
  {
    "service_request": "2025-1187680",
    "request_type": "Trash/Recycling",
    "request_reason": "Request a Large Item Pick Up",
    "date_created": "2025-04-28T16:28:58.000",
    "date_modified": "2025-04-28T16:29:00.000",
    "request_status": "Pending",
    "responsible_agency": "Department of Sanitation",
    "final_address": "2001 Congress St",
    "address_councildis": "D",
    "status": "Assigned to Contractor",
    "contractor": "IV Waste",
    "rowid": "1187680",
    "final_x": "3691601.23235",
    "final_y": "538980.536138",
    "longitude": "-90.03590764772929",
    "latitude": "29.975698971527148",
    "geocoded_column": {
      "latitude": "29.975698971527148",
      "longitude": "-90.03590764772929"
    }
  },
  {
    "service_request": "2025-1187679",
    "request_type": "Trash/Recycling",
    "request_reason": "Request a Large Item Pick Up",
    "date_created": "2025-04-28T16:28:11.000",
    "date_modified": "2025-04-28T16:28:13.000",
    "request_status": "Pending",
    "responsible_agency": "Department of Sanitation",
    "final_address": "3608 N Rampart St",
    "address_councildis": "C",
    "status": "Assigned to Contractor",
    "contractor": "IV Waste",
    "rowid": "1187679",
    "final_x": "3690653.29878",
    "final_y": "535102.17831",
    "longitude": "-90.03903983492066",
    "latitude": "29.965064334144348",
    "geocoded_column": {
      "latitude": "29.965064334144348",
      "longitude": "-90.03903983492066"
    }
  },
  {
    "service_request": "2025-1187678",
    "request_type": "Roads and Streets",
    "request_reason": "Pothole",
    "date_created": "2025-04-28T16:27:26.000",
    "date_modified": "2025-04-28T16:27:28.000",
    "request_status": "Pending",
    "responsible_agency": "Department of Public Works",
    "final_address": "3401 Broadway St",
    "address_councildis": "B",
    "status": "Pending",
    "rowid": "1187678",
    "final_x": "3668624.34702",
    "final_y": "533031.019332",
    "longitude": "-90.10867613170768",
    "latitude": "29.960035143088632",
    "geocoded_column": {
      "latitude": "29.960035143088632",
      "longitude": "-90.10867613170768"
    }
  },
  {
    "service_request": "2025-1187677",
    "request_type": "Trash/Recycling",
    "request_reason": "Request a Large Item Pick Up",
    "date_created": "2025-04-28T16:27:04.000",
    "date_modified": "2025-04-28T16:27:06.000",
    "request_status": "Pending",
    "responsible_agency": "Department of Sanitation",
    "final_address": "7815 Means Ave",
    "address_councildis": "E",
    "status": "Assigned to Contractor",
    "contractor": "Waste Pro",
    "rowid": "1187677",
    "final_x": "3707797.6963",
    "final_y": "565314.973602",
    "longitude": "-89.98377557151363",
    "latitude": "30.047594340190887",
    "geocoded_column": {
      "latitude": "30.047594340190887",
      "longitude": "-89.98377557151363"
    }
  },
  {
    "service_request": "2025-1187676",
    "request_type": "Trash/Recycling",
    "request_reason": "Request a Large Item Pick Up",
    "date_created": "2025-04-28T16:25:52.000",
    "date_modified": "2025-04-28T16:25:53.000",
    "request_status": "Pending",
    "responsible_agency": "Department of Sanitation",
    "final_address": "13221 Curran Rd",
    "address_councildis": "E",
    "status": "Assigned to Contractor",
    "contractor": "Waste Pro",
    "rowid": "1187676",
    "final_x": "3715824.27698",
    "final_y": "570042.661223",
    "longitude": "-89.95822808540883",
    "latitude": "30.060331157689074",
    "geocoded_column": {
      "latitude": "30.060331157689074",
      "longitude": "-89.95822808540883"
    }
  },
  {
    "service_request": "2025-1187675",
    "request_type": "Trash/Recycling",
    "request_reason": "Request a Large Item Pick Up",
    "date_created": "2025-04-28T16:22:44.000",
    "date_modified": "2025-04-28T16:22:46.000",
    "request_status": "Pending",
    "responsible_agency": "Department of Sanitation",
    "final_address": "4955 Mandeville St",
    "address_councildis": "D",
    "status": "Assigned to Contractor",
    "contractor": "IV Waste",
    "rowid": "1187675",
    "final_x": "3684695.37634",
    "final_y": "551191.722325",
    "longitude": "-90.05728874561595",
    "latitude": "30.009488578755946",
    "geocoded_column": {
      "latitude": "30.009488578755946",
      "longitude": "-90.05728874561595"
    }
  },
  {
    "service_request": "2025-1187674",
    "request_type": "Property Maintenance",
    "request_reason": "Property Maintenance",
    "date_created": "2025-04-28T16:22:25.000",
    "date_modified": "2025-04-28T16:22:27.000",
    "request_status": "Pending",
    "responsible_agency": "Department of Code Enforcement",
    "final_address": "3710 Pittari Pl",
    "address_councildis": "C",
    "status": "Pending",
    "rowid": "1187674",
    "final_x": "3709600.53329",
    "final_y": "517150.107061",
    "longitude": "-89.97987575339556",
    "latitude": "29.915100474161846",
    "geocoded_column": {
      "latitude": "29.915100474161846",
      "longitude": "-89.97987575339556"
    }
  },
  {
    "service_request": "2025-1187673",
    "request_type": "Trash/Recycling",
    "request_reason": "Request a Large Item Pick Up",
    "date_created": "2025-04-28T16:22:23.000",
    "date_modified": "2025-04-28T16:22:26.000",
    "request_status": "Pending",
    "responsible_agency": "Department of Sanitation",
    "final_address": "3276 Bloomingdale Ct",
    "address_councildis": "B",
    "status": "Assigned to Contractor",
    "contractor": "IV Waste",
    "rowid": "1187673",
    "final_x": "3668940.29063",
    "final_y": "532563.820612",
    "longitude": "-90.10769422769314",
    "latitude": "29.958741212160326",
    "geocoded_column": {
      "latitude": "29.958741212160326",
      "longitude": "-90.10769422769314"
    }
  },
  {
    "service_request": "2025-1187672",
    "request_type": "Trash/Recycling",
    "request_reason": "Request a Large Item Pick Up",
    "date_created": "2025-04-28T16:20:04.000",
    "date_modified": "2025-04-28T16:20:06.000",
    "request_status": "Pending",
    "responsible_agency": "Department of Sanitation",
    "final_address": "4801 Savoie Ct",
    "address_councildis": "E",
    "status": "Assigned to Contractor",
    "contractor": "Waste Pro",
    "rowid": "1187672",
    "final_x": "3725478.71225",
    "final_y": "560831.549406",
    "longitude": "-89.9280683261349",
    "latitude": "30.0346823308011",
    "geocoded_column": {
      "latitude": "30.0346823308011",
      "longitude": "-89.9280683261349"
    }
  },
  {
    "service_request": "2025-1187671",
    "request_type": "Trash/Recycling",
    "request_reason": "Order Second Trash Cart",
    "date_created": "2025-04-28T16:18:22.000",
    "date_modified": "2025-04-28T16:18:24.000",
    "request_status": "Pending",
    "responsible_agency": "Department of Sanitation",
    "final_address": "4801 Savoie Ct",
    "address_councildis": "E",
    "status": "Assigned to Contractor",
    "contractor": "Waste Pro",
    "rowid": "1187671",
    "final_x": "3725478.71225",
    "final_y": "560831.549406",
    "longitude": "-89.9280683261349",
    "latitude": "30.0346823308011",
    "geocoded_column": {
      "latitude": "30.0346823308011",
      "longitude": "-89.9280683261349"
    }
  },
  {
    "service_request": "2025-1187670",
    "request_type": "Road Striping",
    "request_reason": "Lane Striping or other Pavement Markings",
    "date_created": "2025-04-28T16:18:20.000",
    "date_modified": "2025-04-28T16:18:21.000",
    "request_status": "Pending",
    "responsible_agency": "Department of Public Works",
    "final_address": "MAGNOLIA ST & W PONTCHARTRAIN EXPRESSWAY & EARHART BLVD & HOV",
    "address_councildis": "B",
    "status": "Pending",
    "rowid": "1187670",
    "final_x": "3676646.2",
    "final_y": "528849.88",
    "longitude": "-90.08348885168432",
    "latitude": "29.948300224248815",
    "geocoded_column": {
      "latitude": "29.948300224248815",
      "longitude": "-90.08348885168432"
    }
  },
  {
    "service_request": "2025-1187669",
    "request_type": "Trash/Recycling",
    "request_reason": "Request a Large Item Pick Up",
    "date_created": "2025-04-28T16:18:01.000",
    "date_modified": "2025-04-28T16:18:44.000",
    "request_status": "Pending",
    "responsible_agency": "Department of Sanitation",
    "final_address": "7642 Scottwood Dr",
    "address_councildis": "E",
    "status": "Assigned to Contractor",
    "contractor": "Waste Pro",
    "rowid": "1187669",
    "final_x": "3717167.30168",
    "final_y": "570752.440807",
    "longitude": "-89.95395588008977",
    "latitude": "30.062238371575393",
    "geocoded_column": {
      "latitude": "30.062238371575393",
      "longitude": "-89.95395588008977"
    }
  },
  {
    "service_request": "2025-1187668",
    "request_type": "Trash/Recycling",
    "request_reason": "Repair Recycling Cart",
    "date_created": "2025-04-28T16:17:28.000",
    "date_modified": "2025-04-28T16:17:29.000",
    "request_status": "Pending",
    "responsible_agency": "Department of Sanitation",
    "final_address": "4723 Baronne St",
    "address_councildis": "B",
    "status": "Pending",
    "rowid": "1187668",
    "final_x": "3669427.64244",
    "final_y": "521509.350649",
    "longitude": "-90.10652902867307",
    "latitude": "29.92833066571196",
    "geocoded_column": {
      "latitude": "29.92833066571196",
      "longitude": "-90.10652902867307"
    }
  },
  {
    "service_request": "2025-1187667",
    "request_type": "General Services",
    "request_reason": "General Service Request",
    "date_created": "2025-04-28T16:17:20.000",
    "date_modified": "2025-04-28T16:20:05.000",
    "case_close_date": "2025-04-28T11:20:03.000",
    "request_status": "Closed",
    "responsible_agency": "Orleans Parish Communication District",
    "final_address": "4822 Cleveland Ave",
    "address_councildis": "A",
    "status": "Referred to External Agency",
    "rowid": "1187667",
    "final_x": "3668365.69857",
    "final_y": "539808.562826",
    "longitude": "-90.10926425820907",
    "latitude": "29.97867872482772",
    "geocoded_column": {
      "latitude": "29.97867872482772",
      "longitude": "-90.10926425820907"
    }
  },
  {
    "service_request": "2025-1187666",
    "request_type": "Drainage",
    "request_reason": "Street Flooding",
    "date_created": "2025-04-28T16:13:37.000",
    "date_modified": "2025-04-28T16:13:39.000",
    "request_status": "Pending",
    "responsible_agency": "Sewerage & Water Board",
    "final_address": "4819 Cleveland Ave",
    "address_councildis": "A",
    "status": "Pending",
    "rowid": "1187666",
    "final_x": "3668410.81703",
    "final_y": "539917.978186",
    "longitude": "-90.10911806467556",
    "latitude": "29.978978254764844",
    "geocoded_column": {
      "latitude": "29.978978254764844",
      "longitude": "-90.10911806467556"
    }
  },
  {
    "service_request": "2025-1187665",
    "request_type": "Trash/Recycling",
    "request_reason": "Request a Large Item Pick Up",
    "date_created": "2025-04-28T16:12:30.000",
    "date_modified": "2025-04-28T16:12:32.000",
    "request_status": "Pending",
    "responsible_agency": "Department of Sanitation",
    "final_address": "4619 Nighthart St",
    "address_councildis": "E",
    "status": "Assigned to Contractor",
    "contractor": "Waste Pro",
    "rowid": "1187665",
    "final_x": "3716212.95199",
    "final_y": "556548.008986",
    "longitude": "-89.95751168689435",
    "latitude": "30.023213507496834",
    "geocoded_column": {
      "latitude": "30.023213507496834",
      "longitude": "-89.95751168689435"
    }
  },
  {
    "service_request": "2025-1187664",
    "request_type": "Trash/Recycling",
    "request_reason": "MIssed Recycling Pick-Up",
    "date_created": "2025-04-28T16:11:47.000",
    "date_modified": "2025-04-28T16:11:48.000",
    "request_status": "Pending",
    "responsible_agency": "Department of Sanitation",
    "final_address": "5710 Canal Blvd",
    "address_councildis": "A",
    "status": "Assigned to Contractor",
    "contractor": "IV Waste",
    "rowid": "1187664",
    "final_x": "3668162.87828",
    "final_y": "545592.702288",
    "longitude": "-90.10970975641882",
    "latitude": "29.994589095173907",
    "geocoded_column": {
      "latitude": "29.994589095173907",
      "longitude": "-90.10970975641882"
    }
  },
  {
    "service_request": "2025-1187663",
    "request_type": "Trash/Recycling",
    "request_reason": "Request a Large Item Pick Up",
    "date_created": "2025-04-28T16:10:56.000",
    "date_modified": "2025-04-28T16:10:57.000",
    "request_status": "Pending",
    "responsible_agency": "Department of Sanitation",
    "final_address": "7558 Lafourche St",
    "address_councildis": "E",
    "status": "Assigned to Contractor",
    "contractor": "Waste Pro",
    "rowid": "1187663",
    "final_x": "3710383.48549",
    "final_y": "565170.788514",
    "longitude": "-89.9756085180776",
    "latitude": "30.047113895845946",
    "geocoded_column": {
      "latitude": "30.047113895845946",
      "longitude": "-89.9756085180776"
    }
  },
  {
    "service_request": "2025-1187662",
    "request_type": "Trash/Recycling",
    "request_reason": "Repair Trash Cart",
    "date_created": "2025-04-28T16:10:14.000",
    "date_modified": "2025-04-28T16:10:29.000",
    "request_status": "Pending",
    "responsible_agency": "Department of Sanitation",
    "final_address": "2508 Acacia St",
    "address_councildis": "D",
    "status": "Assigned to Contractor",
    "contractor": "IV Waste",
    "rowid": "1187662",
    "final_x": "3686498.04956",
    "final_y": "546254.396432",
    "longitude": "-90.05176794793155",
    "latitude": "29.995857398778096",
    "geocoded_column": {
      "latitude": "29.995857398778096",
      "longitude": "-90.05176794793155"
    }
  },
  {
    "service_request": "2025-1187661",
    "request_type": "Trash/Recycling",
    "request_reason": "Request a Large Item Pick Up",
    "date_created": "2025-04-28T16:09:12.000",
    "date_modified": "2025-04-28T16:09:14.000",
    "request_status": "Pending",
    "responsible_agency": "Department of Sanitation",
    "final_address": "9405 Dinkins St",
    "address_councildis": "E",
    "status": "Assigned to Contractor",
    "contractor": "Waste Pro",
    "rowid": "1187661",
    "final_x": "3706003.40503",
    "final_y": "564225.868321",
    "longitude": "-89.98948685315621",
    "latitude": "30.044657720061736",
    "geocoded_column": {
      "latitude": "30.044657720061736",
      "longitude": "-89.98948685315621"
    }
  },
  {
    "service_request": "2025-1187660",
    "request_type": "Trash/Recycling",
    "request_reason": "Order Recycling Cart",
    "date_created": "2025-04-28T16:09:09.000",
    "date_modified": "2025-04-28T16:09:12.000",
    "request_status": "Pending",
    "responsible_agency": "Department of Sanitation",
    "final_address": "2508 Acacia St",
    "address_councildis": "D",
    "status": "Pending",
    "rowid": "1187660",
    "final_x": "3686498.04956",
    "final_y": "546254.396432",
    "longitude": "-90.05176794793155",
    "latitude": "29.995857398778096",
    "geocoded_column": {
      "latitude": "29.995857398778096",
      "longitude": "-90.05176794793155"
    }
  },
  {
    "service_request": "2025-1187659",
    "request_type": "Trash/Recycling",
    "request_reason": "Request a Large Item Pick Up",
    "date_created": "2025-04-28T16:08:29.000",
    "date_modified": "2025-04-28T16:08:31.000",
    "request_status": "Pending",
    "responsible_agency": "Department of Sanitation",
    "final_address": "141 Mary Jane Ln",
    "address_councildis": "E",
    "status": "Assigned to Contractor",
    "contractor": "Waste Pro",
    "rowid": "1187659",
    "final_x": "3718300.65285",
    "final_y": "571491.16676",
    "longitude": "-89.95034519376082",
    "latitude": "30.064231996743267",
    "geocoded_column": {
      "latitude": "30.064231996743267",
      "longitude": "-89.95034519376082"
    }
  },
  {
    "service_request": "2025-1187658",
    "request_type": "Streetlights",
    "request_reason": "Streetlight Knocked Down/Leaning",
    "date_created": "2025-04-28T16:00:50.000",
    "date_modified": "2025-04-28T16:00:55.000",
    "request_status": "Pending",
    "responsible_agency": "Department of Public Works",
    "final_address": "DUMAINE ST & WILSON DR",
    "address_councildis": "A",
    "status": "Pending",
    "contractor": "Legacy Professional Services",
    "rowid": "1187658",
    "final_x": "3674091.0",
    "final_y": "539858.58",
    "longitude": "-90.09117987685747",
    "latitude": "29.978646838909015",
    "geocoded_column": {
      "latitude": "29.978646838909015",
      "longitude": "-90.09117987685747"
    }
  },
  {
    "service_request": "2025-1187657",
    "request_type": "Trash/Recycling",
    "request_reason": "Request a Large Item Pick Up",
    "date_created": "2025-04-28T16:00:49.000",
    "date_modified": "2025-04-28T16:00:52.000",
    "request_status": "Pending",
    "responsible_agency": "Department of Sanitation",
    "final_address": "4309 Prytania St",
    "address_councildis": "B",
    "status": "Assigned to Contractor",
    "contractor": "IV Waste",
    "rowid": "1187657",
    "final_x": "3671202.24519",
    "final_y": "520396.55596",
    "longitude": "-90.10096476492816",
    "latitude": "29.925218473357685",
    "geocoded_column": {
      "latitude": "29.925218473357685",
      "longitude": "-90.10096476492816"
    }
  },
  {
    "service_request": "2025-1187656",
    "request_type": "Abandoned Vehicles",
    "request_reason": "Abandoned/Junk Vehicles",
    "date_created": "2025-04-28T15:59:41.000",
    "date_modified": "2025-04-28T15:59:43.000",
    "request_status": "Pending",
    "responsible_agency": "Department of Public Works",
    "final_address": "1825 Bartholomew St",
    "address_councildis": "D",
    "status": "Pending",
    "rowid": "1187656",
    "final_x": "3692555.53827",
    "final_y": "538136.778889",
    "longitude": "-90.03292393838173",
    "latitude": "29.973349193445845",
    "geocoded_column": {
      "latitude": "29.973349193445845",
      "longitude": "-90.03292393838173"
    }
  },
  {
    "service_request": "2025-1187655",
    "request_type": "Trash/Recycling",
    "request_reason": "Request a Large Item Pick Up",
    "date_created": "2025-04-28T15:56:23.000",
    "date_modified": "2025-04-28T15:56:26.000",
    "request_status": "Pending",
    "responsible_agency": "Department of Sanitation",
    "final_address": "1204 S Genois St",
    "address_councildis": "B",
    "status": "Assigned to Contractor",
    "contractor": "IV Waste",
    "rowid": "1187655",
    "final_x": "3669465.74305",
    "final_y": "532737.648388",
    "longitude": "-90.10602910009108",
    "latitude": "29.95920371625599",
    "geocoded_column": {
      "latitude": "29.95920371625599",
      "longitude": "-90.10602910009108"
    }
  },
  {
    "service_request": "2025-1187654",
    "request_type": "Trash/Recycling",
    "request_reason": "Request a Large Item Pick Up",
    "date_created": "2025-04-28T15:55:02.000",
    "date_modified": "2025-04-28T15:55:05.000",
    "request_status": "Pending",
    "responsible_agency": "Department of Sanitation",
    "final_address": "6417 Praro St, New Orleans, Louisiana, 70117",
    "address_councildis": "E",
    "status": "Assigned to Contractor",
    "contractor": "Waste Pro",
    "rowid": "1187654",
    "final_x": "3701699.26909",
    "final_y": "535646.98439",
    "longitude": "-90.00413757969494",
    "latitude": "29.966214655279323",
    "geocoded_column": {
      "latitude": "29.966214655279323",
      "longitude": "-90.00413757969494"
    }
  },
  {
    "service_request": "2025-1187653",
    "request_type": "Trash/Recycling",
    "request_reason": "Illegal Dumping",
    "date_created": "2025-04-28T15:48:36.000",
    "date_modified": "2025-04-28T15:48:39.000",
    "request_status": "Pending",
    "responsible_agency": "Department of Sanitation",
    "final_address": "13221 Curran Rd",
    "address_councildis": "E",
    "status": "Pending",
    "rowid": "1187653",
    "final_x": "3715824.27698",
    "final_y": "570042.661223",
    "longitude": "-89.95822808540883",
    "latitude": "30.060331157689074",
    "geocoded_column": {
      "latitude": "30.060331157689074",
      "longitude": "-89.95822808540883"
    }
  },
  {
    "service_request": "2025-1187652",
    "request_type": "Abandoned Vehicles",
    "request_reason": "Abandoned/Junk Vehicles",
    "date_created": "2025-04-28T15:46:32.000",
    "date_modified": "2025-04-28T15:46:34.000",
    "request_status": "Pending",
    "responsible_agency": "Department of Public Works",
    "final_address": "4019 Vincennes Pl",
    "address_councildis": "B",
    "status": "Pending",
    "rowid": "1187652",
    "final_x": "3668472.69114",
    "final_y": "530083.565953",
    "longitude": "-90.10925445913287",
    "latitude": "29.951935070668643",
    "geocoded_column": {
      "latitude": "29.951935070668643",
      "longitude": "-90.10925445913287"
    }
  },
  {
    "service_request": "2025-1187651",
    "request_type": "Trash/Recycling",
    "request_reason": "Repair Trash Cart",
    "date_created": "2025-04-28T15:45:36.000",
    "date_modified": "2025-04-28T15:45:38.000",
    "request_status": "Pending",
    "responsible_agency": "Department of Sanitation",
    "final_address": "5711 Durbridge Dr",
    "address_councildis": "C",
    "status": "Assigned to Contractor",
    "contractor": "Richards Disposal",
    "rowid": "1187651",
    "final_x": "3704801.47831",
    "final_y": "521611.103737",
    "longitude": "-89.99485871189064",
    "latitude": "29.92752166473359",
    "geocoded_column": {
      "latitude": "29.92752166473359",
      "longitude": "-89.99485871189064"
    }
  },
  {
    "service_request": "2025-1187650",
    "request_type": "Trash/Recycling",
    "request_reason": "Repair Trash Cart",
    "date_created": "2025-04-28T15:44:21.000",
    "date_modified": "2025-04-28T15:44:23.000",
    "request_status": "Pending",
    "responsible_agency": "Department of Sanitation",
    "final_address": "3541 Robert St",
    "address_councildis": "B",
    "status": "Assigned to Contractor",
    "contractor": "IV Waste",
    "rowid": "1187650",
    "final_x": "3668978.86298",
    "final_y": "527926.946943",
    "longitude": "-90.10772903903445",
    "latitude": "29.94599019398048",
    "geocoded_column": {
      "latitude": "29.94599019398048",
      "longitude": "-90.10772903903445"
    }
  },
  {
    "service_request": "2025-1187649",
    "request_type": "Trash/Recycling",
    "request_reason": "Request a Large Item Pick Up",
    "date_created": "2025-04-28T15:41:49.000",
    "date_modified": "2025-04-28T15:41:51.000",
    "request_status": "Pending",
    "responsible_agency": "Department of Sanitation",
    "final_address": "2450 Copernicus St",
    "address_councildis": "C",
    "status": "Assigned to Contractor",
    "contractor": "Richards Disposal",
    "rowid": "1187649",
    "final_x": "3692440.13865",
    "final_y": "523875.3911",
    "longitude": "-90.0337992092161",
    "latitude": "29.934138936972488",
    "geocoded_column": {
      "latitude": "29.934138936972488",
      "longitude": "-90.0337992092161"
    }
  },
  {
    "service_request": "2025-1187648",
    "request_type": "Trash/Recycling",
    "request_reason": "Request a Large Item Pick Up",
    "date_created": "2025-04-28T15:40:26.000",
    "date_modified": "2025-04-28T17:26:04.000",
    "case_close_date": "2025-04-28T12:26:03.000",
    "request_status": "Closed",
    "responsible_agency": "Department of Sanitation",
    "final_address": "11207 Morrison Rd",
    "address_councildis": "E",
    "status": "Invalid Request",
    "contractor": "Waste Pro",
    "contractor_action": "Invalid",
    "rowid": "1187648",
    "final_x": "3711707.08958",
    "final_y": "565478.338658",
    "longitude": "-89.97141370211273",
    "latitude": "30.047916344143477",
    "geocoded_column": {
      "latitude": "30.047916344143477",
      "longitude": "-89.97141370211273"
    }
  },
  {
    "service_request": "2025-1187647",
    "request_type": "Mosquito, Termite & Rodent Control",
    "request_reason": "Rodent Complaint (Rats)",
    "date_created": "2025-04-28T15:39:41.000",
    "date_modified": "2025-04-28T15:39:43.000",
    "request_status": "Pending",
    "responsible_agency": "Mosquito, Termite & Rodent Control Board",
    "final_address": "1315 Sixth St",
    "address_councildis": "B",
    "status": "Pending",
    "rowid": "1187647",
    "final_x": "3676168.18382",
    "final_y": "521292.457273",
    "longitude": "-90.08525805650818",
    "latitude": "29.927534119268348",
    "geocoded_column": {
      "latitude": "29.927534119268348",
      "longitude": "-90.08525805650818"
    }
  },
  {
    "service_request": "2025-1187646",
    "request_type": "Trash/Recycling",
    "request_reason": "Replace Trash Cart",
    "date_created": "2025-04-28T15:38:49.000",
    "date_modified": "2025-04-28T15:38:52.000",
    "request_status": "Pending",
    "responsible_agency": "Department of Sanitation",
    "final_address": "4631 Clara St",
    "address_councildis": "B",
    "status": "Assigned to Contractor",
    "contractor": "IV Waste",
    "rowid": "1187646",
    "final_x": "3669481.11054",
    "final_y": "525029.117693",
    "longitude": "-90.10624125077786",
    "latitude": "29.93800732162591",
    "geocoded_column": {
      "latitude": "29.93800732162591",
      "longitude": "-90.10624125077786"
    }
  },
  {
    "service_request": "2025-1187645",
    "request_type": "Trash/Recycling",
    "request_reason": "Request a Large Item Pick Up",
    "date_created": "2025-04-28T15:38:49.000",
    "date_modified": "2025-04-28T15:38:53.000",
    "request_status": "Pending",
    "responsible_agency": "Department of Sanitation",
    "final_address": "7569 Avalon Way",
    "address_councildis": "E",
    "status": "Assigned to Contractor",
    "contractor": "Waste Pro",
    "rowid": "1187645",
    "final_x": "3709173.9155",
    "final_y": "564402.016289",
    "longitude": "-89.97946008676786",
    "latitude": "30.04503943378443",
    "geocoded_column": {
      "latitude": "30.04503943378443",
      "longitude": "-89.97946008676786"
    }
  },
  {
    "service_request": "2025-1187644",
    "request_type": "Property Maintenance",
    "request_reason": "Property Maintenance",
    "date_created": "2025-04-28T15:37:20.000",
    "date_modified": "2025-04-28T15:52:53.000",
    "case_close_date": "2025-04-28T10:52:52.000",
    "request_status": "Closed",
    "responsible_agency": "Department of Code Enforcement",
    "final_address": "5514 Wickfield Dr",
    "address_councildis": "D",
    "status": "Referred to Code Enforcement",
    "rowid": "1187644",
    "final_x": "3681070.70907",
    "final_y": "553203.945047",
    "longitude": "-90.06867016319713",
    "latitude": "30.015131955496525",
    "geocoded_column": {
      "latitude": "30.015131955496525",
      "longitude": "-90.06867016319713"
    }
  },
  {
    "service_request": "2025-1187643",
    "request_type": "Trash/Recycling",
    "request_reason": "Order Recycling Cart",
    "date_created": "2025-04-28T15:36:48.000",
    "date_modified": "2025-04-28T15:36:50.000",
    "request_status": "Pending",
    "responsible_agency": "Department of Sanitation",
    "final_address": "2530 Annette St",
    "address_councildis": "D",
    "status": "Pending",
    "rowid": "1187643",
    "final_x": "3682676.17154",
    "final_y": "541569.814476",
    "longitude": "-90.06400486296",
    "latitude": "29.983093437053196",
    "geocoded_column": {
      "latitude": "29.983093437053196",
      "longitude": "-90.06400486296"
    }
  },
  {
    "service_request": "2025-1187642",
    "request_type": "Trash/Recycling",
    "request_reason": "Order Trash Cart",
    "date_created": "2025-04-28T15:35:42.000",
    "date_modified": "2025-04-28T15:35:44.000",
    "request_status": "Pending",
    "responsible_agency": "Department of Sanitation",
    "final_address": "2530 Annette St",
    "address_councildis": "D",
    "status": "Assigned to Contractor",
    "contractor": "IV Waste",
    "rowid": "1187642",
    "final_x": "3682676.17154",
    "final_y": "541569.814476",
    "longitude": "-90.06400486296",
    "latitude": "29.983093437053196",
    "geocoded_column": {
      "latitude": "29.983093437053196",
      "longitude": "-90.06400486296"
    }
  },
  {
    "service_request": "2025-1187641",
    "request_type": "Trash/Recycling",
    "request_reason": "Request a Large Item Pick Up",
    "date_created": "2025-04-28T15:34:07.000",
    "date_modified": "2025-04-28T15:34:09.000",
    "request_status": "Pending",
    "responsible_agency": "Department of Sanitation",
    "final_address": "7501 Jahncke Rd",
    "address_councildis": "E",
    "status": "Assigned to Contractor",
    "contractor": "Waste Pro",
    "rowid": "1187641",
    "final_x": "3714614.70757",
    "final_y": "567756.029028",
    "longitude": "-89.96213793832732",
    "latitude": "30.054083717152526",
    "geocoded_column": {
      "latitude": "30.054083717152526",
      "longitude": "-89.96213793832732"
    }
  },
  {
    "service_request": "2025-1187640",
    "request_type": "Trash/Recycling",
    "request_reason": "Request a Large Item Pick Up",
    "date_created": "2025-04-28T15:30:03.000",
    "date_modified": "2025-04-28T15:30:05.000",
    "request_status": "Pending",
    "responsible_agency": "Department of Sanitation",
    "final_address": "10940 Roger Dr Apt A",
    "address_councildis": "E",
    "status": "Assigned to Contractor",
    "contractor": "Waste Pro",
    "rowid": "1187640",
    "final_x": "3712159.25131",
    "final_y": "563359.17232",
    "longitude": "-89.9700643162829",
    "latitude": "30.04207470667911",
    "geocoded_column": {
      "latitude": "30.04207470667911",
      "longitude": "-89.9700643162829"
    }
  },
  {
    "service_request": "2025-1187639",
    "request_type": "Trash/Recycling",
    "request_reason": "Order Trash Cart",
    "date_created": "2025-04-28T15:29:36.000",
    "date_modified": "2025-04-28T15:29:38.000",
    "request_status": "Pending",
    "responsible_agency": "Department of Sanitation",
    "final_address": "3709 Loyola Ave",
    "address_councildis": "B",
    "status": "Assigned to Contractor",
    "contractor": "IV Waste",
    "rowid": "1187639",
    "final_x": "3672518.17185",
    "final_y": "523268.955515",
    "longitude": "-90.09671293821114",
    "latitude": "29.93307766595156",
    "geocoded_column": {
      "latitude": "29.93307766595156",
      "longitude": "-90.09671293821114"
    }
  },
  {
    "service_request": "2025-1187638",
    "request_type": "Trash/Recycling",
    "request_reason": "Request a Large Item Pick Up",
    "date_created": "2025-04-28T15:28:21.000",
    "date_modified": "2025-04-28T15:28:22.000",
    "request_status": "Pending",
    "responsible_agency": "Department of Sanitation",
    "final_address": "10951 Roger Dr Apt A",
    "address_councildis": "E",
    "status": "Assigned to Contractor",
    "contractor": "Waste Pro",
    "rowid": "1187638",
    "final_x": "3712062.19614",
    "final_y": "563445.031136",
    "longitude": "-89.97036781686094",
    "latitude": "30.042313958578443",
    "geocoded_column": {
      "latitude": "30.042313958578443",
      "longitude": "-89.97036781686094"
    }
  },
  {
    "service_request": "2025-1187637",
    "request_type": "Trash/Recycling",
    "request_reason": "Request a Large Item Pick Up",
    "date_created": "2025-04-28T15:27:14.000",
    "date_modified": "2025-04-28T15:27:18.000",
    "request_status": "Pending",
    "responsible_agency": "Department of Sanitation",
    "final_address": "7615 Forum Blvd",
    "address_councildis": "E",
    "status": "Assigned to Contractor",
    "contractor": "Waste Pro",
    "rowid": "1187637",
    "final_x": "3720285.94988",
    "final_y": "573151.349225",
    "longitude": "-89.94400595364228",
    "latitude": "30.068730764755852",
    "geocoded_column": {
      "latitude": "30.068730764755852",
      "longitude": "-89.94400595364228"
    }
  },
  {
    "service_request": "2025-1187636",
    "request_type": "Trash/Recycling",
    "request_reason": "Order Second Trash Cart",
    "date_created": "2025-04-28T15:25:54.000",
    "date_modified": "2025-04-28T15:25:55.000",
    "request_status": "Pending",
    "responsible_agency": "Department of Sanitation",
    "final_address": "7615 Forum Blvd",
    "address_councildis": "E",
    "status": "Assigned to Contractor",
    "contractor": "Waste Pro",
    "rowid": "1187636",
    "final_x": "3720285.94988",
    "final_y": "573151.349225",
    "longitude": "-89.94400595364228",
    "latitude": "30.068730764755852",
    "geocoded_column": {
      "latitude": "30.068730764755852",
      "longitude": "-89.94400595364228"
    }
  },
  {
    "service_request": "2025-1187635",
    "request_type": "Trash/Recycling",
    "request_reason": "Request a Large Item Pick Up",
    "date_created": "2025-04-28T15:25:44.000",
    "date_modified": "2025-04-28T15:25:46.000",
    "request_status": "Pending",
    "responsible_agency": "Department of Sanitation",
    "final_address": "10931 Roger Dr",
    "address_councildis": "E",
    "status": "Assigned to Contractor",
    "contractor": "Waste Pro",
    "rowid": "1187635",
    "final_x": "3711983.80453",
    "final_y": "563371.03248",
    "longitude": "-89.97061834358104",
    "latitude": "30.042113055697705",
    "geocoded_column": {
      "latitude": "30.042113055697705",
      "longitude": "-89.97061834358104"
    }
  },
  {
    "service_request": "2025-1187634",
    "request_type": "Roads and Streets",
    "request_reason": "Debris in Driving Lanes",
    "date_created": "2025-04-28T15:23:31.000",
    "date_modified": "2025-04-28T15:32:08.000",
    "request_status": "Pending",
    "responsible_agency": "Department of Public Works",
    "final_address": "2100 BLK Earhart Blvd",
    "address_councildis": "B",
    "status": "Pending",
    "rowid": "1187634",
    "final_x": "3677705.84042",
    "final_y": "527892.968608",
    "longitude": "-90.08017617190013",
    "latitude": "29.945637212526872",
    "geocoded_column": {
      "latitude": "29.945637212526872",
      "longitude": "-90.08017617190013"
    }
  },
  {
    "service_request": "2025-1187633",
    "request_type": "Trash/Recycling",
    "request_reason": "Request a Large Item Pick Up",
    "date_created": "2025-04-28T15:22:32.000",
    "date_modified": "2025-04-28T15:22:34.000",
    "request_status": "Pending",
    "responsible_agency": "Department of Sanitation",
    "final_address": "2145 Mirabeau Ave",
    "address_councildis": "D",
    "status": "Assigned to Contractor",
    "contractor": "IV Waste",
    "rowid": "1187633",
    "final_x": "3683562.67196",
    "final_y": "550805.397333",
    "longitude": "-90.0608809035863",
    "latitude": "30.008460960832664",
    "geocoded_column": {
      "latitude": "30.008460960832664",
      "longitude": "-90.0608809035863"
    }
  },
  {
    "service_request": "2025-1187632",
    "request_type": "Trash/Recycling",
    "request_reason": "Request a Large Item Pick Up",
    "date_created": "2025-04-28T15:21:17.000",
    "date_modified": "2025-04-28T15:21:19.000",
    "request_status": "Pending",
    "responsible_agency": "Department of Sanitation",
    "final_address": "13450 Dwyer Blvd",
    "address_councildis": "E",
    "status": "Assigned to Contractor",
    "contractor": "Waste Pro",
    "rowid": "1187632",
    "final_x": "3725793.79609",
    "final_y": "561816.455967",
    "longitude": "-89.92703443047101",
    "latitude": "30.037379789364266",
    "geocoded_column": {
      "latitude": "30.037379789364266",
      "longitude": "-89.92703443047101"
    }
  },
  {
    "service_request": "2025-1187631",
    "request_type": "Trash/Recycling",
    "request_reason": "Return Trash Cart",
    "date_created": "2025-04-28T15:21:03.000",
    "date_modified": "2025-04-28T15:21:10.000",
    "request_status": "Pending",
    "responsible_agency": "Department of Sanitation",
    "final_address": "819 Verret St",
    "address_councildis": "C",
    "status": "Assigned to Contractor",
    "contractor": "Richards Disposal",
    "rowid": "1187631",
    "final_x": "3687077.07644",
    "final_y": "528546.7776",
    "longitude": "-90.05056506721004",
    "latitude": "29.947149826750845",
    "geocoded_column": {
      "latitude": "29.947149826750845",
      "longitude": "-90.05056506721004"
    }
  },
  {
    "service_request": "2025-1187630",
    "request_type": "Streetlights",
    "request_reason": "Streetlight Outage/Malfunction",
    "date_created": "2025-04-28T15:19:24.000",
    "date_modified": "2025-04-28T15:19:26.000",
    "request_status": "Pending",
    "responsible_agency": "Department of Public Works",
    "final_address": "1100 BLK Fats Domino Ave",
    "address_councildis": "E",
    "status": "Pending",
    "contractor": "Legacy Professional Services",
    "rowid": "1187630",
    "final_x": "3698063.4083",
    "final_y": "533969.494513",
    "longitude": "-90.01568040301758",
    "latitude": "29.96171762643082",
    "geocoded_column": {
      "latitude": "29.96171762643082",
      "longitude": "-90.01568040301758"
    }
  },
  {
    "service_request": "2025-1187629",
    "request_type": "Trash/Recycling",
    "request_reason": "Order Recycling Cart",
    "date_created": "2025-04-28T15:17:52.000",
    "date_modified": "2025-04-28T15:17:54.000",
    "request_status": "Pending",
    "responsible_agency": "Department of Sanitation",
    "final_address": "1862 Rosiere St",
    "address_councildis": "D",
    "status": "Pending",
    "rowid": "1187629",
    "final_x": "3679224.58229",
    "final_y": "542657.401613",
    "longitude": "-90.0748690256811",
    "latitude": "29.986188605750872",
    "geocoded_column": {
      "latitude": "29.986188605750872",
      "longitude": "-90.0748690256811"
    }
  },
  {
    "service_request": "2025-1187628",
    "request_type": "Trash/Recycling",
    "request_reason": "Request a Large Item Pick Up",
    "date_created": "2025-04-28T15:17:43.000",
    "date_modified": "2025-04-28T15:17:46.000",
    "request_status": "Pending",
    "responsible_agency": "Department of Sanitation",
    "final_address": "7041 Beauvoir Ct",
    "address_councildis": "E",
    "status": "Assigned to Contractor",
    "contractor": "Waste Pro",
    "rowid": "1187628",
    "final_x": "3716616.974",
    "final_y": "567262.755364",
    "longitude": "-89.95582806827882",
    "latitude": "30.052661383220023",
    "geocoded_column": {
      "latitude": "30.052661383220023",
      "longitude": "-89.95582806827882"
    }
  },
  {
    "service_request": "2025-1187627",
    "request_type": "Drainage",
    "request_reason": "Street Flooding",
    "date_created": "2025-04-28T15:16:23.000",
    "date_modified": "2025-04-28T15:16:24.000",
    "request_status": "Pending",
    "responsible_agency": "Sewerage & Water Board",
    "final_address": "4123 Dreux Ave",
    "address_councildis": "D",
    "status": "Pending",
    "rowid": "1187627",
    "final_x": "3689210.17219",
    "final_y": "552735.276182",
    "longitude": "-90.04297005563537",
    "latitude": "30.013593763665096",
    "geocoded_column": {
      "latitude": "30.013593763665096",
      "longitude": "-90.04297005563537"
    }
  },
  {
    "service_request": "2025-1187626",
    "request_type": "Trash/Recycling",
    "request_reason": "Order Trash Cart",
    "date_created": "2025-04-28T15:15:44.000",
    "date_modified": "2025-04-28T15:15:47.000",
    "request_status": "Pending",
    "responsible_agency": "Department of Sanitation",
    "final_address": "1862 Rosiere St",
    "address_councildis": "D",
    "status": "Assigned to Contractor",
    "contractor": "IV Waste",
    "rowid": "1187626",
    "final_x": "3679224.58229",
    "final_y": "542657.401613",
    "longitude": "-90.0748690256811",
    "latitude": "29.986188605750872",
    "geocoded_column": {
      "latitude": "29.986188605750872",
      "longitude": "-90.0748690256811"
    }
  },
  {
    "service_request": "2025-1187625",
    "request_type": "Trash/Recycling",
    "request_reason": "Request a Large Item Pick Up",
    "date_created": "2025-04-28T15:15:20.000",
    "date_modified": "2025-04-28T15:15:21.000",
    "request_status": "Pending",
    "responsible_agency": "Department of Sanitation",
    "final_address": "707 Henry Clay Ave",
    "address_councildis": "A",
    "status": "Assigned to Contractor",
    "contractor": "IV Waste",
    "rowid": "1187625",
    "final_x": "3663748.44986",
    "final_y": "519301.562871",
    "longitude": "-90.12453060079712",
    "latitude": "29.922425913135918",
    "geocoded_column": {
      "latitude": "29.922425913135918",
      "longitude": "-90.12453060079712"
    }
  },
  {
    "service_request": "2025-1187624",
    "request_type": "Property Maintenance",
    "request_reason": "Property Maintenance",
    "date_created": "2025-04-28T15:14:27.000",
    "date_modified": "2025-04-28T15:54:02.000",
    "case_close_date": "2025-04-28T10:54:01.000",
    "request_status": "Closed",
    "responsible_agency": "Department of Code Enforcement",
    "final_address": "7910 Mullet St",
    "address_councildis": "E",
    "status": "Referred to Code Enforcement",
    "rowid": "1187624",
    "final_x": "3698755.35402",
    "final_y": "560918.975774",
    "longitude": "-90.01251438894509",
    "latitude": "30.035796793763303",
    "geocoded_column": {
      "latitude": "30.035796793763303",
      "longitude": "-90.01251438894509"
    }
  },
  {
    "service_request": "2025-1187623",
    "request_type": "Trash/Recycling",
    "request_reason": "Request a Large Item Pick Up",
    "date_created": "2025-04-28T15:14:21.000",
    "date_modified": "2025-04-28T15:14:24.000",
    "request_status": "Pending",
    "responsible_agency": "Department of Sanitation",
    "final_address": "14 Avoyelles Pl",
    "address_councildis": "E",
    "status": "Assigned to Contractor",
    "contractor": "Waste Pro",
    "rowid": "1187623",
    "final_x": "3725637.06419",
    "final_y": "564566.797153",
    "longitude": "-89.92742308826784",
    "latitude": "30.04494737705904",
    "geocoded_column": {
      "latitude": "30.04494737705904",
      "longitude": "-89.92742308826784"
    }
  },
  {
    "service_request": "2025-1187622",
    "request_type": "Trash/Recycling",
    "request_reason": "Request a Large Item Pick Up",
    "date_created": "2025-04-28T15:13:31.000",
    "date_modified": "2025-04-28T15:13:33.000",
    "request_status": "Pending",
    "responsible_agency": "Department of Sanitation",
    "final_address": "7555 Berg Rd",
    "address_councildis": "E",
    "status": "Assigned to Contractor",
    "contractor": "Waste Pro",
    "rowid": "1187622",
    "final_x": "3712270.40299",
    "final_y": "566322.394851",
    "longitude": "-89.96960158126966",
    "latitude": "30.05021873464588",
    "geocoded_column": {
      "latitude": "30.05021873464588",
      "longitude": "-89.96960158126966"
    }
  },
  {
    "service_request": "2025-1187621",
    "request_type": "Trash/Recycling",
    "request_reason": "Repair Trash Cart",
    "date_created": "2025-04-28T15:12:58.000",
    "date_modified": "2025-04-28T15:13:00.000",
    "request_status": "Pending",
    "responsible_agency": "Department of Sanitation",
    "final_address": "2854 Hyman Pl",
    "address_councildis": "C",
    "status": "Assigned to Contractor",
    "contractor": "Richards Disposal",
    "rowid": "1187621",
    "final_x": "3701076.20157",
    "final_y": "520478.98572",
    "longitude": "-90.00665979629251",
    "latitude": "29.92452785833219",
    "geocoded_column": {
      "latitude": "29.92452785833219",
      "longitude": "-90.00665979629251"
    }
  },
  {
    "service_request": "2025-1187620",
    "request_type": "Trash/Recycling",
    "request_reason": "Repair Recycling Cart",
    "date_created": "2025-04-28T15:11:43.000",
    "date_modified": "2025-04-28T15:11:44.000",
    "request_status": "Pending",
    "responsible_agency": "Department of Sanitation",
    "final_address": "7614 Sycamore St",
    "address_councildis": "A",
    "status": "Pending",
    "rowid": "1187620",
    "final_x": "3665509.76884",
    "final_y": "529784.886145",
    "longitude": "-90.11862000290458",
    "latitude": "29.951200498867312",
    "geocoded_column": {
      "latitude": "29.951200498867312",
      "longitude": "-90.11862000290458"
    }
  },
  {
    "service_request": "2025-1187619",
    "request_type": "Trash/Recycling",
    "request_reason": "Request a Large Item Pick Up",
    "date_created": "2025-04-28T15:11:40.000",
    "date_modified": "2025-04-28T15:11:43.000",
    "request_status": "Pending",
    "responsible_agency": "Department of Sanitation",
    "final_address": "2854 Hyman Pl",
    "address_councildis": "C",
    "status": "Assigned to Contractor",
    "contractor": "Richards Disposal",
    "rowid": "1187619",
    "final_x": "3701076.20157",
    "final_y": "520478.98572",
    "longitude": "-90.00665979629251",
    "latitude": "29.92452785833219",
    "geocoded_column": {
      "latitude": "29.92452785833219",
      "longitude": "-90.00665979629251"
    }
  },
  {
    "service_request": "2025-1187618",
    "request_type": "Streetlights",
    "request_reason": "Streetlight Outage/Malfunction",
    "date_created": "2025-04-28T15:09:33.000",
    "date_modified": "2025-04-28T15:09:36.000",
    "request_status": "Pending",
    "responsible_agency": "Department of Public Works",
    "final_address": "WALES ST & MULLET ST",
    "address_councildis": "E",
    "status": "Pending",
    "contractor": "Legacy Professional Services",
    "rowid": "1187618",
    "final_x": "3698867.4",
    "final_y": "560827.68",
    "longitude": "-90.01216363189904",
    "latitude": "30.035542213964153",
    "geocoded_column": {
      "latitude": "30.035542213964153",
      "longitude": "-90.01216363189904"
    }
  },
  {
    "service_request": "2025-1187617",
    "request_type": "General Services",
    "request_reason": "General Service Request",
    "date_created": "2025-04-28T15:08:23.000",
    "date_modified": "2025-04-28T15:31:33.000",
    "case_close_date": "2025-04-28T10:31:32.000",
    "request_status": "Closed",
    "responsible_agency": "Orleans Parish Communication District",
    "final_address": "224 S Solomon St",
    "address_councildis": "A",
    "status": "Referred to External Agency",
    "rowid": "1187617",
    "final_x": "3670230.47175",
    "final_y": "538187.778249",
    "longitude": "-90.1034295379666",
    "latitude": "29.974167207762566",
    "geocoded_column": {
      "latitude": "29.974167207762566",
      "longitude": "-90.1034295379666"
    }
  },
  {
    "service_request": "2025-1187616",
    "request_type": "Trash/Recycling",
    "request_reason": "Request a Large Item Pick Up",
    "date_created": "2025-04-28T15:05:55.000",
    "date_modified": "2025-04-28T15:05:58.000",
    "request_status": "Pending",
    "responsible_agency": "Department of Sanitation",
    "final_address": "5216 Tchoupitoulas St",
    "address_councildis": "B",
    "status": "Assigned to Contractor",
    "contractor": "IV Waste",
    "rowid": "1187616",
    "final_x": "3667830.80052",
    "final_y": "517150.772725",
    "longitude": "-90.11171661543776",
    "latitude": "29.916392865969858",
    "geocoded_column": {
      "latitude": "29.916392865969858",
      "longitude": "-90.11171661543776"
    }
  },
  {
    "service_request": "2025-1187615",
    "request_type": "Trash/Recycling",
    "request_reason": "Request a Large Item Pick Up",
    "date_created": "2025-04-28T15:05:37.000",
    "date_modified": "2025-04-28T15:05:39.000",
    "request_status": "Pending",
    "responsible_agency": "Department of Sanitation",
    "final_address": "3339 State Street Dr",
    "address_councildis": "A",
    "status": "Assigned to Contractor",
    "contractor": "IV Waste",
    "rowid": "1187615",
    "final_x": "3667779.33799",
    "final_y": "528539.011712",
    "longitude": "-90.11149575246321",
    "latitude": "29.947708397926732",
    "geocoded_column": {
      "latitude": "29.947708397926732",
      "longitude": "-90.11149575246321"
    }
  },
  {
    "service_request": "2025-1187614",
    "request_type": "Trash/Recycling",
    "request_reason": "Replace Trash Cart",
    "date_created": "2025-04-28T15:01:39.000",
    "date_modified": "2025-04-28T15:01:41.000",
    "request_status": "Pending",
    "responsible_agency": "Department of Sanitation",
    "final_address": "320 N Gayoso St",
    "address_councildis": "B",
    "status": "Assigned to Contractor",
    "contractor": "IV Waste",
    "rowid": "1187614",
    "final_x": "3674985.39765",
    "final_y": "536653.196295",
    "longitude": "-90.08846501958125",
    "latitude": "29.969806436439598",
    "geocoded_column": {
      "latitude": "29.969806436439598",
      "longitude": "-90.08846501958125"
    }
  },
  {
    "service_request": "2025-1187613",
    "request_type": "Trash/Recycling",
    "request_reason": "Order Trash Cart",
    "date_created": "2025-04-28T15:01:27.000",
    "date_modified": "2025-04-28T15:01:29.000",
    "request_status": "Pending",
    "responsible_agency": "Department of Sanitation",
    "final_address": "5701 Rhodes Ave",
    "address_councildis": "C",
    "status": "Assigned to Contractor",
    "contractor": "Richards Disposal",
    "rowid": "1187613",
    "final_x": "3704424.90385",
    "final_y": "519718.179768",
    "longitude": "-89.9961171907915",
    "latitude": "29.922328871507645",
    "geocoded_column": {
      "latitude": "29.922328871507645",
      "longitude": "-89.9961171907915"
    }
  },
  {
    "service_request": "2025-1187612",
    "request_type": "Trash/Recycling",
    "request_reason": "Repair Trash Cart",
    "date_created": "2025-04-28T14:58:56.000",
    "date_modified": "2025-04-28T14:58:59.000",
    "request_status": "Pending",
    "responsible_agency": "Department of Sanitation",
    "final_address": "2252 Athis St",
    "address_councildis": "D",
    "status": "Assigned to Contractor",
    "contractor": "IV Waste",
    "rowid": "1187612",
    "final_x": "3684137.52687",
    "final_y": "554191.818584",
    "longitude": "-90.05894576740143",
    "latitude": "30.017754818463043",
    "geocoded_column": {
      "latitude": "30.017754818463043",
      "longitude": "-90.05894576740143"
    }
  },
  {
    "service_request": "2025-1187611",
    "request_type": "Utility Poles",
    "request_reason": "Utility Pole Down",
    "date_created": "2025-04-28T14:57:55.000",
    "date_modified": "2025-04-28T14:57:57.000",
    "request_status": "Pending",
    "responsible_agency": "Utility Company Collective",
    "final_address": "2829 Constance St",
    "address_councildis": "B",
    "status": "Pending",
    "rowid": "1187611",
    "final_x": "3677042.56693",
    "final_y": "520411.80044",
    "longitude": "-90.0825281879046",
    "latitude": "29.92508638199704",
    "geocoded_column": {
      "latitude": "29.92508638199704",
      "longitude": "-90.0825281879046"
    }
  },