[
  {
    "service_request": "2022-880146",
    "request_type": "Trash/Recycling",
    "request_reason": "Replace Trash Cart",
    "date_created": "2022-05-05T01:27:49.000",
    "date_modified": "2022-05-05T01:27:50.000",
    "request_status": "Pending",
    "responsible_agency": "Department of Sanitation",
    "final_address": "14718 Beekman Rd",
    "address_councildis": "E",
    "status": "Assigned to Contractor",
    "contractor": "Metro Disposal",
    "rowid": "880146",
    "final_x": "3721322.73055",
    "final_y": "573714.902442",
    "longitude": "-89.94070684673805",
    "latitude": "30.070245691737973",
    "geocoded_column": {
      "latitude": "30.070245691737973",
      "longitude": "-89.94070684673805"
    }
  },
  {
    "service_request": "2022-880145",
    "request_type": "Trash/Recycling",
    "request_reason": "Missed Trash Pick-Up",
    "date_created": "2022-05-04T23:46:38.000",
    "date_modified": "2022-05-04T23:46:39.000",
    "request_status": "Pending",
    "responsible_agency": "Department of Sanitation",
    "final_address": "4130 St Peter St",
    "address_councildis": "A",
    "status": "Assigned to Contractor",
    "contractor": "Richards Disposal",
    "rowid": "880145",
    "final_x": "3672295.62843",
    "final_y": "540091.814795",
    "longitude": "-90.09684239178122",
    "latitude": "29.979341548986532",
    "geocoded_column": {
      "latitude": "29.979341548986532",
      "longitude": "-90.09684239178122"
    }
  },
  {
    "service_request": "2022-880143",
    "request_type": "Property Maintenance",
    "request_reason": "Property Maintenance",
    "date_created": "2022-05-04T23:37:52.000",
    "date_modified": "2022-05-04T23:37:52.000",
    "request_status": "Pending",
    "responsible_agency": "Department of Code Enforcement",
    "final_address": "1125 N Robertson St",
    "address_councildis": "D",
    "status": "Pending",
    "rowid": "880143",
    "final_x": "3681078.13666",
    "final_y": "535738.522951",
    "longitude": "-90.06925546226412",
    "latitude": "29.967107984541265",
    "geocoded_column": {
      "latitude": "29.967107984541265",
      "longitude": "-90.06925546226412"
    }
  },
  {
    "service_request": "2022-880142",
    "request_type": "Health Related Questions",
    "request_reason": "Noise Ordinance Complaint",
    "date_created": "2022-05-04T22:58:41.000",
    "date_modified": "2022-05-04T22:58:41.000",
    "request_status": "Pending",
    "responsible_agency": "Health Department",
    "final_address": "718 Bourbon St, New Orleans, Louisiana, 70116",
    "address_councildis": "C",
    "status": "Pending",
    "rowid": "880142",
    "final_x": "3682364.17781",
    "final_y": "532746.008004",
    "longitude": "-90.06529872053143",
    "latitude": "29.95884052062511",
    "geocoded_column": {
      "latitude": "29.95884052062511",
      "longitude": "-90.06529872053143"
    }
  },
  {
    "service_request": "2022-880141",
    "request_type": "Health Related Questions",
    "request_reason": "Noise Ordinance Complaint",
    "date_created": "2022-05-04T22:52:54.000",
    "date_modified": "2022-05-04T22:52:54.000",
    "request_status": "Pending",
    "responsible_agency": "Health Department",
    "final_address": "718 Bourbon St, New Orleans, Louisiana, 70116",
    "address_councildis": "C",
    "status": "Pending",
    "rowid": "880141",
    "final_x": "3682364.17781",
    "final_y": "532746.008004",
    "longitude": "-90.06529872053143",
    "latitude": "29.95884052062511",
    "geocoded_column": {
      "latitude": "29.95884052062511",
      "longitude": "-90.06529872053143"
    }
  },
  {
    "service_request": "2022-880140",
    "request_type": "Health Related Questions",
    "request_reason": "Noise Ordinance Complaint",
    "date_created": "2022-05-04T22:43:46.000",
    "date_modified": "2022-05-04T22:43:46.000",
    "request_status": "Pending",
    "responsible_agency": "Health Department",
    "final_address": "718 Bourbon St, New Orleans, Louisiana, 70116",
    "address_councildis": "C",
    "status": "Pending",
    "rowid": "880140",
    "final_x": "3682364.17781",
    "final_y": "532746.008004",
    "longitude": "-90.06529872053143",
    "latitude": "29.95884052062511",
    "geocoded_column": {
      "latitude": "29.95884052062511",
      "longitude": "-90.06529872053143"
    }
  },
  {
    "service_request": "2022-880139",
    "request_type": "Health Related Questions",
    "request_reason": "Noise Ordinance Complaint",
    "date_created": "2022-05-04T22:40:54.000",
    "date_modified": "2022-05-04T22:40:54.000",
    "request_status": "Pending",
    "responsible_agency": "Health Department",
    "final_address": "718 Bourbon St, New Orleans, Louisiana, 70116",
    "address_councildis": "C",
    "status": "Pending",
    "rowid": "880139",
    "final_x": "3682364.17781",
    "final_y": "532746.008004",
    "longitude": "-90.06529872053143",
    "latitude": "29.95884052062511",
    "geocoded_column": {
      "latitude": "29.95884052062511",
      "longitude": "-90.06529872053143"
    }
  },
  {
    "service_request": "2022-880138",
    "request_type": "Health Related Questions",
    "request_reason": "Noise Ordinance Complaint",
    "date_created": "2022-05-04T22:30:02.000",
    "date_modified": "2022-05-04T22:30:02.000",
    "request_status": "Pending",
    "responsible_agency": "Health Department",
    "final_address": "718 Bourbon St, New Orleans, Louisiana, 70116",
    "address_councildis": "C",
    "status": "Pending",
    "rowid": "880138",
    "final_x": "3682364.17781",
    "final_y": "532746.008004",
    "longitude": "-90.06529872053143",
    "latitude": "29.95884052062511",
    "geocoded_column": {
      "latitude": "29.95884052062511",
      "longitude": "-90.06529872053143"
    }
  },
  {
    "service_request": "2022-880137",
    "request_type": "Trash/Recycling",
    "request_reason": "Missed Trash Pick-Up",
    "date_created": "2022-05-04T22:12:25.000",
    "date_modified": "2022-05-04T22:12:26.000",
    "request_status": "Pending",
    "responsible_agency": "Department of Sanitation",
    "final_address": "7719 Pearl St",
    "address_councildis": "A",
    "status": "Assigned to Contractor",
    "contractor": "Richards Disposal",
    "rowid": "880137",
    "final_x": "3661322.75584",
    "final_y": "525685.491069",
    "longitude": "-90.1319762934953",
    "latitude": "29.940049854606897",
    "geocoded_column": {
      "latitude": "29.940049854606897",
      "longitude": "-90.1319762934953"
    }
  },
  {
    "service_request": "2022-880136",
    "request_type": "Property Maintenance",
    "request_reason": "Property Maintenance",
    "date_created": "2022-05-04T21:57:44.000",
    "date_modified": "2022-05-04T21:57:44.000",
    "request_status": "Pending",
    "responsible_agency": "Department of Code Enforcement",
    "final_address": "3038 Law St",
    "address_councildis": "D",
    "status": "Pending",
    "rowid": "880136",
    "final_x": "3690174.22",
    "final_y": "541675.684364",
    "longitude": "-90.040318482814",
    "latitude": "29.983154021641813",
    "geocoded_column": {
      "latitude": "29.983154021641813",
      "longitude": "-90.040318482814"
    }
  },
  {
    "service_request": "2022-880135",
    "request_type": "Property Maintenance",
    "request_reason": "Property Maintenance",
    "date_created": "2022-05-04T21:56:20.000",
    "date_modified": "2022-05-04T21:56:20.000",
    "request_status": "Pending",
    "responsible_agency": "Department of Code Enforcement",
    "final_address": "2523 Feliciana St",
    "address_councildis": "D",
    "status": "Pending",
    "rowid": "880135",
    "final_x": "3690182.51356",
    "final_y": "541524.181068",
    "longitude": "-90.04029768753098",
    "latitude": "29.982737184368016",
    "geocoded_column": {
      "latitude": "29.982737184368016",
      "longitude": "-90.04029768753098"
    }
  },
  {
    "service_request": "2022-880134",
    "request_type": "Trash/Recycling",
    "request_reason": "Missed Trash Pick-Up",
    "date_created": "2022-05-04T21:46:02.000",
    "date_modified": "2022-05-04T21:46:03.000",
    "request_status": "Pending",
    "responsible_agency": "Department of Sanitation",
    "final_address": "2413 Pine St",
    "address_councildis": "A",
    "status": "Assigned to Contractor",
    "contractor": "Richards Disposal",
    "rowid": "880134",
    "final_x": "3666489.41543",
    "final_y": "530344.983042",
    "longitude": "-90.11550795703805",
    "latitude": "29.95271199058998",
    "geocoded_column": {
      "latitude": "29.95271199058998",
      "longitude": "-90.11550795703805"
    }
  },
  {
    "service_request": "2022-880133",
    "request_type": "Traffic Signals/Signs/Striping/Streetlights",
    "request_reason": "Street Light Outage/Malfunction",
    "date_created": "2022-05-04T21:42:32.000",
    "date_modified": "2022-05-04T21:42:32.000",
    "request_status": "Pending",
    "responsible_agency": "Department of Public Works",
    "final_address": "7001 Argonne Blvd",
    "address_councildis": "A",
    "status": "Pending",
    "contractor": "Royal Engineering",
    "rowid": "880133",
    "final_x": "3670831.58932",
    "final_y": "553889.032535",
    "longitude": "-90.10099775075899",
    "latitude": "30.0173224626137",
    "geocoded_column": {
      "latitude": "30.0173224626137",
      "longitude": "-90.10099775075899"
    }
  },
  {
    "service_request": "2022-880132",
    "request_type": "Traffic Signals/Signs/Striping/Streetlights",
    "request_reason": "Traffic Sign Missing/Damaged",
    "date_created": "2022-05-04T21:37:22.000",
    "date_modified": "2022-05-04T21:37:22.000",
    "request_status": "Pending",
    "responsible_agency": "Department of Public Works",
    "final_address": "11120 Hayne Blvd",
    "address_councildis": "E",
    "status": "Pending",
    "rowid": "880132",
    "final_x": "3710125.29477",
    "final_y": "567319.099556",
    "longitude": "-89.97634412270897",
    "latitude": "30.053029292891104",
    "geocoded_column": {
      "latitude": "30.053029292891104",
      "longitude": "-89.97634412270897"
    }
  },
  {
    "service_request": "2022-880131",
    "request_type": "Trash/Recycling",
    "request_reason": "Request a Large Item Pick Up",
    "date_created": "2022-05-04T21:32:26.000",
    "date_modified": "2022-05-04T21:32:27.000",
    "request_status": "Pending",
    "responsible_agency": "Department of Sanitation",
    "final_address": "3924 Cleveland Ave",
    "address_councildis": "A",
    "status": "Assigned to Contractor",
    "contractor": "Richards Disposal",
    "rowid": "880131",
    "final_x": "3671319.7851",
    "final_y": "537593.238344",
    "longitude": "-90.10000943740957",
    "latitude": "29.97250022897969",
    "geocoded_column": {
      "latitude": "29.97250022897969",
      "longitude": "-90.10000943740957"
    }
  },
  {
    "service_request": "2022-880130",
    "request_type": "Traffic Signals/Signs/Striping/Streetlights",
    "request_reason": "Traffic Sign Missing/Damaged",
    "date_created": "2022-05-04T21:28:27.000",
    "date_modified": "2022-05-04T21:28:27.000",
    "request_status": "Pending",
    "responsible_agency": "Department of Public Works",
    "final_address": "2401 St Anthony St",
    "address_councildis": "D",
    "status": "Pending",
    "rowid": "880130",
    "final_x": "3683210.10626",
    "final_y": "541019.638155",
    "longitude": "-90.062337700503",
    "latitude": "29.98156437097394",
    "geocoded_column": {
      "latitude": "29.98156437097394",
      "longitude": "-90.062337700503"
    }
  },
  {
    "service_request": "2022-880129",
    "request_type": "Health Related Questions",
    "request_reason": "Noise Ordinance Complaint",
    "date_created": "2022-05-04T21:26:24.000",
    "date_modified": "2022-05-04T21:26:24.000",
    "request_status": "Pending",
    "responsible_agency": "Health Department",
    "final_address": "718 Bourbon St, New Orleans, Louisiana, 70116",
    "address_councildis": "C",
    "status": "Pending",
    "rowid": "880129",
    "final_x": "3682364.17781",
    "final_y": "532746.008004",
    "longitude": "-90.06529872053143",
    "latitude": "29.95884052062511",
    "geocoded_column": {
      "latitude": "29.95884052062511",
      "longitude": "-90.06529872053143"
    }
  },
  {
    "service_request": "2022-880128",
    "request_type": "Roads/Drainage",
    "request_reason": "Street Flooding / Drainage",
    "date_created": "2022-05-04T21:09:11.000",
    "date_modified": "2022-05-04T21:09:11.000",
    "request_status": "Pending",
    "responsible_agency": "Department of Public Works",
    "final_address": "540 S Hennessey St",
    "address_councildis": "A",
    "status": "Pending",
    "rowid": "880128",
    "final_x": "3669167.49102",
    "final_y": "537406.288392",
    "longitude": "-90.10681310564021",
    "latitude": "29.972049702906965",
    "geocoded_column": {
      "latitude": "29.972049702906965",
      "longitude": "-90.10681310564021"
    }
  },
  {
    "service_request": "2022-880127",
    "request_type": "Trash/Recycling",
    "request_reason": "Request a Large Item Pick Up",
    "date_created": "2022-05-04T20:56:40.000",
    "date_modified": "2022-05-04T20:56:40.000",
    "request_status": "Pending",
    "responsible_agency": "Department of Sanitation",
    "final_address": "337 Eleonore St",
    "address_councildis": "A",
    "status": "Assigned to Contractor",
    "contractor": "Richards Disposal",
    "rowid": "880127",
    "final_x": "3664957.44711",
    "final_y": "517597.13375",
    "longitude": "-90.12077120614106",
    "latitude": "29.917704140062252",
    "geocoded_column": {
      "latitude": "29.917704140062252",
      "longitude": "-90.12077120614106"
    }
  },
  {
    "service_request": "2022-880126",
    "request_type": "Trash/Recycling",
    "request_reason": "Order Recycling Cart",
    "date_created": "2022-05-04T20:48:43.000",
    "date_modified": "2022-05-04T20:48:43.000",
    "request_status": "Pending",
    "responsible_agency": "Department of Sanitation",
    "final_address": "417 Patterson St",
    "address_councildis": "C",
    "status": "Pending",
    "rowid": "880126",
    "final_x": "3686494.10025",
    "final_y": "531336.727298",
    "longitude": "-90.0523072562032",
    "latitude": "29.95483916802342",
    "geocoded_column": {
      "latitude": "29.95483916802342",
      "longitude": "-90.0523072562032"
    }
  },
  {
    "service_request": "2022-880125",
    "request_type": "Roads/Drainage",
    "request_reason": "Accessibility Ramps, Curbs and Sidewalk Repair",
    "date_created": "2022-05-04T20:46:52.000",
    "date_modified": "2022-05-04T20:46:52.000",
    "request_status": "Pending",
    "responsible_agency": "Department of Public Works",
    "final_address": "800 Canal St",
    "address_councildis": "B",
    "status": "Pending",
    "rowid": "880125",
    "final_x": "3680798.96482",
    "final_y": "530830.025986",
    "longitude": "-90.07030795216937",
    "latitude": "29.953619754055183",
    "geocoded_column": {
      "latitude": "29.953619754055183",
      "longitude": "-90.07030795216937"
    }
  },
  {
    "service_request": "2022-880124",
    "request_type": "Trash/Recycling",
    "request_reason": "Order Recycling Cart",
    "date_created": "2022-05-04T20:44:17.000",
    "date_modified": "2022-05-04T20:44:17.000",
    "request_status": "Pending",
    "responsible_agency": "Department of Sanitation",
    "final_address": "925 Sixth St",
    "address_councildis": "B",
    "status": "Pending",
    "rowid": "880124",
    "final_x": "3676946.10651",
    "final_y": "520125.304568",
    "longitude": "-90.08284255232478",
    "latitude": "29.924301506105667",
    "geocoded_column": {
      "latitude": "29.924301506105667",
      "longitude": "-90.08284255232478"
    }
  },
  {
    "service_request": "2022-880123",
    "request_type": "Health Related Questions",
    "request_reason": "Noise Ordinance Complaint",
    "date_created": "2022-05-04T20:36:47.000",
    "date_modified": "2022-05-04T20:36:47.000",
    "request_status": "Pending",
    "responsible_agency": "Health Department",
    "final_address": "718 Bourbon St, New Orleans, Louisiana, 70116",
    "address_councildis": "C",
    "status": "Pending",
    "rowid": "880123",
    "final_x": "3682364.17781",
    "final_y": "532746.008004",
    "longitude": "-90.06529872053143",
    "latitude": "29.95884052062511",
    "geocoded_column": {
      "latitude": "29.95884052062511",
      "longitude": "-90.06529872053143"
    }
  },
  {
    "service_request": "2022-880121",
    "request_type": "Traffic Signals/Signs/Striping/Streetlights",
    "request_reason": "Street Light Outage/Malfunction",
    "date_created": "2022-05-04T20:18:55.000",
    "date_modified": "2022-05-04T20:18:56.000",
    "request_status": "Pending",
    "responsible_agency": "Department of Public Works",
    "final_address": "1301 st bernard",
    "address_councildis": "C",
    "status": "Pending",
    "contractor": "Royal Engineering",
    "rowid": "880121",
    "final_x": "3682919.3446",
    "final_y": "536532.769031",
    "longitude": "-90.06341312216362",
    "latitude": "29.969235907623844",
    "geocoded_column": {
      "latitude": "29.969235907623844",
      "longitude": "-90.06341312216362"
    }
  },
  {
    "service_request": "2022-880120",
    "request_type": "Trash/Recycling",
    "request_reason": "Order Recycling Cart",
    "date_created": "2022-05-04T20:17:51.000",
    "date_modified": "2022-05-04T20:17:51.000",
    "request_status": "Pending",
    "responsible_agency": "Department of Sanitation",
    "final_address": "520 St Philip St",
    "address_councildis": "C",
    "status": "Pending",
    "rowid": "880120",
    "final_x": "3683664.56853",
    "final_y": "532954.633732",
    "longitude": "-90.06118510879202",
    "latitude": "29.959374536461066",
    "geocoded_column": {
      "latitude": "29.959374536461066",
      "longitude": "-90.06118510879202"
    }
  },
  {
    "service_request": "2022-880119",
    "request_type": "Trash/Recycling",
    "request_reason": "Missed Trash Pick-Up",
    "date_created": "2022-05-04T20:17:48.000",
    "date_modified": "2022-05-04T20:17:49.000",
    "request_status": "Pending",
    "responsible_agency": "Department of Sanitation",
    "final_address": "2419 Pine St, New Orleans, Louisiana, 70125",
    "address_councildis": "A",
    "status": "Assigned to Contractor",
    "contractor": "Richards Disposal",
    "rowid": "880119",
    "final_x": "3666513.23841",
    "final_y": "530377.849218",
    "longitude": "-90.11543163142738",
    "latitude": "29.952801665642045",
    "geocoded_column": {
      "latitude": "29.952801665642045",
      "longitude": "-90.11543163142738"
    }
  },
  {
    "service_request": "2022-880118",
    "request_type": "Traffic Signals/Signs/Striping/Streetlights",
    "request_reason": "Street Light Outage/Malfunction",
    "date_created": "2022-05-04T20:15:23.000",
    "date_modified": "2022-05-04T20:15:24.000",
    "request_status": "Pending",
    "responsible_agency": "Department of Public Works",
    "final_address": "3317 Banks St",
    "address_councildis": "B",
    "status": "Pending",
    "contractor": "Royal Engineering",
    "rowid": "880118",
    "final_x": "3672758.57608",
    "final_y": "535628.185734",
    "longitude": "-90.09553251108103",
    "latitude": "29.967054336531028",
    "geocoded_column": {
      "latitude": "29.967054336531028",
      "longitude": "-90.09553251108103"
    }
  },
  {
    "service_request": "2022-880117",
    "request_type": "Trash/Recycling",
    "request_reason": "Missed Trash Pick-Up",
    "date_created": "2022-05-04T20:07:46.000",
    "date_modified": "2022-05-04T20:07:47.000",
    "request_status": "Pending",
    "responsible_agency": "Department of Sanitation",
    "final_address": "726 S Hennessey St, New Orleans, Louisiana, 70119",
    "address_councildis": "A",
    "status": "Assigned to Contractor",
    "contractor": "Richards Disposal",
    "rowid": "880117",
    "final_x": "3668756.18874",
    "final_y": "536866.180872",
    "longitude": "-90.10813030858344",
    "latitude": "29.970576687337314",
    "geocoded_column": {
      "latitude": "29.970576687337314",
      "longitude": "-90.10813030858344"
    }
  },
  {
    "service_request": "2022-880116",
    "request_type": "Parks & Parkways",
    "request_reason": "Request Grass Cutting Service (City Owned Property)",
    "date_created": "2022-05-04T19:27:12.000",
    "date_modified": "2022-05-04T19:27:12.000",
    "request_status": "Pending",
    "responsible_agency": "Department of Parks & Parkway",
    "final_address": "8801 Dwyer Rd",
    "address_councildis": "E",
    "status": "Pending",
    "rowid": "880116",
    "final_x": "3707659.46392",
    "final_y": "557071.876762",
    "longitude": "-89.98451913554773",
    "latitude": "30.024933559417754",
    "geocoded_column": {
      "latitude": "30.024933559417754",
      "longitude": "-89.98451913554773"
    }
  },
  {
    "service_request": "2022-880115",
    "request_type": "Trash/Recycling",
    "request_reason": "Request a Large Item Pick Up",
    "date_created": "2022-05-04T19:24:52.000",
    "date_modified": "2022-05-04T19:24:54.000",
    "request_status": "Pending",
    "responsible_agency": "Department of Sanitation",
    "final_address": "623 Egania St",
    "address_councildis": "E",
    "status": "Assigned to Contractor",
    "contractor": "Metro Disposal",
    "rowid": "880115",
    "final_x": "3696388.05399",
    "final_y": "532380.035971",
    "longitude": "-90.0210283546438",
    "latitude": "29.957400044605542",
    "geocoded_column": {
      "latitude": "29.957400044605542",
      "longitude": "-90.0210283546438"
    }
  },
  {
    "service_request": "2022-880114",
    "request_type": "Trash/Recycling",
    "request_reason": "MIssed Recycling Pick-Up",
    "date_created": "2022-05-04T19:24:33.000",
    "date_modified": "2022-05-04T19:24:33.000",
    "request_status": "Pending",
    "responsible_agency": "Department of Sanitation",
    "final_address": "1730 Martin Luther King Jr Blvd, New Orleans, Louisiana, 70113",
    "status": "Assigned to Contractor",
    "rowid": "880114",
    "longitude": "0.0",
    "latitude": "0.0",
    "geocoded_column": {
      "latitude": "0.0",
      "longitude": "0.0"
    }
  },
  {
    "service_request": "2022-880113",
    "request_type": "Trash/Recycling",
    "request_reason": "Request a Large Item Pick Up",
    "date_created": "2022-05-04T19:22:51.000",
    "date_modified": "2022-05-04T19:22:52.000",
    "request_status": "Pending",
    "responsible_agency": "Department of Sanitation",
    "final_address": "1822 Robert St",
    "address_councildis": "B",
    "status": "Assigned to Contractor",
    "contractor": "Richards Disposal",
    "rowid": "880113",
    "final_x": "3668705.13774",
    "final_y": "522326.204794",
    "longitude": "-90.10878226699315",
    "latitude": "29.930598004656478",
    "geocoded_column": {
      "latitude": "29.930598004656478",
      "longitude": "-90.10878226699315"
    }
  },
  {
    "service_request": "2022-880112",
    "request_type": "Traffic Signals/Signs/Striping/Streetlights",
    "request_reason": "Traffic Signal Malfunctioning/Damaged",
    "date_created": "2022-05-04T19:08:05.000",
    "date_modified": "2022-05-04T19:08:05.000",
    "request_status": "Pending",
    "responsible_agency": "Department of Public Works",
    "final_address": "747 Magazine St",
    "address_councildis": "B",
    "status": "Pending",
    "rowid": "880112",
    "final_x": "3681185.76687",
    "final_y": "528029.581695",
    "longitude": "-90.06918415059468",
    "latitude": "29.94590774584575",
    "geocoded_column": {
      "latitude": "29.94590774584575",
      "longitude": "-90.06918415059468"
    }
  },
  {
    "service_request": "2022-880111",
    "request_type": "Trash/Recycling",
    "request_reason": "Request a Large Item Pick Up",
    "date_created": "2022-05-04T19:05:47.000",
    "date_modified": "2022-05-04T19:05:48.000",
    "request_status": "Pending",
    "responsible_agency": "Department of Sanitation",
    "final_address": "1209 Louisa St",
    "address_councildis": "C",
    "status": "Assigned to Contractor",
    "contractor": "Metro Disposal",
    "rowid": "880111",
    "final_x": "3689710.75638",
    "final_y": "536296.429191",
    "longitude": "-90.04197381693386",
    "latitude": "29.96837734635028",
    "geocoded_column": {
      "latitude": "29.96837734635028",
      "longitude": "-90.04197381693386"
    }
  },
  {
    "service_request": "2022-880110",
    "request_type": "Trash/Recycling",
    "request_reason": "Replace Trash Cart",
    "date_created": "2022-05-04T19:01:25.000",
    "date_modified": "2022-05-04T19:01:26.000",
    "request_status": "Pending",
    "responsible_agency": "Department of Sanitation",
    "final_address": "2817 St Peter St",
    "address_councildis": "A",
    "status": "Assigned to Contractor",
    "contractor": "Richards Disposal",
    "rowid": "880110",
    "final_x": "3676095.82497",
    "final_y": "537330.43924",
    "longitude": "-90.08493488151589",
    "latitude": "29.971635405474345",
    "geocoded_column": {
      "latitude": "29.971635405474345",
      "longitude": "-90.08493488151589"
    }
  },
  {
    "service_request": "2022-880109",
    "request_type": "Trash/Recycling",
    "request_reason": "MIssed Recycling Pick-Up",
    "date_created": "2022-05-04T18:37:07.000",
    "date_modified": "2022-05-04T18:37:07.000",
    "request_status": "Pending",
    "responsible_agency": "Department of Sanitation",
    "final_address": "625 S Rocheblave St",
    "address_councildis": "B",
    "status": "Assigned to Contractor",
    "contractor": "Richards Disposal",
    "rowid": "880109",
    "final_x": "3674667.03649",
    "final_y": "532757.690692",
    "longitude": "-90.08960396867559",
    "latitude": "29.959104614912476",
    "geocoded_column": {
      "latitude": "29.959104614912476",
      "longitude": "-90.08960396867559"
    }
  },
  {
    "service_request": "2022-880108",
    "request_type": "Trash/Recycling",
    "request_reason": "Missed Trash Pick-Up",
    "date_created": "2022-05-04T18:34:13.000",
    "date_modified": "2022-05-04T18:34:14.000",
    "request_status": "Pending",
    "responsible_agency": "Department of Sanitation",
    "final_address": "2408 Pine St, New Orleans, Louisiana, 70125",
    "address_councildis": "A",
    "status": "Assigned to Contractor",
    "contractor": "Richards Disposal",
    "rowid": "880108",
    "final_x": "3666358.19073",
    "final_y": "530441.541698",
    "longitude": "-90.11591906807385",
    "latitude": "29.952981329720956",
    "geocoded_column": {
      "latitude": "29.952981329720956",
      "longitude": "-90.11591906807385"
    }
  },
  {
    "service_request": "2022-880107",
    "request_type": "Trash/Recycling",
    "request_reason": "Missed Trash Pick-Up",
    "date_created": "2022-05-04T18:33:33.000",
    "date_modified": "2022-05-04T18:33:34.000",
    "request_status": "Pending",
    "responsible_agency": "Department of Sanitation",
    "final_address": "2420 Pine St",
    "address_councildis": "A",
    "status": "Assigned to Contractor",
    "contractor": "Richards Disposal",
    "rowid": "880107",
    "final_x": "3666432.46957",
    "final_y": "530549.881794",
    "longitude": "-90.11568089195933",
    "latitude": "29.953277059479298",
    "geocoded_column": {
      "latitude": "29.953277059479298",
      "longitude": "-90.11568089195933"
    }
  },
  {
    "service_request": "2022-880106",
    "request_type": "Trash/Recycling",
    "request_reason": "Repair Trash Cart",
    "date_created": "2022-05-04T18:28:57.000",
    "date_modified": "2022-05-04T18:28:57.000",
    "request_status": "Pending",
    "responsible_agency": "Department of Sanitation",
    "final_address": "7427 Garfield St",
    "address_councildis": "A",
    "status": "Assigned to Contractor",
    "contractor": "Richards Disposal",
    "rowid": "880106",
    "final_x": "3661431.94522",
    "final_y": "523865.3655",
    "longitude": "-90.13169182694813",
    "latitude": "29.93504193613237",
    "geocoded_column": {
      "latitude": "29.93504193613237",
      "longitude": "-90.13169182694813"
    }
  },
  {
    "service_request": "2022-880105",
    "request_type": "Trash/Recycling",
    "request_reason": "Missed Trash Pick-Up",
    "date_created": "2022-05-04T18:18:29.000",
    "date_modified": "2022-05-04T18:18:30.000",
    "request_status": "Pending",
    "responsible_agency": "Department of Sanitation",
    "final_address": "7703 Willow St",
    "address_councildis": "A",
    "status": "Assigned to Contractor",
    "contractor": "Richards Disposal",
    "rowid": "880105",
    "final_x": "3663511.39891",
    "final_y": "527963.556159",
    "longitude": "-90.12499053895498",
    "latitude": "29.94625052755624",
    "geocoded_column": {
      "latitude": "29.94625052755624",
      "longitude": "-90.12499053895498"
    }
  },
  {
    "service_request": "2022-880104",
    "request_type": "Traffic Signals/Signs/Striping/Streetlights",
    "request_reason": "Traffic Signal Malfunctioning/Damaged",
    "date_created": "2022-05-04T18:14:50.000",
    "date_modified": "2022-05-04T18:14:50.000",
    "request_status": "Pending",
    "responsible_agency": "Department of Public Works",
    "final_address": "101 Magazine St",
    "address_councildis": "B",
    "status": "Pending",
    "rowid": "880104",
    "final_x": "3681694.06056",
    "final_y": "530136.289473",
    "longitude": "-90.06750581650434",
    "latitude": "29.951685053685758",
    "geocoded_column": {
      "latitude": "29.951685053685758",
      "longitude": "-90.06750581650434"
    }
  },
  {
    "service_request": "2022-880103",
    "request_type": "Trash/Recycling",
    "request_reason": "MIssed Recycling Pick-Up",
    "date_created": "2022-05-04T18:04:09.000",
    "date_modified": "2022-05-04T18:04:10.000",
    "request_status": "Pending",
    "responsible_agency": "Department of Sanitation",
    "final_address": "2823 Second St",
    "address_councildis": "B",
    "status": "Assigned to Contractor",
    "contractor": "Richards Disposal",
    "rowid": "880103",
    "final_x": "3674291.72552",
    "final_y": "526780.611518",
    "longitude": "-90.09099374698583",
    "latitude": "29.942680823820208",
    "geocoded_column": {
      "latitude": "29.942680823820208",
      "longitude": "-90.09099374698583"
    }
  },
  {
    "service_request": "2022-880102",
    "request_type": "Trash/Recycling",
    "request_reason": "Missed Trash Pick-Up",
    "date_created": "2022-05-04T17:43:15.000",
    "date_modified": "2022-05-04T17:43:16.000",
    "request_status": "Pending",
    "responsible_agency": "Department of Sanitation",
    "final_address": "2204 Octavia St",
    "address_councildis": "A",
    "status": "Assigned to Contractor",
    "contractor": "Richards Disposal",
    "rowid": "880102",
    "final_x": "3667456.33172",
    "final_y": "523772.683899",
    "longitude": "-90.11267593212925",
    "latitude": "29.934611998580188",
    "geocoded_column": {
      "latitude": "29.934611998580188",
      "longitude": "-90.11267593212925"
    }
  },
  {
    "service_request": "2022-880101",
    "request_type": "Trash/Recycling",
    "request_reason": "MIssed Recycling Pick-Up",
    "date_created": "2022-05-04T17:43:04.000",
    "date_modified": "2022-05-04T17:43:05.000",
    "request_status": "Pending",
    "responsible_agency": "Department of Sanitation",
    "final_address": "2010 Philip St",
    "address_councildis": "B",
    "status": "Assigned to Contractor",
    "contractor": "Richards Disposal",
    "rowid": "880101",
    "final_x": "3676265.72501",
    "final_y": "524611.728892",
    "longitude": "-90.08483597379107",
    "latitude": "29.936658112421895",
    "geocoded_column": {
      "latitude": "29.936658112421895",
      "longitude": "-90.08483597379107"
    }
  },
  {
    "service_request": "2022-880100",
    "request_type": "Trash/Recycling",
    "request_reason": "Missed Trash Pick-Up",
    "date_created": "2022-05-04T17:39:39.000",
    "date_modified": "2022-05-04T17:39:40.000",
    "request_status": "Pending",
    "responsible_agency": "Department of Sanitation",
    "final_address": "424 Pine St",
    "address_councildis": "A",
    "status": "Assigned to Contractor",
    "contractor": "Richards Disposal",
    "rowid": "880100",
    "final_x": "3662004.01101",
    "final_y": "523955.918588",
    "longitude": "-90.12988280765293",
    "latitude": "29.9352744201736",
    "geocoded_column": {
      "latitude": "29.9352744201736",
      "longitude": "-90.12988280765293"
    }
  },
  {
    "service_request": "2022-880099",
    "request_type": "Roads/Drainage",
    "request_reason": "Pothole",
    "date_created": "2022-05-04T17:32:09.000",
    "date_modified": "2022-05-04T17:32:09.000",
    "request_status": "Pending",
    "responsible_agency": "Department of Public Works",
    "final_address": "2630 Vespasian St",
    "address_councildis": "C",
    "status": "Pending",
    "rowid": "880099",
    "final_x": "3693303.73187",
    "final_y": "523456.264891",
    "longitude": "-90.03108792581982",
    "latitude": "29.932959523499978",
    "geocoded_column": {
      "latitude": "29.932959523499978",
      "longitude": "-90.03108792581982"
    }
  },
  {
    "service_request": "2022-880098",
    "request_type": "Trash/Recycling",
    "request_reason": "Missed Trash Pick-Up",
    "date_created": "2022-05-04T17:29:51.000",
    "date_modified": "2022-05-04T17:29:52.000",
    "request_status": "Pending",
    "responsible_agency": "Department of Sanitation",
    "final_address": "7333 Sheffield St",
    "address_councildis": "E",
    "status": "Assigned to Contractor",
    "contractor": "Metro Disposal",
    "rowid": "880098",
    "final_x": "3699587.64074",
    "final_y": "559475.283613",
    "longitude": "-90.00993692028614",
    "latitude": "30.031800793576465",
    "geocoded_column": {
      "latitude": "30.031800793576465",
      "longitude": "-90.00993692028614"
    }
  },
  {
    "service_request": "2022-880097",
    "request_type": "Parks & Parkways",
    "request_reason": "Tree Stump (removal, grind)",
    "date_created": "2022-05-04T16:55:30.000",
    "date_modified": "2022-05-04T16:55:31.000",
    "request_status": "Pending",
    "responsible_agency": "Department of Parks & Parkway",
    "final_address": "3814 State Street Dr",
    "address_councildis": "A",
    "status": "Pending",
    "rowid": "880097",
    "final_x": "3668021.19111",
    "final_y": "529584.408385",
    "longitude": "-90.1106969049199",
    "latitude": "29.950575804979426",
    "geocoded_column": {
      "latitude": "29.950575804979426",
      "longitude": "-90.1106969049199"
    }
  },
  {
    "service_request": "2022-880096",
    "request_type": "Roads/Drainage",
    "request_reason": "Pothole",
    "date_created": "2022-05-04T16:53:30.000",
    "date_modified": "2022-05-04T16:53:30.000",
    "request_status": "Pending",
    "responsible_agency": "Department of Public Works",
    "final_address": "1456 Gardena Dr",
    "address_councildis": "D",
    "status": "Pending",
    "rowid": "880096",
    "final_x": "3678136.69794",
    "final_y": "551342.031061",
    "longitude": "-90.07800470541488",
    "latitude": "30.010101075764894",
    "geocoded_column": {
      "latitude": "30.010101075764894",
      "longitude": "-90.07800470541488"
    }
  },
  {
    "service_request": "2022-880095",
    "request_type": "Parks & Parkways",
    "request_reason": "Tree Stump (removal, grind)",
    "date_created": "2022-05-04T16:51:22.000",
    "date_modified": "2022-05-04T16:51:23.000",
    "request_status": "Pending",
    "responsible_agency": "Department of Parks & Parkway",
    "final_address": "3814 State Street Dr",
    "address_councildis": "A",
    "status": "Pending",
    "rowid": "880095",
    "final_x": "3668021.19111",
    "final_y": "529584.408385",
    "longitude": "-90.1106969049199",
    "latitude": "29.950575804979426",
    "geocoded_column": {
      "latitude": "29.950575804979426",
      "longitude": "-90.1106969049199"
    }
  },
  {
    "service_request": "2022-880094",
    "request_type": "Roads/Drainage",
    "request_reason": "Pothole",
    "date_created": "2022-05-04T16:45:55.000",
    "date_modified": "2022-05-04T16:45:55.000",
    "request_status": "Pending",
    "responsible_agency": "Department of Public Works",
    "final_address": "1456 Gardena Dr",
    "address_councildis": "D",
    "status": "Pending",
    "rowid": "880094",
    "final_x": "3678136.69794",
    "final_y": "551342.031061",
    "longitude": "-90.07800470541488",
    "latitude": "30.010101075764894",
    "geocoded_column": {
      "latitude": "30.010101075764894",
      "longitude": "-90.07800470541488"
    }
  },
  {
    "service_request": "2022-880093",
    "request_type": "Abandoned Vehicles",
    "request_reason": "Abandoned/Junk Vehicles",
    "date_created": "2022-05-04T16:45:50.000",
    "date_modified": "2022-05-04T16:45:50.000",
    "request_status": "Pending",
    "responsible_agency": "Department of Public Works",
    "final_address": "1043 Jourdan Ave",
    "address_councildis": "E",
    "status": "Pending",
    "rowid": "880093",
    "final_x": "3695039.1935",
    "final_y": "534359.065029",
    "longitude": "-90.02521628886377",
    "latitude": "29.962884085403285",
    "geocoded_column": {
      "latitude": "29.962884085403285",
      "longitude": "-90.02521628886377"
    }
  },
  {
    "service_request": "2022-880092",
    "request_type": "Trash/Recycling",
    "request_reason": "Replace Trash Cart",
    "date_created": "2022-05-04T16:43:47.000",
    "date_modified": "2022-05-04T16:43:48.000",
    "request_status": "Pending",
    "responsible_agency": "Department of Sanitation",
    "final_address": "5610 Pembrook Dr",
    "address_councildis": "C",
    "status": "Assigned to Contractor",
    "contractor": "Richards Disposal",
    "rowid": "880092",
    "final_x": "3704355.1665",
    "final_y": "521043.518329",
    "longitude": "-89.99628850493797",
    "latitude": "29.925975330096",
    "geocoded_column": {
      "latitude": "29.925975330096",
      "longitude": "-89.99628850493797"
    }
  },
  {
    "service_request": "2022-880091",
    "request_type": "Trash/Recycling",
    "request_reason": "Replace Trash Cart",
    "date_created": "2022-05-04T16:43:41.000",
    "date_modified": "2022-05-04T16:43:41.000",
    "request_status": "Pending",
    "responsible_agency": "Department of Sanitation",
    "final_address": "2027 Harmony St",
    "address_councildis": "B",
    "status": "Assigned to Contractor",
    "contractor": "Richards Disposal",
    "rowid": "880091",
    "final_x": "3674151.75368",
    "final_y": "523286.828731",
    "longitude": "-90.09155521420952",
    "latitude": "29.933078233587917",
    "geocoded_column": {
      "latitude": "29.933078233587917",
      "longitude": "-90.09155521420952"
    }
  },
  {
    "service_request": "2022-880090",
    "request_type": "Trash/Recycling",
    "request_reason": "Repair Trash Cart",
    "date_created": "2022-05-04T16:41:13.000",
    "date_modified": "2022-05-04T16:41:14.000",
    "request_status": "Pending",
    "responsible_agency": "Department of Sanitation",
    "final_address": "2801 S Prieur St",
    "address_councildis": "B",
    "status": "Assigned to Contractor",
    "contractor": "Richards Disposal",
    "rowid": "880090",
    "final_x": "3672516.75495",
    "final_y": "527595.914559",
    "longitude": "-90.09656997288819",
    "latitude": "29.944975437123638",
    "geocoded_column": {
      "latitude": "29.944975437123638",
      "longitude": "-90.09656997288819"
    }
  },
  {
    "service_request": "2022-880089",
    "request_type": "Abandoned Vehicles",
    "request_reason": "Abandoned/Junk Vehicles",
    "date_created": "2022-05-04T16:35:55.000",
    "date_modified": "2022-05-04T16:35:55.000",
    "request_status": "Pending",
    "responsible_agency": "Department of Public Works",
    "status": "Pending",
    "rowid": "880089",
    "longitude": "0.0",
    "latitude": "0.0",
    "geocoded_column": {
      "latitude": "0.0",
      "longitude": "0.0"
    }
  },
  {
    "service_request": "2022-880088",
    "request_type": "Trash/Recycling",
    "request_reason": "Repair Trash Cart",
    "date_created": "2022-05-04T16:34:58.000",
    "date_modified": "2022-05-04T16:34:59.000",
    "request_status": "Pending",
    "responsible_agency": "Department of Sanitation",
    "final_address": "2928 Broadway St",
    "address_councildis": "B",
    "status": "Assigned to Contractor",
    "contractor": "Richards Disposal",
    "rowid": "880088",
    "final_x": "3667652.19898",
    "final_y": "531846.690115",
    "longitude": "-90.11178584494154",
    "latitude": "29.95680716085676",
    "geocoded_column": {
      "latitude": "29.95680716085676",
      "longitude": "-90.11178584494154"
    }
  },
  {
    "service_request": "2022-880087",
    "request_type": "Trash/Recycling",
    "request_reason": "Replace Trash Cart",
    "date_created": "2022-05-04T16:31:05.000",
    "date_modified": "2022-05-04T16:31:06.000",
    "request_status": "Pending",
    "responsible_agency": "Department of Sanitation",
    "final_address": "741 Fourth St",
    "address_councildis": "B",
    "status": "Assigned to Contractor",
    "contractor": "Richards Disposal",
    "rowid": "880087",
    "final_x": "3678000.09941",
    "final_y": "520024.761336",
    "longitude": "-90.07951893393168",
    "latitude": "29.92399337451059",
    "geocoded_column": {
      "latitude": "29.92399337451059",
      "longitude": "-90.07951893393168"
    }
  },
  {
    "service_request": "2022-880086",
    "request_type": "Trash/Recycling",
    "request_reason": "Replace Trash Cart",
    "date_created": "2022-05-04T16:30:26.000",
    "date_modified": "2022-05-04T16:32:02.000",
    "request_status": "Pending",
    "responsible_agency": "Department of Sanitation",
    "final_address": "7801 Mill St",
    "address_councildis": "E",
    "status": "Assigned to Contractor",
    "contractor": "Metro Disposal",
    "rowid": "880086",
    "final_x": "3696472.43165",
    "final_y": "559595.771741",
    "longitude": "-90.01977673849429",
    "latitude": "30.03223065143433",
    "geocoded_column": {
      "latitude": "30.03223065143433",
      "longitude": "-90.01977673849429"
    }
  },
  {
    "service_request": "2022-880085",
    "request_type": "Trash/Recycling",
    "request_reason": "Replace Trash Cart",
    "date_created": "2022-05-04T16:28:10.000",
    "date_modified": "2022-05-04T16:28:10.000",
    "request_status": "Pending",
    "responsible_agency": "Department of Sanitation",
    "final_address": "5424 Marigny St",
    "address_councildis": "D",
    "status": "Assigned to Contractor",
    "contractor": "Metro Disposal",
    "rowid": "880085",
    "final_x": "3684043.60245",
    "final_y": "552898.005271",
    "longitude": "-90.05928798494205",
    "latitude": "30.01420017728294",
    "geocoded_column": {
      "latitude": "30.01420017728294",
      "longitude": "-90.05928798494205"
    }
  },
  {
    "service_request": "2022-880084",
    "request_type": "Trash/Recycling",
    "request_reason": "Request a Large Item Pick Up",
    "date_created": "2022-05-04T16:25:52.000",
    "date_modified": "2022-05-04T16:25:53.000",
    "request_status": "Pending",
    "responsible_agency": "Department of Sanitation",
    "final_address": "4500 Eden St",
    "address_councildis": "B",
    "status": "Assigned to Contractor",
    "contractor": "Richards Disposal",
    "rowid": "880084",
    "final_x": "3669622.99758",
    "final_y": "530802.476162",
    "longitude": "-90.10559800261913",
    "latitude": "29.953877998321758",
    "geocoded_column": {
      "latitude": "29.953877998321758",
      "longitude": "-90.10559800261913"
    }
  },
  {
    "service_request": "2022-880083",
    "request_type": "Trash/Recycling",
    "request_reason": "Request a Large Item Pick Up",
    "date_created": "2022-05-04T16:21:05.000",
    "date_modified": "2022-05-04T16:21:06.000",
    "request_status": "Pending",
    "responsible_agency": "Department of Sanitation",
    "final_address": "905 Orleans Ave",
    "address_councildis": "C",
    "status": "Assigned to Contractor",
    "contractor": "Empire Services",
    "rowid": "880083",
    "final_x": "3682052.05903",
    "final_y": "533092.263492",
    "longitude": "-90.06627222084677",
    "latitude": "29.959802098873777",
    "geocoded_column": {
      "latitude": "29.959802098873777",
      "longitude": "-90.06627222084677"
    }
  },
  {
    "service_request": "2022-880082",
    "request_type": "Traffic Signals/Signs/Striping/Streetlights",
    "request_reason": "Request for Stop Sign",
    "date_created": "2022-05-04T16:17:45.000",
    "date_modified": "2022-05-04T16:17:45.000",
    "request_status": "Pending",
    "responsible_agency": "Department of Public Works",
    "final_address": "N MIRO ST & LOUISA ST",
    "address_councildis": "D",
    "status": "Pending",
    "rowid": "880082",
    "final_x": "3690598.8",
    "final_y": "539998.68",
    "longitude": "-90.03903727606237",
    "latitude": "29.97852967715643",
    "geocoded_column": {
      "latitude": "29.97852967715643",
      "longitude": "-90.03903727606237"
    }
  },
  {
    "service_request": "2022-880081",
    "request_type": "Trash/Recycling",
    "request_reason": "Illegal Dumping",
    "date_created": "2022-05-04T16:13:40.000",
    "date_modified": "2022-05-04T16:13:41.000",
    "request_status": "Pending",
    "responsible_agency": "Department of Sanitation",
    "final_address": "AIRLINE HWY & PALM ST",
    "address_councildis": "A",
    "status": "Pending",
    "rowid": "880081",
    "final_x": "3664851.6",
    "final_y": "537228.48",
    "longitude": "-90.12044939856273",
    "latitude": "29.971687111152686",
    "geocoded_column": {
      "latitude": "29.971687111152686",
      "longitude": "-90.12044939856273"
    }
  },
  {
    "service_request": "2022-880080",
    "request_type": "Trash/Recycling",
    "request_reason": "Request a Large Item Pick Up",
    "date_created": "2022-05-04T16:11:31.000",
    "date_modified": "2022-05-04T16:11:32.000",
    "request_status": "Pending",
    "responsible_agency": "Department of Sanitation",
    "final_address": "1100 Verret St",
    "address_councildis": "C",
    "status": "Assigned to Contractor",
    "contractor": "Richards Disposal",
    "rowid": "880080",
    "final_x": "3687317.48604",
    "final_y": "527524.891071",
    "longitude": "-90.04984214638776",
    "latitude": "29.944332583934205",
    "geocoded_column": {
      "latitude": "29.944332583934205",
      "longitude": "-90.04984214638776"
    }
  },
  {
    "service_request": "2022-880079",
    "request_type": "Trash/Recycling",
    "request_reason": "Order Trash Cart",
    "date_created": "2022-05-04T16:05:22.000",
    "date_modified": "2022-05-04T16:05:23.000",
    "request_status": "Pending",
    "responsible_agency": "Department of Sanitation",
    "final_address": "1836 Elysian Fields Ave",
    "address_councildis": "D",
    "status": "Assigned to Contractor",
    "contractor": "Metro Disposal",
    "rowid": "880079",
    "final_x": "3684669.72041",
    "final_y": "539175.259466",
    "longitude": "-90.05779241593949",
    "latitude": "29.976448378187932",
    "geocoded_column": {
      "latitude": "29.976448378187932",
      "longitude": "-90.05779241593949"
    }
  },
  {
    "service_request": "2022-880078",
    "request_type": "Trash/Recycling",
    "request_reason": "Order Trash Cart",
    "date_created": "2022-05-04T16:04:37.000",
    "date_modified": "2022-05-04T16:04:38.000",
    "request_status": "Pending",
    "responsible_agency": "Department of Sanitation",
    "final_address": "1834 Elysian Fields Ave",
    "address_councildis": "D",
    "status": "Assigned to Contractor",
    "contractor": "Metro Disposal",
    "rowid": "880078",
    "final_x": "3684670.35657",
    "final_y": "539165.081354",
    "longitude": "-90.057790764599",
    "latitude": "29.97642037246964",
    "geocoded_column": {
      "latitude": "29.97642037246964",
      "longitude": "-90.057790764599"
    }
  },
  {
    "service_request": "2022-880077",
    "request_type": "Trash/Recycling",
    "request_reason": "Order Trash Cart",
    "date_created": "2022-05-04T15:49:01.000",
    "date_modified": "2022-05-04T15:49:03.000",
    "request_status": "Pending",
    "responsible_agency": "Department of Sanitation",
    "final_address": "2083 N Dorgenois St",
    "address_councildis": "D",
    "status": "Assigned to Contractor",
    "contractor": "Metro Disposal",
    "rowid": "880077",
    "final_x": "3683270.84597",
    "final_y": "541387.06158",
    "longitude": "-90.06213298192931",
    "latitude": "29.982572803718302",
    "geocoded_column": {
      "latitude": "29.982572803718302",
      "longitude": "-90.06213298192931"
    }
  },
  {
    "service_request": "2022-880075",
    "request_type": "Trash/Recycling",
    "request_reason": "Start Trash Service",
    "date_created": "2022-05-04T15:48:37.000",
    "date_modified": "2022-05-04T15:48:38.000",
    "request_status": "Pending",
    "responsible_agency": "Department of Sanitation",
    "final_address": "2083 N Dorgenois St",
    "address_councildis": "D",
    "status": "Assigned to Contractor",
    "contractor": "Metro Disposal",
    "rowid": "880075",
    "final_x": "3683270.84597",
    "final_y": "541387.06158",
    "longitude": "-90.06213298192931",
    "latitude": "29.982572803718302",
    "geocoded_column": {
      "latitude": "29.982572803718302",
      "longitude": "-90.06213298192931"
    }
  },
  {
    "service_request": "2022-880074",
    "request_type": "Trash/Recycling",
    "request_reason": "Order Trash Cart",
    "date_created": "2022-05-04T15:45:05.000",
    "date_modified": "2022-05-04T15:45:06.000",
    "request_status": "Pending",
    "responsible_agency": "Department of Sanitation",
    "final_address": "2081 N Dorgenois St",
    "address_councildis": "D",
    "status": "Assigned to Contractor",
    "contractor": "Metro Disposal",
    "rowid": "880074",
    "final_x": "3683259.67804",
    "final_y": "541385.34126",
    "longitude": "-90.06216831603709",
    "latitude": "29.98256841411268",
    "geocoded_column": {
      "latitude": "29.98256841411268",
      "longitude": "-90.06216831603709"
    }
  },
  {
    "service_request": "2022-880073",
    "request_type": "Trash/Recycling",
    "request_reason": "Start Trash Service",
    "date_created": "2022-05-04T15:44:55.000",
    "date_modified": "2022-05-04T15:44:56.000",
    "request_status": "Pending",
    "responsible_agency": "Department of Sanitation",
    "final_address": "2081 N Dorgenois St",
    "address_councildis": "D",
    "status": "Assigned to Contractor",
    "contractor": "Metro Disposal",
    "rowid": "880073",
    "final_x": "3683259.67804",
    "final_y": "541385.34126",
    "longitude": "-90.06216831603709",
    "latitude": "29.98256841411268",
    "geocoded_column": {
      "latitude": "29.98256841411268",
      "longitude": "-90.06216831603709"
    }
  },
  {
    "service_request": "2022-880072",
    "request_type": "Trash/Recycling",
    "request_reason": "Repair Trash Cart",
    "date_created": "2022-05-04T15:44:04.000",
    "date_modified": "2022-05-04T15:44:05.000",
    "request_status": "Pending",
    "responsible_agency": "Department of Sanitation",
    "final_address": "7151 Ridgefield Dr",
    "address_councildis": "E",
    "status": "Assigned to Contractor",
    "contractor": "Metro Disposal",
    "rowid": "880072",
    "final_x": "3719090.61029",
    "final_y": "570115.396903",
    "longitude": "-89.94790068597304",
    "latitude": "30.060422964684285",
    "geocoded_column": {
      "latitude": "30.060422964684285",
      "longitude": "-89.94790068597304"
    }
  },
  {
    "service_request": "2022-880071",
    "request_type": "Trash/Recycling",
    "request_reason": "Replace Trash Cart",
    "date_created": "2022-05-04T15:38:48.000",
    "date_modified": "2022-05-04T15:38:49.000",
    "request_status": "Pending",
    "responsible_agency": "Department of Sanitation",
    "final_address": "4635 Constance St",
    "address_councildis": "B",
    "status": "Assigned to Contractor",
    "contractor": "Richards Disposal",
    "rowid": "880071",
    "final_x": "3670063.93242",
    "final_y": "518355.021046",
    "longitude": "-90.10462717180957",
    "latitude": "29.919638514878766",
    "geocoded_column": {
      "latitude": "29.919638514878766",
      "longitude": "-90.10462717180957"
    }
  },
  {
    "service_request": "2022-880070",
    "request_type": "Property Maintenance",
    "request_reason": "Property Maintenance",
    "date_created": "2022-05-04T15:34:19.000",
    "date_modified": "2022-05-04T15:34:19.000",
    "request_status": "Pending",
    "responsible_agency": "Department of Code Enforcement",
    "final_address": "7904 St Charles Ave",
    "address_councildis": "A",
    "status": "Pending",
    "rowid": "880070",
    "final_x": "3661026.29478",
    "final_y": "526321.54867",
    "longitude": "-90.13289123267742",
    "latitude": "29.941807354779325",
    "geocoded_column": {
      "latitude": "29.941807354779325",
      "longitude": "-90.13289123267742"
    }
  },
  {
    "service_request": "2022-880069",
    "request_type": "Trash/Recycling",
    "request_reason": "Missed Trash Pick-Up",
    "date_created": "2022-05-04T15:31:42.000",
    "date_modified": "2022-05-04T15:31:43.000",
    "request_status": "Pending",
    "responsible_agency": "Department of Sanitation",
    "final_address": "2400 Laurel St",
    "address_councildis": "B",
    "status": "Assigned to Contractor",
    "contractor": "Richards Disposal",
    "rowid": "880069",
    "final_x": "3678478.25179",
    "final_y": "520835.763641",
    "longitude": "-90.07798152986324",
    "latitude": "29.92620897181711",
    "geocoded_column": {
      "latitude": "29.92620897181711",
      "longitude": "-90.07798152986324"
    }
  },
  {
    "service_request": "2022-880068",
    "request_type": "Trash/Recycling",
    "request_reason": "Repair Trash Cart",
    "date_created": "2022-05-04T15:29:32.000",
    "date_modified": "2022-05-04T15:29:34.000",
    "request_status": "Pending",
    "responsible_agency": "Department of Sanitation",
    "final_address": "510 S Pierce St",
    "address_councildis": "B",
    "status": "Assigned to Contractor",
    "contractor": "Richards Disposal",
    "rowid": "880068",
    "final_x": "3670469.60667",
    "final_y": "536659.005383",
    "longitude": "-90.10272614674696",
    "latitude": "29.969956536763892",
    "geocoded_column": {
      "latitude": "29.969956536763892",
      "longitude": "-90.10272614674696"
    }
  },
  {
    "service_request": "2022-880067",
    "request_type": "Trash/Recycling",
    "request_reason": "Request a Large Item Pick Up",
    "date_created": "2022-05-04T15:21:32.000",
    "date_modified": "2022-05-04T15:21:33.000",
    "request_status": "Pending",
    "responsible_agency": "Department of Sanitation",
    "final_address": "6021 Vicksburg St",
    "address_councildis": "A",
    "status": "Assigned to Contractor",
    "contractor": "Metro Disposal",
    "rowid": "880067",
    "final_x": "3668976.17306",
    "final_y": "547413.756753",
    "longitude": "-90.1070790881477",
    "latitude": "29.999572460045",
    "geocoded_column": {
      "latitude": "29.999572460045",
      "longitude": "-90.1070790881477"
    }
  },
  {
    "service_request": "2022-880066",
    "request_type": "Parks & Parkways",
    "request_reason": "Request Grass Cutting Service (City Owned Property)",
    "date_created": "2022-05-04T15:19:55.000",
    "date_modified": "2022-05-04T15:34:52.000",
    "case_close_date": "2022-05-04T10:34:52.000",
    "request_status": "Closed",
    "responsible_agency": "Department of Parks & Parkway",
    "final_address": "DWYER RD & WILSON AVE",
    "address_councildis": "E",
    "status": "Referred to External Agency",
    "rowid": "880066",
    "final_x": "3702878.9",
    "final_y": "555963.48",
    "longitude": "-89.99966559870833",
    "latitude": "30.022039761434662",
    "geocoded_column": {
      "latitude": "30.022039761434662",
      "longitude": "-89.99966559870833"
    }
  },
  {
    "service_request": "2022-880065",
    "request_type": "Trash/Recycling",
    "request_reason": "Request a Large Item Pick Up",
    "date_created": "2022-05-04T15:19:40.000",
    "date_modified": "2022-05-04T15:19:41.000",
    "request_status": "Pending",
    "responsible_agency": "Department of Sanitation",
    "final_address": "4190 Orleans Ave",
    "address_councildis": "A",
    "status": "Assigned to Contractor",
    "contractor": "Richards Disposal",
    "rowid": "880065",
    "final_x": "3672028.41742",
    "final_y": "540500.063179",
    "longitude": "-90.09767244655575",
    "latitude": "29.980472018836824",
    "geocoded_column": {
      "latitude": "29.980472018836824",
      "longitude": "-90.09767244655575"
    }
  },
  {
    "service_request": "2022-880064",
    "request_type": "Safety & Permits",
    "request_reason": "Short term Rental (Enforcement)",
    "date_created": "2022-05-04T15:18:07.000",
    "date_modified": "2022-05-04T15:18:07.000",
    "request_status": "Pending",
    "responsible_agency": "Safety and Permits",
    "final_address": "709 Jackson Ave Apt 303",
    "address_councildis": "B",
    "status": "Pending",
    "rowid": "880064",
    "final_x": "3679730.61231",
    "final_y": "521050.825529",
    "longitude": "-90.0740207259318",
    "latitude": "29.926762535354417",
    "geocoded_column": {
      "latitude": "29.926762535354417",
      "longitude": "-90.0740207259318"
    }
  },
  {
    "service_request": "2022-880063",
    "request_type": "Traffic Signals/Signs/Striping/Streetlights",
    "request_reason": "Street Light Outage/Malfunction",
    "date_created": "2022-05-04T15:16:33.000",
    "date_modified": "2022-05-04T15:16:33.000",
    "request_status": "Pending",
    "responsible_agency": "Department of Public Works",
    "final_address": "545 St Charles Ave",
    "address_councildis": "B",
    "status": "Pending",
    "contractor": "Royal Engineering",
    "rowid": "880063",
    "final_x": "3680580.1853",
    "final_y": "528976.663552",
    "longitude": "-90.0710632336451",
    "latitude": "29.948530260367836",
    "geocoded_column": {
      "latitude": "29.948530260367836",
      "longitude": "-90.0710632336451"
    }
  },
  {
    "service_request": "2022-880061",
    "request_type": "Trash/Recycling",
    "request_reason": "Request a Large Item Pick Up",
    "date_created": "2022-05-04T15:15:46.000",
    "date_modified": "2022-05-04T15:15:47.000",
    "request_status": "Pending",
    "responsible_agency": "Department of Sanitation",
    "final_address": "1315 S Norman C Francis Prkwy",
    "address_councildis": "B",
    "status": "Assigned to Contractor",
    "contractor": "Richards Disposal",
    "rowid": "880061",
    "final_x": "3669612.87777",
    "final_y": "532113.351107",
    "longitude": "-90.10558560603071",
    "latitude": "29.95748277082436",
    "geocoded_column": {
      "latitude": "29.95748277082436",
      "longitude": "-90.10558560603071"
    }
  },
  {
    "service_request": "2022-880060",
    "request_type": "Roads/Drainage",
    "request_reason": "Damaged Sidewalk",
    "date_created": "2022-05-04T15:13:46.000",
    "date_modified": "2022-05-04T15:13:46.000",
    "request_status": "Pending",
    "responsible_agency": "Department of Public Works",
    "final_address": "525 St Charles Ave",
    "address_councildis": "B",
    "status": "Pending",
    "rowid": "880060",
    "final_x": "3680626.32571",
    "final_y": "529154.17792",
    "longitude": "-90.07091137394643",
    "latitude": "29.94901696757006",
    "geocoded_column": {
      "latitude": "29.94901696757006",
      "longitude": "-90.07091137394643"
    }
  },
  {
    "service_request": "2022-880059",
    "request_type": "Parks & Parkways",
    "request_reason": "Request Tree Service (Right of Way/Public Property)",
    "date_created": "2022-05-04T15:13:10.000",
    "date_modified": "2022-05-04T15:13:50.000",
    "case_close_date": "2022-05-04T10:13:50.000",
    "request_status": "Closed",
    "responsible_agency": "Department of Parks & Parkway",
    "final_address": "3568 Roger Williams St",
    "address_councildis": "D",
    "status": "Resolved",
    "rowid": "880059",
    "final_x": "3675764.99278",
    "final_y": "543910.606734",
    "longitude": "-90.08575343715651",
    "latitude": "29.989738507671117",
    "geocoded_column": {
      "latitude": "29.989738507671117",
      "longitude": "-90.08575343715651"
    }
  },
  {
    "service_request": "2022-880058",
    "request_type": "Roads/Drainage",
    "request_reason": "Debris in Roadway",
    "date_created": "2022-05-04T15:12:33.000",
    "date_modified": "2022-05-04T15:12:35.000",
    "request_status": "Pending",
    "responsible_agency": "Department of Public Works",
    "final_address": "DUBLIN ST & FORSHEY ST",
    "address_councildis": "A",
    "status": "Pending",
    "rowid": "880058",
    "final_x": "3666751.5",
    "final_y": "534150.48",
    "longitude": "-90.11455259866369",
    "latitude": "29.96316819758448",
    "geocoded_column": {
      "latitude": "29.96316819758448",
      "longitude": "-90.11455259866369"
    }
  },
  {
    "service_request": "2022-880057",
    "request_type": "Traffic Signals/Signs/Striping/Streetlights",
    "request_reason": "Traffic Signal Malfunctioning/Damaged",
    "date_created": "2022-05-04T15:10:33.000",
    "date_modified": "2022-05-04T15:10:33.000",
    "request_status": "Pending",
    "responsible_agency": "Department of Public Works",
    "final_address": "500 St Charles Ave",
    "address_councildis": "B",
    "status": "Pending",
    "rowid": "880057",
    "final_x": "3680716.76725",
    "final_y": "529174.737728",
    "longitude": "-90.07062509542807",
    "latitude": "29.949070759966425",
    "geocoded_column": {
      "latitude": "29.949070759966425",
      "longitude": "-90.07062509542807"
    }
  },
  {
    "service_request": "2022-880054",
    "request_type": "Trash/Recycling",
    "request_reason": "Missed Trash Pick-Up",
    "date_created": "2022-05-04T15:09:08.000",
    "date_modified": "2022-05-04T15:09:09.000",
    "request_status": "Pending",
    "responsible_agency": "Department of Sanitation",
    "final_address": "4730 Banks St",
    "address_councildis": "A",
    "status": "Assigned to Contractor",
    "contractor": "Richards Disposal",
    "rowid": "880054",
    "final_x": "3668121.73498",
    "final_y": "538991.995786",
    "longitude": "-90.11006232197732",
    "latitude": "29.976440604315428",
    "geocoded_column": {
      "latitude": "29.976440604315428",
      "longitude": "-90.11006232197732"
    }
  },
  {
    "service_request": "2022-880053",
    "request_type": "Traffic Signals/Signs/Striping/Streetlights",
    "request_reason": "Traffic Signal Malfunctioning/Damaged",
    "date_created": "2022-05-04T15:06:28.000",
    "date_modified": "2022-05-04T15:06:28.000",
    "request_status": "Pending",
    "responsible_agency": "Department of Public Works",
    "final_address": "333 St Charles Ave",
    "address_councildis": "B",
    "status": "Pending",
    "rowid": "880053",
    "final_x": "3680784.35733",
    "final_y": "529767.341121",
    "longitude": "-90.07039106084208",
    "latitude": "29.950698171749757",
    "geocoded_column": {
      "latitude": "29.950698171749757",
      "longitude": "-90.07039106084208"
    }
  },
  {
    "service_request": "2022-880052",
    "request_type": "Trash/Recycling",
    "request_reason": "Repair Trash Cart",
    "date_created": "2022-05-04T14:52:44.000",
    "date_modified": "2022-05-04T14:52:44.000",
    "request_status": "Pending",
    "responsible_agency": "Department of Sanitation",
    "final_address": "1807 Fern St",
    "address_councildis": "A",
    "status": "Assigned to Contractor",
    "contractor": "Richards Disposal",
    "rowid": "880052",
    "final_x": "3664029.0738",
    "final_y": "529435.163713",
    "longitude": "-90.12330698556283",
    "latitude": "29.95028195347555",
    "geocoded_column": {
      "latitude": "29.95028195347555",
      "longitude": "-90.12330698556283"
    }
  },
  {
    "service_request": "2022-880051",
    "request_type": "Property Maintenance",
    "request_reason": "Property Maintenance",
    "date_created": "2022-05-04T14:46:13.000",
    "date_modified": "2022-05-04T14:46:14.000",
    "request_status": "Pending",
    "responsible_agency": "Department of Code Enforcement",
    "final_address": "4219 America St",
    "address_councildis": "E",
    "status": "Pending",
    "rowid": "880051",
    "final_x": "3700047.28714",
    "final_y": "552209.732246",
    "longitude": "-90.00874983145849",
    "latitude": "30.011808699614466",
    "geocoded_column": {
      "latitude": "30.011808699614466",
      "longitude": "-90.00874983145849"
    }
  },
  {
    "service_request": "2022-880050",
    "request_type": "Trash/Recycling",
    "request_reason": "MIssed Recycling Pick-Up",
    "date_created": "2022-05-04T14:38:16.000",
    "date_modified": "2022-05-04T14:38:17.000",
    "request_status": "Pending",
    "responsible_agency": "Department of Sanitation",
    "final_address": "418 S Scott St",
    "address_councildis": "B",
    "status": "Assigned to Contractor",
    "contractor": "Richards Disposal",
    "rowid": "880050",
    "final_x": "3670952.65121",
    "final_y": "536682.005383",
    "longitude": "-90.1011998601443",
    "latitude": "29.970005505535237",
    "geocoded_column": {
      "latitude": "29.970005505535237",
      "longitude": "-90.1011998601443"
    }
  },
  {
    "service_request": "2022-880049",
    "request_type": "Property Maintenance",
    "request_reason": "Property Maintenance",
    "date_created": "2022-05-04T14:37:38.000",
    "date_modified": "2022-05-04T14:37:38.000",
    "request_status": "Pending",
    "responsible_agency": "Department of Code Enforcement",
    "final_address": "1454 Riviera Ave",
    "address_councildis": "D",
    "status": "Pending",
    "rowid": "880049",
    "final_x": "3677962.58062",
    "final_y": "550787.500437",
    "longitude": "-90.0785739914384",
    "latitude": "30.008581558984854",
    "geocoded_column": {
      "latitude": "30.008581558984854",
      "longitude": "-90.0785739914384"
    }
  },
  {
    "service_request": "2022-880048",
    "request_type": "Abandoned Vehicles",
    "request_reason": "Abandoned/Junk Vehicles",
    "date_created": "2022-05-04T14:33:48.000",
    "date_modified": "2022-05-04T14:33:49.000",
    "request_status": "Pending",
    "responsible_agency": "Department of Public Works",
    "final_address": "2813 DAbadie St",
    "address_councildis": "D",
    "status": "Pending",
    "rowid": "880048",
    "final_x": "3678882.43586",
    "final_y": "541296.724172",
    "longitude": "-90.07599689393",
    "latitude": "29.982457544792517",
    "geocoded_column": {
      "latitude": "29.982457544792517",
      "longitude": "-90.07599689393"
    }
  },
  {
    "service_request": "2022-880047",
    "request_type": "Traffic Signals/Signs/Striping/Streetlights",
    "request_reason": "Traffic Sign Missing/Damaged",
    "date_created": "2022-05-04T14:32:19.000",
    "date_modified": "2022-05-04T14:32:20.000",
    "request_status": "Pending",
    "responsible_agency": "Department of Public Works",
    "final_address": "1000 City Park Ave",
    "address_councildis": "A",
    "status": "Pending",
    "rowid": "880047",
    "final_x": "3672317.64155",
    "final_y": "541533.671692",
    "longitude": "-90.09672371848448",
    "latitude": "29.9833055096376",
    "geocoded_column": {
      "latitude": "29.9833055096376",
      "longitude": "-90.09672371848448"
    }
  },
  {
    "service_request": "2022-880046",
    "request_type": "Trash/Recycling",
    "request_reason": "Repair Trash Cart",
    "date_created": "2022-05-04T14:29:41.000",
    "date_modified": "2022-05-04T14:29:42.000",
    "request_status": "Pending",
    "responsible_agency": "Department of Sanitation",
    "final_address": "4717 Euphrosine St",
    "address_councildis": "B",
    "status": "Assigned to Contractor",
    "contractor": "Richards Disposal",
    "rowid": "880046",
    "final_x": "3670030.03502",
    "final_y": "533398.31642",
    "longitude": "-90.10422481978267",
    "latitude": "29.96100370308351",
    "geocoded_column": {
      "latitude": "29.96100370308351",
      "longitude": "-90.10422481978267"
    }
  },
  {
    "service_request": "2022-880044",
    "request_type": "Abandoned Vehicles",
    "request_reason": "Abandoned/Junk Vehicles",
    "date_created": "2022-05-04T14:22:48.000",
    "date_modified": "2022-05-04T14:24:42.000",
    "request_status": "Pending",
    "responsible_agency": "Department of Public Works",
    "final_address": "6373 Louisville St",
    "address_councildis": "A",
    "status": "Pending",
    "rowid": "880044",
    "final_x": "3668062.28141",
    "final_y": "549942.447956",
    "longitude": "-90.10988082052275",
    "latitude": "30.006552343539962",
    "geocoded_column": {
      "latitude": "30.006552343539962",
      "longitude": "-90.10988082052275"
    }
  },
  {
    "service_request": "2022-880043",
    "request_type": "Property Maintenance",
    "request_reason": "Property Maintenance",
    "date_created": "2022-05-04T14:22:28.000",
    "date_modified": "2022-05-04T14:22:28.000",
    "request_status": "Pending",
    "responsible_agency": "Department of Code Enforcement",
    "final_address": "2519 Cleveland Ave",
    "address_councildis": "B",
    "status": "Pending",
    "rowid": "880043",
    "final_x": "3675782.61697",
    "final_y": "534302.254085",
    "longitude": "-90.0860281437797",
    "latitude": "29.963318302068597",
    "geocoded_column": {
      "latitude": "29.963318302068597",
      "longitude": "-90.0860281437797"
    }
  },
  {
    "service_request": "2022-880042",
    "request_type": "Property Maintenance",
    "request_reason": "Property Maintenance",
    "date_created": "2022-05-04T14:21:41.000",
    "date_modified": "2022-05-04T14:21:41.000",
    "request_status": "Pending",
    "responsible_agency": "Department of Code Enforcement",
    "final_address": "3243 Chestnut St",
    "address_councildis": "B",
    "status": "Pending",
    "rowid": "880042",
    "final_x": "3675112.89147",
    "final_y": "520528.477496",
    "longitude": "-90.0886155585535",
    "latitude": "29.925464985569292",
    "geocoded_column": {
      "latitude": "29.925464985569292",
      "longitude": "-90.0886155585535"
    }
  },
  {
    "service_request": "2022-880041",
    "request_type": "Roads/Drainage",
    "request_reason": "Pothole",
    "date_created": "2022-05-04T14:20:50.000",
    "date_modified": "2022-05-04T14:20:51.000",
    "request_status": "Pending",
    "responsible_agency": "Department of Public Works",
    "final_address": "900 BLK Navarre St",
    "address_councildis": "A",
    "status": "Pending",
    "rowid": "880041",
    "final_x": "3669842.5192",
    "final_y": "543712.162691",
    "longitude": "-90.10446767014864",
    "latitude": "29.989368831875005",
    "geocoded_column": {
      "latitude": "29.989368831875005",
      "longitude": "-90.10446767014864"
    }
  },
  {
    "service_request": "2022-880040",
    "request_type": "Abandoned Vehicles",
    "request_reason": "Abandoned/Junk Vehicles",
    "date_created": "2022-05-04T14:18:43.000",
    "date_modified": "2022-05-04T14:18:43.000",
    "request_status": "Pending",
    "responsible_agency": "Department of Public Works",
    "final_address": "7101 Walmsley Ave",
    "address_councildis": "B",
    "status": "Pending",
    "rowid": "880040",
    "final_x": "3667494.98266",
    "final_y": "531150.84269",
    "longitude": "-90.11230570018654",
    "latitude": "29.95489841607767",
    "geocoded_column": {
      "latitude": "29.95489841607767",
      "longitude": "-90.11230570018654"
    }
  },
  {
    "service_request": "2022-880039",
    "request_type": "Property Maintenance",
    "request_reason": "Property Maintenance",
    "date_created": "2022-05-04T14:17:21.000",
    "date_modified": "2022-05-04T14:19:16.000",
    "request_status": "Pending",
    "responsible_agency": "Department of Code Enforcement",
    "final_address": "2430 Freret St",
    "address_councildis": "B",
    "status": "Pending",
    "rowid": "880039",
    "final_x": "3674957.66459",
    "final_y": "525802.218173",
    "longitude": "-90.08892476593708",
    "latitude": "29.93997069330675",
    "geocoded_column": {
      "latitude": "29.93997069330675",
      "longitude": "-90.08892476593708"
    }
  },
  {
    "service_request": "2022-880038",
    "request_type": "Trash/Recycling",
    "request_reason": "Request a Large Item Pick Up",
    "date_created": "2022-05-04T14:17:12.000",
    "date_modified": "2022-05-04T14:17:13.000",
    "request_status": "Pending",
    "responsible_agency": "Department of Sanitation",
    "final_address": "2005 General Taylor St",
    "address_councildis": "B",
    "status": "Assigned to Contractor",
    "contractor": "Richards Disposal",
    "rowid": "880038",
    "final_x": "3672326.5506",
    "final_y": "522517.444538",
    "longitude": "-90.09734346571862",
    "latitude": "29.93101693831296",
    "geocoded_column": {
      "latitude": "29.93101693831296",
      "longitude": "-90.09734346571862"
    }
  },
  {
    "service_request": "2022-880037",
    "request_type": "Trash/Recycling",
    "request_reason": "Replace Trash Cart",
    "date_created": "2022-05-04T14:16:46.000",
    "date_modified": "2022-05-04T14:16:47.000",
    "request_status": "Pending",
    "responsible_agency": "Department of Sanitation",
    "final_address": "6373 Louisville St",
    "address_councildis": "A",
    "status": "Assigned to Contractor",
    "contractor": "Metro Disposal",
    "rowid": "880037",
    "final_x": "3668062.28141",
    "final_y": "549942.447956",
    "longitude": "-90.10988082052275",
    "latitude": "30.006552343539962",
    "geocoded_column": {
      "latitude": "30.006552343539962",
      "longitude": "-90.10988082052275"
    }
  },
  {
    "service_request": "2022-880036",
    "request_type": "Trash/Recycling",
    "request_reason": "Illegal Dumping",
    "date_created": "2022-05-04T14:15:12.000",
    "date_modified": "2022-05-04T14:15:12.000",
    "request_status": "Pending",
    "responsible_agency": "Department of Sanitation",
    "final_address": "5700 Burgundy St",
    "address_councildis": "E",
    "status": "Pending",
    "rowid": "880036",
    "final_x": "3698183.38339",
    "final_y": "532852.995204",
    "longitude": "-90.01534209767425",
    "latitude": "29.958643855743755",
    "geocoded_column": {
      "latitude": "29.958643855743755",
      "longitude": "-90.01534209767425"
    }
  },
  {
    "service_request": "2022-880034",
    "request_type": "Trash/Recycling",
    "request_reason": "Replace Trash Cart",
    "date_created": "2022-05-04T14:10:46.000",
    "date_modified": "2022-05-04T14:10:46.000",
    "request_status": "Pending",
    "responsible_agency": "Department of Sanitation",
    "final_address": "4439 Eden St",
    "address_councildis": "B",
    "status": "Assigned to Contractor",
    "contractor": "Richards Disposal",
    "rowid": "880034",
    "final_x": "3669737.08852",
    "final_y": "530822.482818",
    "longitude": "-90.10523707225651",
    "latitude": "29.95392964822065",
    "geocoded_column": {
      "latitude": "29.95392964822065",
      "longitude": "-90.10523707225651"
    }
  },
  {
    "service_request": "2022-880033",
    "request_type": "Traffic Signals/Signs/Striping/Streetlights",
    "request_reason": "Street Light Outage/Malfunction",
    "date_created": "2022-05-04T14:10:04.000",
    "date_modified": "2022-05-04T14:10:05.000",
    "request_status": "Pending",
    "responsible_agency": "Department of Public Works",
    "final_address": "LE BOEUF ST & OPELOUSAS AVE",
    "address_councildis": "C",
    "status": "Pending",
    "contractor": "Royal Engineering",
    "rowid": "880033",
    "final_x": "3689811.2",
    "final_y": "529007.58",
    "longitude": "-90.04191604187763",
    "latitude": "29.94833242893369",
    "geocoded_column": {
      "latitude": "29.94833242893369",
      "longitude": "-90.04191604187763"
    }
  },
  {
    "service_request": "2022-880032",
    "request_type": "Traffic Signals/Signs/Striping/Streetlights",
    "request_reason": "Street Light Outage/Malfunction",
    "date_created": "2022-05-04T14:08:44.000",
    "date_modified": "2022-05-04T14:08:48.000",
    "request_status": "Pending",
    "responsible_agency": "Department of Public Works",
    "final_address": "OPELOUSAS AVE & WHITNEY AVE",
    "address_councildis": "C",
    "status": "Pending",
    "contractor": "Royal Engineering",
    "rowid": "880032",
    "final_x": "3690181.6",
    "final_y": "529035.88",
    "longitude": "-90.04074553195856",
    "latitude": "29.9483987603064",
    "geocoded_column": {
      "latitude": "29.9483987603064",
      "longitude": "-90.04074553195856"
    }
  },
  {
    "service_request": "2022-880031",
    "request_type": "Abandoned Vehicles",
    "request_reason": "Abandoned/Junk Vehicles",
    "date_created": "2022-05-04T14:08:14.000",
    "date_modified": "2022-05-04T14:08:15.000",
    "request_status": "Pending",
    "responsible_agency": "Department of Public Works",
    "final_address": "BURBANK DR & CAMERON BLVD",
    "address_councildis": "D",
    "status": "Pending",
    "rowid": "880031",
    "final_x": "3682386.8",
    "final_y": "554681.38",
    "longitude": "-90.06446024896526",
    "latitude": "30.019154356255818",
    "geocoded_column": {
      "latitude": "30.019154356255818",
      "longitude": "-90.06446024896526"
    }
  },
  {
    "service_request": "2022-880030",
    "request_type": "Traffic Signals/Signs/Striping/Streetlights",
    "request_reason": "Street Light Outage/Malfunction",
    "date_created": "2022-05-04T14:08:11.000",
    "date_modified": "2022-05-04T14:08:12.000",
    "request_status": "Pending",
    "responsible_agency": "Department of Public Works",
    "final_address": "1520 Opelousas Ave",
    "address_councildis": "C",
    "status": "Pending",
    "contractor": "Royal Engineering",
    "rowid": "880030",
    "final_x": "3690014.87324",
    "final_y": "529101.523008",
    "longitude": "-90.04126961873517",
    "latitude": "29.948584426517517",
    "geocoded_column": {
      "latitude": "29.948584426517517",
      "longitude": "-90.04126961873517"
    }
  },
  {
    "service_request": "2022-880029",
    "request_type": "Traffic Signals/Signs/Striping/Streetlights",
    "request_reason": "Street Light Outage/Malfunction",
    "date_created": "2022-05-04T14:06:29.000",
    "date_modified": "2022-05-04T14:06:30.000",
    "request_status": "Pending",
    "responsible_agency": "Department of Public Works",
    "final_address": "URQUHART ST & LIZARDI ST",
    "address_councildis": "E",
    "status": "Pending",
    "contractor": "Royal Engineering",
    "rowid": "880029",
    "final_x": "3696737.4",
    "final_y": "534857.68",
    "longitude": "-90.01983554684213",
    "latitude": "29.964201682354116",
    "geocoded_column": {
      "latitude": "29.964201682354116",
      "longitude": "-90.01983554684213"
    }
  },
  {
    "service_request": "2022-880027",
    "request_type": "Trash/Recycling",
    "request_reason": "Return Recycling Cart",
    "date_created": "2022-05-04T14:02:12.000",
    "date_modified": "2022-05-04T14:07:49.000",
    "request_status": "Pending",
    "responsible_agency": "Department of Sanitation",
    "final_address": "New Orleans,LA",
    "address_councildis": "E",
    "rowid": "880027",
    "final_x": "3715515.39186",
    "final_y": "562453.671711",
    "longitude": "-89.95949206437257",
    "latitude": "30.03947472744739",
    "geocoded_column": {
      "latitude": "30.03947472744739",
      "longitude": "-89.95949206437257"
    }
  },
  {
    "service_request": "2022-880026",
    "request_type": "Trash/Recycling",
    "request_reason": "Missed Trash Pick-Up",
    "date_created": "2022-05-04T13:51:39.000",
    "date_modified": "2022-05-04T13:51:40.000",
    "request_status": "Pending",
    "responsible_agency": "Department of Sanitation",
    "final_address": "2349 Magazine St",
    "address_councildis": "B",
    "status": "Assigned to Contractor",
    "contractor": "Richards Disposal",
    "rowid": "880026",
    "final_x": "3678204.50888",
    "final_y": "521638.406009",
    "longitude": "-90.07881791789399",
    "latitude": "29.92842422034972",
    "geocoded_column": {
      "latitude": "29.92842422034972",
      "longitude": "-90.07881791789399"
    }
  },
  {
    "service_request": "2022-880025",
    "request_type": "Roads/Drainage",
    "request_reason": "Street Subsidence (Sinking)",
    "date_created": "2022-05-04T13:50:06.000",
    "date_modified": "2022-05-04T13:50:06.000",
    "request_status": "Pending",
    "responsible_agency": "Department of Public Works",
    "final_address": "4300 Annunciation St",
    "address_councildis": "B",
    "status": "Pending",
    "rowid": "880025",
    "final_x": "3671514.36155",
    "final_y": "517749.57503",
    "longitude": "-90.10006944241383",
    "latitude": "29.917930884423793",
    "geocoded_column": {
      "latitude": "29.917930884423793",
      "longitude": "-90.10006944241383"
    }
  },
  {
    "service_request": "2022-880024",
    "request_type": "Trash/Recycling",
    "request_reason": "Request a Large Item Pick Up",
    "date_created": "2022-05-04T13:48:59.000",
    "date_modified": "2022-05-04T14:02:55.000",
    "request_status": "Pending",
    "responsible_agency": "Department of Sanitation",
    "final_address": "2845 Baronne St, New Orleans, Louisiana, 70115",
    "address_councildis": "B",
    "status": "Assigned to Contractor",
    "contractor": "Richards Disposal",
    "rowid": "880024",
    "final_x": "3675184.40705",
    "final_y": "522969.222715",
    "longitude": "-90.08830608961844",
    "latitude": "29.93217410799066",
    "geocoded_column": {
      "latitude": "29.93217410799066",
      "longitude": "-90.08830608961844"
    }
  },
  {
    "service_request": "2022-880023",
    "request_type": "Traffic Signals/Signs/Striping/Streetlights",
    "request_reason": "Traffic Signal Malfunctioning/Damaged",
    "date_created": "2022-05-04T13:48:10.000",
    "date_modified": "2022-05-04T13:48:10.000",
    "request_status": "Pending",
    "responsible_agency": "Department of Public Works",
    "final_address": "ESPLANADE AVE & N CLAIBORNE AVE",
    "address_councildis": "D",
    "status": "Pending",
    "rowid": "880023",
    "final_x": "3681231.3",
    "final_y": "536639.18",
    "longitude": "-90.06874038104324",
    "latitude": "29.969579834804723",
    "geocoded_column": {
      "latitude": "29.969579834804723",
      "longitude": "-90.06874038104324"
    }
  },
  {
    "service_request": "2022-880022",
    "request_type": "Trash/Recycling",
    "request_reason": "Missed Trash Pick-Up",
    "date_created": "2022-05-04T13:43:10.000",
    "date_modified": "2022-05-04T13:43:13.000",
    "request_status": "Pending",
    "responsible_agency": "Department of Sanitation",
    "final_address": "3 Trianon Plz",
    "address_councildis": "B",
    "status": "Assigned to Contractor",
    "contractor": "Richards Disposal",
    "rowid": "880022",
    "final_x": "3667246.07764",
    "final_y": "530918.154946",
    "longitude": "-90.11309947514152",
    "latitude": "29.95426589167475",
    "geocoded_column": {
      "latitude": "29.95426589167475",
      "longitude": "-90.11309947514152"
    }
  },
  {
    "service_request": "2022-880021",
    "request_type": "Trash/Recycling",
    "request_reason": "Missed Trash Pick-Up",
    "date_created": "2022-05-04T13:38:17.000",
    "date_modified": "2022-05-04T13:38:23.000",
    "request_status": "Pending",
    "responsible_agency": "Department of Sanitation",
    "final_address": "1120 Eighth St",
    "address_councildis": "B",
    "status": "Assigned to Contractor",
    "contractor": "Richards Disposal",
    "rowid": "880021",
    "final_x": "3675980.96021",
    "final_y": "520332.467832",
    "longitude": "-90.08588206810029",
    "latitude": "29.924900065027835",
    "geocoded_column": {
      "latitude": "29.924900065027835",
      "longitude": "-90.08588206810029"
    }
  },
  {
    "service_request": "2022-880020",
    "request_type": "Trash/Recycling",
    "request_reason": "Replace Recycling Cart",
    "date_created": "2022-05-04T13:35:20.000",
    "date_modified": "2022-05-04T13:35:20.000",
    "request_status": "Pending",
    "responsible_agency": "Department of Sanitation",
    "final_address": "5624 Sutton Pl, New Orleans, Louisiana, 70131",
    "address_councildis": "C",
    "status": "Pending",
    "rowid": "880020",
    "final_x": "3704793.96068",
    "final_y": "518483.93887",
    "longitude": "-89.99499774356362",
    "latitude": "29.91892328855782",
    "geocoded_column": {
      "latitude": "29.91892328855782",
      "longitude": "-89.99499774356362"
    }
  },
  {
    "service_request": "2022-880019",
    "request_type": "Trash/Recycling",
    "request_reason": "Replace Trash Cart",
    "date_created": "2022-05-04T13:33:40.000",
    "date_modified": "2022-05-04T13:33:41.000",
    "request_status": "Pending",
    "responsible_agency": "Department of Sanitation",
    "final_address": "5624 Sutton Pl, New Orleans, Louisiana, 70131",
    "address_councildis": "C",
    "status": "Assigned to Contractor",
    "contractor": "Richards Disposal",
    "rowid": "880019",
    "final_x": "3704793.96068",
    "final_y": "518483.93887",
    "longitude": "-89.99499774356362",
    "latitude": "29.91892328855782",
    "geocoded_column": {
      "latitude": "29.91892328855782",
      "longitude": "-89.99499774356362"
    }
  },
  {
    "service_request": "2022-880018",
    "request_type": "Property Maintenance",
    "request_reason": "Property Maintenance",
    "date_created": "2022-05-04T13:27:43.000",
    "date_modified": "2022-05-04T13:27:43.000",
    "request_status": "Pending",
    "responsible_agency": "Department of Code Enforcement",
    "final_address": "1206 Mandolin St",
    "address_councildis": "D",
    "status": "Pending",
    "rowid": "880018",
    "final_x": "3677219.81723",
    "final_y": "547961.591122",
    "longitude": "-90.08101819612862",
    "latitude": "30.000833656478854",
    "geocoded_column": {
      "latitude": "30.000833656478854",
      "longitude": "-90.08101819612862"
    }
  },
  {
    "service_request": "2022-880016",
    "request_type": "Trash/Recycling",
    "request_reason": "Request a Large Item Pick Up",
    "date_created": "2022-05-04T13:22:43.000",
    "date_modified": "2022-05-04T13:22:44.000",
    "request_status": "Pending",
    "responsible_agency": "Department of Sanitation",
    "final_address": "2721 General Taylor St",
    "address_councildis": "B",
    "status": "Assigned to Contractor",
    "contractor": "Richards Disposal",
    "rowid": "880016",
    "final_x": "3671730.12347",
    "final_y": "525048.955709",
    "longitude": "-90.099140231582",
    "latitude": "29.937995452548574",
    "geocoded_column": {
      "latitude": "29.937995452548574",
      "longitude": "-90.099140231582"
    }
  },
  {
    "service_request": "2022-880015",
    "request_type": "Traffic Signals/Signs/Striping/Streetlights",
    "request_reason": "Street Light Outage/Malfunction",
    "date_created": "2022-05-04T13:22:39.000",
    "date_modified": "2022-05-04T13:22:40.000",
    "request_status": "Pending",
    "responsible_agency": "Department of Public Works",
    "final_address": "538 Dauphine St",
    "address_councildis": "C",
    "status": "Pending",
    "contractor": "Royal Engineering",
    "rowid": "880015",
    "final_x": "3681743.12917",
    "final_y": "532530.530308",
    "longitude": "-90.06726735087871",
    "latitude": "29.958266913528973",
    "geocoded_column": {
      "latitude": "29.958266913528973",
      "longitude": "-90.06726735087871"
    }
  },
  {
    "service_request": "2022-880014",
    "request_type": "Property Maintenance",
    "request_reason": "Property Maintenance",
    "date_created": "2022-05-04T13:22:28.000",
    "date_modified": "2022-05-04T13:22:28.000",
    "request_status": "Pending",
    "responsible_agency": "Department of Code Enforcement",
    "final_address": "1001 Howard Ave",
    "address_councildis": "B",
    "status": "Pending",
    "rowid": "880014",
    "final_x": "3678909.42094",
    "final_y": "528062.176767",
    "longitude": "-90.07637021252258",
    "latitude": "29.94606622969476",
    "geocoded_column": {
      "latitude": "29.94606622969476",
      "longitude": "-90.07637021252258"
    }
  },
  {
    "service_request": "2022-880013",
    "request_type": "Property Maintenance",
    "request_reason": "Property Maintenance",
    "date_created": "2022-05-04T13:21:58.000",
    "date_modified": "2022-05-04T13:21:58.000",
    "request_status": "Pending",
    "responsible_agency": "Department of Code Enforcement",
    "final_address": "3800 Howard Ave",
    "address_councildis": "B",
    "status": "Pending",
    "rowid": "880013",
    "final_x": "3673268.733",
    "final_y": "531920.916611",
    "longitude": "-90.09404805327173",
    "latitude": "29.956845424232803",
    "geocoded_column": {
      "latitude": "29.956845424232803",
      "longitude": "-90.09404805327173"
    }
  },
  {
    "service_request": "2022-880012",
    "request_type": "Property Maintenance",
    "request_reason": "Property Maintenance",
    "date_created": "2022-05-04T13:21:15.000",
    "date_modified": "2022-05-04T13:21:15.000",
    "request_status": "Pending",
    "responsible_agency": "Department of Code Enforcement",
    "final_address": "609 Jackson Ave",
    "address_councildis": "B",
    "status": "Pending",
    "rowid": "880012",
    "final_x": "3679901.14056",
    "final_y": "520810.428217",
    "longitude": "-90.07349075794016",
    "latitude": "29.926096366929237",
    "geocoded_column": {
      "latitude": "29.926096366929237",
      "longitude": "-90.07349075794016"
    }
  },
  {
    "service_request": "2022-880011",
    "request_type": "Property Maintenance",
    "request_reason": "Property Maintenance",
    "date_created": "2022-05-04T13:19:46.000",
    "date_modified": "2022-05-04T13:19:46.000",
    "request_status": "Pending",
    "responsible_agency": "Department of Code Enforcement",
    "final_address": "301 N Norman C Francis Prkwy",
    "address_councildis": "B",
    "status": "Pending",
    "rowid": "880011",
    "final_x": "3673614.82856",
    "final_y": "537594.122504",
    "longitude": "-90.09276123914566",
    "latitude": "29.97243453662993",
    "geocoded_column": {
      "latitude": "29.97243453662993",
      "longitude": "-90.09276123914566"
    }
  },
  {
    "service_request": "2022-880010",
    "request_type": "Traffic Signals/Signs/Striping/Streetlights",
    "request_reason": "Street Light Outage/Malfunction",
    "date_created": "2022-05-04T13:13:48.000",
    "date_modified": "2022-05-04T13:13:48.000",
    "request_status": "Pending",
    "responsible_agency": "Department of Public Works",
    "final_address": "401 Dauphine St",
    "address_councildis": "C",
    "status": "Pending",
    "contractor": "Royal Engineering",
    "rowid": "880010",
    "final_x": "3681300.75189",
    "final_y": "532091.225027",
    "longitude": "-90.06867956740274",
    "latitude": "29.957072405998396",
    "geocoded_column": {
      "latitude": "29.957072405998396",
      "longitude": "-90.06867956740274"
    }
  },
  {
    "service_request": "2022-880009",
    "request_type": "Trash/Recycling",
    "request_reason": "Repair Recycling Cart",
    "date_created": "2022-05-04T13:13:21.000",
    "date_modified": "2022-05-04T13:13:21.000",
    "request_status": "Pending",
    "responsible_agency": "Department of Sanitation",
    "final_address": "1121 Elmira Ave",
    "address_councildis": "C",
    "status": "Pending",
    "rowid": "880009",
    "final_x": "3688035.33935",
    "final_y": "527370.138303",
    "longitude": "-90.04758116636151",
    "latitude": "29.94388493719266",
    "geocoded_column": {
      "latitude": "29.94388493719266",
      "longitude": "-90.04758116636151"
    }
  },
  {
    "service_request": "2022-880008",
    "request_type": "Trash/Recycling",
    "request_reason": "Illegal Dumping",
    "date_created": "2022-05-04T13:13:02.000",
    "date_modified": "2022-05-04T13:13:02.000",
    "request_status": "Pending",
    "responsible_agency": "Department of Sanitation",
    "final_address": "1339 Frenchmen St",
    "address_councildis": "C",
    "status": "Pending",
    "rowid": "880008",
    "final_x": "3684531.85148",
    "final_y": "537341.746888",
    "longitude": "-90.05829228441188",
    "latitude": "29.971411077497905",
    "geocoded_column": {
      "latitude": "29.971411077497905",
      "longitude": "-90.05829228441188"
    }
  },
  {
    "service_request": "2022-880007",
    "request_type": "Abandoned Vehicles",
    "request_reason": "Abandoned/Junk Vehicles",
    "date_created": "2022-05-04T13:11:38.000",
    "date_modified": "2022-05-04T13:11:38.000",
    "request_status": "Pending",
    "responsible_agency": "Department of Public Works",
    "final_address": "14181 Knightway Dr",
    "address_councildis": "E",
    "status": "Pending",
    "rowid": "880007",
    "final_x": "3718911.38329",
    "final_y": "570799.960807",
    "longitude": "-89.9484410556846",
    "latitude": "30.062311187071515",
    "geocoded_column": {
      "latitude": "30.062311187071515",
      "longitude": "-89.9484410556846"
    }
  },
  {
    "service_request": "2022-880005",
    "request_type": "Traffic Signals/Signs/Striping/Streetlights",
    "request_reason": "Street Light Outage/Malfunction",
    "date_created": "2022-05-04T13:08:43.000",
    "date_modified": "2022-05-04T13:08:44.000",
    "request_status": "Pending",
    "responsible_agency": "Department of Public Works",
    "final_address": "946 Burgundy St",
    "address_councildis": "C",
    "status": "Pending",
    "contractor": "Royal Engineering",
    "rowid": "880005",
    "final_x": "3682366.88981",
    "final_y": "533953.334597",
    "longitude": "-90.0652479651211",
    "latitude": "29.9621601736449",
    "geocoded_column": {
      "latitude": "29.9621601736449",
      "longitude": "-90.0652479651211"
    }
  },
  {
    "service_request": "2022-880004",
    "request_type": "Abandoned Vehicles",
    "request_reason": "Abandoned/Junk Vehicles",
    "date_created": "2022-05-04T13:08:32.000",
    "date_modified": "2022-05-04T13:08:33.000",
    "request_status": "Pending",
    "responsible_agency": "Department of Public Works",
    "final_address": "1638 N Tonti St",
    "address_councildis": "D",
    "status": "Pending",
    "rowid": "880004",
    "final_x": "3680443.48725",
    "final_y": "539536.91393",
    "longitude": "-90.07112755372982",
    "latitude": "29.977571486256235",
    "geocoded_column": {
      "latitude": "29.977571486256235",
      "longitude": "-90.07112755372982"
    }
  },
  {
    "service_request": "2022-880003",
    "request_type": "Mayor's Request",
    "request_reason": "Requests to the Mayor",
    "date_created": "2022-05-04T13:06:06.000",
    "date_modified": "2022-05-04T13:06:06.000",
    "request_status": "Pending",
    "responsible_agency": "Executive Office of the Mayor",
    "final_address": "1329 Mandolin St",
    "address_councildis": "D",
    "status": "Pending",
    "rowid": "880003",
    "final_x": "3677456.01672",
    "final_y": "548108.25301",
    "longitude": "-90.08026695708274",
    "latitude": "30.00122982448429",
    "geocoded_column": {
      "latitude": "30.00122982448429",
      "longitude": "-90.08026695708274"
    }
  },
  {
    "service_request": "2022-880002",
    "request_type": "Mayor's Request",
    "request_reason": "Requests to the Mayor",
    "date_created": "2022-05-04T13:05:55.000",
    "date_modified": "2022-05-04T13:05:55.000",
    "request_status": "Pending",
    "responsible_agency": "Executive Office of the Mayor",
    "final_address": "3400 BLK Jackson Ave",
    "address_councildis": "B",
    "status": "Pending",
    "rowid": "880002",
    "final_x": "3673644.55162",
    "final_y": "528875.802272",
    "longitude": "-90.0929654228831",
    "latitude": "29.94846118738616",
    "geocoded_column": {
      "latitude": "29.94846118738616",
      "longitude": "-90.0929654228831"
    }
  },
  {
    "service_request": "2022-880001",
    "request_type": "Roads/Drainage",
    "request_reason": "Accessibility Ramps, Curbs and Sidewalk Repair",
    "date_created": "2022-05-04T13:04:42.000",
    "date_modified": "2022-05-04T13:04:42.000",
    "request_status": "Pending",
    "responsible_agency": "Department of Public Works",
    "final_address": "1014 Adams St",
    "address_councildis": "A",
    "status": "Pending",
    "rowid": "880001",
    "final_x": "3662644.37184",
    "final_y": "526992.828926",
    "longitude": "-90.12776030508476",
    "latitude": "29.94360645032356",
    "geocoded_column": {
      "latitude": "29.94360645032356",
      "longitude": "-90.12776030508476"
    }
  },
  {
    "service_request": "2022-880000",
    "request_type": "Property Maintenance",
    "request_reason": "Property Maintenance",
    "date_created": "2022-05-04T13:04:03.000",
    "date_modified": "2022-05-04T13:04:03.000",
    "request_status": "Pending",
    "responsible_agency": "Department of Code Enforcement",
    "final_address": "1329 Mandolin St",
    "address_councildis": "D",
    "status": "Pending",
    "rowid": "880000",
    "final_x": "3677456.01672",
    "final_y": "548108.25301",
    "longitude": "-90.08026695708274",
    "latitude": "30.00122982448429",
    "geocoded_column": {
      "latitude": "30.00122982448429",
      "longitude": "-90.08026695708274"
    }
  },
  {
    "service_request": "2022-879999",
    "request_type": "Roads/Drainage",
    "request_reason": "Catch Basin - Clogged",
    "date_created": "2022-05-04T13:03:32.000",
    "date_modified": "2022-05-04T13:03:32.000",
    "request_status": "Pending",
    "responsible_agency": "Department of Public Works",
    "final_address": "4657 Clara St",
    "address_councildis": "B",
    "status": "Pending",
    "rowid": "879999",
    "final_x": "3669255.65582",
    "final_y": "525007.268605",
    "longitude": "-90.10695377125919",
    "latitude": "29.937953880608603",
    "geocoded_column": {
      "latitude": "29.937953880608603",
      "longitude": "-90.10695377125919"
    }
  },
  {
    "service_request": "2022-879998",
    "request_type": "Traffic Signals/Signs/Striping/Streetlights",
    "request_reason": "Street Light Outage/Malfunction",
    "date_created": "2022-05-04T13:02:18.000",
    "date_modified": "2022-05-04T13:02:18.000",
    "request_status": "Pending",
    "responsible_agency": "Department of Public Works",
    "final_address": "30 Warbler St",
    "address_councildis": "D",
    "status": "Pending",
    "contractor": "Royal Engineering",
    "rowid": "879998",
    "final_x": "3673575.6763",
    "final_y": "556830.192154",
    "longitude": "-90.09222687105606",
    "latitude": "30.025328160502635",
    "geocoded_column": {
      "latitude": "30.025328160502635",
      "longitude": "-90.09222687105606"
    }
  },