[
  {
    "service_request": "2022-866477",
    "request_type": "Abandoned Vehicles",
    "request_reason": "Abandoned/Junk Vehicles",
    "date_created": "2022-03-11T23:49:11.000",
    "date_modified": "2022-03-11T23:49:11.000",
    "request_status": "Pending",
    "responsible_agency": "Department of Public Works",
    "final_address": "90 Marywood Ct",
    "address_councildis": "E",
    "status": "Pending",
    "rowid": "866477",
    "final_x": "3712623.74437",
    "final_y": "566235.007267",
    "longitude": "-89.96848809808797",
    "latitude": "30.049966886542016",
    "geocoded_column": {
      "latitude": "30.049966886542016",
      "longitude": "-89.96848809808797"
    }
  },
  {
    "service_request": "2022-866476",
    "request_type": "Property Maintenance",
    "request_reason": "Property Maintenance",
    "date_created": "2022-03-11T23:07:43.000",
    "date_modified": "2022-03-11T23:07:43.000",
    "request_status": "Pending",
    "responsible_agency": "Department of Code Enforcement",
    "final_address": "1717 Spain St",
    "address_councildis": "D",
    "status": "Pending",
    "rowid": "866476",
    "final_x": "3685981.4614",
    "final_y": "538768.403721",
    "longitude": "-90.0536638995066",
    "latitude": "29.975289451436204",
    "geocoded_column": {
      "latitude": "29.975289451436204",
      "longitude": "-90.0536638995066"
    }
  },
  {
    "service_request": "2022-866475",
    "request_type": "Trash/Recycling",
    "request_reason": "MIssed Recycling Pick-Up",
    "date_created": "2022-03-11T22:36:28.000",
    "date_modified": "2022-03-11T22:36:29.000",
    "request_status": "Pending",
    "responsible_agency": "Department of Sanitation",
    "final_address": "7432 Hurst St",
    "address_councildis": "A",
    "status": "Assigned to Contractor",
    "contractor": "Richards Disposal",
    "rowid": "866475",
    "final_x": "3661462.61306",
    "final_y": "524033.978172",
    "longitude": "-90.13158942548503",
    "latitude": "29.935504683472388",
    "geocoded_column": {
      "latitude": "29.935504683472388",
      "longitude": "-90.13158942548503"
    }
  },
  {
    "service_request": "2022-866474",
    "request_type": "Traffic Signals/Signs/Striping/Streetlights",
    "request_reason": "Street Light Outage/Malfunction",
    "date_created": "2022-03-11T22:20:00.000",
    "date_modified": "2022-03-11T22:20:01.000",
    "request_status": "Pending",
    "responsible_agency": "Department of Public Works",
    "final_address": "318 22Nd St",
    "address_councildis": "A",
    "status": "Pending",
    "contractor": "Royal Engineering",
    "rowid": "866474",
    "final_x": "3665041.80922",
    "final_y": "549276.337747",
    "longitude": "-90.11944560022026",
    "latitude": "30.004809102764394",
    "geocoded_column": {
      "latitude": "30.004809102764394",
      "longitude": "-90.11944560022026"
    }
  },
  {
    "service_request": "2022-866473",
    "request_type": "Property Maintenance",
    "request_reason": "Property Maintenance",
    "date_created": "2022-03-11T22:08:34.000",
    "date_modified": "2022-03-11T22:08:34.000",
    "request_status": "Pending",
    "responsible_agency": "Department of Code Enforcement",
    "final_address": "3500 St Charles Ave",
    "address_councildis": "B",
    "status": "Pending",
    "rowid": "866473",
    "final_x": "3673765.55617",
    "final_y": "521211.953017",
    "longitude": "-90.09284532799195",
    "latitude": "29.927384498735318",
    "geocoded_column": {
      "latitude": "29.927384498735318",
      "longitude": "-90.09284532799195"
    }
  },
  {
    "service_request": "2022-866472",
    "request_type": "Roads/Drainage",
    "request_reason": "Catch Basin - Clogged",
    "date_created": "2022-03-11T21:52:45.000",
    "date_modified": "2022-03-11T21:52:45.000",
    "request_status": "Pending",
    "responsible_agency": "Department of Public Works",
    "final_address": "1128 Adams St",
    "address_councildis": "A",
    "status": "Pending",
    "rowid": "866472",
    "final_x": "3662951.06541",
    "final_y": "527332.460351",
    "longitude": "-90.12678069669099",
    "latitude": "29.944531451952443",
    "geocoded_column": {
      "latitude": "29.944531451952443",
      "longitude": "-90.12678069669099"
    }
  },
  {
    "service_request": "2022-866471",
    "request_type": "Trash/Recycling",
    "request_reason": "Order Recycling Cart",
    "date_created": "2022-03-11T21:18:25.000",
    "date_modified": "2022-03-11T21:18:25.000",
    "request_status": "Pending",
    "responsible_agency": "Department of Sanitation",
    "final_address": "412 Octavia St",
    "address_councildis": "A",
    "status": "Pending",
    "rowid": "866471",
    "final_x": "3666141.48545",
    "final_y": "517669.44863",
    "longitude": "-90.11703141726298",
    "latitude": "29.917868477217628",
    "geocoded_column": {
      "latitude": "29.917868477217628",
      "longitude": "-90.11703141726298"
    }
  },
  {
    "service_request": "2022-866470",
    "request_type": "Trash/Recycling",
    "request_reason": "Replace Trash Cart",
    "date_created": "2022-03-11T21:16:11.000",
    "date_modified": "2022-03-11T21:16:12.000",
    "request_status": "Pending",
    "responsible_agency": "Department of Sanitation",
    "final_address": "412 Octavia St",
    "address_councildis": "A",
    "status": "Assigned to Contractor",
    "contractor": "Richards Disposal",
    "rowid": "866470",
    "final_x": "3666141.48545",
    "final_y": "517669.44863",
    "longitude": "-90.11703141726298",
    "latitude": "29.917868477217628",
    "geocoded_column": {
      "latitude": "29.917868477217628",
      "longitude": "-90.11703141726298"
    }
  },
  {
    "service_request": "2022-866469",
    "request_type": "Traffic Signals/Signs/Striping/Streetlights",
    "request_reason": "Street Light Outage/Malfunction",
    "date_created": "2022-03-11T21:13:46.000",
    "date_modified": "2022-03-11T21:13:47.000",
    "request_status": "Pending",
    "responsible_agency": "Department of Public Works",
    "final_address": "1200 Frenchmen St",
    "address_councildis": "C",
    "status": "Pending",
    "contractor": "Royal Engineering",
    "rowid": "866469",
    "final_x": "3684498.6285",
    "final_y": "536673.452167",
    "longitude": "-90.05842069031115",
    "latitude": "29.969574515689832",
    "geocoded_column": {
      "latitude": "29.969574515689832",
      "longitude": "-90.05842069031115"
    }
  },
  {
    "service_request": "2022-866468",
    "request_type": "Roads/Drainage",
    "request_reason": "Man hole cover issue",
    "date_created": "2022-03-11T21:03:44.000",
    "date_modified": "2022-03-11T21:03:44.000",
    "request_status": "Pending",
    "responsible_agency": "Department of Public Works",
    "final_address": "601 Poydras St",
    "address_councildis": "B",
    "status": "Pending",
    "rowid": "866468",
    "final_x": "3680938.01679",
    "final_y": "529396.806657",
    "longitude": "-90.06991878324561",
    "latitude": "29.94967466888167",
    "geocoded_column": {
      "latitude": "29.94967466888167",
      "longitude": "-90.06991878324561"
    }
  },
  {
    "service_request": "2022-866467",
    "request_type": "Property Maintenance",
    "request_reason": "Property Maintenance",
    "date_created": "2022-03-11T20:37:26.000",
    "date_modified": "2022-03-11T20:37:26.000",
    "request_status": "Pending",
    "responsible_agency": "Department of Code Enforcement",
    "final_address": "1856 Industry St",
    "address_councildis": "D",
    "status": "Pending",
    "rowid": "866467",
    "final_x": "3682041.81634",
    "final_y": "542697.738445",
    "longitude": "-90.06596907665808",
    "latitude": "29.986214139086236",
    "geocoded_column": {
      "latitude": "29.986214139086236",
      "longitude": "-90.06596907665808"
    }
  },
  {
    "service_request": "2022-866466",
    "request_type": "Trash/Recycling",
    "request_reason": "Request a Large Item Pick Up",
    "date_created": "2022-03-11T20:10:04.000",
    "date_modified": "2022-03-11T20:10:05.000",
    "request_status": "Pending",
    "responsible_agency": "Department of Sanitation",
    "final_address": "1128 Adams St",
    "address_councildis": "A",
    "status": "Assigned to Contractor",
    "contractor": "Richards Disposal",
    "rowid": "866466",
    "final_x": "3662951.06541",
    "final_y": "527332.460351",
    "longitude": "-90.12678069669099",
    "latitude": "29.944531451952443",
    "geocoded_column": {
      "latitude": "29.944531451952443",
      "longitude": "-90.12678069669099"
    }
  },
  {
    "service_request": "2022-866465",
    "request_type": "Trash/Recycling",
    "request_reason": "MIssed Recycling Pick-Up",
    "date_created": "2022-03-11T19:13:31.000",
    "date_modified": "2022-03-11T19:13:33.000",
    "request_status": "Pending",
    "responsible_agency": "Department of Sanitation",
    "final_address": "208 Hillary St",
    "address_councildis": "A",
    "status": "Assigned to Contractor",
    "contractor": "Richards Disposal",
    "rowid": "866465",
    "final_x": "3660791.92806",
    "final_y": "524467.190908",
    "longitude": "-90.13369247583448",
    "latitude": "29.936715206414828",
    "geocoded_column": {
      "latitude": "29.936715206414828",
      "longitude": "-90.13369247583448"
    }
  },
  {
    "service_request": "2022-866464",
    "request_type": "Trash/Recycling",
    "request_reason": "Illegal Dumping",
    "date_created": "2022-03-11T18:59:18.000",
    "date_modified": "2022-03-11T18:59:18.000",
    "request_status": "Pending",
    "responsible_agency": "Department of Code Enforcement",
    "final_address": "2218 Felicity St",
    "address_councildis": "B",
    "status": "Pending",
    "rowid": "866464",
    "final_x": "3676528.37544",
    "final_y": "526471.37203",
    "longitude": "-90.08394275877643",
    "latitude": "29.941763647904185",
    "geocoded_column": {
      "latitude": "29.941763647904185",
      "longitude": "-90.08394275877643"
    }
  },
  {
    "service_request": "2022-866463",
    "request_type": "Abandoned Vehicles",
    "request_reason": "Abandoned/Junk Vehicles",
    "date_created": "2022-03-11T18:33:46.000",
    "date_modified": "2022-03-11T18:33:46.000",
    "request_status": "Pending",
    "responsible_agency": "Department of Public Works",
    "final_address": "701 Lang St",
    "address_councildis": "C",
    "status": "Pending",
    "rowid": "866463",
    "final_x": "3701983.53489",
    "final_y": "520086.773176",
    "longitude": "-90.00381003894216",
    "latitude": "29.92342049198804",
    "geocoded_column": {
      "latitude": "29.92342049198804",
      "longitude": "-90.00381003894216"
    }
  },
  {
    "service_request": "2022-866462",
    "request_type": "Traffic Signals/Signs/Striping/Streetlights",
    "request_reason": "Road Surface Marking Maintenance-Traffic Control",
    "date_created": "2022-03-11T18:31:28.000",
    "date_modified": "2022-03-11T18:31:28.000",
    "request_status": "Pending",
    "responsible_agency": "Department of Public Works",
    "final_address": "1614 Esplanade Ave",
    "address_councildis": "D",
    "status": "Pending",
    "rowid": "866462",
    "final_x": "3681083.77525",
    "final_y": "536640.191047",
    "longitude": "-90.0692062413409",
    "latitude": "29.96958709083489",
    "geocoded_column": {
      "latitude": "29.96958709083489",
      "longitude": "-90.0692062413409"
    }
  },
  {
    "service_request": "2022-866461",
    "request_type": "Trash/Recycling",
    "request_reason": "Order Trash Cart",
    "date_created": "2022-03-11T18:02:49.000",
    "date_modified": "2022-03-11T18:02:51.000",
    "request_status": "Pending",
    "responsible_agency": "Department of Sanitation",
    "final_address": "6101 Magazine St",
    "address_councildis": "A",
    "status": "Assigned to Contractor",
    "contractor": "Richards Disposal",
    "rowid": "866461",
    "final_x": "3664098.35181",
    "final_y": "519478.958583",
    "longitude": "-90.12342018470137",
    "latitude": "29.922903541381828",
    "geocoded_column": {
      "latitude": "29.922903541381828",
      "longitude": "-90.12342018470137"
    }
  },
  {
    "service_request": "2022-866460",
    "request_type": "Traffic Signals/Signs/Striping/Streetlights",
    "request_reason": "Street Name Sign Damaged or Missing",
    "date_created": "2022-03-11T18:00:14.000",
    "date_modified": "2022-03-11T18:00:14.000",
    "request_status": "Pending",
    "responsible_agency": "Department of Public Works",
    "final_address": "7501 Jahncke Rd",
    "address_councildis": "E",
    "status": "Pending",
    "rowid": "866460",
    "final_x": "3714614.70757",
    "final_y": "567756.029028",
    "longitude": "-89.96213793832732",
    "latitude": "30.054083717152526",
    "geocoded_column": {
      "latitude": "30.054083717152526",
      "longitude": "-89.96213793832732"
    }
  },
  {
    "service_request": "2022-866459",
    "request_type": "Traffic Signals/Signs/Striping/Streetlights",
    "request_reason": "Street Name Sign Damaged or Missing",
    "date_created": "2022-03-11T17:52:30.000",
    "date_modified": "2022-03-11T17:52:30.000",
    "request_status": "Pending",
    "responsible_agency": "Department of Public Works",
    "final_address": "7500 Parry St",
    "address_councildis": "E",
    "status": "Pending",
    "rowid": "866459",
    "final_x": "3714737.78226",
    "final_y": "567862.427684",
    "longitude": "-89.96174490728933",
    "latitude": "30.054372219625428",
    "geocoded_column": {
      "latitude": "30.054372219625428",
      "longitude": "-89.96174490728933"
    }
  },
  {
    "service_request": "2022-866458",
    "request_type": "Traffic Signals/Signs/Striping/Streetlights",
    "request_reason": "Street Name Sign Damaged or Missing",
    "date_created": "2022-03-11T17:50:36.000",
    "date_modified": "2022-03-11T17:50:36.000",
    "request_status": "Pending",
    "responsible_agency": "Department of Public Works",
    "final_address": "7500 Branch Dr",
    "address_councildis": "E",
    "status": "Pending",
    "rowid": "866458",
    "final_x": "3715146.28331",
    "final_y": "568011.463653",
    "longitude": "-89.96044809940679",
    "latitude": "30.05476855592156",
    "geocoded_column": {
      "latitude": "30.05476855592156",
      "longitude": "-89.96044809940679"
    }
  },
  {
    "service_request": "2022-866457",
    "request_type": "Traffic Signals/Signs/Striping/Streetlights",
    "request_reason": "Street Name Sign Damaged or Missing",
    "date_created": "2022-03-11T17:48:19.000",
    "date_modified": "2022-03-11T17:48:19.000",
    "request_status": "Pending",
    "responsible_agency": "Department of Public Works",
    "final_address": "7500 Wave Dr",
    "address_councildis": "E",
    "status": "Pending",
    "rowid": "866457",
    "final_x": "3715330.50744",
    "final_y": "568152.767077",
    "longitude": "-89.95986045981286",
    "latitude": "30.055151011837058",
    "geocoded_column": {
      "latitude": "30.055151011837058",
      "longitude": "-89.95986045981286"
    }
  },
  {
    "service_request": "2022-866456",
    "request_type": "Trash/Recycling",
    "request_reason": "Repair Trash Cart",
    "date_created": "2022-03-11T17:46:14.000",
    "date_modified": "2022-03-11T17:46:15.000",
    "request_status": "Pending",
    "responsible_agency": "Department of Sanitation",
    "final_address": "4654 Mirabeau Ave",
    "address_councildis": "D",
    "status": "Assigned to Contractor",
    "contractor": "Metro Disposal",
    "rowid": "866456",
    "final_x": "3691245.87593",
    "final_y": "551567.262613",
    "longitude": "-90.03658007907866",
    "latitude": "30.010318967379803",
    "geocoded_column": {
      "latitude": "30.010318967379803",
      "longitude": "-90.03658007907866"
    }
  },
  {
    "service_request": "2022-866455",
    "request_type": "Traffic Signals/Signs/Striping/Streetlights",
    "request_reason": "Street Name Sign Damaged or Missing",
    "date_created": "2022-03-11T17:45:21.000",
    "date_modified": "2022-03-11T17:45:21.000",
    "request_status": "Pending",
    "responsible_agency": "Department of Public Works",
    "final_address": "7500 Pebble Dr",
    "address_councildis": "E",
    "status": "Pending",
    "rowid": "866455",
    "final_x": "3715523.82891",
    "final_y": "568294.388389",
    "longitude": "-89.9592440490427",
    "latitude": "30.055534039201735",
    "geocoded_column": {
      "latitude": "30.055534039201735",
      "longitude": "-89.9592440490427"
    }
  },
  {
    "service_request": "2022-866454",
    "request_type": "Traffic Signals/Signs/Striping/Streetlights",
    "request_reason": "Street Name Sign Damaged or Missing",
    "date_created": "2022-03-11T17:42:47.000",
    "date_modified": "2022-03-11T17:42:47.000",
    "request_status": "Pending",
    "responsible_agency": "Department of Public Works",
    "final_address": "7500 Dune Dr",
    "address_councildis": "E",
    "status": "Pending",
    "rowid": "866454",
    "final_x": "3715723.32696",
    "final_y": "568443.737253",
    "longitude": "-89.95860781765694",
    "latitude": "30.055938107488632",
    "geocoded_column": {
      "latitude": "30.055938107488632",
      "longitude": "-89.95860781765694"
    }
  },
  {
    "service_request": "2022-866453",
    "request_type": "Trash/Recycling",
    "request_reason": "Missed Trash Pick-Up",
    "date_created": "2022-03-11T17:37:28.000",
    "date_modified": "2022-03-11T17:37:29.000",
    "request_status": "Pending",
    "responsible_agency": "Department of Sanitation",
    "final_address": "1729 1st St, New Orleans, Louisiana, 70113",
    "status": "Assigned to Contractor",
    "rowid": "866453",
    "longitude": "0.0",
    "latitude": "0.0",
    "geocoded_column": {
      "latitude": "0.0",
      "longitude": "0.0"
    }
  },
  {
    "service_request": "2022-866452",
    "request_type": "Roads/Drainage",
    "request_reason": "Man hole cover issue",
    "date_created": "2022-03-11T17:26:52.000",
    "date_modified": "2022-03-11T17:26:52.000",
    "request_status": "Pending",
    "responsible_agency": "Department of Public Works",
    "final_address": "1544 State St",
    "address_councildis": "A",
    "status": "Pending",
    "rowid": "866452",
    "final_x": "3665562.32045",
    "final_y": "522219.480122",
    "longitude": "-90.11870728865692",
    "latitude": "29.93039652496733",
    "geocoded_column": {
      "latitude": "29.93039652496733",
      "longitude": "-90.11870728865692"
    }
  },
  {
    "service_request": "2022-866451",
    "request_type": "Roads/Drainage",
    "request_reason": "Pothole",
    "date_created": "2022-03-11T17:03:56.000",
    "date_modified": "2022-03-11T17:03:56.000",
    "request_status": "Pending",
    "responsible_agency": "Department of Public Works",
    "final_address": "8015 Fig St",
    "address_councildis": "B",
    "status": "Pending",
    "rowid": "866451",
    "final_x": "3666603.34362",
    "final_y": "532972.499524",
    "longitude": "-90.1150600116829",
    "latitude": "29.959933471341497",
    "geocoded_column": {
      "latitude": "29.959933471341497",
      "longitude": "-90.1150600116829"
    }
  },
  {
    "service_request": "2022-866450",
    "request_type": "Roads/Drainage",
    "request_reason": "Catch Basin - Clogged",
    "date_created": "2022-03-11T17:02:28.000",
    "date_modified": "2022-03-11T17:02:28.000",
    "request_status": "Pending",
    "responsible_agency": "Department of Public Works",
    "final_address": "8803 Olive St",
    "address_councildis": "A",
    "status": "Pending",
    "rowid": "866450",
    "final_x": "3665401.99636",
    "final_y": "535901.590663",
    "longitude": "-90.11875557496711",
    "latitude": "29.9680225742866",
    "geocoded_column": {
      "latitude": "29.9680225742866",
      "longitude": "-90.11875557496711"
    }
  },
  {
    "service_request": "2022-866449",
    "request_type": "Traffic Signals/Signs/Striping/Streetlights",
    "request_reason": "Street Light Outage/Malfunction",
    "date_created": "2022-03-11T16:55:21.000",
    "date_modified": "2022-03-11T16:55:22.000",
    "request_status": "Pending",
    "responsible_agency": "Department of Public Works",
    "final_address": "606 Iberville St",
    "address_councildis": "C",
    "status": "Pending",
    "contractor": "Royal Engineering",
    "rowid": "866449",
    "final_x": "3681645.2484",
    "final_y": "530823.993346",
    "longitude": "-90.06763595598981",
    "latitude": "29.95357748944335",
    "geocoded_column": {
      "latitude": "29.95357748944335",
      "longitude": "-90.06763595598981"
    }
  },
  {
    "service_request": "2022-866448",
    "request_type": "Trash/Recycling",
    "request_reason": "MIssed Recycling Pick-Up",
    "date_created": "2022-03-11T16:47:58.000",
    "date_modified": "2022-03-11T16:47:59.000",
    "request_status": "Pending",
    "responsible_agency": "Department of Sanitation",
    "final_address": "7117 Prytania St",
    "address_councildis": "A",
    "status": "Assigned to Contractor",
    "contractor": "Richards Disposal",
    "rowid": "866448",
    "final_x": "3661812.39475",
    "final_y": "522731.878202",
    "longitude": "-90.1305283074714",
    "latitude": "29.93191422681242",
    "geocoded_column": {
      "latitude": "29.93191422681242",
      "longitude": "-90.1305283074714"
    }
  },
  {
    "service_request": "2022-866447",
    "request_type": "Abandoned Vehicles",
    "request_reason": "Vehicle Blocking Your Driveway",
    "date_created": "2022-03-11T16:43:47.000",
    "date_modified": "2022-03-11T16:43:47.000",
    "request_status": "Pending",
    "responsible_agency": "Department of Public Works",
    "final_address": "2530 Danneel St",
    "address_councildis": "B",
    "status": "Pending",
    "rowid": "866447",
    "final_x": "3675702.01755",
    "final_y": "524074.635516",
    "longitude": "-90.08663407371043",
    "latitude": "29.935198157961004",
    "geocoded_column": {
      "latitude": "29.935198157961004",
      "longitude": "-90.08663407371043"
    }
  },
  {
    "service_request": "2022-866446",
    "request_type": "Abandoned Vehicles",
    "request_reason": "Abandoned/Junk Vehicles",
    "date_created": "2022-03-11T16:41:32.000",
    "date_modified": "2022-03-11T16:41:32.000",
    "request_status": "Pending",
    "responsible_agency": "Department of Public Works",
    "final_address": "WILLOW ST & BROADWAY ST",
    "address_councildis": "A",
    "status": "Pending",
    "rowid": "866446",
    "final_x": "3664542.8",
    "final_y": "527089.48",
    "longitude": "-90.12176321398",
    "latitude": "29.943817151500046",
    "geocoded_column": {
      "latitude": "29.943817151500046",
      "longitude": "-90.12176321398"
    }
  },
  {
    "service_request": "2022-866445",
    "request_type": "Roads/Drainage",
    "request_reason": "Pothole",
    "date_created": "2022-03-11T16:40:16.000",
    "date_modified": "2022-03-11T16:40:16.000",
    "request_status": "Pending",
    "responsible_agency": "Department of Public Works",
    "final_address": "308 State St",
    "address_councildis": "A",
    "status": "Pending",
    "rowid": "866445",
    "final_x": "3664127.44916",
    "final_y": "517617.786102",
    "longitude": "-90.12339037204784",
    "latitude": "29.91778505273897",
    "geocoded_column": {
      "latitude": "29.91778505273897",
      "longitude": "-90.12339037204784"
    }
  },
  {
    "service_request": "2022-866444",
    "request_type": "Abandoned Vehicles",
    "request_reason": "Abandoned/Junk Vehicles",
    "date_created": "2022-03-11T16:37:41.000",
    "date_modified": "2022-03-11T16:37:41.000",
    "request_status": "Pending",
    "responsible_agency": "Department of Public Works",
    "final_address": "2530 Danneel St",
    "address_councildis": "B",
    "status": "Pending",
    "rowid": "866444",
    "final_x": "3675702.01755",
    "final_y": "524074.635516",
    "longitude": "-90.08663407371043",
    "latitude": "29.935198157961004",
    "geocoded_column": {
      "latitude": "29.935198157961004",
      "longitude": "-90.08663407371043"
    }
  },
  {
    "service_request": "2022-866443",
    "request_type": "Traffic Signals/Signs/Striping/Streetlights",
    "request_reason": "Street Light Knocked Down/Leaning",
    "date_created": "2022-03-11T16:36:37.000",
    "date_modified": "2022-03-11T16:36:37.000",
    "request_status": "Pending",
    "responsible_agency": "Department of Public Works",
    "final_address": "6634 Maumus Ave",
    "address_councildis": "C",
    "status": "Pending",
    "contractor": "Royal Engineering",
    "rowid": "866443",
    "final_x": "3708344.60977",
    "final_y": "516712.034997",
    "longitude": "-89.98385615124366",
    "latitude": "29.91393665936298",
    "geocoded_column": {
      "latitude": "29.91393665936298",
      "longitude": "-89.98385615124366"
    }
  },
  {
    "service_request": "2022-866442",
    "request_type": "Abandoned Vehicles",
    "request_reason": "Abandoned/Junk Vehicles",
    "date_created": "2022-03-11T16:35:25.000",
    "date_modified": "2022-03-11T16:35:25.000",
    "request_status": "Pending",
    "responsible_agency": "Department of Public Works",
    "final_address": "1333 Japonica St",
    "address_councildis": "D",
    "status": "Pending",
    "rowid": "866442",
    "final_x": "3694012.14544",
    "final_y": "535886.910151",
    "longitude": "-90.0284046160994",
    "latitude": "29.96711731931444",
    "geocoded_column": {
      "latitude": "29.96711731931444",
      "longitude": "-90.0284046160994"
    }
  },
  {
    "service_request": "2022-866441",
    "request_type": "Abandoned Vehicles",
    "request_reason": "Abandoned/Junk Vehicles",
    "date_created": "2022-03-11T16:34:52.000",
    "date_modified": "2022-03-11T16:36:05.000",
    "request_status": "Pending",
    "responsible_agency": "Department of Public Works",
    "final_address": "3345 Agriculture St",
    "address_councildis": "D",
    "status": "Pending",
    "rowid": "866441",
    "final_x": "3691860.03888",
    "final_y": "542942.338509",
    "longitude": "-90.03494848530389",
    "latitude": "29.986584449581553",
    "geocoded_column": {
      "latitude": "29.986584449581553",
      "longitude": "-90.03494848530389"
    }
  },
  {
    "service_request": "2022-866440",
    "request_type": "Property Maintenance",
    "request_reason": "Property Maintenance",
    "date_created": "2022-03-11T16:31:18.000",
    "date_modified": "2022-03-11T16:31:18.000",
    "request_status": "Pending",
    "responsible_agency": "Department of Code Enforcement",
    "final_address": "1444 Japonica St",
    "address_councildis": "D",
    "status": "Pending",
    "rowid": "866440",
    "final_x": "3693996.92931",
    "final_y": "536299.250183",
    "longitude": "-90.02843783927136",
    "latitude": "29.968251584724925",
    "geocoded_column": {
      "latitude": "29.968251584724925",
      "longitude": "-90.02843783927136"
    }
  },
  {
    "service_request": "2022-866439",
    "request_type": "Trash/Recycling",
    "request_reason": "MIssed Recycling Pick-Up",
    "date_created": "2022-03-11T16:29:11.000",
    "date_modified": "2022-03-11T16:29:12.000",
    "request_status": "Pending",
    "responsible_agency": "Department of Sanitation",
    "final_address": "6203 S Rocheblave St, New Orleans, Louisiana, 70125",
    "address_councildis": "A",
    "status": "Assigned to Contractor",
    "contractor": "Richards Disposal",
    "rowid": "866439",
    "final_x": "3667642.84884",
    "final_y": "528734.782912",
    "longitude": "-90.11192011495264",
    "latitude": "29.948250706343114",
    "geocoded_column": {
      "latitude": "29.948250706343114",
      "longitude": "-90.11192011495264"
    }
  },
  {
    "service_request": "2022-866438",
    "request_type": "Health Related Questions",
    "request_reason": "Noise Ordinance Complaint",
    "date_created": "2022-03-11T16:19:22.000",
    "date_modified": "2022-03-11T16:19:22.000",
    "request_status": "Pending",
    "responsible_agency": "Health Department",
    "final_address": "2612 Dante St",
    "address_councildis": "A",
    "status": "Pending",
    "rowid": "866438",
    "final_x": "3664830.67328",
    "final_y": "532697.031364",
    "longitude": "-90.12066694512323",
    "latitude": "29.959227728608138",
    "geocoded_column": {
      "latitude": "29.959227728608138",
      "longitude": "-90.12066694512323"
    }
  },
  {
    "service_request": "2022-866437",
    "request_type": "Trash/Recycling",
    "request_reason": "Missed Trash Pick-Up",
    "date_created": "2022-03-11T16:16:50.000",
    "date_modified": "2022-03-11T16:16:50.000",
    "request_status": "Pending",
    "responsible_agency": "Department of Sanitation",
    "final_address": "5935 Tullis Dr",
    "address_councildis": "C",
    "status": "Assigned to Contractor",
    "contractor": "Richards Disposal",
    "rowid": "866437",
    "final_x": "3706229.33399",
    "final_y": "513479.837362",
    "longitude": "-89.9906521376093",
    "latitude": "29.905117557002082",
    "geocoded_column": {
      "latitude": "29.905117557002082",
      "longitude": "-89.9906521376093"
    }
  },
  {
    "service_request": "2022-866436",
    "request_type": "Trash/Recycling",
    "request_reason": "Missed Trash Pick-Up",
    "date_created": "2022-03-11T16:16:40.000",
    "date_modified": "2022-03-11T16:16:40.000",
    "request_status": "Pending",
    "responsible_agency": "Department of Sanitation",
    "final_address": "5927 Tullis Dr",
    "address_councildis": "C",
    "status": "Assigned to Contractor",
    "contractor": "Richards Disposal",
    "rowid": "866436",
    "final_x": "3706184.41118",
    "final_y": "513439.946482",
    "longitude": "-89.99079538998875",
    "latitude": "29.905009318079344",
    "geocoded_column": {
      "latitude": "29.905009318079344",
      "longitude": "-89.99079538998875"
    }
  },
  {
    "service_request": "2022-866435",
    "request_type": "Trash/Recycling",
    "request_reason": "Missed Trash Pick-Up",
    "date_created": "2022-03-11T16:16:39.000",
    "date_modified": "2022-03-11T16:16:39.000",
    "request_status": "Pending",
    "responsible_agency": "Department of Sanitation",
    "final_address": "624 Fourth St",
    "address_councildis": "B",
    "status": "Assigned to Contractor",
    "contractor": "Richards Disposal",
    "rowid": "866435",
    "final_x": "3678178.52936",
    "final_y": "519615.580856",
    "longitude": "-90.07896983370796",
    "latitude": "29.922862891181932",
    "geocoded_column": {
      "latitude": "29.922862891181932",
      "longitude": "-90.07896983370796"
    }
  },
  {
    "service_request": "2022-866434",
    "request_type": "Trash/Recycling",
    "request_reason": "Request a Large Item Pick Up",
    "date_created": "2022-03-11T16:16:18.000",
    "date_modified": "2022-03-11T16:16:18.000",
    "request_status": "Pending",
    "responsible_agency": "Department of Sanitation",
    "final_address": "530 Ptolemy St",
    "address_councildis": "C",
    "status": "Assigned to Contractor",
    "contractor": "Richards Disposal",
    "rowid": "866434",
    "final_x": "3687422.38991",
    "final_y": "526103.727166",
    "longitude": "-90.04956120709441",
    "latitude": "29.94042163369699",
    "geocoded_column": {
      "latitude": "29.94042163369699",
      "longitude": "-90.04956120709441"
    }
  },
  {
    "service_request": "2022-866433",
    "request_type": "Trash/Recycling",
    "request_reason": "Order Recycling Cart",
    "date_created": "2022-03-11T16:14:29.000",
    "date_modified": "2022-03-11T16:14:29.000",
    "request_status": "Pending",
    "responsible_agency": "Department of Sanitation",
    "final_address": "1234 Joseph St",
    "address_councildis": "A",
    "status": "Pending",
    "rowid": "866433",
    "final_x": "3666416.43617",
    "final_y": "520424.046136",
    "longitude": "-90.1160711786793",
    "latitude": "29.925434726782147",
    "geocoded_column": {
      "latitude": "29.925434726782147",
      "longitude": "-90.1160711786793"
    }
  },
  {
    "service_request": "2022-866432",
    "request_type": "Trash/Recycling",
    "request_reason": "Missed Trash Pick-Up",
    "date_created": "2022-03-11T16:13:49.000",
    "date_modified": "2022-03-11T16:13:50.000",
    "request_status": "Pending",
    "responsible_agency": "Department of Sanitation",
    "final_address": "806 Joseph St",
    "address_councildis": "A",
    "status": "Assigned to Contractor",
    "contractor": "Richards Disposal",
    "rowid": "866432",
    "final_x": "3666029.50279",
    "final_y": "519053.500599",
    "longitude": "-90.1173385245845",
    "latitude": "29.921677454626334",
    "geocoded_column": {
      "latitude": "29.921677454626334",
      "longitude": "-90.1173385245845"
    }
  },
  {
    "service_request": "2022-866431",
    "request_type": "Trash/Recycling",
    "request_reason": "Order Trash Cart",
    "date_created": "2022-03-11T16:13:10.000",
    "date_modified": "2022-03-11T16:13:10.000",
    "request_status": "Pending",
    "responsible_agency": "Department of Sanitation",
    "final_address": "1234 Joseph St",
    "address_councildis": "A",
    "status": "Assigned to Contractor",
    "contractor": "Richards Disposal",
    "rowid": "866431",
    "final_x": "3666416.43617",
    "final_y": "520424.046136",
    "longitude": "-90.1160711786793",
    "latitude": "29.925434726782147",
    "geocoded_column": {
      "latitude": "29.925434726782147",
      "longitude": "-90.1160711786793"
    }
  },
  {
    "service_request": "2022-866430",
    "request_type": "Abandoned Vehicles",
    "request_reason": "Abandoned/Junk Vehicles",
    "date_created": "2022-03-11T16:12:35.000",
    "date_modified": "2022-03-11T16:12:35.000",
    "request_status": "Pending",
    "responsible_agency": "Department of Public Works",
    "final_address": "S GALVEZ ST & 4TH ST",
    "address_councildis": "B",
    "status": "Pending",
    "rowid": "866430",
    "final_x": "3672456.0",
    "final_y": "528336.08",
    "longitude": "-90.09673657503144",
    "latitude": "29.94701245229364",
    "geocoded_column": {
      "latitude": "29.94701245229364",
      "longitude": "-90.09673657503144"
    }
  },
  {
    "service_request": "2022-866429",
    "request_type": "Trash/Recycling",
    "request_reason": "Order Recycling Cart",
    "date_created": "2022-03-11T16:11:31.000",
    "date_modified": "2022-03-11T16:11:31.000",
    "request_status": "Pending",
    "responsible_agency": "Department of Sanitation",
    "final_address": "3426 Baronne St",
    "address_councildis": "B",
    "status": "Pending",
    "rowid": "866429",
    "final_x": "3673704.54804",
    "final_y": "522097.275706",
    "longitude": "-90.09300766379427",
    "latitude": "29.92982066645355",
    "geocoded_column": {
      "latitude": "29.92982066645355",
      "longitude": "-90.09300766379427"
    }
  },
  {
    "service_request": "2022-866428",
    "request_type": "Trash/Recycling",
    "request_reason": "Request a Large Item Pick Up",
    "date_created": "2022-03-11T16:09:22.000",
    "date_modified": "2022-03-11T16:09:23.000",
    "request_status": "Pending",
    "responsible_agency": "Department of Sanitation",
    "final_address": "1460 Pressburg St",
    "address_councildis": "D",
    "status": "Assigned to Contractor",
    "contractor": "Metro Disposal",
    "rowid": "866428",
    "final_x": "3677963.1581",
    "final_y": "553905.660183",
    "longitude": "-90.07846428067597",
    "latitude": "30.017155359898425",
    "geocoded_column": {
      "latitude": "30.017155359898425",
      "longitude": "-90.07846428067597"
    }
  },
  {
    "service_request": "2022-866427",
    "request_type": "Trash/Recycling",
    "request_reason": "MIssed Recycling Pick-Up",
    "date_created": "2022-03-11T16:07:06.000",
    "date_modified": "2022-03-11T16:07:06.000",
    "request_status": "Pending",
    "responsible_agency": "Department of Sanitation",
    "final_address": "4300 BLK State Street Dr",
    "address_councildis": "B",
    "status": "Assigned to Contractor",
    "contractor": "Richards Disposal",
    "rowid": "866427",
    "final_x": "3668610.98722",
    "final_y": "531524.757932",
    "longitude": "-90.10876915159132",
    "latitude": "29.95589381303994",
    "geocoded_column": {
      "latitude": "29.95589381303994",
      "longitude": "-90.10876915159132"
    }
  },
  {
    "service_request": "2022-866426",
    "request_type": "Trash/Recycling",
    "request_reason": "Request a Large Item Pick Up",
    "date_created": "2022-03-11T16:02:06.000",
    "date_modified": "2022-03-11T16:02:17.000",
    "request_status": "Pending",
    "responsible_agency": "Department of Sanitation",
    "final_address": "3935 S Pin Oak Ave",
    "address_councildis": "C",
    "status": "Assigned to Contractor",
    "contractor": "Richards Disposal",
    "rowid": "866426",
    "final_x": "3704876.86615",
    "final_y": "513479.025586",
    "longitude": "-89.99492058499678",
    "latitude": "29.905158832576763",
    "geocoded_column": {
      "latitude": "29.905158832576763",
      "longitude": "-89.99492058499678"
    }
  },
  {
    "service_request": "2022-866425",
    "request_type": "Trash/Recycling",
    "request_reason": "Request a Large Item Pick Up",
    "date_created": "2022-03-11T15:57:52.000",
    "date_modified": "2022-03-11T15:57:53.000",
    "request_status": "Pending",
    "responsible_agency": "Department of Sanitation",
    "final_address": "4714 Werner Dr",
    "address_councildis": "E",
    "status": "Assigned to Contractor",
    "contractor": "Metro Disposal",
    "rowid": "866425",
    "final_x": "3704704.73105",
    "final_y": "555115.461337",
    "longitude": "-89.99392780242569",
    "latitude": "30.019649478001735",
    "geocoded_column": {
      "latitude": "30.019649478001735",
      "longitude": "-89.99392780242569"
    }
  },
  {
    "service_request": "2022-866424",
    "request_type": "Roads/Drainage",
    "request_reason": "Pothole",
    "date_created": "2022-03-11T15:56:17.000",
    "date_modified": "2022-03-11T15:56:17.000",
    "request_status": "Pending",
    "responsible_agency": "Department of Public Works",
    "final_address": "8100 BLK Belfast St",
    "address_councildis": "A",
    "status": "Pending",
    "rowid": "866424",
    "final_x": "3665479.52563",
    "final_y": "532463.425674",
    "longitude": "-90.1186258381303",
    "latitude": "29.958566491678166",
    "geocoded_column": {
      "latitude": "29.958566491678166",
      "longitude": "-90.1186258381303"
    }
  },
  {
    "service_request": "2022-866423",
    "request_type": "Trash/Recycling",
    "request_reason": "Missed Trash Pick-Up",
    "date_created": "2022-03-11T15:53:08.000",
    "date_modified": "2022-03-11T15:53:12.000",
    "request_status": "Pending",
    "responsible_agency": "Department of Sanitation",
    "final_address": "1424 Seventh St",
    "address_councildis": "B",
    "status": "Assigned to Contractor",
    "contractor": "Richards Disposal",
    "rowid": "866423",
    "final_x": "3675638.51912",
    "final_y": "521386.468345",
    "longitude": "-90.08692685204902",
    "latitude": "29.927808472136796",
    "geocoded_column": {
      "latitude": "29.927808472136796",
      "longitude": "-90.08692685204902"
    }
  },
  {
    "service_request": "2022-866422",
    "request_type": "Trash/Recycling",
    "request_reason": "MIssed Recycling Pick-Up",
    "date_created": "2022-03-11T15:49:19.000",
    "date_modified": "2022-03-11T15:49:20.000",
    "request_status": "Pending",
    "responsible_agency": "Department of Sanitation",
    "final_address": "237 Broadway St",
    "address_councildis": "A",
    "status": "Assigned to Contractor",
    "contractor": "Richards Disposal",
    "rowid": "866422",
    "final_x": "3661323.21459",
    "final_y": "522125.55417",
    "longitude": "-90.13209267200806",
    "latitude": "29.93026113633183",
    "geocoded_column": {
      "latitude": "29.93026113633183",
      "longitude": "-90.13209267200806"
    }
  },
  {
    "service_request": "2022-866421",
    "request_type": "Trash/Recycling",
    "request_reason": "Request a Large Item Pick Up",
    "date_created": "2022-03-11T15:44:11.000",
    "date_modified": "2022-03-11T15:44:12.000",
    "request_status": "Pending",
    "responsible_agency": "Department of Sanitation",
    "final_address": "4323 Carondelet St",
    "address_councildis": "B",
    "status": "Assigned to Contractor",
    "contractor": "Richards Disposal",
    "rowid": "866421",
    "final_x": "3671011.51681",
    "final_y": "521304.049273",
    "longitude": "-90.10153603960808",
    "latitude": "29.927719428949306",
    "geocoded_column": {
      "latitude": "29.927719428949306",
      "longitude": "-90.10153603960808"
    }
  },
  {
    "service_request": "2022-866420",
    "request_type": "Traffic Signals/Signs/Striping/Streetlights",
    "request_reason": "Request for Traffic Calming due to Speeding",
    "date_created": "2022-03-11T15:39:57.000",
    "date_modified": "2022-03-11T15:39:57.000",
    "request_status": "Pending",
    "responsible_agency": "Department of Public Works",
    "final_address": "4710 Citrus Dr",
    "address_councildis": "E",
    "status": "Pending",
    "rowid": "866420",
    "final_x": "3710736.30731",
    "final_y": "555553.396377",
    "longitude": "-89.97485378923697",
    "latitude": "30.02065838693044",
    "geocoded_column": {
      "latitude": "30.02065838693044",
      "longitude": "-89.97485378923697"
    }
  },
  {
    "service_request": "2022-866419",
    "request_type": "Roads/Drainage",
    "request_reason": "Pothole",
    "date_created": "2022-03-11T15:33:07.000",
    "date_modified": "2022-03-11T15:33:07.000",
    "request_status": "Pending",
    "responsible_agency": "Department of Public Works",
    "final_address": "7118 Foch Rd",
    "address_councildis": "D",
    "status": "Pending",
    "rowid": "866419",
    "final_x": "3696377.5192",
    "final_y": "556906.82505",
    "longitude": "-90.02017404722558",
    "latitude": "30.024840066646735",
    "geocoded_column": {
      "latitude": "30.024840066646735",
      "longitude": "-90.02017404722558"
    }
  },
  {
    "service_request": "2022-866418",
    "request_type": "Trash/Recycling",
    "request_reason": "Replace Trash Cart",
    "date_created": "2022-03-11T15:33:00.000",
    "date_modified": "2022-03-11T15:33:01.000",
    "request_status": "Pending",
    "responsible_agency": "Department of Sanitation",
    "final_address": "4130 General Ogden St",
    "address_councildis": "A",
    "status": "Assigned to Contractor",
    "contractor": "Richards Disposal",
    "rowid": "866418",
    "final_x": "3666909.90836",
    "final_y": "538133.665417",
    "longitude": "-90.11391850072808",
    "latitude": "29.974116000326806",
    "geocoded_column": {
      "latitude": "29.974116000326806",
      "longitude": "-90.11391850072808"
    }
  },
  {
    "service_request": "2022-866417",
    "request_type": "Trash/Recycling",
    "request_reason": "Missed Trash Pick-Up",
    "date_created": "2022-03-11T15:30:00.000",
    "date_modified": "2022-03-11T15:30:01.000",
    "request_status": "Pending",
    "responsible_agency": "Department of Sanitation",
    "final_address": "1324 7th St, New Orleans, Louisiana, 70115",
    "status": "Assigned to Contractor",
    "rowid": "866417",
    "longitude": "0.0",
    "latitude": "0.0",
    "geocoded_column": {
      "latitude": "0.0",
      "longitude": "0.0"
    }
  },
  {
    "service_request": "2022-866416",
    "request_type": "Property Maintenance",
    "request_reason": "Property Maintenance",
    "date_created": "2022-03-11T15:29:45.000",
    "date_modified": "2022-03-11T15:29:45.000",
    "case_close_date": "2019-04-22T19:00:00.000",
    "request_status": "Pending",
    "responsible_agency": "Department of Code Enforcement",
    "final_address": "4609 Laine Ave",
    "address_councildis": "E",
    "status": "Pending",
    "rowid": "866416",
    "final_x": "3705840.65111",
    "final_y": "554523.119192",
    "longitude": "-89.99036063449206",
    "latitude": "30.017984207023407",
    "geocoded_column": {
      "latitude": "30.017984207023407",
      "longitude": "-89.99036063449206"
    }
  },
  {
    "service_request": "2022-866415",
    "request_type": "Trash/Recycling",
    "request_reason": "Repair Trash Cart",
    "date_created": "2022-03-11T15:24:55.000",
    "date_modified": "2022-03-11T15:24:56.000",
    "request_status": "Pending",
    "responsible_agency": "Department of Sanitation",
    "final_address": "2131 Valentine Ct",
    "address_councildis": "C",
    "status": "Assigned to Contractor",
    "contractor": "Richards Disposal",
    "rowid": "866415",
    "final_x": "3699642.74973",
    "final_y": "523383.555451",
    "longitude": "-90.01107888475427",
    "latitude": "29.932559981947787",
    "geocoded_column": {
      "latitude": "29.932559981947787",
      "longitude": "-90.01107888475427"
    }
  },
  {
    "service_request": "2022-866414",
    "request_type": "Traffic Signals/Signs/Striping/Streetlights",
    "request_reason": "Traffic Signal Malfunctioning/Damaged",
    "date_created": "2022-03-11T15:22:23.000",
    "date_modified": "2022-03-11T15:22:23.000",
    "request_status": "Pending",
    "responsible_agency": "Department of Public Works",
    "final_address": "900 Howard Ave",
    "address_councildis": "B",
    "status": "Pending",
    "rowid": "866414",
    "final_x": "3679280.57096",
    "final_y": "527611.107455",
    "longitude": "-90.07521400248727",
    "latitude": "29.944814739164837",
    "geocoded_column": {
      "latitude": "29.944814739164837",
      "longitude": "-90.07521400248727"
    }
  },
  {
    "service_request": "2022-866413",
    "request_type": "Property Maintenance",
    "request_reason": "Property Maintenance",
    "date_created": "2022-03-11T15:21:33.000",
    "date_modified": "2022-03-11T15:21:33.000",
    "request_status": "Pending",
    "responsible_agency": "Department of Code Enforcement",
    "final_address": "1932 Lapeyrouse St",
    "address_councildis": "D",
    "status": "Pending",
    "rowid": "866413",
    "final_x": "3681073.07637",
    "final_y": "538534.966281",
    "longitude": "-90.069174011783",
    "latitude": "29.974797393120788",
    "geocoded_column": {
      "latitude": "29.974797393120788",
      "longitude": "-90.069174011783"
    }
  },
  {
    "service_request": "2022-866412",
    "request_type": "Trash/Recycling",
    "request_reason": "Order Trash Cart",
    "date_created": "2022-03-11T15:21:06.000",
    "date_modified": "2022-03-11T15:21:06.000",
    "request_status": "Pending",
    "responsible_agency": "Department of Sanitation",
    "final_address": "2634 Republic St",
    "address_councildis": "D",
    "status": "Assigned to Contractor",
    "contractor": "Metro Disposal",
    "rowid": "866412",
    "final_x": "3680710.09256",
    "final_y": "541810.312396",
    "longitude": "-90.07020637317535",
    "latitude": "29.98381446222768",
    "geocoded_column": {
      "latitude": "29.98381446222768",
      "longitude": "-90.07020637317535"
    }
  },
  {
    "service_request": "2022-866411",
    "request_type": "Traffic Signals/Signs/Striping/Streetlights",
    "request_reason": "Traffic Signal Malfunctioning/Damaged",
    "date_created": "2022-03-11T15:19:27.000",
    "date_modified": "2022-03-11T15:19:27.000",
    "request_status": "Pending",
    "responsible_agency": "Department of Public Works",
    "final_address": "700 Loyola Ave",
    "address_councildis": "B",
    "status": "Pending",
    "rowid": "866411",
    "final_x": "3679018.30914",
    "final_y": "528623.027904",
    "longitude": "-90.07600698435793",
    "latitude": "29.94760509827909",
    "geocoded_column": {
      "latitude": "29.94760509827909",
      "longitude": "-90.07600698435793"
    }
  },
  {
    "service_request": "2022-866410",
    "request_type": "Trash/Recycling",
    "request_reason": "Missed Trash Pick-Up",
    "date_created": "2022-03-11T15:18:22.000",
    "date_modified": "2022-03-11T15:18:23.000",
    "request_status": "Pending",
    "responsible_agency": "Department of Sanitation",
    "final_address": "1529 Seventh St",
    "address_councildis": "B",
    "status": "Assigned to Contractor",
    "contractor": "Richards Disposal",
    "rowid": "866410",
    "final_x": "3675412.28885",
    "final_y": "521884.25977",
    "longitude": "-90.08762392474232",
    "latitude": "29.929184001890686",
    "geocoded_column": {
      "latitude": "29.929184001890686",
      "longitude": "-90.08762392474232"
    }
  },
  {
    "service_request": "2022-866409",
    "request_type": "Traffic Signals/Signs/Striping/Streetlights",
    "request_reason": "Traffic Signal Malfunctioning/Damaged",
    "date_created": "2022-03-11T15:17:49.000",
    "date_modified": "2022-03-11T15:17:49.000",
    "request_status": "Pending",
    "responsible_agency": "Department of Public Works",
    "final_address": "400 Poydras St",
    "address_councildis": "B",
    "status": "Pending",
    "rowid": "866409",
    "final_x": "3681589.68706",
    "final_y": "529065.294848",
    "longitude": "-90.06787272477939",
    "latitude": "29.948743349579406",
    "geocoded_column": {
      "latitude": "29.948743349579406",
      "longitude": "-90.06787272477939"
    }
  },
  {
    "service_request": "2022-866408",
    "request_type": "Traffic Signals/Signs/Striping/Streetlights",
    "request_reason": "Traffic Signal Malfunctioning/Damaged",
    "date_created": "2022-03-11T15:15:24.000",
    "date_modified": "2022-03-11T15:15:24.000",
    "request_status": "Pending",
    "responsible_agency": "Department of Public Works",
    "final_address": "300 Camp St",
    "address_councildis": "B",
    "status": "Pending",
    "rowid": "866408",
    "final_x": "3681302.36892",
    "final_y": "529849.866369",
    "longitude": "-90.0687525706983",
    "latitude": "29.95090937896033",
    "geocoded_column": {
      "latitude": "29.95090937896033",
      "longitude": "-90.0687525706983"
    }
  },
  {
    "service_request": "2022-866407",
    "request_type": "Trash/Recycling",
    "request_reason": "Request a Large Item Pick Up",
    "date_created": "2022-03-11T15:15:18.000",
    "date_modified": "2022-03-11T15:15:19.000",
    "request_status": "Pending",
    "responsible_agency": "Department of Sanitation",
    "final_address": "4957 Chantilly Dr",
    "address_councildis": "E",
    "status": "Assigned to Contractor",
    "contractor": "Metro Disposal",
    "rowid": "866407",
    "final_x": "3700838.95633",
    "final_y": "555471.063897",
    "longitude": "-90.00612928265917",
    "latitude": "30.020750933229035",
    "geocoded_column": {
      "latitude": "30.020750933229035",
      "longitude": "-90.00612928265917"
    }
  },
  {
    "service_request": "2022-866406",
    "request_type": "Roads/Drainage",
    "request_reason": "Catch Basin - Clogged",
    "date_created": "2022-03-11T15:10:18.000",
    "date_modified": "2022-03-11T15:10:18.000",
    "request_status": "Pending",
    "responsible_agency": "Department of Public Works",
    "final_address": "2002 Baronne St",
    "address_councildis": "B",
    "status": "Pending",
    "rowid": "866406",
    "final_x": "3677575.96603",
    "final_y": "524806.71494",
    "longitude": "-90.08069275368514",
    "latitude": "29.937154939877104",
    "geocoded_column": {
      "latitude": "29.937154939877104",
      "longitude": "-90.08069275368514"
    }
  },
  {
    "service_request": "2022-866405",
    "request_type": "Trash/Recycling",
    "request_reason": "Request a Large Item Pick Up",
    "date_created": "2022-03-11T15:09:15.000",
    "date_modified": "2022-03-11T15:09:15.000",
    "request_status": "Pending",
    "responsible_agency": "Department of Sanitation",
    "final_address": "2627 Orleans Ave",
    "address_councildis": "D",
    "status": "Assigned to Contractor",
    "contractor": "Richards Disposal",
    "rowid": "866405",
    "final_x": "3677062.18914",
    "final_y": "536878.414152",
    "longitude": "-90.08189854709236",
    "latitude": "29.97036350543574",
    "geocoded_column": {
      "latitude": "29.97036350543574",
      "longitude": "-90.08189854709236"
    }
  },
  {
    "service_request": "2022-866404",
    "request_type": "Trash/Recycling",
    "request_reason": "Order Trash Cart",
    "date_created": "2022-03-11T15:05:59.000",
    "date_modified": "2022-03-11T15:06:00.000",
    "request_status": "Pending",
    "responsible_agency": "Department of Sanitation",
    "final_address": "1019 S Telemachus St",
    "address_councildis": "B",
    "status": "Assigned to Contractor",
    "contractor": "Richards Disposal",
    "rowid": "866404",
    "final_x": "3669626.05038",
    "final_y": "533773.007685",
    "longitude": "-90.10548785300641",
    "latitude": "29.962045889073302",
    "geocoded_column": {
      "latitude": "29.962045889073302",
      "longitude": "-90.10548785300641"
    }
  },
  {
    "service_request": "2022-866403",
    "request_type": "Roads/Drainage",
    "request_reason": "Pothole",
    "date_created": "2022-03-11T15:05:26.000",
    "date_modified": "2022-03-11T15:05:26.000",
    "request_status": "Pending",
    "responsible_agency": "Department of Public Works",
    "final_address": "606 State St",
    "address_councildis": "A",
    "status": "Pending",
    "rowid": "866403",
    "final_x": "3664462.43764",
    "final_y": "518653.538103",
    "longitude": "-90.12229844086053",
    "latitude": "29.920623317146",
    "geocoded_column": {
      "latitude": "29.920623317146",
      "longitude": "-90.12229844086053"
    }
  },
  {
    "service_request": "2022-866402",
    "request_type": "Property Maintenance",
    "request_reason": "Property Maintenance",
    "date_created": "2022-03-11T15:01:27.000",
    "date_modified": "2022-03-11T15:01:27.000",
    "request_status": "Pending",
    "responsible_agency": "Department of Code Enforcement",
    "final_address": "717 Bellecastle St",
    "address_councildis": "B",
    "status": "Pending",
    "rowid": "866402",
    "final_x": "3667730.18682",
    "final_y": "518062.603574",
    "longitude": "-90.11200351669854",
    "latitude": "29.918903063741823",
    "geocoded_column": {
      "latitude": "29.918903063741823",
      "longitude": "-90.11200351669854"
    }
  },
  {
    "service_request": "2022-866401",
    "request_type": "Roads/Drainage",
    "request_reason": "Catch Basin - Clogged",
    "date_created": "2022-03-11T15:00:55.000",
    "date_modified": "2022-03-11T15:00:55.000",
    "request_status": "Pending",
    "responsible_agency": "Department of Public Works",
    "final_address": "2319 Rousseau St",
    "address_councildis": "B",
    "status": "Pending",
    "rowid": "866401",
    "final_x": "3679744.74856",
    "final_y": "519977.8622",
    "longitude": "-90.07401332657119",
    "latitude": "29.923811809239165",
    "geocoded_column": {
      "latitude": "29.923811809239165",
      "longitude": "-90.07401332657119"
    }
  },
  {
    "service_request": "2022-866400",
    "request_type": "Trash/Recycling",
    "request_reason": "Request a Large Item Pick Up",
    "date_created": "2022-03-11T14:59:30.000",
    "date_modified": "2022-03-11T14:59:31.000",
    "request_status": "Pending",
    "responsible_agency": "Department of Sanitation",
    "final_address": "3015 Frenchmen St",
    "address_councildis": "D",
    "status": "Assigned to Contractor",
    "contractor": "Metro Disposal",
    "rowid": "866400",
    "final_x": "3684032.09199",
    "final_y": "543791.564878",
    "longitude": "-90.05964417238299",
    "latitude": "29.98916109486121",
    "geocoded_column": {
      "latitude": "29.98916109486121",
      "longitude": "-90.05964417238299"
    }
  },
  {
    "service_request": "2022-866399",
    "request_type": "Abandoned Vehicles",
    "request_reason": "Abandoned/Junk Vehicles",
    "date_created": "2022-03-11T14:57:05.000",
    "date_modified": "2022-03-11T14:58:16.000",
    "request_status": "Pending",
    "responsible_agency": "Department of Public Works",
    "final_address": "2101 Jena St",
    "address_councildis": "B",
    "status": "Pending",
    "rowid": "866399",
    "final_x": "3670319.60628",
    "final_y": "522658.638522",
    "longitude": "-90.10367435259296",
    "latitude": "29.931464549986917",
    "geocoded_column": {
      "latitude": "29.931464549986917",
      "longitude": "-90.10367435259296"
    }
  },
  {
    "service_request": "2022-866398",
    "request_type": "Roads/Drainage",
    "request_reason": "Catch Basin - Clogged",
    "date_created": "2022-03-11T14:54:58.000",
    "date_modified": "2022-03-11T14:54:58.000",
    "request_status": "Pending",
    "responsible_agency": "Department of Public Works",
    "final_address": "S NORMAN C FRANCIS PKWY & GRAVIER ST",
    "address_councildis": "B",
    "status": "Pending",
    "rowid": "866398",
    "final_x": "3671663.7",
    "final_y": "534538.28",
    "longitude": "-90.09902722046705",
    "latitude": "29.964089936811025",
    "geocoded_column": {
      "latitude": "29.964089936811025",
      "longitude": "-90.09902722046705"
    }
  },
  {
    "service_request": "2022-866397",
    "request_type": "Property Maintenance",
    "request_reason": "Property Maintenance",
    "date_created": "2022-03-11T14:54:17.000",
    "date_modified": "2022-03-11T14:54:17.000",
    "request_status": "Pending",
    "responsible_agency": "Department of Code Enforcement",
    "final_address": "715 Bellecastle St",
    "address_councildis": "B",
    "status": "Pending",
    "rowid": "866397",
    "final_x": "3667721.50657",
    "final_y": "518034.825974",
    "longitude": "-90.11203185038825",
    "latitude": "29.918826938472552",
    "geocoded_column": {
      "latitude": "29.918826938472552",
      "longitude": "-90.11203185038825"
    }
  },
  {
    "service_request": "2022-866396",
    "request_type": "Trash/Recycling",
    "request_reason": "MIssed Recycling Pick-Up",
    "date_created": "2022-03-11T14:52:20.000",
    "date_modified": "2022-03-11T14:52:21.000",
    "request_status": "Pending",
    "responsible_agency": "Department of Sanitation",
    "final_address": "8923 Apple St",
    "address_councildis": "A",
    "status": "Assigned to Contractor",
    "contractor": "Richards Disposal",
    "rowid": "866396",
    "final_x": "3663128.13197",
    "final_y": "534177.646021",
    "longitude": "-90.12599392048146",
    "latitude": "29.96334837037641",
    "geocoded_column": {
      "latitude": "29.96334837037641",
      "longitude": "-90.12599392048146"
    }
  },
  {
    "service_request": "2022-866395",
    "request_type": "Traffic Signals/Signs/Striping/Streetlights",
    "request_reason": "Additional signage",
    "date_created": "2022-03-11T14:50:42.000",
    "date_modified": "2022-03-11T14:50:42.000",
    "request_status": "Pending",
    "responsible_agency": "Department of Public Works",
    "final_address": "WILLOW ST & STATE ST",
    "address_councildis": "A",
    "status": "Pending",
    "rowid": "866395",
    "final_x": "3666797.7",
    "final_y": "525668.68",
    "longitude": "-90.11469156721516",
    "latitude": "29.939844657137456",
    "geocoded_column": {
      "latitude": "29.939844657137456",
      "longitude": "-90.11469156721516"
    }
  },
  {
    "service_request": "2022-866394",
    "request_type": "Abandoned Vehicles",
    "request_reason": "Abandoned/Junk Vehicles",
    "date_created": "2022-03-11T14:50:40.000",
    "date_modified": "2022-03-11T14:52:34.000",
    "request_status": "Pending",
    "responsible_agency": "Department of Public Works",
    "final_address": "BARONNE ST & ERATO ST",
    "address_councildis": "B",
    "status": "Pending",
    "rowid": "866394",
    "final_x": "3678756.9",
    "final_y": "526539.58",
    "longitude": "-90.07690448659761",
    "latitude": "29.94188419440109",
    "geocoded_column": {
      "latitude": "29.94188419440109",
      "longitude": "-90.07690448659761"
    }
  },
  {
    "service_request": "2022-866393",
    "request_type": "Abandoned Vehicles",
    "request_reason": "Abandoned/Junk Vehicles",
    "date_created": "2022-03-11T14:48:12.000",
    "date_modified": "2022-03-11T14:48:12.000",
    "request_status": "Pending",
    "responsible_agency": "Department of Public Works",
    "final_address": "4500 Laurel St",
    "address_councildis": "B",
    "status": "Pending",
    "rowid": "866393",
    "final_x": "3670692.605",
    "final_y": "517966.325878",
    "longitude": "-90.1026559357347",
    "latitude": "29.918551174715862",
    "geocoded_column": {
      "latitude": "29.918551174715862",
      "longitude": "-90.1026559357347"
    }
  },
  {
    "service_request": "2022-866392",
    "request_type": "Roads/Drainage",
    "request_reason": "Drainage Issue (Catch Basins, Culverts, Ditches, and Manhole Covers)",
    "date_created": "2022-03-11T14:46:59.000",
    "date_modified": "2022-03-11T14:46:59.000",
    "request_status": "Pending",
    "responsible_agency": "Department of Public Works",
    "final_address": "816 Alvar St",
    "address_councildis": "C",
    "status": "Pending",
    "rowid": "866392",
    "final_x": "3691216.18953",
    "final_y": "534400.237189",
    "longitude": "-90.03728733741798",
    "latitude": "29.96311674737712",
    "geocoded_column": {
      "latitude": "29.96311674737712",
      "longitude": "-90.03728733741798"
    }
  },
  {
    "service_request": "2022-866391",
    "request_type": "Trash/Recycling",
    "request_reason": "Request a Large Item Pick Up",
    "date_created": "2022-03-11T14:44:06.000",
    "date_modified": "2022-03-11T14:44:10.000",
    "request_status": "Pending",
    "responsible_agency": "Department of Sanitation",
    "final_address": "3640 Post Oak Ave",
    "address_councildis": "C",
    "status": "Assigned to Contractor",
    "contractor": "Richards Disposal",
    "rowid": "866391",
    "final_x": "3703899.72202",
    "final_y": "514527.649651",
    "longitude": "-89.99796590597731",
    "latitude": "29.908073539241645",
    "geocoded_column": {
      "latitude": "29.908073539241645",
      "longitude": "-89.99796590597731"
    }
  },
  {
    "service_request": "2022-866390",
    "request_type": "Trash/Recycling",
    "request_reason": "MIssed Recycling Pick-Up",
    "date_created": "2022-03-11T14:41:33.000",
    "date_modified": "2022-03-11T14:41:33.000",
    "request_status": "Pending",
    "responsible_agency": "Department of Sanitation",
    "final_address": "4613 St Charles Ave",
    "address_councildis": "B",
    "status": "Assigned to Contractor",
    "contractor": "Richards Disposal",
    "rowid": "866390",
    "final_x": "3669951.66202",
    "final_y": "520897.834937",
    "longitude": "-90.10489550501012",
    "latitude": "29.926633755320253",
    "geocoded_column": {
      "latitude": "29.926633755320253",
      "longitude": "-90.10489550501012"
    }
  },
  {
    "service_request": "2022-866389",
    "request_type": "Traffic Signals/Signs/Striping/Streetlights",
    "request_reason": "Street Light Outage/Malfunction",
    "date_created": "2022-03-11T14:30:46.000",
    "date_modified": "2022-03-11T14:30:47.000",
    "request_status": "Pending",
    "responsible_agency": "Department of Public Works",
    "final_address": "35 Honeysuckle Ln",
    "address_councildis": "E",
    "status": "Pending",
    "contractor": "Royal Engineering",
    "rowid": "866389",
    "final_x": "3713024.20478",
    "final_y": "568411.211237",
    "longitude": "-89.96714039497594",
    "latitude": "30.05593743804322",
    "geocoded_column": {
      "latitude": "30.05593743804322",
      "longitude": "-89.96714039497594"
    }
  },
  {
    "service_request": "2022-866388",
    "request_type": "Property Maintenance",
    "request_reason": "Property Maintenance",
    "date_created": "2022-03-11T14:30:25.000",
    "date_modified": "2022-03-11T14:30:25.000",
    "request_status": "Pending",
    "responsible_agency": "Department of Code Enforcement",
    "final_address": "400 Jackson Ave",
    "address_councildis": "B",
    "status": "Pending",
    "rowid": "866388",
    "final_x": "3680506.7037",
    "final_y": "519839.506232",
    "longitude": "-90.07161292026576",
    "latitude": "29.923408327288005",
    "geocoded_column": {
      "latitude": "29.923408327288005",
      "longitude": "-90.07161292026576"
    }
  },
  {
    "service_request": "2022-866387",
    "request_type": "Roads/Drainage",
    "request_reason": "Street Flooding / Drainage",
    "date_created": "2022-03-11T14:28:25.000",
    "date_modified": "2022-03-11T14:28:25.000",
    "request_status": "Pending",
    "responsible_agency": "Department of Public Works",
    "final_address": "2124 Camp St",
    "address_councildis": "B",
    "status": "Pending",
    "rowid": "866387",
    "final_x": "3678793.04117",
    "final_y": "522464.221242",
    "longitude": "-90.07693146400749",
    "latitude": "29.930677211414945",
    "geocoded_column": {
      "latitude": "29.930677211414945",
      "longitude": "-90.07693146400749"
    }
  },
  {
    "service_request": "2022-866386",
    "request_type": "Trash/Recycling",
    "request_reason": "Missed Trash Pick-Up",
    "date_created": "2022-03-11T14:27:15.000",
    "date_modified": "2022-03-11T14:27:21.000",
    "request_status": "Pending",
    "responsible_agency": "Department of Sanitation",
    "final_address": "1900 BLK Industry St",
    "address_councildis": "D",
    "status": "Assigned to Contractor",
    "contractor": "Metro Disposal",
    "rowid": "866386",
    "final_x": "3682429.61903",
    "final_y": "542768.859788",
    "longitude": "-90.06474167245993",
    "latitude": "29.986397897921343",
    "geocoded_column": {
      "latitude": "29.986397897921343",
      "longitude": "-90.06474167245993"
    }
  },
  {
    "service_request": "2022-866385",
    "request_type": "Roads/Drainage",
    "request_reason": "Pothole",
    "date_created": "2022-03-11T14:25:15.000",
    "date_modified": "2022-03-11T14:25:15.000",
    "request_status": "Pending",
    "responsible_agency": "Department of Public Works",
    "final_address": "3318 Law St Apt A",
    "address_councildis": "D",
    "status": "Pending",
    "rowid": "866385",
    "final_x": "3691352.1014",
    "final_y": "541337.519052",
    "longitude": "-90.03661022773872",
    "latitude": "29.982187588030314",
    "geocoded_column": {
      "latitude": "29.982187588030314",
      "longitude": "-90.03661022773872"
    }
  },
  {
    "service_request": "2022-866384",
    "request_type": "Property Maintenance",
    "request_reason": "Property Maintenance",
    "date_created": "2022-03-11T14:25:06.000",
    "date_modified": "2022-03-11T14:25:06.000",
    "request_status": "Pending",
    "responsible_agency": "Department of Code Enforcement",
    "final_address": "4524 S Roman St",
    "address_councildis": "B",
    "status": "Pending",
    "rowid": "866384",
    "final_x": "3669670.59278",
    "final_y": "526468.43667",
    "longitude": "-90.10559434878753",
    "latitude": "29.941959402259222",
    "geocoded_column": {
      "latitude": "29.941959402259222",
      "longitude": "-90.10559434878753"
    }
  },
  {
    "service_request": "2022-866383",
    "request_type": "Roads/Drainage",
    "request_reason": "Catch Basin - Clogged",
    "date_created": "2022-03-11T14:24:09.000",
    "date_modified": "2022-03-11T14:24:09.000",
    "request_status": "Pending",
    "responsible_agency": "Department of Public Works",
    "final_address": "2100 St Bernard Ave",
    "address_councildis": "D",
    "status": "Pending",
    "rowid": "866383",
    "final_x": "3681212.18332",
    "final_y": "539527.09889",
    "longitude": "-90.06870009489934",
    "latitude": "29.97752119292881",
    "geocoded_column": {
      "latitude": "29.97752119292881",
      "longitude": "-90.06870009489934"
    }
  },
  {
    "service_request": "2022-866382",
    "request_type": "Parks & Parkways",
    "request_reason": "Request Tree Service (Right of Way/Public Property)",
    "date_created": "2022-03-11T14:23:48.000",
    "date_modified": "2022-03-11T14:23:48.000",
    "request_status": "Pending",
    "responsible_agency": "Department of Parks & Parkway",
    "final_address": "3203 Upperline St",
    "address_councildis": "B",
    "status": "Pending",
    "rowid": "866382",
    "final_x": "3669299.71879",
    "final_y": "526513.989502",
    "longitude": "-90.10676374040887",
    "latitude": "29.942095579277716",
    "geocoded_column": {
      "latitude": "29.942095579277716",
      "longitude": "-90.10676374040887"
    }
  },
  {
    "service_request": "2022-866381",
    "request_type": "Abandoned Vehicles",
    "request_reason": "Abandoned/Junk Vehicles",
    "date_created": "2022-03-11T14:17:53.000",
    "date_modified": "2022-03-11T14:17:53.000",
    "request_status": "Pending",
    "responsible_agency": "Department of Public Works",
    "final_address": "1803 St Philip St",
    "address_councildis": "D",
    "status": "Pending",
    "rowid": "866381",
    "final_x": "3680134.23887",
    "final_y": "535773.375239",
    "longitude": "-90.07223508625412",
    "latitude": "29.96723241474567",
    "geocoded_column": {
      "latitude": "29.96723241474567",
      "longitude": "-90.07223508625412"
    }
  },
  {
    "service_request": "2022-866380",
    "request_type": "Traffic Signals/Signs/Striping/Streetlights",
    "request_reason": "Traffic Signal Malfunctioning/Damaged",
    "date_created": "2022-03-11T14:16:42.000",
    "date_modified": "2022-03-11T14:16:42.000",
    "request_status": "Pending",
    "responsible_agency": "Department of Public Works",
    "final_address": "PONTCHARTRAIN BLVD & METAIRIE RD",
    "address_councildis": "A",
    "status": "Pending",
    "rowid": "866380",
    "final_x": "3666859.8",
    "final_y": "540665.48",
    "longitude": "-90.11399166522672",
    "latitude": "29.981079106614008",
    "geocoded_column": {
      "latitude": "29.981079106614008",
      "longitude": "-90.11399166522672"
    }
  },
  {
    "service_request": "2022-866378",
    "request_type": "Trash/Recycling",
    "request_reason": "Return Recycling Cart",
    "date_created": "2022-03-11T14:08:50.000",
    "date_modified": "2022-03-11T14:09:47.000",
    "request_status": "Pending",
    "responsible_agency": "Department of Sanitation",
    "final_address": "1112 Napoleon Ave",
    "address_councildis": "B",
    "status": "Pending",
    "rowid": "866378",
    "final_x": "3670880.7963",
    "final_y": "519638.611",
    "longitude": "-90.1020051904179",
    "latitude": "29.923143868650964",
    "geocoded_column": {
      "latitude": "29.923143868650964",
      "longitude": "-90.1020051904179"
    }
  },
  {
    "service_request": "2022-866377",
    "request_type": "Trash/Recycling",
    "request_reason": "Request a Large Item Pick Up",
    "date_created": "2022-03-11T14:04:34.000",
    "date_modified": "2022-03-11T14:04:47.000",
    "request_status": "Pending",
    "responsible_agency": "Department of Sanitation",
    "final_address": "2311 Dauphine St",
    "address_councildis": "C",
    "status": "Assigned to Contractor",
    "contractor": "Metro Disposal",
    "rowid": "866377",
    "final_x": "3685603.72802",
    "final_y": "535323.293702",
    "longitude": "-90.05497826868641",
    "latitude": "29.96582819321732",
    "geocoded_column": {
      "latitude": "29.96582819321732",
      "longitude": "-90.05497826868641"
    }
  },
  {
    "service_request": "2022-866376",
    "request_type": "Abandoned Vehicles",
    "request_reason": "Abandoned/Junk Vehicles",
    "date_created": "2022-03-11T14:03:22.000",
    "date_modified": "2022-03-11T14:05:46.000",
    "request_status": "Pending",
    "responsible_agency": "Department of Public Works",
    "final_address": "7729 Zimple St",
    "address_councildis": "A",
    "status": "Pending",
    "rowid": "866376",
    "final_x": "3662677.97869",
    "final_y": "527296.233855",
    "longitude": "-90.12764411922663",
    "latitude": "29.944439744688893",
    "geocoded_column": {
      "latitude": "29.944439744688893",
      "longitude": "-90.12764411922663"
    }
  },
  {
    "service_request": "2022-866375",
    "request_type": "Trash/Recycling",
    "request_reason": "Missed Trash Pick-Up",
    "date_created": "2022-03-11T14:01:33.000",
    "date_modified": "2022-03-11T14:01:33.000",
    "request_status": "Pending",
    "responsible_agency": "Department of Sanitation",
    "final_address": "1518 Religious St",
    "address_councildis": "B",
    "status": "Assigned to Contractor",
    "contractor": "Richards Disposal",
    "rowid": "866375",
    "final_x": "3682069.67912",
    "final_y": "523210.179835",
    "longitude": "-90.06656156857525",
    "latitude": "29.932629154067644",
    "geocoded_column": {
      "latitude": "29.932629154067644",
      "longitude": "-90.06656156857525"
    }
  },
  {
    "service_request": "2022-866374",
    "request_type": "Trash/Recycling",
    "request_reason": "Request a Large Item Pick Up",
    "date_created": "2022-03-11T13:59:34.000",
    "date_modified": "2022-03-11T13:59:35.000",
    "request_status": "Pending",
    "responsible_agency": "Department of Sanitation",
    "final_address": "5211 Laurel St",
    "address_councildis": "B",
    "status": "Assigned to Contractor",
    "contractor": "Richards Disposal",
    "rowid": "866374",
    "final_x": "3667923.20973",
    "final_y": "517907.198326",
    "longitude": "-90.11139947231308",
    "latitude": "29.918470089579344",
    "geocoded_column": {
      "latitude": "29.918470089579344",
      "longitude": "-90.11139947231308"
    }
  },
  {
    "service_request": "2022-866373",
    "request_type": "Trash/Recycling",
    "request_reason": "Illegal Dumping",
    "date_created": "2022-03-11T13:59:33.000",
    "date_modified": "2022-03-11T13:59:33.000",
    "request_status": "Pending",
    "responsible_agency": "Department of Sanitation",
    "final_address": "PARIS RD & I 10 E SERVICE RD",
    "address_councildis": "E",
    "status": "Pending",
    "rowid": "866373",
    "final_x": "3721432.3",
    "final_y": "569031.98",
    "longitude": "-89.94054041721856",
    "latitude": "30.057365963027966",
    "geocoded_column": {
      "latitude": "30.057365963027966",
      "longitude": "-89.94054041721856"
    }
  },
  {
    "service_request": "2022-866372",
    "request_type": "Trash/Recycling",
    "request_reason": "MIssed Recycling Pick-Up",
    "date_created": "2022-03-11T13:58:59.000",
    "date_modified": "2022-03-11T14:12:57.000",
    "request_status": "Pending",
    "responsible_agency": "Department of Sanitation",
    "final_address": "New Orleans,LA",
    "address_councildis": "B",
    "status": "Assigned to Contractor",
    "contractor": "Richards Disposal",
    "rowid": "866372",
    "final_x": "3667766.39572",
    "final_y": "530318.034306",
    "longitude": "-90.11147671920965",
    "latitude": "29.952600510003478",
    "geocoded_column": {
      "latitude": "29.952600510003478",
      "longitude": "-90.11147671920965"
    }
  },
  {
    "service_request": "2022-866371",
    "request_type": "Traffic Signals/Signs/Striping/Streetlights",
    "request_reason": "Street Light Outage/Malfunction",
    "date_created": "2022-03-11T13:42:14.000",
    "date_modified": "2022-03-11T13:42:15.000",
    "request_status": "Pending",
    "responsible_agency": "Department of Public Works",
    "final_address": "4529 Walmsley Ave",
    "address_councildis": "B",
    "status": "Pending",
    "contractor": "Royal Engineering",
    "rowid": "866371",
    "final_x": "3669149.28545",
    "final_y": "530400.98445",
    "longitude": "-90.10710736203856",
    "latitude": "29.952787975787494",
    "geocoded_column": {
      "latitude": "29.952787975787494",
      "longitude": "-90.10710736203856"
    }
  },
  {
    "service_request": "2022-866370",
    "request_type": "Trash/Recycling",
    "request_reason": "Illegal Dumping",
    "date_created": "2022-03-11T13:41:37.000",
    "date_modified": "2022-03-11T13:41:37.000",
    "request_status": "Pending",
    "responsible_agency": "Department of Sanitation",
    "final_address": "319 S Salcedo St",
    "address_councildis": "B",
    "status": "Pending",
    "rowid": "866370",
    "final_x": "3673442.87272",
    "final_y": "535294.014342",
    "longitude": "-90.09338291457378",
    "latitude": "29.96611513406547",
    "geocoded_column": {
      "latitude": "29.96611513406547",
      "longitude": "-90.09338291457378"
    }
  },
  {
    "service_request": "2022-866369",
    "request_type": "Abandoned Vehicles",
    "request_reason": "Abandoned/Junk Vehicles",
    "date_created": "2022-03-11T13:39:59.000",
    "date_modified": "2022-03-11T13:42:24.000",
    "request_status": "Pending",
    "responsible_agency": "Department of Public Works",
    "final_address": "3700 BLK S Prieur St",
    "address_councildis": "B",
    "status": "Pending",
    "rowid": "866369",
    "final_x": "3671405.12599",
    "final_y": "527034.345653",
    "longitude": "-90.10009881784732",
    "latitude": "29.943464250708498",
    "geocoded_column": {
      "latitude": "29.943464250708498",
      "longitude": "-90.10009881784732"
    }
  },
  {
    "service_request": "2022-866368",
    "request_type": "Roads/Drainage",
    "request_reason": "Pothole",
    "date_created": "2022-03-11T13:38:58.000",
    "date_modified": "2022-03-11T13:38:58.000",
    "request_status": "Pending",
    "responsible_agency": "Department of Public Works",
    "final_address": "AURORA DR & BRUNSWICK CT",
    "address_councildis": "C",
    "status": "Pending",
    "rowid": "866368",
    "final_x": "3706882.1",
    "final_y": "517074.98",
    "longitude": "-89.98845882255914",
    "latitude": "29.914981912534355",
    "geocoded_column": {
      "latitude": "29.914981912534355",
      "longitude": "-89.98845882255914"
    }
  },
  {
    "service_request": "2022-866367",
    "request_type": "Abandoned Vehicles",
    "request_reason": "Abandoned/Junk Vehicles",
    "date_created": "2022-03-11T13:37:42.000",
    "date_modified": "2022-03-11T13:37:42.000",
    "request_status": "Pending",
    "responsible_agency": "Department of Public Works",
    "final_address": "1807 Second St",
    "address_councildis": "B",
    "status": "Pending",
    "rowid": "866367",
    "final_x": "3676273.79585",
    "final_y": "523742.390459",
    "longitude": "-90.08484039792874",
    "latitude": "29.93426747439861",
    "geocoded_column": {
      "latitude": "29.93426747439861",
      "longitude": "-90.08484039792874"
    }
  },
  {
    "service_request": "2022-866366",
    "request_type": "COVID-19",
    "request_reason": "COVID-19 Business Non-Compliance",
    "date_created": "2022-03-11T13:36:23.000",
    "date_modified": "2022-03-11T13:36:24.000",
    "request_status": "Pending",
    "responsible_agency": "Safety and Permits",
    "final_address": "600 Decatur St",
    "address_councildis": "C",
    "status": "Pending",
    "rowid": "866366",
    "final_x": "3683031.20853",
    "final_y": "531719.273731",
    "longitude": "-90.0632283472796",
    "latitude": "29.955997037734843",
    "geocoded_column": {
      "latitude": "29.955997037734843",
      "longitude": "-90.0632283472796"
    }
  },
  {
    "service_request": "2022-866365",
    "request_type": "Trash/Recycling",
    "request_reason": "Request a Large Item Pick Up",
    "date_created": "2022-03-11T13:30:30.000",
    "date_modified": "2022-03-11T13:30:38.000",
    "request_status": "Pending",
    "responsible_agency": "Department of Sanitation",
    "final_address": "910 Slidell St",
    "address_councildis": "C",
    "status": "Assigned to Contractor",
    "contractor": "Richards Disposal",
    "rowid": "866365",
    "final_x": "3688276.94281",
    "final_y": "528754.944",
    "longitude": "-90.04676926883992",
    "latitude": "29.947685223811778",
    "geocoded_column": {
      "latitude": "29.947685223811778",
      "longitude": "-90.04676926883992"
    }
  },
  {
    "service_request": "2022-866364",
    "request_type": "Trash/Recycling",
    "request_reason": "Order Recycling Cart",
    "date_created": "2022-03-11T13:29:39.000",
    "date_modified": "2022-03-11T13:29:39.000",
    "request_status": "Pending",
    "responsible_agency": "Department of Sanitation",
    "final_address": "7916 Nelson St",
    "address_councildis": "A",
    "status": "Pending",
    "rowid": "866364",
    "final_x": "3665567.52672",
    "final_y": "531384.066435",
    "longitude": "-90.11838409173271",
    "latitude": "29.955596040854758",
    "geocoded_column": {
      "latitude": "29.955596040854758",
      "longitude": "-90.11838409173271"
    }
  },
  {
    "service_request": "2022-866363",
    "request_type": "Roads/Drainage",
    "request_reason": "Catch Basin - Clogged",
    "date_created": "2022-03-11T13:28:51.000",
    "date_modified": "2022-03-11T13:28:51.000",
    "request_status": "Pending",
    "responsible_agency": "Department of Public Works",
    "final_address": "1510 General Pershing St",
    "address_councildis": "B",
    "status": "Pending",
    "rowid": "866363",
    "final_x": "3671217.23899",
    "final_y": "520692.078713",
    "longitude": "-90.10090740050725",
    "latitude": "29.926030623080177",
    "geocoded_column": {
      "latitude": "29.926030623080177",
      "longitude": "-90.10090740050725"
    }
  },
  {
    "service_request": "2022-866362",
    "request_type": "Roads/Drainage",
    "request_reason": "Pothole",
    "date_created": "2022-03-11T13:28:17.000",
    "date_modified": "2022-03-11T13:28:17.000",
    "request_status": "Pending",
    "responsible_agency": "Department of Public Works",
    "final_address": "1 Everett Pl",
    "address_councildis": "A",
    "status": "Pending",
    "rowid": "866362",
    "final_x": "3666374.86842",
    "final_y": "523035.219579",
    "longitude": "-90.11611483428953",
    "latitude": "29.93261584062833",
    "geocoded_column": {
      "latitude": "29.93261584062833",
      "longitude": "-90.11611483428953"
    }
  },
  {
    "service_request": "2022-866361",
    "request_type": "Abandoned Vehicles",
    "request_reason": "Abandoned/Junk Vehicles",
    "date_created": "2022-03-11T13:27:36.000",
    "date_modified": "2022-03-11T13:27:36.000",
    "request_status": "Pending",
    "responsible_agency": "Department of Public Works",
    "final_address": "CURRAN BLVD & STONEWOOD ST",
    "address_councildis": "E",
    "status": "Pending",
    "rowid": "866361",
    "final_x": "3719084.9",
    "final_y": "572735.18",
    "longitude": "-89.94781860442923",
    "latitude": "30.06762646132026",
    "geocoded_column": {
      "latitude": "30.06762646132026",
      "longitude": "-89.94781860442923"
    }
  },
  {
    "service_request": "2022-866360",
    "request_type": "Trash/Recycling",
    "request_reason": "Repair Recycling Cart",
    "date_created": "2022-03-11T13:25:42.000",
    "date_modified": "2022-03-11T13:25:42.000",
    "request_status": "Pending",
    "responsible_agency": "Department of Sanitation",
    "final_address": "608 David St",
    "address_councildis": "A",
    "status": "Pending",
    "rowid": "866360",
    "final_x": "3672083.51431",
    "final_y": "539939.785866",
    "longitude": "-90.09751751202384",
    "latitude": "29.97892981333047",
    "geocoded_column": {
      "latitude": "29.97892981333047",
      "longitude": "-90.09751751202384"
    }
  },
  {
    "service_request": "2022-866359",
    "request_type": "Trash/Recycling",
    "request_reason": "Illegal Dumping",
    "date_created": "2022-03-11T13:24:50.000",
    "date_modified": "2022-03-11T14:15:00.000",
    "request_status": "Pending",
    "responsible_agency": "Department of Code Enforcement",
    "final_address": "New Orleans,LA",
    "address_councildis": "D",
    "rowid": "866359",
    "final_x": "3691574.51696",
    "final_y": "547915.44725",
    "longitude": "-90.03567244377135",
    "latitude": "30.000267587432997",
    "geocoded_column": {
      "latitude": "30.000267587432997",
      "longitude": "-90.03567244377135"
    }
  },
  {
    "service_request": "2022-866358",
    "request_type": "Property Maintenance",
    "request_reason": "Property Maintenance",
    "date_created": "2022-03-11T13:19:42.000",
    "date_modified": "2022-03-11T13:19:42.000",
    "request_status": "Pending",
    "responsible_agency": "Department of Code Enforcement",
    "final_address": "4213 DHemecourt St",
    "address_councildis": "A",
    "status": "Pending",
    "rowid": "866358",
    "final_x": "3669330.00481",
    "final_y": "537241.526408",
    "longitude": "-90.10630543110467",
    "latitude": "29.97159187850204",
    "geocoded_column": {
      "latitude": "29.97159187850204",
      "longitude": "-90.10630543110467"
    }
  },
  {
    "service_request": "2022-866357",
    "request_type": "Trash/Recycling",
    "request_reason": "Missed Trash Pick-Up",
    "date_created": "2022-03-11T13:17:19.000",
    "date_modified": "2022-03-11T14:13:28.000",
    "request_status": "Pending",
    "responsible_agency": "Department of Sanitation",
    "final_address": "New Orleans,LA",
    "address_councildis": "A",
    "status": "Assigned to Contractor",
    "contractor": "Richards Disposal",
    "rowid": "866357",
    "final_x": "3672084.27963",
    "final_y": "537447.509",
    "longitude": "-90.09759998587734",
    "latitude": "29.972076874458164",
    "geocoded_column": {
      "latitude": "29.972076874458164",
      "longitude": "-90.09759998587734"
    }
  },
  {
    "service_request": "2022-866356",
    "request_type": "Trash/Recycling",
    "request_reason": "Replace Recycling Cart",
    "date_created": "2022-03-11T13:15:23.000",
    "date_modified": "2022-03-11T13:15:23.000",
    "request_status": "Pending",
    "responsible_agency": "Department of Sanitation",
    "final_address": "7915 Green St",
    "address_councildis": "A",
    "status": "Pending",
    "rowid": "866356",
    "final_x": "3663635.43085",
    "final_y": "529276.282369",
    "longitude": "-90.1245552012505",
    "latitude": "29.9498565053258",
    "geocoded_column": {
      "latitude": "29.9498565053258",
      "longitude": "-90.1245552012505"
    }
  },
  {
    "service_request": "2022-866355",
    "request_type": "Roads/Drainage",
    "request_reason": "Damaged Sidewalk",
    "date_created": "2022-03-11T13:12:09.000",
    "date_modified": "2022-03-11T13:12:09.000",
    "request_status": "Pending",
    "responsible_agency": "Department of Public Works",
    "final_address": "7915 Green St",
    "address_councildis": "A",
    "status": "Pending",
    "rowid": "866355",
    "final_x": "3663635.43085",
    "final_y": "529276.282369",
    "longitude": "-90.1245552012505",
    "latitude": "29.9498565053258",
    "geocoded_column": {
      "latitude": "29.9498565053258",
      "longitude": "-90.1245552012505"
    }
  },
  {
    "service_request": "2022-866354",
    "request_type": "Roads/Drainage",
    "request_reason": "Pothole",
    "date_created": "2022-03-11T13:03:16.000",
    "date_modified": "2022-03-11T14:34:08.000",
    "request_status": "Pending",
    "responsible_agency": "Department of Public Works",
    "final_address": "3000 BLK Touro St",
    "address_councildis": "D",
    "status": "Inspected",
    "rowid": "866354",
    "final_x": "3683624.51821",
    "final_y": "543793.890546",
    "longitude": "-90.06093149460598",
    "latitude": "29.98917994059274",
    "geocoded_column": {
      "latitude": "29.98917994059274",
      "longitude": "-90.06093149460598"
    }
  },
  {
    "service_request": "2022-866353",
    "request_type": "Trash/Recycling",
    "request_reason": "MIssed Recycling Pick-Up",
    "date_created": "2022-03-11T13:02:07.000",
    "date_modified": "2022-03-11T13:02:08.000",
    "request_status": "Pending",
    "responsible_agency": "Department of Sanitation",
    "final_address": "6300 BLK Prytania St",
    "address_councildis": "A",
    "status": "Assigned to Contractor",
    "contractor": "Richards Disposal",
    "rowid": "866353",
    "final_x": "3663736.78207",
    "final_y": "521426.510084",
    "longitude": "-90.12449666766824",
    "latitude": "29.92826919049489",
    "geocoded_column": {
      "latitude": "29.92826919049489",
      "longitude": "-90.12449666766824"
    }
  },
  {
    "service_request": "2022-866352",
    "request_type": "Trash/Recycling",
    "request_reason": "Request a Large Item Pick Up",
    "date_created": "2022-03-11T12:58:43.000",
    "date_modified": "2022-03-11T12:58:44.000",
    "request_status": "Pending",
    "responsible_agency": "Department of Sanitation",
    "final_address": "1311 St Maurice Ave",
    "address_councildis": "E",
    "status": "Assigned to Contractor",
    "contractor": "Metro Disposal",
    "rowid": "866352",
    "final_x": "3700209.66807",
    "final_y": "533928.561093",
    "longitude": "-90.00890440325131",
    "latitude": "29.961537035956937",
    "geocoded_column": {
      "latitude": "29.961537035956937",
      "longitude": "-90.00890440325131"
    }
  },
  {
    "service_request": "2022-866351",
    "request_type": "Trash/Recycling",
    "request_reason": "Order Trash Cart",
    "date_created": "2022-03-11T12:53:43.000",
    "date_modified": "2022-03-11T12:53:45.000",
    "request_status": "Pending",
    "responsible_agency": "Department of Sanitation",
    "final_address": "2931 St Thomas St",
    "address_councildis": "B",
    "status": "Assigned to Contractor",
    "contractor": "Richards Disposal",
    "rowid": "866351",
    "final_x": "3677395.83694",
    "final_y": "518901.021623",
    "longitude": "-90.08146513097275",
    "latitude": "29.92092162089272",
    "geocoded_column": {
      "latitude": "29.92092162089272",
      "longitude": "-90.08146513097275"
    }
  },
  {
    "service_request": "2022-866350",
    "request_type": "Abandoned Vehicles",
    "request_reason": "Abandoned/Junk Vehicles",
    "date_created": "2022-03-11T12:53:03.000",
    "date_modified": "2022-03-11T13:01:01.000",
    "request_status": "Pending",
    "responsible_agency": "Department of Public Works",
    "final_address": "927 N Broad St",
    "address_councildis": "A",
    "status": "Pending",
    "rowid": "866350",
    "final_x": "3677201.09064",
    "final_y": "537759.011016",
    "longitude": "-90.08142949610773",
    "latitude": "29.972780673834993",
    "geocoded_column": {
      "latitude": "29.972780673834993",
      "longitude": "-90.08142949610773"
    }
  },
  {
    "service_request": "2022-866349",
    "request_type": "Roads/Drainage",
    "request_reason": "Catch Basin - Clogged",
    "date_created": "2022-03-11T12:49:32.000",
    "date_modified": "2022-03-11T12:49:32.000",
    "request_status": "Pending",
    "responsible_agency": "Department of Public Works",
    "final_address": "2231 Milan St",
    "address_councildis": "B",
    "status": "Pending",
    "rowid": "866349",
    "final_x": "3671402.70727",
    "final_y": "523341.484411",
    "longitude": "-90.10023192679182",
    "latitude": "29.933310151509684",
    "geocoded_column": {
      "latitude": "29.933310151509684",
      "longitude": "-90.10023192679182"
    }
  },
  {
    "service_request": "2022-866348",
    "request_type": "Trash/Recycling",
    "request_reason": "Order Recycling Cart",
    "date_created": "2022-03-11T12:48:33.000",
    "date_modified": "2022-03-11T12:48:33.000",
    "request_status": "Pending",
    "responsible_agency": "Department of Sanitation",
    "final_address": "2931 St Thomas St",
    "address_councildis": "B",
    "status": "Pending",
    "rowid": "866348",
    "final_x": "3677395.83694",
    "final_y": "518901.021623",
    "longitude": "-90.08146513097275",
    "latitude": "29.92092162089272",
    "geocoded_column": {
      "latitude": "29.92092162089272",
      "longitude": "-90.08146513097275"
    }
  },
  {
    "service_request": "2022-866347",
    "request_type": "Roads/Drainage",
    "request_reason": "Catch Basin - Clogged",
    "date_created": "2022-03-11T12:45:00.000",
    "date_modified": "2022-03-11T14:15:47.000",
    "request_status": "Pending",
    "responsible_agency": "Department of Public Works",
    "final_address": "2629 Pauger St",
    "address_councildis": "D",
    "status": "Inspected",
    "rowid": "866347",
    "final_x": "3683695.37346",
    "final_y": "539454.703626",
    "longitude": "-90.06085989357015",
    "latitude": "29.977246539760554",
    "geocoded_column": {
      "latitude": "29.977246539760554",
      "longitude": "-90.06085989357015"
    }
  },
  {
    "service_request": "2022-866346",
    "request_type": "Trash/Recycling",
    "request_reason": "Missed Trash Pick-Up",
    "date_created": "2022-03-11T12:43:08.000",
    "date_modified": "2022-03-11T12:43:09.000",
    "request_status": "Pending",
    "responsible_agency": "Department of Sanitation",
    "final_address": "6301 Caldwell Dr",
    "address_councildis": "D",
    "status": "Assigned to Contractor",
    "contractor": "Metro Disposal",
    "rowid": "866346",
    "final_x": "3679341.18024",
    "final_y": "556640.997978",
    "longitude": "-90.07401530841656",
    "latitude": "30.024634974843273",
    "geocoded_column": {
      "latitude": "30.024634974843273",
      "longitude": "-90.07401530841656"
    }
  },
  {
    "service_request": "2022-866345",
    "request_type": "Trash/Recycling",
    "request_reason": "MIssed Recycling Pick-Up",
    "date_created": "2022-03-11T12:38:26.000",
    "date_modified": "2022-03-11T12:38:27.000",
    "request_status": "Pending",
    "responsible_agency": "Department of Sanitation",
    "final_address": "1531 N Miro St",
    "address_councildis": "D",
    "status": "Assigned to Contractor",
    "contractor": "Metro Disposal",
    "rowid": "866345",
    "final_x": "3680131.15573",
    "final_y": "538735.490825",
    "longitude": "-90.07214186189915",
    "latitude": "29.975377306635007",
    "geocoded_column": {
      "latitude": "29.975377306635007",
      "longitude": "-90.07214186189915"
    }
  },
  {
    "service_request": "2022-866344",
    "request_type": "Traffic Signals/Signs/Striping/Streetlights",
    "request_reason": "Street Light Outage/Malfunction",
    "date_created": "2022-03-11T12:37:15.000",
    "date_modified": "2022-03-11T12:37:16.000",
    "request_status": "Pending",
    "responsible_agency": "Department of Public Works",
    "final_address": "791 Jewel St",
    "address_councildis": "D",
    "status": "Pending",
    "contractor": "Royal Engineering",
    "rowid": "866344",
    "final_x": "3670279.88276",
    "final_y": "555997.285337",
    "longitude": "-90.1026693825189",
    "latitude": "30.023135709987788",
    "geocoded_column": {
      "latitude": "30.023135709987788",
      "longitude": "-90.1026693825189"
    }
  },
  {
    "service_request": "2022-866343",
    "request_type": "Roads/Drainage",
    "request_reason": "Debris in Roadway",
    "date_created": "2022-03-11T12:36:12.000",
    "date_modified": "2022-03-11T12:36:12.000",
    "request_status": "Pending",
    "responsible_agency": "Department of Public Works",
    "final_address": "2610 Bell St",
    "address_councildis": "A",
    "status": "Pending",
    "rowid": "866343",
    "final_x": "3677963.91432",
    "final_y": "539006.010378",
    "longitude": "-90.07897724318886",
    "latitude": "29.976186555052312",
    "geocoded_column": {
      "latitude": "29.976186555052312",
      "longitude": "-90.07897724318886"
    }
  },
  {
    "service_request": "2022-866342",
    "request_type": "Traffic Signals/Signs/Striping/Streetlights",
    "request_reason": "Street Light Outage/Malfunction",
    "date_created": "2022-03-11T12:35:17.000",
    "date_modified": "2022-03-11T12:35:19.000",
    "request_status": "Pending",
    "responsible_agency": "Department of Public Works",
    "final_address": "4000 Davey St",
    "address_councildis": "D",
    "status": "Pending",
    "contractor": "Royal Engineering",
    "rowid": "866342",
    "final_x": "3676149.65473",
    "final_y": "546926.171153",
    "longitude": "-90.08443457462232",
    "latitude": "29.99801873290704",
    "geocoded_column": {
      "latitude": "29.99801873290704",
      "longitude": "-90.08443457462232"
    }
  },
  {
    "service_request": "2022-866341",
    "request_type": "Trash/Recycling",
    "request_reason": "Order Trash Cart",
    "date_created": "2022-03-11T12:35:06.000",
    "date_modified": "2022-03-11T12:35:07.000",
    "request_status": "Pending",
    "responsible_agency": "Department of Sanitation",
    "final_address": "418 Eleonore St",
    "address_councildis": "A",
    "status": "Assigned to Contractor",
    "contractor": "Richards Disposal",
    "rowid": "866341",
    "final_x": "3664927.86669",
    "final_y": "517912.798774",
    "longitude": "-90.1208540322215",
    "latitude": "29.918572981155535",
    "geocoded_column": {
      "latitude": "29.918572981155535",
      "longitude": "-90.1208540322215"
    }
  },
  {
    "service_request": "2022-866340",
    "request_type": "Traffic Signals/Signs/Striping/Streetlights",
    "request_reason": "Street Light Outage/Malfunction",
    "date_created": "2022-03-11T12:34:59.000",
    "date_modified": "2022-03-11T12:34:59.000",
    "request_status": "Pending",
    "responsible_agency": "Department of Public Works",
    "final_address": "4000 Davey St",
    "address_councildis": "D",
    "status": "Pending",
    "contractor": "Royal Engineering",
    "rowid": "866340",
    "final_x": "3676149.65473",
    "final_y": "546926.171153",
    "longitude": "-90.08443457462232",
    "latitude": "29.99801873290704",
    "geocoded_column": {
      "latitude": "29.99801873290704",
      "longitude": "-90.08443457462232"
    }
  },
  {
    "service_request": "2022-866339",
    "request_type": "Trash/Recycling",
    "request_reason": "Replace Trash Cart",
    "date_created": "2022-03-11T12:31:22.000",
    "date_modified": "2022-03-11T12:31:39.000",
    "request_status": "Pending",
    "responsible_agency": "Department of Sanitation",
    "final_address": "7915 Green St, New Orleans, Louisiana, 70118",
    "address_councildis": "A",
    "status": "Assigned to Contractor",
    "contractor": "Richards Disposal",
    "rowid": "866339",
    "final_x": "3663635.43085",
    "final_y": "529276.282369",
    "longitude": "-90.1245552012505",
    "latitude": "29.9498565053258",
    "geocoded_column": {
      "latitude": "29.9498565053258",
      "longitude": "-90.1245552012505"
    }
  },
  {
    "service_request": "2022-866338",
    "request_type": "Trash/Recycling",
    "request_reason": "Request a Large Item Pick Up",
    "date_created": "2022-03-11T12:29:40.000",
    "date_modified": "2022-03-11T12:29:41.000",
    "request_status": "Pending",
    "responsible_agency": "Department of Sanitation",
    "final_address": "2055 Mercedes Blvd",
    "address_councildis": "C",
    "status": "Assigned to Contractor",
    "contractor": "Richards Disposal",
    "rowid": "866338",
    "final_x": "3698044.29859",
    "final_y": "523221.782523",
    "longitude": "-90.01613089946653",
    "latitude": "29.93216578429665",
    "geocoded_column": {
      "latitude": "29.93216578429665",
      "longitude": "-90.01613089946653"
    }
  },
  {
    "service_request": "2022-866337",
    "request_type": "Trash/Recycling",
    "request_reason": "Request a Large Item Pick Up",
    "date_created": "2022-03-11T12:29:01.000",
    "date_modified": "2022-03-11T12:29:02.000",
    "request_status": "Pending",
    "responsible_agency": "Department of Sanitation",
    "final_address": "6314 Carlson Dr",
    "address_councildis": "D",
    "status": "Assigned to Contractor",
    "contractor": "Metro Disposal",
    "rowid": "866337",
    "final_x": "3679387.74267",
    "final_y": "556831.17929",
    "longitude": "-90.07386157375646",
    "latitude": "30.025156496684232",
    "geocoded_column": {
      "latitude": "30.025156496684232",
      "longitude": "-90.07386157375646"
    }
  },