[
  {
    "service_request": "2021-843981",
    "request_type": "Property Maintenance",
    "request_reason": "Property Maintenance",
    "date_created": "2021-11-23T22:39:35.000",
    "date_modified": "2021-11-23T22:39:35.000",
    "request_status": "Pending",
    "responsible_agency": "Department of Code Enforcement",
    "final_address": "1403 Touro St",
    "address_councildis": "C",
    "status": "Pending",
    "rowid": "843981",
    "final_x": "3684174.02261",
    "final_y": "537393.441096",
    "longitude": "-90.05942054259197",
    "latitude": "29.971564162225864",
    "geocoded_column": {
      "latitude": "29.971564162225864",
      "longitude": "-90.05942054259197"
    }
  },
  {
    "service_request": "2021-843980",
    "request_type": "Property Maintenance",
    "request_reason": "Property Maintenance",
    "date_created": "2021-11-23T20:35:39.000",
    "date_modified": "2021-11-23T20:35:39.000",
    "request_status": "Pending",
    "responsible_agency": "Department of Code Enforcement",
    "final_address": "225 Morgan St",
    "address_councildis": "C",
    "status": "Pending",
    "rowid": "843980",
    "final_x": "3685938.84015",
    "final_y": "530913.534658",
    "longitude": "-90.054075471234",
    "latitude": "29.953692590515967",
    "geocoded_column": {
      "latitude": "29.953692590515967",
      "longitude": "-90.054075471234"
    }
  },
  {
    "service_request": "2021-843979",
    "request_type": "Traffic Signals/Signs/Striping/Streetlights",
    "request_reason": "Street Name Sign Damaged or Missing",
    "date_created": "2021-11-23T20:19:57.000",
    "date_modified": "2021-11-23T21:01:25.000",
    "request_status": "Pending",
    "responsible_agency": "Department of Public Works",
    "final_address": "5822 S Robertson St",
    "address_councildis": "A",
    "status": "Pending",
    "rowid": "843979",
    "final_x": "3666746.21281",
    "final_y": "524582.468028",
    "longitude": "-90.11489058653717",
    "latitude": "29.9368594279457",
    "geocoded_column": {
      "latitude": "29.9368594279457",
      "longitude": "-90.11489058653717"
    }
  },
  {
    "service_request": "2021-843978",
    "request_type": "Traffic Signals/Signs/Striping/Streetlights",
    "request_reason": "Street Light Outage/Malfunction",
    "date_created": "2021-11-23T20:13:04.000",
    "date_modified": "2021-11-23T20:13:05.000",
    "request_status": "Pending",
    "responsible_agency": "Department of Public Works",
    "final_address": "5825 S Robertson St",
    "address_councildis": "A",
    "status": "Pending",
    "contractor": "Royal Engineering",
    "rowid": "843978",
    "final_x": "3666780.60321",
    "final_y": "524780.603324",
    "longitude": "-90.11477536170202",
    "latitude": "29.937403231002165",
    "geocoded_column": {
      "latitude": "29.937403231002165",
      "longitude": "-90.11477536170202"
    }
  },
  {
    "service_request": "2021-843975",
    "request_type": "Abandoned Vehicles",
    "request_reason": "Abandoned/Junk Vehicles",
    "date_created": "2021-11-23T18:27:49.000",
    "date_modified": "2021-11-23T18:53:04.000",
    "request_status": "Pending",
    "responsible_agency": "Department of Public Works",
    "status": "Inspected",
    "rowid": "843975",
    "longitude": "0.0",
    "latitude": "0.0",
    "geocoded_column": {
      "latitude": "0.0",
      "longitude": "0.0"
    }
  },
  {
    "service_request": "2021-843974",
    "request_type": "Trash/Recycling",
    "request_reason": "Missed Trash Pick-Up",
    "date_created": "2021-11-23T18:14:48.000",
    "date_modified": "2021-11-23T18:14:49.000",
    "request_status": "Pending",
    "responsible_agency": "Department of Sanitation",
    "final_address": "1309 Frankfort St",
    "address_councildis": "D",
    "status": "Assigned to Contractor",
    "contractor": "Metro Disposal",
    "rowid": "843974",
    "final_x": "3677199.14837",
    "final_y": "555892.122329",
    "longitude": "-90.08080963347255",
    "latitude": "30.022640396111914",
    "geocoded_column": {
      "latitude": "30.022640396111914",
      "longitude": "-90.08080963347255"
    }
  },
  {
    "service_request": "2021-843972",
    "request_type": "Trash/Recycling",
    "request_reason": "MIssed Recycling Pick-Up",
    "date_created": "2021-11-23T17:44:56.000",
    "date_modified": "2021-11-23T17:44:59.000",
    "request_status": "Pending",
    "responsible_agency": "Department of Sanitation",
    "final_address": "2407 Iberville St",
    "address_councildis": "B",
    "status": "Assigned to Contractor",
    "contractor": "Richards Disposal",
    "rowid": "843972",
    "final_x": "3676633.30056",
    "final_y": "534709.763526",
    "longitude": "-90.08332774012753",
    "latitude": "29.9644133255772",
    "geocoded_column": {
      "latitude": "29.9644133255772",
      "longitude": "-90.08332774012753"
    }
  },
  {
    "service_request": "2021-843971",
    "request_type": "Trash/Recycling",
    "request_reason": "Order Trash Cart",
    "date_created": "2021-11-23T17:36:14.000",
    "date_modified": "2021-11-23T17:36:15.000",
    "request_status": "Pending",
    "responsible_agency": "Department of Sanitation",
    "final_address": "2124 Burgundy St",
    "address_councildis": "C",
    "status": "Assigned to Contractor",
    "contractor": "Metro Disposal",
    "rowid": "843971",
    "final_x": "3684875.93609",
    "final_y": "535540.749062",
    "longitude": "-90.05726895990139",
    "latitude": "29.96644842625025",
    "geocoded_column": {
      "latitude": "29.96644842625025",
      "longitude": "-90.05726895990139"
    }
  },
  {
    "service_request": "2021-843970",
    "request_type": "Roads/Drainage",
    "request_reason": "Debris in Roadway",
    "date_created": "2021-11-23T17:32:22.000",
    "date_modified": "2021-11-23T17:32:22.000",
    "request_status": "Pending",
    "responsible_agency": "Department of Public Works",
    "final_address": "1800 Tchoupitoulas St",
    "address_councildis": "B",
    "status": "Pending",
    "rowid": "843970",
    "final_x": "3681850.83074",
    "final_y": "520885.926777",
    "longitude": "-90.06733352329503",
    "latitude": "29.926244875299695",
    "geocoded_column": {
      "latitude": "29.926244875299695",
      "longitude": "-90.06733352329503"
    }
  },
  {
    "service_request": "2021-843969",
    "request_type": "Trash/Recycling",
    "request_reason": "Replace Trash Cart",
    "date_created": "2021-11-23T17:32:07.000",
    "date_modified": "2021-11-23T18:01:04.000",
    "request_status": "Pending",
    "responsible_agency": "Department of Sanitation",
    "final_address": "New Orleans,LA",
    "status": "Assigned to Contractor",
    "rowid": "843969",
    "longitude": "0.0",
    "latitude": "0.0",
    "geocoded_column": {
      "latitude": "0.0",
      "longitude": "0.0"
    }
  },
  {
    "service_request": "2021-843968",
    "request_type": "Traffic Signals/Signs/Striping/Streetlights",
    "request_reason": "Traffic Signal Malfunctioning/Damaged",
    "date_created": "2021-11-23T17:03:20.000",
    "date_modified": "2021-11-23T17:03:20.000",
    "request_status": "Pending",
    "responsible_agency": "Department of Public Works",
    "final_address": "4804 Calliope St",
    "address_councildis": "B",
    "status": "Pending",
    "rowid": "843968",
    "final_x": "3669570.55265",
    "final_y": "533076.706628",
    "longitude": "-90.10568666482851",
    "latitude": "29.96013292701941",
    "geocoded_column": {
      "latitude": "29.96013292701941",
      "longitude": "-90.10568666482851"
    }
  },
  {
    "service_request": "2021-843967",
    "request_type": "Traffic Signals/Signs/Striping/Streetlights",
    "request_reason": "Traffic Sign Missing/Damaged",
    "date_created": "2021-11-23T16:57:01.000",
    "date_modified": "2021-11-23T16:57:01.000",
    "request_status": "Pending",
    "responsible_agency": "Department of Public Works",
    "final_address": "N GALVEZ ST & CLOUET ST & N GALVEZ  ST",
    "address_councildis": "D",
    "status": "Pending",
    "rowid": "843967",
    "final_x": "3689945.1",
    "final_y": "539764.08",
    "longitude": "-90.04111025110791",
    "latitude": "29.97790489752864",
    "geocoded_column": {
      "latitude": "29.97790489752864",
      "longitude": "-90.04111025110791"
    }
  },
  {
    "service_request": "2021-843966",
    "request_type": "Trash/Recycling",
    "request_reason": "Illegal Dumping",
    "date_created": "2021-11-23T16:52:43.000",
    "date_modified": "2021-11-23T16:52:43.000",
    "request_status": "Pending",
    "responsible_agency": "Department of Sanitation",
    "final_address": "BULLARD AVE & S EASTERLYN CIR",
    "address_councildis": "E",
    "status": "Pending",
    "rowid": "843966",
    "final_x": "3718460.21",
    "final_y": "560228.22",
    "longitude": "-89.95027056475473",
    "latitude": "30.03325822522968",
    "geocoded_column": {
      "latitude": "30.03325822522968",
      "longitude": "-89.95027056475473"
    }
  },
  {
    "service_request": "2021-843965",
    "request_type": "Traffic Signals/Signs/Striping/Streetlights",
    "request_reason": "Street Light Outage/Malfunction",
    "date_created": "2021-11-23T16:51:57.000",
    "date_modified": "2021-11-23T17:01:19.000",
    "request_status": "Pending",
    "responsible_agency": "Department of Public Works",
    "final_address": "5439 Sutton Pl",
    "address_councildis": "C",
    "status": "Pending",
    "contractor": "Royal Engineering",
    "rowid": "843965",
    "final_x": "3704170.74922",
    "final_y": "518485.811382",
    "longitude": "-89.99696481578007",
    "latitude": "29.918948437661687",
    "geocoded_column": {
      "latitude": "29.918948437661687",
      "longitude": "-89.99696481578007"
    }
  },
  {
    "service_request": "2021-843964",
    "request_type": "Trash/Recycling",
    "request_reason": "Order Recycling Cart",
    "date_created": "2021-11-23T16:50:31.000",
    "date_modified": "2021-11-23T16:50:31.000",
    "request_status": "Pending",
    "responsible_agency": "Department of Sanitation",
    "final_address": "4688 Naples St",
    "address_councildis": "E",
    "status": "Pending",
    "rowid": "843964",
    "final_x": "3763180.38429",
    "final_y": "572613.883113",
    "longitude": "-89.80843331027035",
    "latitude": "30.065753149641562",
    "geocoded_column": {
      "latitude": "30.065753149641562",
      "longitude": "-89.80843331027035"
    }
  },
  {
    "service_request": "2021-843963",
    "request_type": "Trash/Recycling",
    "request_reason": "Start Trash Service",
    "date_created": "2021-11-23T16:50:03.000",
    "date_modified": "2021-11-23T16:50:03.000",
    "request_status": "Pending",
    "responsible_agency": "Department of Sanitation",
    "final_address": "4688 Naples St",
    "address_councildis": "E",
    "status": "Assigned to Contractor",
    "contractor": "Metro Disposal",
    "rowid": "843963",
    "final_x": "3763180.38429",
    "final_y": "572613.883113",
    "longitude": "-89.80843331027035",
    "latitude": "30.065753149641562",
    "geocoded_column": {
      "latitude": "30.065753149641562",
      "longitude": "-89.80843331027035"
    }
  },
  {
    "service_request": "2021-843962",
    "request_type": "Trash/Recycling",
    "request_reason": "Order Trash Cart",
    "date_created": "2021-11-23T16:49:33.000",
    "date_modified": "2021-11-23T16:49:33.000",
    "request_status": "Pending",
    "responsible_agency": "Department of Sanitation",
    "final_address": "4688 Naples St",
    "address_councildis": "E",
    "status": "Assigned to Contractor",
    "contractor": "Metro Disposal",
    "rowid": "843962",
    "final_x": "3763180.38429",
    "final_y": "572613.883113",
    "longitude": "-89.80843331027035",
    "latitude": "30.065753149641562",
    "geocoded_column": {
      "latitude": "30.065753149641562",
      "longitude": "-89.80843331027035"
    }
  },
  {
    "service_request": "2021-843961",
    "request_type": "Mosquito, Termite & Rodent Control",
    "request_reason": "Rodent Complaint (Rats)",
    "date_created": "2021-11-23T16:37:52.000",
    "date_modified": "2021-11-23T17:01:20.000",
    "request_status": "Pending",
    "responsible_agency": "Mosquito, Termite & Rodent Control Board",
    "final_address": "2624 Castiglione St",
    "address_councildis": "D",
    "status": "Pending",
    "rowid": "843961",
    "final_x": "3679970.27048",
    "final_y": "541764.685068",
    "longitude": "-90.07254471318085",
    "latitude": "29.983711407014294",
    "geocoded_column": {
      "latitude": "29.983711407014294",
      "longitude": "-90.07254471318085"
    }
  },
  {
    "service_request": "2021-843960",
    "request_type": "Trash/Recycling",
    "request_reason": "Replace Trash Cart",
    "date_created": "2021-11-23T16:35:53.000",
    "date_modified": "2021-11-23T16:35:54.000",
    "request_status": "Pending",
    "responsible_agency": "Department of Sanitation",
    "final_address": "2301 Magazine St",
    "address_councildis": "B",
    "status": "Assigned to Contractor",
    "contractor": "Richards Disposal",
    "rowid": "843960",
    "final_x": "3678487.91016",
    "final_y": "521851.003578",
    "longitude": "-90.07791592815494",
    "latitude": "29.929000259503336",
    "geocoded_column": {
      "latitude": "29.929000259503336",
      "longitude": "-90.07791592815494"
    }
  },
  {
    "service_request": "2021-843959",
    "request_type": "Trash/Recycling",
    "request_reason": "Start Trash Service",
    "date_created": "2021-11-23T16:34:21.000",
    "date_modified": "2021-11-23T16:34:22.000",
    "request_status": "Pending",
    "responsible_agency": "Department of Sanitation",
    "final_address": "5013 Urquhart St",
    "address_councildis": "E",
    "status": "Assigned to Contractor",
    "contractor": "Metro Disposal",
    "rowid": "843959",
    "final_x": "3696312.53411",
    "final_y": "535052.14887",
    "longitude": "-90.02117019771913",
    "latitude": "29.96474978751855",
    "geocoded_column": {
      "latitude": "29.96474978751855",
      "longitude": "-90.02117019771913"
    }
  },
  {
    "service_request": "2021-843958",
    "request_type": "Trash/Recycling",
    "request_reason": "Order Trash Cart",
    "date_created": "2021-11-23T16:33:51.000",
    "date_modified": "2021-11-23T16:33:51.000",
    "request_status": "Pending",
    "responsible_agency": "Department of Sanitation",
    "final_address": "5013 Urquhart St",
    "address_councildis": "E",
    "status": "Assigned to Contractor",
    "contractor": "Metro Disposal",
    "rowid": "843958",
    "final_x": "3696312.53411",
    "final_y": "535052.14887",
    "longitude": "-90.02117019771913",
    "latitude": "29.96474978751855",
    "geocoded_column": {
      "latitude": "29.96474978751855",
      "longitude": "-90.02117019771913"
    }
  },
  {
    "service_request": "2021-843957",
    "request_type": "Trash/Recycling",
    "request_reason": "Request a Large Item Pick Up",
    "date_created": "2021-11-23T16:28:16.000",
    "date_modified": "2021-11-23T16:28:16.000",
    "request_status": "Pending",
    "responsible_agency": "Department of Sanitation",
    "final_address": "5491 Hawthorne Pl",
    "address_councildis": "A",
    "status": "Assigned to Contractor",
    "contractor": "Metro Disposal",
    "rowid": "843957",
    "final_x": "3667844.18644",
    "final_y": "543833.915662",
    "longitude": "-90.11077574600665",
    "latitude": "29.989762388193917",
    "geocoded_column": {
      "latitude": "29.989762388193917",
      "longitude": "-90.11077574600665"
    }
  },
  {
    "service_request": "2021-843956",
    "request_type": "Traffic Signals/Signs/Striping/Streetlights",
    "request_reason": "Street Light Knocked Down/Leaning",
    "date_created": "2021-11-23T16:27:03.000",
    "date_modified": "2021-11-23T16:27:03.000",
    "request_status": "Pending",
    "responsible_agency": "Department of Public Works",
    "final_address": "N RAMPART ST & ELYSIAN FIELDS AVE",
    "address_councildis": "C",
    "status": "Pending",
    "contractor": "Royal Engineering",
    "rowid": "843956",
    "final_x": "3684990.7",
    "final_y": "535940.48",
    "longitude": "-90.05689247542902",
    "latitude": "29.96754403308566",
    "geocoded_column": {
      "latitude": "29.96754403308566",
      "longitude": "-90.05689247542902"
    }
  },
  {
    "service_request": "2021-843955",
    "request_type": "Trash/Recycling",
    "request_reason": "Repair Trash Cart",
    "date_created": "2021-11-23T16:23:09.000",
    "date_modified": "2021-11-23T17:01:22.000",
    "request_status": "Pending",
    "responsible_agency": "Department of Sanitation",
    "final_address": "2414 Lapeyrouse St",
    "address_councildis": "D",
    "status": "Assigned to Contractor",
    "contractor": "Metro Disposal",
    "rowid": "843955",
    "final_x": "3679808.8244",
    "final_y": "539561.012554",
    "longitude": "-90.07313119643493",
    "latitude": "29.977656957125387",
    "geocoded_column": {
      "latitude": "29.977656957125387",
      "longitude": "-90.07313119643493"
    }
  },
  {
    "service_request": "2021-843954",
    "request_type": "Trash/Recycling",
    "request_reason": "Request a Large Item Pick Up",
    "date_created": "2021-11-23T16:21:24.000",
    "date_modified": "2021-11-23T17:01:24.000",
    "request_status": "Pending",
    "responsible_agency": "Department of Sanitation",
    "final_address": "7332 Morrison Rd",
    "address_councildis": "E",
    "status": "Assigned to Contractor",
    "contractor": "Metro Disposal",
    "rowid": "843954",
    "final_x": "3700608.14641",
    "final_y": "559296.699677",
    "longitude": "-90.00671862021777",
    "latitude": "30.031277309199254",
    "geocoded_column": {
      "latitude": "30.031277309199254",
      "longitude": "-90.00671862021777"
    }
  },
  {
    "service_request": "2021-843953",
    "request_type": "Trash/Recycling",
    "request_reason": "Request a Large Item Pick Up",
    "date_created": "2021-11-23T16:21:14.000",
    "date_modified": "2021-11-23T16:21:15.000",
    "request_status": "Pending",
    "responsible_agency": "Department of Sanitation",
    "final_address": "1217 Casa Calvo St",
    "address_councildis": "C",
    "status": "Assigned to Contractor",
    "contractor": "Richards Disposal",
    "rowid": "843953",
    "final_x": "3692045.61475",
    "final_y": "526850.427646",
    "longitude": "-90.0349382770483",
    "latitude": "29.942331568671104",
    "geocoded_column": {
      "latitude": "29.942331568671104",
      "longitude": "-90.0349382770483"
    }
  },
  {
    "service_request": "2021-843951",
    "request_type": "Trash/Recycling",
    "request_reason": "Request a Large Item Pick Up",
    "date_created": "2021-11-23T16:15:24.000",
    "date_modified": "2021-11-23T17:01:27.000",
    "request_status": "Pending",
    "responsible_agency": "Department of Sanitation",
    "final_address": "6459 Louisville St",
    "address_councildis": "A",
    "status": "Assigned to Contractor",
    "contractor": "Metro Disposal",
    "rowid": "843951",
    "final_x": "3668133.58125",
    "final_y": "550561.248404",
    "longitude": "-90.10963468744029",
    "latitude": "30.00825173527311",
    "geocoded_column": {
      "latitude": "30.00825173527311",
      "longitude": "-90.10963468744029"
    }
  },
  {
    "service_request": "2021-843950",
    "request_type": "Trash/Recycling",
    "request_reason": "Order Trash Cart",
    "date_created": "2021-11-23T15:49:57.000",
    "date_modified": "2021-11-23T16:01:29.000",
    "request_status": "Pending",
    "responsible_agency": "Department of Sanitation",
    "final_address": "1418 France St, New Orleans, Louisiana, 70117",
    "address_councildis": "D",
    "status": "Assigned to Contractor",
    "contractor": "Metro Disposal",
    "rowid": "843950",
    "final_x": "3692646.34761",
    "final_y": "536401.059335",
    "longitude": "-90.03269936795655",
    "latitude": "29.968573746024724",
    "geocoded_column": {
      "latitude": "29.968573746024724",
      "longitude": "-90.03269936795655"
    }
  },
  {
    "service_request": "2021-843949",
    "request_type": "Trash/Recycling",
    "request_reason": "Illegal Dumping",
    "date_created": "2021-11-23T15:46:31.000",
    "date_modified": "2021-11-23T15:46:31.000",
    "request_status": "Pending",
    "responsible_agency": "Department of Sanitation",
    "final_address": "3016 Baronne St",
    "address_councildis": "B",
    "status": "Pending",
    "rowid": "843949",
    "final_x": "3674733.46145",
    "final_y": "522593.752634",
    "longitude": "-90.089742547084",
    "latitude": "29.9311551522962",
    "geocoded_column": {
      "latitude": "29.9311551522962",
      "longitude": "-90.089742547084"
    }
  },
  {
    "service_request": "2021-843948",
    "request_type": "Traffic Signals/Signs/Striping/Streetlights",
    "request_reason": "Traffic Signal Malfunctioning/Damaged",
    "date_created": "2021-11-23T15:45:16.000",
    "date_modified": "2021-11-23T15:45:16.000",
    "request_status": "Pending",
    "responsible_agency": "Department of Public Works",
    "final_address": "828 Poland Ave",
    "address_councildis": "C",
    "status": "Pending",
    "rowid": "843948",
    "final_x": "3692754.2111",
    "final_y": "534090.016261",
    "longitude": "-90.03244159048944",
    "latitude": "29.96221582516275",
    "geocoded_column": {
      "latitude": "29.96221582516275",
      "longitude": "-90.03244159048944"
    }
  },
  {
    "service_request": "2021-843947",
    "request_type": "Trash/Recycling",
    "request_reason": "Missed Trash Pick-Up",
    "date_created": "2021-11-23T15:45:14.000",
    "date_modified": "2021-11-23T15:45:15.000",
    "request_status": "Pending",
    "responsible_agency": "Department of Sanitation",
    "final_address": "5819 S Galvez St",
    "address_councildis": "A",
    "status": "Assigned to Contractor",
    "contractor": "Richards Disposal",
    "rowid": "843947",
    "final_x": "3667708.89178",
    "final_y": "527603.205439",
    "longitude": "-90.11174967989895",
    "latitude": "29.945137299480255",
    "geocoded_column": {
      "latitude": "29.945137299480255",
      "longitude": "-90.11174967989895"
    }
  },
  {
    "service_request": "2021-843946",
    "request_type": "Trash/Recycling",
    "request_reason": "Missed Trash Pick-Up",
    "date_created": "2021-11-23T15:43:53.000",
    "date_modified": "2021-11-23T16:01:31.000",
    "request_status": "Pending",
    "responsible_agency": "Department of Sanitation",
    "final_address": "3535 Calhoun St",
    "address_councildis": "A",
    "status": "Assigned to Contractor",
    "contractor": "Richards Disposal",
    "rowid": "843946",
    "final_x": "3667875.88167",
    "final_y": "529591.520385",
    "longitude": "-90.11115547921565",
    "latitude": "29.950599623174014",
    "geocoded_column": {
      "latitude": "29.950599623174014",
      "longitude": "-90.11115547921565"
    }
  },
  {
    "service_request": "2021-843944",
    "request_type": "Trash/Recycling",
    "request_reason": "Replace Trash Cart",
    "date_created": "2021-11-23T15:38:56.000",
    "date_modified": "2021-11-23T15:38:57.000",
    "request_status": "Pending",
    "responsible_agency": "Department of Sanitation",
    "final_address": "911 Constantinople St",
    "address_councildis": "B",
    "status": "Assigned to Contractor",
    "contractor": "Richards Disposal",
    "rowid": "843944",
    "final_x": "3672546.97588",
    "final_y": "519042.829239",
    "longitude": "-90.09676598545333",
    "latitude": "29.92145632132381",
    "geocoded_column": {
      "latitude": "29.92145632132381",
      "longitude": "-90.09676598545333"
    }
  },
  {
    "service_request": "2021-843943",
    "request_type": "Trash/Recycling",
    "request_reason": "Request a Large Item Pick Up",
    "date_created": "2021-11-23T15:33:36.000",
    "date_modified": "2021-11-23T15:33:38.000",
    "request_status": "Pending",
    "responsible_agency": "Department of Sanitation",
    "final_address": "5018 Congress Dr",
    "address_councildis": "D",
    "status": "Assigned to Contractor",
    "contractor": "Metro Disposal",
    "rowid": "843943",
    "final_x": "3691901.35606",
    "final_y": "552825.50607",
    "longitude": "-90.0344641176904",
    "latitude": "30.013758256807886",
    "geocoded_column": {
      "latitude": "30.013758256807886",
      "longitude": "-90.0344641176904"
    }
  },
  {
    "service_request": "2021-843942",
    "request_type": "Traffic Signals/Signs/Striping/Streetlights",
    "request_reason": "Street Light Outage/Malfunction",
    "date_created": "2021-11-23T15:31:32.000",
    "date_modified": "2021-11-23T16:01:37.000",
    "request_status": "Pending",
    "responsible_agency": "Department of Public Works",
    "final_address": "3501 Meadow Park Ln",
    "address_councildis": "C",
    "status": "Pending",
    "contractor": "Royal Engineering",
    "rowid": "843942",
    "final_x": "3704120.1571",
    "final_y": "511630.07544",
    "longitude": "-89.99737681208393",
    "latitude": "29.90009912950737",
    "geocoded_column": {
      "latitude": "29.90009912950737",
      "longitude": "-89.99737681208393"
    }
  },
  {
    "service_request": "2021-843941",
    "request_type": "Trash/Recycling",
    "request_reason": "Request a Large Item Pick Up",
    "date_created": "2021-11-23T15:29:43.000",
    "date_modified": "2021-11-23T15:29:44.000",
    "request_status": "Pending",
    "responsible_agency": "Department of Sanitation",
    "final_address": "3900 General Taylor St",
    "address_councildis": "B",
    "status": "Assigned to Contractor",
    "contractor": "Richards Disposal",
    "rowid": "843941",
    "final_x": "3670718.16353",
    "final_y": "528947.962816",
    "longitude": "-90.10220282685039",
    "latitude": "29.948746384883233",
    "geocoded_column": {
      "latitude": "29.948746384883233",
      "longitude": "-90.10220282685039"
    }
  },
  {
    "service_request": "2021-843940",
    "request_type": "Trash/Recycling",
    "request_reason": "Order Trash Cart",
    "date_created": "2021-11-23T15:28:12.000",
    "date_modified": "2021-11-23T16:01:40.000",
    "request_status": "Pending",
    "responsible_agency": "Department of Sanitation",
    "final_address": "3715 St Ferdinand St",
    "address_councildis": "D",
    "status": "Assigned to Contractor",
    "contractor": "Metro Disposal",
    "rowid": "843940",
    "final_x": "3689996.1",
    "final_y": "546893.540113",
    "longitude": "-90.04069515513143",
    "latitude": "29.997506771333303",
    "geocoded_column": {
      "latitude": "29.997506771333303",
      "longitude": "-90.04069515513143"
    }
  },
  {
    "service_request": "2021-843939",
    "request_type": "Trash/Recycling",
    "request_reason": "Illegal Dumping",
    "date_created": "2021-11-23T15:27:56.000",
    "date_modified": "2021-11-23T15:27:56.000",
    "request_status": "Pending",
    "responsible_agency": "Department of Sanitation",
    "final_address": "3900 General Taylor St",
    "address_councildis": "B",
    "status": "Pending",
    "rowid": "843939",
    "final_x": "3670718.16353",
    "final_y": "528947.962816",
    "longitude": "-90.10220282685039",
    "latitude": "29.948746384883233",
    "geocoded_column": {
      "latitude": "29.948746384883233",
      "longitude": "-90.10220282685039"
    }
  },
  {
    "service_request": "2021-843937",
    "request_type": "Trash/Recycling",
    "request_reason": "Repair Trash Cart",
    "date_created": "2021-11-23T15:26:02.000",
    "date_modified": "2021-11-23T15:26:03.000",
    "request_status": "Pending",
    "responsible_agency": "Department of Sanitation",
    "final_address": "1705 General Pershing St",
    "address_councildis": "B",
    "status": "Assigned to Contractor",
    "contractor": "Richards Disposal",
    "rowid": "843937",
    "final_x": "3671252.55591",
    "final_y": "521339.253817",
    "longitude": "-90.1007739394687",
    "latitude": "29.9278091029824",
    "geocoded_column": {
      "latitude": "29.9278091029824",
      "longitude": "-90.1007739394687"
    }
  },
  {
    "service_request": "2021-843936",
    "request_type": "Traffic Signals/Signs/Striping/Streetlights",
    "request_reason": "Street Light Outage/Malfunction",
    "date_created": "2021-11-23T15:25:12.000",
    "date_modified": "2021-11-23T15:25:12.000",
    "request_status": "Pending",
    "responsible_agency": "Department of Public Works",
    "final_address": "6300 Oxford St",
    "address_councildis": "C",
    "status": "Pending",
    "contractor": "Royal Engineering",
    "rowid": "843936",
    "final_x": "3707442.32689",
    "final_y": "519797.564472",
    "longitude": "-89.98658955993007",
    "latitude": "29.922449980476866",
    "geocoded_column": {
      "latitude": "29.922449980476866",
      "longitude": "-89.98658955993007"
    }
  },
  {
    "service_request": "2021-843935",
    "request_type": "Abandoned Vehicles",
    "request_reason": "Abandoned/Junk Vehicles",
    "date_created": "2021-11-23T15:23:00.000",
    "date_modified": "2021-11-23T15:23:00.000",
    "request_status": "Pending",
    "responsible_agency": "Department of Public Works",
    "final_address": "DIANA ST & TECHE ST",
    "address_councildis": "C",
    "status": "Pending",
    "rowid": "843935",
    "final_x": "3686597.3",
    "final_y": "527539.48",
    "longitude": "-90.05211546004772",
    "latitude": "29.944394860509135",
    "geocoded_column": {
      "latitude": "29.944394860509135",
      "longitude": "-90.05211546004772"
    }
  },
  {
    "service_request": "2021-843934",
    "request_type": "Abandoned Vehicles",
    "request_reason": "Abandoned/Junk Vehicles",
    "date_created": "2021-11-23T15:22:53.000",
    "date_modified": "2021-11-23T15:22:53.000",
    "request_status": "Pending",
    "responsible_agency": "Department of Public Works",
    "final_address": "4503 Canal St",
    "address_councildis": "A",
    "status": "Pending",
    "rowid": "843934",
    "final_x": "3669766.41473",
    "final_y": "539557.080778",
    "longitude": "-90.1048487763817",
    "latitude": "29.977946015570456",
    "geocoded_column": {
      "latitude": "29.977946015570456",
      "longitude": "-90.1048487763817"
    }
  },
  {
    "service_request": "2021-843933",
    "request_type": "Traffic Signals/Signs/Striping/Streetlights",
    "request_reason": "Street Light Outage/Malfunction",
    "date_created": "2021-11-23T15:19:34.000",
    "date_modified": "2021-11-23T15:19:35.000",
    "request_status": "Pending",
    "responsible_agency": "Department of Public Works",
    "final_address": "7340 Briarheath Dr",
    "address_councildis": "E",
    "status": "Pending",
    "contractor": "Royal Engineering",
    "rowid": "843933",
    "final_x": "3714082.76715",
    "final_y": "566499.998115",
    "longitude": "-89.9638667050817",
    "latitude": "30.050647637486808",
    "geocoded_column": {
      "latitude": "30.050647637486808",
      "longitude": "-89.9638667050817"
    }
  },
  {
    "service_request": "2021-843932",
    "request_type": "Traffic Signals/Signs/Striping/Streetlights",
    "request_reason": "Street Light Outage/Malfunction",
    "date_created": "2021-11-23T15:18:38.000",
    "date_modified": "2021-11-23T16:01:44.000",
    "request_status": "Pending",
    "responsible_agency": "Department of Public Works",
    "final_address": "4501 St Anthony Ave",
    "address_councildis": "D",
    "status": "Pending",
    "contractor": "Royal Engineering",
    "rowid": "843932",
    "final_x": "3682584.8614",
    "final_y": "549127.901971",
    "longitude": "-90.06402882146814",
    "latitude": "30.003878274207356",
    "geocoded_column": {
      "latitude": "30.003878274207356",
      "longitude": "-90.06402882146814"
    }
  },
  {
    "service_request": "2021-843931",
    "request_type": "Traffic Signals/Signs/Striping/Streetlights",
    "request_reason": "Street Light Outage/Malfunction",
    "date_created": "2021-11-23T15:18:25.000",
    "date_modified": "2021-11-23T16:01:46.000",
    "request_status": "Pending",
    "responsible_agency": "Department of Public Works",
    "final_address": "4501 St Anthony Ave",
    "address_councildis": "D",
    "status": "Pending",
    "contractor": "Royal Engineering",
    "rowid": "843931",
    "final_x": "3682584.8614",
    "final_y": "549127.901971",
    "longitude": "-90.06402882146814",
    "latitude": "30.003878274207356",
    "geocoded_column": {
      "latitude": "30.003878274207356",
      "longitude": "-90.06402882146814"
    }
  },
  {
    "service_request": "2021-843930",
    "request_type": "Trash/Recycling",
    "request_reason": "Replace Trash Cart",
    "date_created": "2021-11-23T15:16:37.000",
    "date_modified": "2021-11-23T15:16:38.000",
    "request_status": "Pending",
    "responsible_agency": "Department of Sanitation",
    "final_address": "3963 Magazine St",
    "address_councildis": "B",
    "status": "Assigned to Contractor",
    "contractor": "Richards Disposal",
    "rowid": "843930",
    "final_x": "3672568.9403",
    "final_y": "518989.653879",
    "longitude": "-90.09669846475238",
    "latitude": "29.92130945426343",
    "geocoded_column": {
      "latitude": "29.92130945426343",
      "longitude": "-90.09669846475238"
    }
  },
  {
    "service_request": "2021-843929",
    "request_type": "Trash/Recycling",
    "request_reason": "Missed Trash Pick-Up",
    "date_created": "2021-11-23T15:14:44.000",
    "date_modified": "2021-11-23T15:14:44.000",
    "case_close_date": "2021-08-26T19:00:00.000",
    "request_status": "Pending",
    "responsible_agency": "Department of Sanitation",
    "final_address": "3983 S Front St",
    "address_councildis": "B",
    "status": "Assigned to Contractor",
    "contractor": "Richards Disposal",
    "rowid": "843929",
    "final_x": "3672779.75105",
    "final_y": "517400.684405",
    "longitude": "-90.09608718486076",
    "latitude": "29.916934036661424",
    "geocoded_column": {
      "latitude": "29.916934036661424",
      "longitude": "-90.09608718486076"
    }
  },
  {
    "service_request": "2021-843928",
    "request_type": "Abandoned Vehicles",
    "request_reason": "Abandoned/Junk Vehicles",
    "date_created": "2021-11-23T15:14:07.000",
    "date_modified": "2021-11-23T16:01:48.000",
    "request_status": "Pending",
    "responsible_agency": "Department of Public Works",
    "final_address": "622 N Lopez St",
    "address_councildis": "A",
    "status": "Pending",
    "rowid": "843928",
    "final_x": "3675188.41755",
    "final_y": "537782.644168",
    "longitude": "-90.08778509028525",
    "latitude": "29.972905967688167",
    "geocoded_column": {
      "latitude": "29.972905967688167",
      "longitude": "-90.08778509028525"
    }
  },
  {
    "service_request": "2021-843927",
    "request_type": "Traffic Signals/Signs/Striping/Streetlights",
    "request_reason": "Street Light Outage/Malfunction",
    "date_created": "2021-11-23T15:13:50.000",
    "date_modified": "2021-11-23T16:01:50.000",
    "request_status": "Pending",
    "responsible_agency": "Department of Public Works",
    "final_address": "2100 Fern St, New Orleans, Louisiana, 70118",
    "address_councildis": "A",
    "status": "Pending",
    "contractor": "Royal Engineering",
    "rowid": "843927",
    "final_x": "3664687.2537",
    "final_y": "530261.430081",
    "longitude": "-90.12120119150494",
    "latitude": "29.952534790535278",
    "geocoded_column": {
      "latitude": "29.952534790535278",
      "longitude": "-90.12120119150494"
    }
  },
  {
    "service_request": "2021-843926",
    "request_type": "Traffic Signals/Signs/Striping/Streetlights",
    "request_reason": "Traffic Signal Malfunctioning/Damaged",
    "date_created": "2021-11-23T15:12:07.000",
    "date_modified": "2021-11-23T15:12:07.000",
    "request_status": "Pending",
    "responsible_agency": "Department of Public Works",
    "final_address": "N ROBERTSON ST & POLAND AVE",
    "address_councildis": "D",
    "status": "Pending",
    "rowid": "843926",
    "final_x": "3693434.1",
    "final_y": "536482.68",
    "longitude": "-90.03020868302556",
    "latitude": "29.96877356380623",
    "geocoded_column": {
      "latitude": "29.96877356380623",
      "longitude": "-90.03020868302556"
    }
  },
  {
    "service_request": "2021-843924",
    "request_type": "Traffic Signals/Signs/Striping/Streetlights",
    "request_reason": "Street Name Sign Damaged or Missing",
    "date_created": "2021-11-23T15:08:07.000",
    "date_modified": "2021-11-23T16:01:53.000",
    "request_status": "Pending",
    "responsible_agency": "Department of Public Works",
    "final_address": "OLD SPANISH TRL & MAJOR DR",
    "address_councildis": "E",
    "status": "Pending",
    "contractor": "Royal Engineering",
    "rowid": "843924",
    "final_x": "3718261.5",
    "final_y": "556567.88",
    "longitude": "-89.95103804050193",
    "latitude": "30.023200352943846",
    "geocoded_column": {
      "latitude": "30.023200352943846",
      "longitude": "-89.95103804050193"
    }
  },
  {
    "service_request": "2021-843923",
    "request_type": "Traffic Signals/Signs/Striping/Streetlights",
    "request_reason": "Street Light Outage/Malfunction",
    "date_created": "2021-11-23T15:07:24.000",
    "date_modified": "2021-11-23T16:01:54.000",
    "request_status": "Pending",
    "responsible_agency": "Department of Public Works",
    "final_address": "4701 Major Dr",
    "address_councildis": "E",
    "status": "Pending",
    "contractor": "Royal Engineering",
    "rowid": "843923",
    "final_x": "3718350.53548",
    "final_y": "556665.865882",
    "longitude": "-89.95075297533724",
    "latitude": "30.023466821354525",
    "geocoded_column": {
      "latitude": "30.023466821354525",
      "longitude": "-89.95075297533724"
    }
  },
  {
    "service_request": "2021-843922",
    "request_type": "Traffic Signals/Signs/Striping/Streetlights",
    "request_reason": "Street Light Outage/Malfunction",
    "date_created": "2021-11-23T15:05:00.000",
    "date_modified": "2021-11-23T16:01:56.000",
    "request_status": "Pending",
    "responsible_agency": "Department of Public Works",
    "final_address": "58 Thrasher St",
    "address_councildis": "D",
    "status": "Pending",
    "contractor": "Royal Engineering",
    "rowid": "843922",
    "final_x": "3672668.11944",
    "final_y": "556636.49545",
    "longitude": "-90.09510123522068",
    "latitude": "30.024822562405703",
    "geocoded_column": {
      "latitude": "30.024822562405703",
      "longitude": "-90.09510123522068"
    }
  },
  {
    "service_request": "2021-843921",
    "request_type": "Roads/Drainage",
    "request_reason": "Street Subsidence (Sinking)",
    "date_created": "2021-11-23T15:03:27.000",
    "date_modified": "2021-11-23T16:01:58.000",
    "request_status": "Pending",
    "responsible_agency": "Department of Public Works",
    "final_address": "ACADEMY DR & MARCIA AVE",
    "address_councildis": "A",
    "status": "Pending",
    "rowid": "843921",
    "final_x": "3664889.4",
    "final_y": "545546.38",
    "longitude": "-90.12005186623442",
    "latitude": "29.99455743785832",
    "geocoded_column": {
      "latitude": "29.99455743785832",
      "longitude": "-90.12005186623442"
    }
  },
  {
    "service_request": "2021-843920",
    "request_type": "Abandoned Vehicles",
    "request_reason": "Abandoned/Junk Vehicles",
    "date_created": "2021-11-23T15:01:05.000",
    "date_modified": "2021-11-23T15:01:05.000",
    "request_status": "Pending",
    "responsible_agency": "Department of Public Works",
    "final_address": "1420 Annunciation St",
    "address_councildis": "B",
    "status": "Pending",
    "rowid": "843920",
    "final_x": "3681296.43989",
    "final_y": "524295.815036",
    "longitude": "-90.06896480092198",
    "latitude": "29.935637774424716",
    "geocoded_column": {
      "latitude": "29.935637774424716",
      "longitude": "-90.06896480092198"
    }
  },
  {
    "service_request": "2021-843918",
    "request_type": "Roads/Drainage",
    "request_reason": "Catch Basin - Clogged",
    "date_created": "2021-11-23T14:57:09.000",
    "date_modified": "2021-11-23T15:01:44.000",
    "case_close_date": "2021-11-23T08:57:30.000",
    "request_status": "Closed",
    "responsible_agency": "Department of Public Works",
    "final_address": "1332 S Carrollton Ave",
    "address_councildis": "A",
    "status": "Resolved",
    "rowid": "843918",
    "final_x": "3662339.09811",
    "final_y": "528840.734912",
    "longitude": "-90.12866280073305",
    "latitude": "29.948696428729093",
    "geocoded_column": {
      "latitude": "29.948696428729093",
      "longitude": "-90.12866280073305"
    }
  },
  {
    "service_request": "2021-843917",
    "request_type": "Roads/Drainage",
    "request_reason": "Catch Basin - Clogged",
    "date_created": "2021-11-23T14:55:39.000",
    "date_modified": "2021-11-23T15:01:46.000",
    "case_close_date": "2021-11-23T08:56:02.000",
    "request_status": "Closed",
    "responsible_agency": "Department of Public Works",
    "final_address": "2307 S Carrollton Ave",
    "address_councildis": "A",
    "status": "Resolved",
    "rowid": "843917",
    "final_x": "3664739.40045",
    "final_y": "531178.61613",
    "longitude": "-90.12100589398084",
    "latitude": "29.95505523743961",
    "geocoded_column": {
      "latitude": "29.95505523743961",
      "longitude": "-90.12100589398084"
    }
  },
  {
    "service_request": "2021-843916",
    "request_type": "Abandoned Vehicles",
    "request_reason": "Abandoned/Junk Vehicles",
    "date_created": "2021-11-23T14:54:44.000",
    "date_modified": "2021-11-23T15:01:49.000",
    "request_status": "Pending",
    "responsible_agency": "Department of Public Works",
    "final_address": "1137 Esplanade Ave",
    "address_councildis": "C",
    "status": "Pending",
    "rowid": "843916",
    "final_x": "3682803.91362",
    "final_y": "535457.53063",
    "longitude": "-90.06381528341335",
    "latitude": "29.966282890061382",
    "geocoded_column": {
      "latitude": "29.966282890061382",
      "longitude": "-90.06381528341335"
    }
  },
  {
    "service_request": "2021-843915",
    "request_type": "Trash/Recycling",
    "request_reason": "Repair Recycling Cart",
    "date_created": "2021-11-23T14:53:39.000",
    "date_modified": "2021-11-23T14:53:39.000",
    "request_status": "Pending",
    "responsible_agency": "Department of Sanitation",
    "final_address": "1621 Second St",
    "address_councildis": "B",
    "status": "Pending",
    "rowid": "843915",
    "final_x": "3676601.62702",
    "final_y": "523246.920635",
    "longitude": "-90.08382250151332",
    "latitude": "29.93289526839372",
    "geocoded_column": {
      "latitude": "29.93289526839372",
      "longitude": "-90.08382250151332"
    }
  },
  {
    "service_request": "2021-843914",
    "request_type": "Trash/Recycling",
    "request_reason": "Replace Trash Cart",
    "date_created": "2021-11-23T14:53:09.000",
    "date_modified": "2021-11-23T15:01:51.000",
    "request_status": "Pending",
    "responsible_agency": "Department of Sanitation",
    "final_address": "1524 N Claiborne Ave",
    "address_councildis": "C",
    "status": "Assigned to Contractor",
    "contractor": "Metro Disposal",
    "rowid": "843914",
    "final_x": "3681948.84501",
    "final_y": "537279.228104",
    "longitude": "-90.06645196588038",
    "latitude": "29.97131795178419",
    "geocoded_column": {
      "latitude": "29.97131795178419",
      "longitude": "-90.06645196588038"
    }
  },
  {
    "service_request": "2021-843913",
    "request_type": "Roads/Drainage",
    "request_reason": "Catch Basin - Clogged",
    "date_created": "2021-11-23T14:51:57.000",
    "date_modified": "2021-11-23T15:01:53.000",
    "case_close_date": "2021-11-23T08:52:24.000",
    "request_status": "Closed",
    "responsible_agency": "Department of Public Works",
    "final_address": "5600 BLK Orleans Ave",
    "address_councildis": "A",
    "status": "Resolved",
    "rowid": "843913",
    "final_x": "3670663.79938",
    "final_y": "544507.243122",
    "longitude": "-90.10184648440986",
    "latitude": "29.991530785345653",
    "geocoded_column": {
      "latitude": "29.991530785345653",
      "longitude": "-90.10184648440986"
    }
  },
  {
    "service_request": "2021-843912",
    "request_type": "Trash/Recycling",
    "request_reason": "Order Recycling Cart",
    "date_created": "2021-11-23T14:49:15.000",
    "date_modified": "2021-11-23T15:01:54.000",
    "request_status": "Pending",
    "responsible_agency": "Department of Sanitation",
    "final_address": "New Orleans,LA",
    "status": "Pending",
    "rowid": "843912",
    "longitude": "0.0",
    "latitude": "0.0",
    "geocoded_column": {
      "latitude": "0.0",
      "longitude": "0.0"
    }
  },
  {
    "service_request": "2021-843910",
    "request_type": "Trash/Recycling",
    "request_reason": "Replace Trash Cart",
    "date_created": "2021-11-23T14:47:58.000",
    "date_modified": "2021-11-23T15:01:58.000",
    "request_status": "Pending",
    "responsible_agency": "Department of Sanitation",
    "final_address": "6819 Louisville St",
    "address_councildis": "A",
    "status": "Assigned to Contractor",
    "contractor": "Metro Disposal",
    "rowid": "843910",
    "final_x": "3668349.10868",
    "final_y": "552942.023639",
    "longitude": "-90.10887339030455",
    "latitude": "30.014791700748273",
    "geocoded_column": {
      "latitude": "30.014791700748273",
      "longitude": "-90.10887339030455"
    }
  },
  {
    "service_request": "2021-843909",
    "request_type": "Roads/Drainage",
    "request_reason": "Catch Basin - Clogged",
    "date_created": "2021-11-23T14:47:40.000",
    "date_modified": "2021-11-23T15:02:00.000",
    "case_close_date": "2021-11-23T08:50:29.000",
    "request_status": "Closed",
    "responsible_agency": "Department of Public Works",
    "final_address": "CITY PARK AVE & MARCONI DR & ORLEANS AVE",
    "address_councildis": "A",
    "status": "Resolved",
    "rowid": "843909",
    "final_x": "3670591.9",
    "final_y": "541737.78",
    "longitude": "-90.1021675950146",
    "latitude": "29.983917835863164",
    "geocoded_column": {
      "latitude": "29.983917835863164",
      "longitude": "-90.1021675950146"
    }
  },
  {
    "service_request": "2021-843908",
    "request_type": "Trash/Recycling",
    "request_reason": "Order Recycling Cart",
    "date_created": "2021-11-23T14:47:04.000",
    "date_modified": "2021-11-23T15:02:02.000",
    "request_status": "Pending",
    "responsible_agency": "Department of Sanitation",
    "final_address": "6037 Wingate Dr",
    "address_councildis": "D",
    "status": "Pending",
    "rowid": "843908",
    "final_x": "3681283.37948",
    "final_y": "555087.256793",
    "longitude": "-90.06793251296342",
    "latitude": "30.020303920787264",
    "geocoded_column": {
      "latitude": "30.020303920787264",
      "longitude": "-90.06793251296342"
    }
  },
  {
    "service_request": "2021-843906",
    "request_type": "Trash/Recycling",
    "request_reason": "Order Recycling Cart",
    "date_created": "2021-11-23T14:36:39.000",
    "date_modified": "2021-11-23T14:36:39.000",
    "request_status": "Pending",
    "responsible_agency": "Department of Sanitation",
    "final_address": "1141 Decatur St",
    "address_councildis": "C",
    "status": "Pending",
    "rowid": "843906",
    "final_x": "3684218.80828",
    "final_y": "533442.343172",
    "longitude": "-90.05941783179756",
    "latitude": "29.960698638839144",
    "geocoded_column": {
      "latitude": "29.960698638839144",
      "longitude": "-90.05941783179756"
    }
  },
  {
    "service_request": "2021-843903",
    "request_type": "Traffic Signals/Signs/Striping/Streetlights",
    "request_reason": "Traffic Signal Malfunctioning/Damaged",
    "date_created": "2021-11-23T14:11:50.000",
    "date_modified": "2021-11-23T14:11:50.000",
    "request_status": "Pending",
    "responsible_agency": "Department of Public Works",
    "final_address": "N ROBERTSON ST & POLAND AVE",
    "address_councildis": "D",
    "status": "Pending",
    "rowid": "843903",
    "final_x": "3693387.9",
    "final_y": "536500.58",
    "longitude": "-90.03035394194877",
    "latitude": "29.968824227096107",
    "geocoded_column": {
      "latitude": "29.968824227096107",
      "longitude": "-90.03035394194877"
    }
  },
  {
    "service_request": "2021-843902",
    "request_type": "Trash/Recycling",
    "request_reason": "Request a Large Item Pick Up",
    "date_created": "2021-11-23T14:06:34.000",
    "date_modified": "2021-11-23T15:02:11.000",
    "request_status": "Pending",
    "responsible_agency": "Department of Sanitation",
    "final_address": "924 Bourbon St",
    "address_councildis": "C",
    "status": "Assigned to Contractor",
    "contractor": "Empire Services",
    "rowid": "843902",
    "final_x": "3682858.14754",
    "final_y": "533419.782148",
    "longitude": "-90.06371531707794",
    "latitude": "29.960678128992424",
    "geocoded_column": {
      "latitude": "29.960678128992424",
      "longitude": "-90.06371531707794"
    }
  },
  {
    "service_request": "2021-843901",
    "request_type": "Trash/Recycling",
    "request_reason": "Repair Trash Cart",
    "date_created": "2021-11-23T13:57:59.000",
    "date_modified": "2021-11-23T14:04:34.000",
    "request_status": "Pending",
    "responsible_agency": "Department of Sanitation",
    "final_address": "New Orleans,LA",
    "status": "Assigned to Contractor",
    "rowid": "843901",
    "longitude": "0.0",
    "latitude": "0.0",
    "geocoded_column": {
      "latitude": "0.0",
      "longitude": "0.0"
    }
  },
  {
    "service_request": "2021-843900",
    "request_type": "Traffic Signals/Signs/Striping/Streetlights",
    "request_reason": "Street Name Sign Damaged or Missing",
    "date_created": "2021-11-23T13:54:56.000",
    "date_modified": "2021-11-23T14:01:18.000",
    "request_status": "Pending",
    "responsible_agency": "Department of Public Works",
    "final_address": "2646 Orleans Ave",
    "address_councildis": "D",
    "status": "Pending",
    "rowid": "843900",
    "final_x": "3676889.4164",
    "final_y": "536843.302152",
    "longitude": "-90.08244539339655",
    "latitude": "29.970272146731812",
    "geocoded_column": {
      "latitude": "29.970272146731812",
      "longitude": "-90.08244539339655"
    }
  },
  {
    "service_request": "2021-843899",
    "request_type": "Roads/Drainage",
    "request_reason": "Pothole",
    "date_created": "2021-11-23T13:43:03.000",
    "date_modified": "2021-11-23T14:16:32.000",
    "request_status": "Pending",
    "responsible_agency": "Department of Public Works",
    "final_address": "8160 Old Gentilly Rd",
    "address_councildis": "E",
    "status": "Inspected",
    "rowid": "843899",
    "final_x": "3706882.46622",
    "final_y": "552471.206422",
    "longitude": "-89.98714509312181",
    "latitude": "30.012308622138285",
    "geocoded_column": {
      "latitude": "30.012308622138285",
      "longitude": "-89.98714509312181"
    }
  },
  {
    "service_request": "2021-843897",
    "request_type": "Property Maintenance",
    "request_reason": "Property Maintenance",
    "date_created": "2021-11-23T13:37:11.000",
    "date_modified": "2021-11-23T13:37:11.000",
    "request_status": "Pending",
    "responsible_agency": "Department of Code Enforcement",
    "final_address": "2929 Josephine St",
    "address_councildis": "B",
    "status": "Pending",
    "rowid": "843897",
    "final_x": "3675020.40027",
    "final_y": "527778.850175",
    "longitude": "-90.0886589118419",
    "latitude": "29.945403907701973",
    "geocoded_column": {
      "latitude": "29.945403907701973",
      "longitude": "-90.0886589118419"
    }
  },
  {
    "service_request": "2021-843895",
    "request_type": "Abandoned Vehicles",
    "request_reason": "Abandoned/Junk Vehicles",
    "date_created": "2021-11-23T13:33:32.000",
    "date_modified": "2021-11-23T14:01:22.000",
    "request_status": "Pending",
    "responsible_agency": "Department of Public Works",
    "final_address": "1132 Arabella St",
    "address_councildis": "A",
    "status": "Pending",
    "rowid": "843895",
    "final_x": "3666060.43879",
    "final_y": "520179.14092",
    "longitude": "-90.11720316124227",
    "latitude": "29.924771708749315",
    "geocoded_column": {
      "latitude": "29.924771708749315",
      "longitude": "-90.11720316124227"
    }
  },
  {
    "service_request": "2021-843894",
    "request_type": "Trash/Recycling",
    "request_reason": "Illegal Dumping",
    "date_created": "2021-11-23T13:28:59.000",
    "date_modified": "2021-11-23T13:28:59.000",
    "request_status": "Pending",
    "responsible_agency": "Department of Sanitation",
    "final_address": "2700 BLK Josephine St",
    "address_councildis": "B",
    "status": "Pending",
    "rowid": "843894",
    "final_x": "3675428.30888",
    "final_y": "527175.596027",
    "longitude": "-90.08739172271062",
    "latitude": "29.943732967931723",
    "geocoded_column": {
      "latitude": "29.943732967931723",
      "longitude": "-90.08739172271062"
    }
  },
  {
    "service_request": "2021-843893",
    "request_type": "Trash/Recycling",
    "request_reason": "Order Trash Cart",
    "date_created": "2021-11-23T13:22:47.000",
    "date_modified": "2021-11-23T13:22:48.000",
    "request_status": "Pending",
    "responsible_agency": "Department of Sanitation",
    "final_address": "1221 Lamanche St",
    "address_councildis": "E",
    "status": "Assigned to Contractor",
    "contractor": "Metro Disposal",
    "rowid": "843893",
    "final_x": "3698603.01879",
    "final_y": "534257.784069",
    "longitude": "-90.01396592904581",
    "latitude": "29.96249324675746",
    "geocoded_column": {
      "latitude": "29.96249324675746",
      "longitude": "-90.01396592904581"
    }
  },
  {
    "service_request": "2021-843892",
    "request_type": "Trash/Recycling",
    "request_reason": "Missed Trash Pick-Up",
    "date_created": "2021-11-23T13:15:58.000",
    "date_modified": "2021-11-23T14:01:24.000",
    "request_status": "Pending",
    "responsible_agency": "Department of Sanitation",
    "final_address": "4226 Downman Rd",
    "address_councildis": "D",
    "status": "Assigned to Contractor",
    "contractor": "Metro Disposal",
    "rowid": "843892",
    "final_x": "3696004.26986",
    "final_y": "552786.689302",
    "longitude": "-90.02150249661875",
    "latitude": "30.01352300531863",
    "geocoded_column": {
      "latitude": "30.01352300531863",
      "longitude": "-90.02150249661875"
    }
  },
  {
    "service_request": "2021-843891",
    "request_type": "Abandoned Vehicles",
    "request_reason": "Abandoned/Junk Vehicles",
    "date_created": "2021-11-23T13:15:45.000",
    "date_modified": "2021-11-23T13:15:45.000",
    "request_status": "Pending",
    "responsible_agency": "Department of Public Works",
    "final_address": "3343 Esplanade Ave",
    "address_councildis": "A",
    "status": "Pending",
    "rowid": "843891",
    "final_x": "3675778.57781",
    "final_y": "540915.894027",
    "longitude": "-90.08581351461964",
    "latitude": "29.981503677945287",
    "geocoded_column": {
      "latitude": "29.981503677945287",
      "longitude": "-90.08581351461964"
    }
  },
  {
    "service_request": "2021-843890",
    "request_type": "Abandoned Vehicles",
    "request_reason": "Abandoned/Junk Vehicles",
    "date_created": "2021-11-23T13:06:15.000",
    "date_modified": "2021-11-23T13:06:15.000",
    "request_status": "Pending",
    "responsible_agency": "Department of Public Works",
    "final_address": "4503 America St",
    "address_councildis": "E",
    "status": "Pending",
    "rowid": "843890",
    "final_x": "3699885.80119",
    "final_y": "553704.528215",
    "longitude": "-90.00920545545924",
    "latitude": "30.01592395447061",
    "geocoded_column": {
      "latitude": "30.01592395447061",
      "longitude": "-90.00920545545924"
    }
  },
  {
    "service_request": "2021-843889",
    "request_type": "Roads/Drainage",
    "request_reason": "Catch Basin - Broken/Damage",
    "date_created": "2021-11-23T13:05:14.000",
    "date_modified": "2021-11-23T14:01:26.000",
    "request_status": "Pending",
    "responsible_agency": "Department of Public Works",
    "final_address": "2800 S Carrollton Ave",
    "address_councildis": "A",
    "status": "Pending",
    "rowid": "843889",
    "final_x": "3665839.74567",
    "final_y": "532697.821636",
    "longitude": "-90.11748049956833",
    "latitude": "29.95920049874055",
    "geocoded_column": {
      "latitude": "29.95920049874055",
      "longitude": "-90.11748049956833"
    }
  },
  {
    "service_request": "2021-843888",
    "request_type": "Abandoned Vehicles",
    "request_reason": "Abandoned/Junk Vehicles",
    "date_created": "2021-11-23T13:04:45.000",
    "date_modified": "2021-11-23T13:04:45.000",
    "request_status": "Pending",
    "responsible_agency": "Department of Public Works",
    "final_address": "4503 America St",
    "address_councildis": "E",
    "status": "Pending",
    "rowid": "843888",
    "final_x": "3699885.80119",
    "final_y": "553704.528215",
    "longitude": "-90.00920545545924",
    "latitude": "30.01592395447061",
    "geocoded_column": {
      "latitude": "30.01592395447061",
      "longitude": "-90.00920545545924"
    }
  },
  {
    "service_request": "2021-843887",
    "request_type": "Roads/Drainage",
    "request_reason": "Catch Basin - Clogged",
    "date_created": "2021-11-23T13:04:25.000",
    "date_modified": "2021-11-23T13:04:25.000",
    "request_status": "Pending",
    "responsible_agency": "Department of Public Works",
    "final_address": "2736 S Carrollton Ave",
    "address_councildis": "A",
    "status": "Pending",
    "rowid": "843887",
    "final_x": "3665765.90106",
    "final_y": "532619.958852",
    "longitude": "-90.11771629229047",
    "latitude": "29.958988555926965",
    "geocoded_column": {
      "latitude": "29.958988555926965",
      "longitude": "-90.11771629229047"
    }
  },
  {
    "service_request": "2021-843886",
    "request_type": "Trash/Recycling",
    "request_reason": "Missed Trash Pick-Up",
    "date_created": "2021-11-23T13:03:56.000",
    "date_modified": "2021-11-23T14:01:28.000",
    "request_status": "Pending",
    "responsible_agency": "Department of Sanitation",
    "final_address": "2411 Milan St, New Orleans, Louisiana, 70115",
    "address_councildis": "B",
    "status": "Assigned to Contractor",
    "contractor": "Richards Disposal",
    "rowid": "843886",
    "final_x": "3671354.44795",
    "final_y": "523885.555388",
    "longitude": "-90.10036579681471",
    "latitude": "29.934807599075484",
    "geocoded_column": {
      "latitude": "29.934807599075484",
      "longitude": "-90.10036579681471"
    }
  },
  {
    "service_request": "2021-843885",
    "request_type": "Trash/Recycling",
    "request_reason": "Missed Trash Pick-Up",
    "date_created": "2021-11-23T13:01:04.000",
    "date_modified": "2021-11-23T13:01:07.000",
    "request_status": "Pending",
    "responsible_agency": "Department of Sanitation",
    "final_address": "4730 Pontchartrain Blvd",
    "address_councildis": "A",
    "status": "Assigned to Contractor",
    "contractor": "Richards Disposal",
    "rowid": "843885",
    "final_x": "3667497.33172",
    "final_y": "538483.786121",
    "longitude": "-90.11205149100157",
    "latitude": "29.975061512618705",
    "geocoded_column": {
      "latitude": "29.975061512618705",
      "longitude": "-90.11205149100157"
    }
  },
  {
    "service_request": "2021-843884",
    "request_type": "Roads/Drainage",
    "request_reason": "Pothole",
    "date_created": "2021-11-23T12:58:56.000",
    "date_modified": "2021-11-23T12:58:57.000",
    "request_status": "Pending",
    "responsible_agency": "Department of Public Works",
    "final_address": "3100 Albert St",
    "address_councildis": "C",
    "status": "Pending",
    "rowid": "843884",
    "final_x": "3712078.8403",
    "final_y": "518811.016247",
    "longitude": "-89.97199111595101",
    "latitude": "29.919586665243788",
    "geocoded_column": {
      "latitude": "29.919586665243788",
      "longitude": "-89.97199111595101"
    }
  },
  {
    "service_request": "2021-843883",
    "request_type": "Roads/Drainage",
    "request_reason": "WaterMain Break",
    "date_created": "2021-11-23T12:57:28.000",
    "date_modified": "2021-11-23T13:01:31.000",
    "request_status": "Pending",
    "responsible_agency": "Department of Public Works",
    "final_address": "UPPERLINE ST & S LIBERTY ST",
    "address_councildis": "B",
    "status": "Pending",
    "rowid": "843883",
    "final_x": "3669143.1",
    "final_y": "523202.78",
    "longitude": "-90.10737007348256",
    "latitude": "29.932995428883544",
    "geocoded_column": {
      "latitude": "29.932995428883544",
      "longitude": "-90.10737007348256"
    }
  },
  {
    "service_request": "2021-843882",
    "request_type": "Trash/Recycling",
    "request_reason": "Order Trash Cart",
    "date_created": "2021-11-23T12:50:18.000",
    "date_modified": "2021-11-23T13:01:34.000",
    "request_status": "Pending",
    "responsible_agency": "Department of Sanitation",
    "final_address": "5205 St Claude Ave",
    "address_councildis": "E",
    "status": "Assigned to Contractor",
    "contractor": "Metro Disposal",
    "rowid": "843882",
    "final_x": "3696638.59069",
    "final_y": "534265.221253",
    "longitude": "-90.02016901798207",
    "latitude": "29.96257574522653",
    "geocoded_column": {
      "latitude": "29.96257574522653",
      "longitude": "-90.02016901798207"
    }
  },
  {
    "service_request": "2021-843881",
    "request_type": "Trash/Recycling",
    "request_reason": "Replace Trash Cart",
    "date_created": "2021-11-23T12:47:00.000",
    "date_modified": "2021-11-23T12:47:01.000",
    "request_status": "Pending",
    "responsible_agency": "Department of Sanitation",
    "final_address": "6241 Kingston Ct",
    "address_councildis": "C",
    "status": "Assigned to Contractor",
    "contractor": "Richards Disposal",
    "rowid": "843881",
    "final_x": "3707160.04561",
    "final_y": "517745.210038",
    "longitude": "-89.98755668816732",
    "latitude": "29.916815839726723",
    "geocoded_column": {
      "latitude": "29.916815839726723",
      "longitude": "-89.98755668816732"
    }
  },
  {
    "service_request": "2021-843880",
    "request_type": "Trash/Recycling",
    "request_reason": "Replace Trash Cart",
    "date_created": "2021-11-23T12:42:56.000",
    "date_modified": "2021-11-23T14:16:11.000",
    "request_status": "Pending",
    "responsible_agency": "Department of Sanitation",
    "final_address": "5130 Tchoupitoulas St, New Orleans, Louisiana, 70115",
    "address_councildis": "B",
    "status": "Assigned to Contractor",
    "contractor": "Richards Disposal",
    "rowid": "843880",
    "final_x": "3668036.84058",
    "final_y": "517157.996213",
    "longitude": "-90.11106602457151",
    "latitude": "29.916406686580903",
    "geocoded_column": {
      "latitude": "29.916406686580903",
      "longitude": "-90.11106602457151"
    }
  },
  {
    "service_request": "2021-843879",
    "request_type": "Trash/Recycling",
    "request_reason": "Request a Large Item Pick Up",
    "date_created": "2021-11-23T12:40:09.000",
    "date_modified": "2021-11-23T13:01:38.000",
    "request_status": "Pending",
    "responsible_agency": "Department of Sanitation",
    "final_address": "4605 S Saratoga St",
    "address_councildis": "B",
    "status": "Assigned to Contractor",
    "contractor": "Richards Disposal",
    "rowid": "843879",
    "final_x": "3669853.19278",
    "final_y": "522593.904378",
    "longitude": "-90.10514895846467",
    "latitude": "29.931300306590327",
    "geocoded_column": {
      "latitude": "29.931300306590327",
      "longitude": "-90.10514895846467"
    }
  },
  {
    "service_request": "2021-843878",
    "request_type": "Trash/Recycling",
    "request_reason": "Missed Trash Pick-Up",
    "date_created": "2021-11-23T12:39:20.000",
    "date_modified": "2021-11-23T12:39:21.000",
    "request_status": "Pending",
    "responsible_agency": "Department of Sanitation",
    "final_address": "1309 Mystery St",
    "address_councildis": "A",
    "status": "Assigned to Contractor",
    "contractor": "Richards Disposal",
    "rowid": "843878",
    "final_x": "3676059.43451",
    "final_y": "540426.566667",
    "longitude": "-90.08494327670016",
    "latitude": "29.98014978543431",
    "geocoded_column": {
      "latitude": "29.98014978543431",
      "longitude": "-90.08494327670016"
    }
  },
  {
    "service_request": "2021-843877",
    "request_type": "Safety & Permits",
    "request_reason": "Licenses & Permits",
    "date_created": "2021-11-23T12:36:48.000",
    "date_modified": "2021-11-23T12:36:48.000",
    "request_status": "Pending",
    "responsible_agency": "Safety and Permits",
    "final_address": "826 France St",
    "address_councildis": "C",
    "status": "Pending",
    "rowid": "843877",
    "final_x": "3692128.66659",
    "final_y": "534235.425669",
    "longitude": "-90.0344117547013",
    "latitude": "29.962635163018142",
    "geocoded_column": {
      "latitude": "29.962635163018142",
      "longitude": "-90.0344117547013"
    }
  },
  {
    "service_request": "2021-843876",
    "request_type": "Trash/Recycling",
    "request_reason": "Order Trash Cart",
    "date_created": "2021-11-23T12:36:18.000",
    "date_modified": "2021-11-23T12:36:18.000",
    "request_status": "Pending",
    "responsible_agency": "Department of Sanitation",
    "final_address": "1200 Independence St",
    "address_councildis": "D",
    "status": "Assigned to Contractor",
    "contractor": "Metro Disposal",
    "rowid": "843876",
    "final_x": "3691021.9606",
    "final_y": "535915.560135",
    "longitude": "-90.03784658555348",
    "latitude": "29.967289393030683",
    "geocoded_column": {
      "latitude": "29.967289393030683",
      "longitude": "-90.03784658555348"
    }
  },
  {
    "service_request": "2021-843875",
    "request_type": "Trash/Recycling",
    "request_reason": "Replace Trash Cart",
    "date_created": "2021-11-23T12:36:13.000",
    "date_modified": "2021-11-23T12:36:14.000",
    "case_close_date": "2021-11-21T18:00:00.000",
    "request_status": "Pending",
    "responsible_agency": "Department of Sanitation",
    "final_address": "4614 Prytania St",
    "address_councildis": "B",
    "status": "Assigned to Contractor",
    "contractor": "Richards Disposal",
    "rowid": "843875",
    "final_x": "3670026.88826",
    "final_y": "520173.283448",
    "longitude": "-90.1046825607691",
    "latitude": "29.924639251737972",
    "geocoded_column": {
      "latitude": "29.924639251737972",
      "longitude": "-90.1046825607691"
    }
  },
  {
    "service_request": "2021-843874",
    "request_type": "Trash/Recycling",
    "request_reason": "Request a Large Item Pick Up",
    "date_created": "2021-11-23T12:31:13.000",
    "date_modified": "2021-11-23T12:31:13.000",
    "request_status": "Pending",
    "responsible_agency": "Department of Sanitation",
    "final_address": "3419 Palmyra St",
    "address_councildis": "B",
    "status": "Assigned to Contractor",
    "contractor": "Richards Disposal",
    "rowid": "843874",
    "final_x": "3672529.76955",
    "final_y": "536311.319559",
    "longitude": "-90.09623179320079",
    "latitude": "29.968939519004447",
    "geocoded_column": {
      "latitude": "29.968939519004447",
      "longitude": "-90.09623179320079"
    }
  },
  {
    "service_request": "2021-843873",
    "request_type": "Trash/Recycling",
    "request_reason": "Return Recycling Cart",
    "date_created": "2021-11-23T12:27:13.000",
    "date_modified": "2021-11-23T13:01:39.000",
    "request_status": "Pending",
    "responsible_agency": "Department of Sanitation",
    "final_address": "3314 Short St",
    "address_councildis": "B",
    "status": "Pending",
    "rowid": "843873",
    "final_x": "3667396.16762",
    "final_y": "533725.207173",
    "longitude": "-90.11253111498685",
    "latitude": "29.961979967418664",
    "geocoded_column": {
      "latitude": "29.961979967418664",
      "longitude": "-90.11253111498685"
    }
  },
  {
    "service_request": "2021-843872",
    "request_type": "Trash/Recycling",
    "request_reason": "Replace Trash Cart",
    "date_created": "2021-11-23T12:26:15.000",
    "date_modified": "2021-11-23T13:01:41.000",
    "request_status": "Pending",
    "responsible_agency": "Department of Sanitation",
    "final_address": "2115 Palmer Ave, New Orleans, Louisiana, 70118",
    "address_councildis": "A",
    "status": "Assigned to Contractor",
    "contractor": "Richards Disposal",
    "rowid": "843872",
    "final_x": "3666077.05613",
    "final_y": "524689.099516",
    "longitude": "-90.11699958259177",
    "latitude": "29.93717217895977",
    "geocoded_column": {
      "latitude": "29.93717217895977",
      "longitude": "-90.11699958259177"
    }
  },
  {
    "service_request": "2021-843871",
    "request_type": "Property Maintenance",
    "request_reason": "Property Maintenance",
    "date_created": "2021-11-23T12:25:03.000",
    "date_modified": "2021-11-23T12:25:03.000",
    "request_status": "Pending",
    "responsible_agency": "Department of Code Enforcement",
    "final_address": "738 Poland Ave",
    "address_councildis": "C",
    "status": "Pending",
    "rowid": "843871",
    "final_x": "3692690.39683",
    "final_y": "533825.127365",
    "longitude": "-90.03265260085242",
    "latitude": "29.961489465638284",
    "geocoded_column": {
      "latitude": "29.961489465638284",
      "longitude": "-90.03265260085242"
    }
  },
  {
    "service_request": "2021-843870",
    "request_type": "Trash/Recycling",
    "request_reason": "Repair Trash Cart",
    "date_created": "2021-11-23T12:19:51.000",
    "date_modified": "2021-11-23T13:01:44.000",
    "request_status": "Pending",
    "responsible_agency": "Department of Sanitation",
    "final_address": "1240 Congress St",
    "address_councildis": "C",
    "status": "Assigned to Contractor",
    "contractor": "Metro Disposal",
    "rowid": "843870",
    "final_x": "3690848.82966",
    "final_y": "536246.351303",
    "longitude": "-90.03838152753994",
    "latitude": "29.968204333472116",
    "geocoded_column": {
      "latitude": "29.968204333472116",
      "longitude": "-90.03838152753994"
    }
  },
  {
    "service_request": "2021-843869",
    "request_type": "Roads/Drainage",
    "request_reason": "Pothole",
    "date_created": "2021-11-23T12:18:57.000",
    "date_modified": "2021-11-23T12:21:54.000",
    "request_status": "Pending",
    "responsible_agency": "Department of Public Works",
    "final_address": "3100 BLK Dauphine St",
    "address_councildis": "C",
    "status": "Pending",
    "rowid": "843869",
    "final_x": "3688994.94579",
    "final_y": "534787.860986",
    "longitude": "-90.04428796940631",
    "latitude": "29.964251473717294",
    "geocoded_column": {
      "latitude": "29.964251473717294",
      "longitude": "-90.04428796940631"
    }
  },
  {
    "service_request": "2021-843868",
    "request_type": "Roads/Drainage",
    "request_reason": "Street Subsidence (Sinking)",
    "date_created": "2021-11-23T12:16:22.000",
    "date_modified": "2021-11-23T13:01:46.000",
    "request_status": "Pending",
    "responsible_agency": "Department of Public Works",
    "final_address": "4400 Ray Ave",
    "address_councildis": "E",
    "status": "Pending",
    "rowid": "843868",
    "final_x": "3698870.42231",
    "final_y": "552513.925782",
    "longitude": "-90.01245694338763",
    "latitude": "30.01268247196575",
    "geocoded_column": {
      "latitude": "30.01268247196575",
      "longitude": "-90.01245694338763"
    }
  },
  {
    "service_request": "2021-843867",
    "request_type": "Roads/Drainage",
    "request_reason": "Damaged Sidewalk",
    "date_created": "2021-11-23T12:12:17.000",
    "date_modified": "2021-11-23T12:12:17.000",
    "request_status": "Pending",
    "responsible_agency": "Department of Public Works",
    "final_address": "933 Bartholomew St",
    "address_councildis": "C",
    "status": "Pending",
    "rowid": "843867",
    "final_x": "3691702.83536",
    "final_y": "534768.062918",
    "longitude": "-90.03573741983202",
    "latitude": "29.9641129949176",
    "geocoded_column": {
      "latitude": "29.9641129949176",
      "longitude": "-90.03573741983202"
    }
  },
  {
    "service_request": "2021-843866",
    "request_type": "Trash/Recycling",
    "request_reason": "Illegal Dumping",
    "date_created": "2021-11-23T12:09:44.000",
    "date_modified": "2021-11-23T12:09:44.000",
    "request_status": "Pending",
    "responsible_agency": "Department of Sanitation",
    "final_address": "2138 Pauger St",
    "address_councildis": "C",
    "status": "Pending",
    "rowid": "843866",
    "final_x": "3683701.95279",
    "final_y": "537641.878344",
    "longitude": "-90.06090269427537",
    "latitude": "29.97226170104153",
    "geocoded_column": {
      "latitude": "29.97226170104153",
      "longitude": "-90.06090269427537"
    }
  },
  {
    "service_request": "2021-843864",
    "request_type": "Trash/Recycling",
    "request_reason": "Illegal Dumping",
    "date_created": "2021-11-23T12:09:20.000",
    "date_modified": "2021-11-23T12:09:20.000",
    "request_status": "Pending",
    "responsible_agency": "Department of Sanitation",
    "final_address": "2134 Pauger St",
    "address_councildis": "C",
    "status": "Pending",
    "rowid": "843864",
    "final_x": "3683675.91855",
    "final_y": "537607.004296",
    "longitude": "-90.06098613771154",
    "latitude": "29.972166604437913",
    "geocoded_column": {
      "latitude": "29.972166604437913",
      "longitude": "-90.06098613771154"
    }
  },
  {
    "service_request": "2021-843863",
    "request_type": "Traffic Signals/Signs/Striping/Streetlights",
    "request_reason": "Traffic Signal Malfunctioning/Damaged",
    "date_created": "2021-11-23T12:06:18.000",
    "date_modified": "2021-11-23T13:01:50.000",
    "request_status": "Pending",
    "responsible_agency": "Department of Public Works",
    "final_address": "87 Maryland Dr",
    "address_councildis": "A",
    "status": "Pending",
    "rowid": "843863",
    "final_x": "3663751.30535",
    "final_y": "541847.352588",
    "longitude": "-90.12377032907769",
    "latitude": "29.98441944941539",
    "geocoded_column": {
      "latitude": "29.98441944941539",
      "longitude": "-90.12377032907769"
    }
  },
  {
    "service_request": "2021-843861",
    "request_type": "Trash/Recycling",
    "request_reason": "Missed Trash Pick-Up",
    "date_created": "2021-11-23T12:05:24.000",
    "date_modified": "2021-11-23T13:01:54.000",
    "request_status": "Pending",
    "responsible_agency": "Department of Sanitation",
    "final_address": "2017 Marengo St, New Orleans, Louisiana, 70115",
    "address_councildis": "B",
    "status": "Assigned to Contractor",
    "contractor": "Richards Disposal",
    "rowid": "843861",
    "final_x": "3671862.49857",
    "final_y": "522593.834682",
    "longitude": "-90.0988058206253",
    "latitude": "29.93124074226045",
    "geocoded_column": {
      "latitude": "29.93124074226045",
      "longitude": "-90.0988058206253"
    }
  },
  {
    "service_request": "2021-843860",
    "request_type": "Trash/Recycling",
    "request_reason": "Missed Trash Pick-Up",
    "date_created": "2021-11-23T12:03:04.000",
    "date_modified": "2021-11-23T13:01:57.000",
    "request_status": "Pending",
    "responsible_agency": "Department of Sanitation",
    "final_address": "4520 Downman Rd",
    "address_councildis": "D",
    "status": "Assigned to Contractor",
    "contractor": "Metro Disposal",
    "rowid": "843860",
    "final_x": "3695918.98499",
    "final_y": "553518.520215",
    "longitude": "-90.02174548419448",
    "latitude": "30.015537950003072",
    "geocoded_column": {
      "latitude": "30.015537950003072",
      "longitude": "-90.02174548419448"
    }
  },
  {
    "service_request": "2021-843859",
    "request_type": "Parks & Parkways",
    "request_reason": "Request Tree Service (Right of Way/Public Property)",
    "date_created": "2021-11-23T11:57:56.000",
    "date_modified": "2021-11-23T12:10:28.000",
    "case_close_date": "2021-11-23T06:10:28.000",
    "request_status": "Closed",
    "responsible_agency": "Department of Parks & Parkway",
    "final_address": "4655 Baccich St",
    "address_councildis": "D",
    "status": "Duplicate Case",
    "rowid": "843859",
    "final_x": "3687804.38691",
    "final_y": "550178.005908",
    "longitude": "-90.04750226090704",
    "latitude": "30.006605662327207",
    "geocoded_column": {
      "latitude": "30.006605662327207",
      "longitude": "-90.04750226090704"
    }
  },
  {
    "service_request": "2021-843857",
    "request_type": "Trash/Recycling",
    "request_reason": "Order Trash Cart",
    "date_created": "2021-11-23T11:53:11.000",
    "date_modified": "2021-11-23T12:01:27.000",
    "request_status": "Pending",
    "responsible_agency": "Department of Sanitation",
    "final_address": "4758 Citrus Dr",
    "address_councildis": "E",
    "status": "Assigned to Contractor",
    "contractor": "Metro Disposal",
    "rowid": "843857",
    "final_x": "3710700.35064",
    "final_y": "555910.495001",
    "longitude": "-89.9749540243975",
    "latitude": "30.02164144047109",
    "geocoded_column": {
      "latitude": "30.02164144047109",
      "longitude": "-89.9749540243975"
    }
  },
  {
    "service_request": "2021-843856",
    "request_type": "Roads/Drainage",
    "request_reason": "Pothole",
    "date_created": "2021-11-23T11:51:25.000",
    "date_modified": "2021-11-23T11:51:25.000",
    "request_status": "Pending",
    "responsible_agency": "Department of Public Works",
    "final_address": "5033 Constance St",
    "address_councildis": "B",
    "status": "Pending",
    "rowid": "843856",
    "final_x": "3668383.19073",
    "final_y": "518261.056182",
    "longitude": "-90.10993562651284",
    "latitude": "29.91942959132321",
    "geocoded_column": {
      "latitude": "29.91942959132321",
      "longitude": "-90.10993562651284"
    }
  },
  {
    "service_request": "2021-843855",
    "request_type": "Abandoned Vehicles",
    "request_reason": "Vehicle Blocking Your Driveway",
    "date_created": "2021-11-23T11:44:36.000",
    "date_modified": "2021-11-23T12:01:29.000",
    "request_status": "Pending",
    "responsible_agency": "Department of Public Works",
    "final_address": "8220 Panola St, New Orleans, Louisiana, 70118",
    "address_councildis": "A",
    "status": "Pending",
    "rowid": "843855",
    "final_x": "3663688.78663",
    "final_y": "531030.253186",
    "longitude": "-90.12432829773327",
    "latitude": "29.95467781025464",
    "geocoded_column": {
      "latitude": "29.95467781025464",
      "longitude": "-90.12432829773327"
    }
  },
  {
    "service_request": "2021-843854",
    "request_type": "Trash/Recycling",
    "request_reason": "Replace Trash Cart",
    "date_created": "2021-11-23T11:43:33.000",
    "date_modified": "2021-11-23T12:01:32.000",
    "request_status": "Pending",
    "responsible_agency": "Department of Sanitation",
    "final_address": "1700 N Dorgenois St",
    "address_councildis": "D",
    "status": "Assigned to Contractor",
    "contractor": "Metro Disposal",
    "rowid": "843854",
    "final_x": "3680057.35912",
    "final_y": "540385.571979",
    "longitude": "-90.07231757910152",
    "latitude": "29.97991669115447",
    "geocoded_column": {
      "latitude": "29.97991669115447",
      "longitude": "-90.07231757910152"
    }
  },
  {
    "service_request": "2021-843852",
    "request_type": "Trash/Recycling",
    "request_reason": "Dead Animal Pick Up",
    "date_created": "2021-11-23T11:35:44.000",
    "date_modified": "2021-11-23T12:01:34.000",
    "request_status": "Pending",
    "responsible_agency": "Department of Sanitation",
    "final_address": "N ROBERTSON ST & JAPONICA ST",
    "address_councildis": "D",
    "status": "Assigned to Contractor",
    "contractor": "Metro Disposal",
    "rowid": "843852",
    "final_x": "3694092.2",
    "final_y": "536318.88",
    "longitude": "-90.0281362655313",
    "latitude": "29.968302576169283",
    "geocoded_column": {
      "latitude": "29.968302576169283",
      "longitude": "-90.0281362655313"
    }
  },
  {
    "service_request": "2021-843851",
    "request_type": "Trash/Recycling",
    "request_reason": "Repair Trash Cart",
    "date_created": "2021-11-23T11:32:08.000",
    "date_modified": "2021-11-23T11:32:08.000",
    "request_status": "Pending",
    "responsible_agency": "Department of Sanitation",
    "final_address": "815 Eleonore St Apt A",
    "address_councildis": "A",
    "status": "Assigned to Contractor",
    "contractor": "Richards Disposal",
    "rowid": "843851",
    "final_x": "3665285.20532",
    "final_y": "519190.017207",
    "longitude": "-90.11968339726343",
    "latitude": "29.922074530346872",
    "geocoded_column": {
      "latitude": "29.922074530346872",
      "longitude": "-90.11968339726343"
    }
  },
  {
    "service_request": "2021-843850",
    "request_type": "Abandoned Vehicles",
    "request_reason": "Abandoned/Junk Vehicles",
    "date_created": "2021-11-23T11:21:42.000",
    "date_modified": "2021-11-23T11:21:42.000",
    "request_status": "Pending",
    "responsible_agency": "Department of Public Works",
    "status": "Inspected",
    "rowid": "843850",
    "longitude": "0.0",
    "latitude": "0.0",
    "geocoded_column": {
      "latitude": "0.0",
      "longitude": "0.0"
    }
  },
  {
    "service_request": "2021-843849",
    "request_type": "Roads/Drainage",
    "request_reason": "Catch Basin - Clogged",
    "date_created": "2021-11-23T11:11:15.000",
    "date_modified": "2021-11-23T13:14:08.000",
    "case_close_date": "2021-11-23T07:14:08.000",
    "request_status": "Closed",
    "responsible_agency": "Department of Public Works",
    "final_address": "11041 Lake Forest Blvd",
    "address_councildis": "E",
    "status": "Duplicate Case",
    "rowid": "843849",
    "final_x": "3714565.06853",
    "final_y": "560688.57763",
    "longitude": "-89.96256206915868",
    "latitude": "30.034652723747598",
    "geocoded_column": {
      "latitude": "30.034652723747598",
      "longitude": "-89.96256206915868"
    }
  },
  {
    "service_request": "2021-843848",
    "request_type": "Trash/Recycling",
    "request_reason": "Replace Trash Cart",
    "date_created": "2021-11-23T11:09:12.000",
    "date_modified": "2021-11-23T12:01:38.000",
    "request_status": "Pending",
    "responsible_agency": "Department of Sanitation",
    "final_address": "3907 Iroquois St",
    "address_councildis": "D",
    "status": "Assigned to Contractor",
    "contractor": "Metro Disposal",
    "rowid": "843848",
    "final_x": "3689212.431",
    "final_y": "547604.82549",
    "longitude": "-90.04314543435125",
    "latitude": "29.999486833446753",
    "geocoded_column": {
      "latitude": "29.999486833446753",
      "longitude": "-90.04314543435125"
    }
  },
  {
    "service_request": "2021-843847",
    "request_type": "Roads/Drainage",
    "request_reason": "Catch Basin - Broken/Damage",
    "date_created": "2021-11-23T11:06:19.000",
    "date_modified": "2021-11-23T11:06:19.000",
    "request_status": "Pending",
    "responsible_agency": "Department of Public Works",
    "final_address": "2800 S Carrollton Ave",
    "address_councildis": "A",
    "status": "Pending",
    "rowid": "843847",
    "final_x": "3665839.74567",
    "final_y": "532697.821636",
    "longitude": "-90.11748049956833",
    "latitude": "29.95920049874055",
    "geocoded_column": {
      "latitude": "29.95920049874055",
      "longitude": "-90.11748049956833"
    }
  },
  {
    "service_request": "2021-843846",
    "request_type": "Safety & Permits",
    "request_reason": "Licenses & Permits",
    "date_created": "2021-11-23T11:03:39.000",
    "date_modified": "2021-11-23T12:01:40.000",
    "request_status": "Pending",
    "responsible_agency": "Safety and Permits",
    "final_address": "AUSTERLITZ ST & TCHOUPITOULAS ST",
    "address_councildis": "B",
    "status": "Pending",
    "rowid": "843846",
    "final_x": "3673000.7",
    "final_y": "517650.48",
    "longitude": "-90.09538125739562",
    "latitude": "29.917614333229782",
    "geocoded_column": {
      "latitude": "29.917614333229782",
      "longitude": "-90.09538125739562"
    }
  },
  {
    "service_request": "2021-843845",
    "request_type": "Trash/Recycling",
    "request_reason": "Missed Trash Pick-Up",
    "date_created": "2021-11-23T10:59:37.000",
    "date_modified": "2021-11-23T10:59:38.000",
    "request_status": "Pending",
    "responsible_agency": "Department of Sanitation",
    "final_address": "929 Sumner St",
    "address_councildis": "C",
    "status": "Assigned to Contractor",
    "contractor": "Richards Disposal",
    "rowid": "843845",
    "final_x": "3691084.9014",
    "final_y": "527866.693247",
    "longitude": "-90.0379351790337",
    "latitude": "29.945155849189206",
    "geocoded_column": {
      "latitude": "29.945155849189206",
      "longitude": "-90.0379351790337"
    }
  },
  {
    "service_request": "2021-843844",
    "request_type": "Trash/Recycling",
    "request_reason": "Missed Trash Pick-Up",
    "date_created": "2021-11-23T10:57:13.000",
    "date_modified": "2021-11-23T10:57:13.000",
    "request_status": "Pending",
    "responsible_agency": "Department of Sanitation",
    "final_address": "1809 Feliciana St",
    "address_councildis": "D",
    "status": "Assigned to Contractor",
    "contractor": "Metro Disposal",
    "rowid": "843844",
    "final_x": "3689453.70499",
    "final_y": "538775.142153",
    "longitude": "-90.04269742423857",
    "latitude": "29.975200897226877",
    "geocoded_column": {
      "latitude": "29.975200897226877",
      "longitude": "-90.04269742423857"
    }
  },
  {
    "service_request": "2021-843843",
    "request_type": "Property Maintenance",
    "request_reason": "Property Maintenance",
    "date_created": "2021-11-23T10:56:39.000",
    "date_modified": "2021-11-23T11:00:41.000",
    "request_status": "Pending",
    "responsible_agency": "Department of Code Enforcement",
    "final_address": "2329 Alvar St",
    "address_councildis": "D",
    "status": "Pending",
    "rowid": "843843",
    "final_x": "3692735.11337",
    "final_y": "540177.917835",
    "longitude": "-90.03228361068493",
    "latitude": "29.978955992458",
    "geocoded_column": {
      "latitude": "29.978955992458",
      "longitude": "-90.03228361068493"
    }
  },
  {
    "service_request": "2021-843842",
    "request_type": "Trash/Recycling",
    "request_reason": "Order Recycling Cart",
    "date_created": "2021-11-23T10:52:05.000",
    "date_modified": "2021-11-23T11:00:44.000",
    "request_status": "Pending",
    "responsible_agency": "Department of Sanitation",
    "final_address": "2507 Valmont St",
    "address_councildis": "B",
    "status": "Pending",
    "rowid": "843842",
    "final_x": "3668339.11738",
    "final_y": "524714.417148",
    "longitude": "-90.10985724237125",
    "latitude": "29.937175574631738",
    "geocoded_column": {
      "latitude": "29.937175574631738",
      "longitude": "-90.10985724237125"
    }
  },
  {
    "service_request": "2021-843840",
    "request_type": "Trash/Recycling",
    "request_reason": "Missed Trash Pick-Up",
    "date_created": "2021-11-23T10:49:26.000",
    "date_modified": "2021-11-23T11:00:47.000",
    "request_status": "Pending",
    "responsible_agency": "Department of Sanitation",
    "final_address": "3915 Chestnut St",
    "address_councildis": "B",
    "status": "Assigned to Contractor",
    "contractor": "Richards Disposal",
    "rowid": "843840",
    "final_x": "3672752.805",
    "final_y": "519741.469688",
    "longitude": "-90.09609245941724",
    "latitude": "29.923371249886785",
    "geocoded_column": {
      "latitude": "29.923371249886785",
      "longitude": "-90.09609245941724"
    }
  },
  {
    "service_request": "2021-843839",
    "request_type": "Abandoned Vehicles",
    "request_reason": "Abandoned/Junk Vehicles",
    "date_created": "2021-11-23T10:46:29.000",
    "date_modified": "2021-11-23T10:46:29.000",
    "request_status": "Pending",
    "responsible_agency": "Department of Public Works",
    "final_address": "1401 S Tonti St",
    "address_councildis": "B",
    "status": "Pending",
    "rowid": "843839",
    "final_x": "3673080.86152",
    "final_y": "529686.279233",
    "longitude": "-90.09471756893132",
    "latitude": "29.95070649790329",
    "geocoded_column": {
      "latitude": "29.95070649790329",
      "longitude": "-90.09471756893132"
    }
  },
  {
    "service_request": "2021-843838",
    "request_type": "Trash/Recycling",
    "request_reason": "Request a Large Item Pick Up",
    "date_created": "2021-11-23T10:44:48.000",
    "date_modified": "2021-11-23T10:44:49.000",
    "request_status": "Pending",
    "responsible_agency": "Department of Sanitation",
    "final_address": "12710 Curran Rd",
    "address_councildis": "E",
    "status": "Assigned to Contractor",
    "contractor": "Metro Disposal",
    "rowid": "843838",
    "final_x": "3714908.13381",
    "final_y": "569129.649574",
    "longitude": "-89.96115850548756",
    "latitude": "30.057850950967577",
    "geocoded_column": {
      "latitude": "30.057850950967577",
      "longitude": "-89.96115850548756"
    }
  },
  {
    "service_request": "2021-843837",
    "request_type": "Traffic Signals/Signs/Striping/Streetlights",
    "request_reason": "Street Light Outage/Malfunction",
    "date_created": "2021-11-23T10:42:27.000",
    "date_modified": "2021-11-23T11:00:50.000",
    "request_status": "Pending",
    "responsible_agency": "Department of Public Works",
    "final_address": "8100 BLK Oak St",
    "address_councildis": "A",
    "status": "Pending",
    "contractor": "Royal Engineering",
    "rowid": "843837",
    "final_x": "3661845.44825",
    "final_y": "528480.632787",
    "longitude": "-90.13023340919166",
    "latitude": "29.94772052463341",
    "geocoded_column": {
      "latitude": "29.94772052463341",
      "longitude": "-90.13023340919166"
    }
  },
  {
    "service_request": "2021-843836",
    "request_type": "Property Maintenance",
    "request_reason": "Property Maintenance",
    "date_created": "2021-11-23T10:28:27.000",
    "date_modified": "2021-11-23T10:28:27.000",
    "request_status": "Pending",
    "responsible_agency": "Department of Code Enforcement",
    "final_address": "2929 Josephine St",
    "address_councildis": "B",
    "status": "Pending",
    "rowid": "843836",
    "final_x": "3675020.40027",
    "final_y": "527778.850175",
    "longitude": "-90.0886589118419",
    "latitude": "29.945403907701973",
    "geocoded_column": {
      "latitude": "29.945403907701973",
      "longitude": "-90.0886589118419"
    }
  },
  {
    "service_request": "2021-843835",
    "request_type": "Abandoned Vehicles",
    "request_reason": "Abandoned/Junk Vehicles",
    "date_created": "2021-11-23T10:26:25.000",
    "date_modified": "2021-11-23T10:26:25.000",
    "request_status": "Pending",
    "responsible_agency": "Department of Public Works",
    "final_address": "4060 Clermont Dr",
    "address_councildis": "D",
    "status": "Pending",
    "rowid": "843835",
    "final_x": "3684794.81474",
    "final_y": "547439.401809",
    "longitude": "-90.05710662414494",
    "latitude": "29.9991680088125",
    "geocoded_column": {
      "latitude": "29.9991680088125",
      "longitude": "-90.05710662414494"
    }
  },
  {
    "service_request": "2021-843834",
    "request_type": "Mosquito, Termite & Rodent Control",
    "request_reason": "Non-Rodent Complaint (Mice, Possums, Snakes)",
    "date_created": "2021-11-23T10:26:24.000",
    "date_modified": "2021-11-23T11:00:53.000",
    "request_status": "Pending",
    "responsible_agency": "Mosquito, Termite & Rodent Control Board",
    "final_address": "5726 St Charles Ave",
    "address_councildis": "A",
    "status": "Pending",
    "rowid": "843834",
    "final_x": "3666288.55757",
    "final_y": "522017.200314",
    "longitude": "-90.1164214428881",
    "latitude": "29.929819131740146",
    "geocoded_column": {
      "latitude": "29.929819131740146",
      "longitude": "-90.1164214428881"
    }
  },
  {
    "service_request": "2021-843833",
    "request_type": "Abandoned Vehicles",
    "request_reason": "Abandoned/Junk Vehicles",
    "date_created": "2021-11-23T10:19:22.000",
    "date_modified": "2021-11-23T10:19:22.000",
    "request_status": "Pending",
    "responsible_agency": "Department of Public Works",
    "final_address": "1944 Port St",
    "address_councildis": "D",
    "status": "Pending",
    "rowid": "843833",
    "final_x": "3688248.14383",
    "final_y": "539738.624394",
    "longitude": "-90.04647071921252",
    "latitude": "29.977887415789255",
    "geocoded_column": {
      "latitude": "29.977887415789255",
      "longitude": "-90.04647071921252"
    }
  },
  {
    "service_request": "2021-843832",
    "request_type": "Property Maintenance",
    "request_reason": "Property Maintenance",
    "date_created": "2021-11-23T10:16:10.000",
    "date_modified": "2021-11-23T10:16:10.000",
    "request_status": "Pending",
    "responsible_agency": "Department of Code Enforcement",
    "final_address": "2700 BLK Josephine St",
    "address_councildis": "B",
    "status": "Pending",
    "rowid": "843832",
    "final_x": "3675428.30888",
    "final_y": "527175.596027",
    "longitude": "-90.08739172271062",
    "latitude": "29.943732967931723",
    "geocoded_column": {
      "latitude": "29.943732967931723",
      "longitude": "-90.08739172271062"
    }
  },
  {
    "service_request": "2021-843831",
    "request_type": "Roads/Drainage",
    "request_reason": "Street Flooding / Drainage",
    "date_created": "2021-11-23T10:13:10.000",
    "date_modified": "2021-11-23T11:03:53.000",
    "case_close_date": "2021-11-23T05:03:53.000",
    "request_status": "Closed",
    "responsible_agency": "Department of Public Works",
    "final_address": "2309 Frenchmen St",
    "address_councildis": "D",
    "status": "Duplicate Case",
    "rowid": "843831",
    "final_x": "3684257.24041",
    "final_y": "540795.658507",
    "longitude": "-90.05903823645077",
    "latitude": "29.980916526703965",
    "geocoded_column": {
      "latitude": "29.980916526703965",
      "longitude": "-90.05903823645077"
    }
  },
  {
    "service_request": "2021-843830",
    "request_type": "Roads/Drainage",
    "request_reason": "Pothole",
    "date_created": "2021-11-23T10:11:21.000",
    "date_modified": "2021-11-23T11:01:41.000",
    "case_close_date": "2021-11-23T05:01:41.000",
    "request_status": "Closed",
    "responsible_agency": "Department of Public Works",
    "final_address": "2309 Frenchmen St",
    "address_councildis": "D",
    "status": "Duplicate Case",
    "rowid": "843830",
    "final_x": "3684257.24041",
    "final_y": "540795.658507",
    "longitude": "-90.05903823645077",
    "latitude": "29.980916526703965",
    "geocoded_column": {
      "latitude": "29.980916526703965",
      "longitude": "-90.05903823645077"
    }
  },
  {
    "service_request": "2021-843828",
    "request_type": "COVID-19",
    "request_reason": "COVID-19 Business Non-Compliance",
    "date_created": "2021-11-23T10:04:16.000",
    "date_modified": "2021-11-23T10:04:18.000",
    "request_status": "Pending",
    "responsible_agency": "Safety and Permits",
    "final_address": "3800 Canal St",
    "address_councildis": "A",
    "status": "Pending",
    "rowid": "843828",
    "final_x": "3671986.09812",
    "final_y": "537548.763208",
    "longitude": "-90.09790661212993",
    "latitude": "29.972358200415535",
    "geocoded_column": {
      "latitude": "29.972358200415535",
      "longitude": "-90.09790661212993"
    }
  },
  {
    "service_request": "2021-843827",
    "request_type": "Trash/Recycling",
    "request_reason": "Request a Large Item Pick Up",
    "date_created": "2021-11-23T10:02:08.000",
    "date_modified": "2021-11-23T10:02:09.000",
    "request_status": "Pending",
    "responsible_agency": "Department of Sanitation",
    "final_address": "7601 Pineridge St",
    "address_councildis": "E",
    "status": "Assigned to Contractor",
    "contractor": "Metro Disposal",
    "rowid": "843827",
    "final_x": "3719091.03429",
    "final_y": "572007.29924",
    "longitude": "-89.94782703534719",
    "latitude": "30.06562489089754",
    "geocoded_column": {
      "latitude": "30.06562489089754",
      "longitude": "-89.94782703534719"
    }
  },
  {
    "service_request": "2021-843826",
    "request_type": "Trash/Recycling",
    "request_reason": "Illegal Dumping",
    "date_created": "2021-11-23T10:00:35.000",
    "date_modified": "2021-11-23T10:00:35.000",
    "request_status": "Pending",
    "responsible_agency": "Department of Sanitation",
    "final_address": "CHEF MENTEUR HWY & CROWDER BLVD",
    "address_councildis": "E",
    "status": "Pending",
    "rowid": "843826",
    "final_x": "3706634.1",
    "final_y": "553211.78",
    "longitude": "-89.98790231067488",
    "latitude": "30.01435293570407",
    "geocoded_column": {
      "latitude": "30.01435293570407",
      "longitude": "-89.98790231067488"
    }
  },
  {
    "service_request": "2021-843825",
    "request_type": "Trash/Recycling",
    "request_reason": "Illegal Dumping",
    "date_created": "2021-11-23T10:00:11.000",
    "date_modified": "2021-11-23T10:00:11.000",
    "request_status": "Pending",
    "responsible_agency": "Department of Sanitation",
    "final_address": "CHEF MENTEUR HWY & WILSON AVE",
    "address_councildis": "E",
    "status": "Pending",
    "rowid": "843825",
    "final_x": "3703240.7",
    "final_y": "552478.68",
    "longitude": "-89.99865066841369",
    "latitude": "30.0124463124892",
    "geocoded_column": {
      "latitude": "30.0124463124892",
      "longitude": "-89.99865066841369"
    }
  },
  {
    "service_request": "2021-843824",
    "request_type": "Trash/Recycling",
    "request_reason": "Illegal Dumping",
    "date_created": "2021-11-23T09:59:36.000",
    "date_modified": "2021-11-23T09:59:36.000",
    "request_status": "Pending",
    "responsible_agency": "Department of Sanitation",
    "final_address": "BULLARD AVE & CHEF MENTEUR HWY",
    "address_councildis": "E",
    "status": "Pending",
    "rowid": "843824",
    "final_x": "3719420.4",
    "final_y": "556924.28",
    "longitude": "-89.94736259270046",
    "latitude": "30.024141818205965",
    "geocoded_column": {
      "latitude": "30.024141818205965",
      "longitude": "-89.94736259270046"
    }
  },
  {
    "service_request": "2021-843823",
    "request_type": "Property Maintenance",
    "request_reason": "Property Maintenance",
    "date_created": "2021-11-23T09:56:53.000",
    "date_modified": "2021-11-23T09:56:53.000",
    "request_status": "Pending",
    "responsible_agency": "Department of Code Enforcement",
    "final_address": "4139 Gibson St",
    "address_councildis": "D",
    "status": "Pending",
    "rowid": "843823",
    "final_x": "3678785.99842",
    "final_y": "547613.189458",
    "longitude": "-90.07608258790344",
    "latitude": "29.999828516464078",
    "geocoded_column": {
      "latitude": "29.999828516464078",
      "longitude": "-90.07608258790344"
    }
  },