[
  {
    "service_request": "2024-1155600",
    "request_type": "Street and Traffic Signs",
    "request_reason": "Street Name Sign Damaged or Missing",
    "date_created": "2024-12-16T23:51:36.000",
    "date_modified": "2024-12-16T23:51:36.000",
    "request_status": "Pending",
    "responsible_agency": "Department of Public Works",
    "final_address": "6941 Mayo Rd",
    "address_councildis": "E",
    "status": "Pending",
    "rowid": "1155600",
    "final_x": "3701914.23959",
    "final_y": "558363.702044",
    "longitude": "-90.00262558305795",
    "latitude": "30.02867028410803",
    "geocoded_column": {
      "latitude": "30.02867028410803",
      "longitude": "-90.00262558305795"
    }
  },
  {
    "service_request": "2024-1155599",
    "request_type": "Street and Traffic Signs",
    "request_reason": "Street Name Sign Damaged or Missing",
    "date_created": "2024-12-16T23:46:10.000",
    "date_modified": "2024-12-16T23:46:10.000",
    "request_status": "Pending",
    "responsible_agency": "Department of Public Works",
    "final_address": "6918 Mayo Rd",
    "address_councildis": "E",
    "status": "Pending",
    "rowid": "1155599",
    "final_x": "3701650.48439",
    "final_y": "558307.871708",
    "longitude": "-90.00346107986195",
    "latitude": "30.028525191982617",
    "geocoded_column": {
      "latitude": "30.028525191982617",
      "longitude": "-90.00346107986195"
    }
  },
  {
    "service_request": "2024-1155598",
    "request_type": "Trash/Recycling",
    "request_reason": "Replace Trash Cart",
    "date_created": "2024-12-16T22:36:08.000",
    "date_modified": "2024-12-16T22:36:09.000",
    "request_status": "Pending",
    "responsible_agency": "Department of Sanitation",
    "final_address": "1503 Prytania St",
    "address_councildis": "B",
    "status": "Assigned to Contractor",
    "contractor": "IV Waste",
    "rowid": "1155598",
    "final_x": "3679556.02562",
    "final_y": "525212.649917",
    "longitude": "-90.07442750786002",
    "latitude": "29.938211458530372",
    "geocoded_column": {
      "latitude": "29.938211458530372",
      "longitude": "-90.07442750786002"
    }
  },
  {
    "service_request": "2024-1155597",
    "request_type": "Trash/Recycling",
    "request_reason": "Start Trash Service",
    "date_created": "2024-12-16T21:47:37.000",
    "date_modified": "2024-12-16T21:47:38.000",
    "request_status": "Pending",
    "responsible_agency": "Department of Sanitation",
    "final_address": "2906 Conti St",
    "address_councildis": "B",
    "status": "Assigned to Contractor",
    "contractor": "IV Waste",
    "rowid": "1155597",
    "final_x": "3675244.22165",
    "final_y": "536598.798919",
    "longitude": "-90.08764949601378",
    "latitude": "29.969649127746514",
    "geocoded_column": {
      "latitude": "29.969649127746514",
      "longitude": "-90.08764949601378"
    }
  },
  {
    "service_request": "2024-1155596",
    "request_type": "Trash/Recycling",
    "request_reason": "Request a Large Item Pick Up",
    "date_created": "2024-12-16T20:28:40.000",
    "date_modified": "2024-12-16T20:28:41.000",
    "request_status": "Pending",
    "responsible_agency": "Department of Sanitation",
    "final_address": "7525 Ligustrum Dr",
    "address_councildis": "E",
    "status": "Assigned to Contractor",
    "contractor": "Waste Pro",
    "rowid": "1155596",
    "final_x": "3701682.72593",
    "final_y": "560916.528286",
    "longitude": "-90.00326351321371",
    "latitude": "30.035696955801864",
    "geocoded_column": {
      "latitude": "30.035696955801864",
      "longitude": "-90.00326351321371"
    }
  },
  {
    "service_request": "2024-1155595",
    "request_type": "Streetlights",
    "request_reason": "Streetlight Outage/Malfunction",
    "date_created": "2024-12-16T20:20:07.000",
    "date_modified": "2024-12-16T20:20:08.000",
    "request_status": "Pending",
    "responsible_agency": "Department of Public Works",
    "final_address": "5817 Marigny St",
    "address_councildis": "D",
    "status": "Pending",
    "contractor": "Legacy Professional Services",
    "rowid": "1155595",
    "final_x": "3684042.31177",
    "final_y": "554422.09084",
    "longitude": "-90.0592385195666",
    "latitude": "30.01839089412729",
    "geocoded_column": {
      "latitude": "30.01839089412729",
      "longitude": "-90.0592385195666"
    }
  },
  {
    "service_request": "2024-1155594",
    "request_type": "Abandoned Vehicles",
    "request_reason": "Abandoned/Junk Vehicles",
    "date_created": "2024-12-16T20:12:18.000",
    "date_modified": "2024-12-16T20:12:18.000",
    "request_status": "Pending",
    "responsible_agency": "Department of Public Works",
    "final_address": "2221 Jena St",
    "address_councildis": "B",
    "status": "Pending",
    "rowid": "1155594",
    "final_x": "3670309.13428",
    "final_y": "523161.635003",
    "longitude": "-90.10369037118629",
    "latitude": "29.93284793778402",
    "geocoded_column": {
      "latitude": "29.93284793778402",
      "longitude": "-90.10369037118629"
    }
  },
  {
    "service_request": "2024-1155593",
    "request_type": "Trash/Recycling",
    "request_reason": "Replace Trash Cart",
    "date_created": "2024-12-16T19:42:26.000",
    "date_modified": "2024-12-16T19:42:27.000",
    "request_status": "Pending",
    "responsible_agency": "Department of Sanitation",
    "final_address": "534 S Telemachus St",
    "address_councildis": "B",
    "status": "Assigned to Contractor",
    "contractor": "IV Waste",
    "rowid": "1155593",
    "final_x": "3671222.32423",
    "final_y": "535861.903943",
    "longitude": "-90.10037607274316",
    "latitude": "29.967742525683168",
    "geocoded_column": {
      "latitude": "29.967742525683168",
      "longitude": "-90.10037607274316"
    }
  },
  {
    "service_request": "2024-1155592",
    "request_type": "Trash/Recycling",
    "request_reason": "Request a Large Item Pick Up",
    "date_created": "2024-12-16T19:24:44.000",
    "date_modified": "2024-12-16T19:24:45.000",
    "request_status": "Pending",
    "responsible_agency": "Department of Sanitation",
    "final_address": "237 Delaronde St",
    "address_councildis": "C",
    "status": "Assigned to Contractor",
    "contractor": "Richards Disposal",
    "rowid": "1155592",
    "final_x": "3686239.55433",
    "final_y": "530712.643074",
    "longitude": "-90.05313303045718",
    "latitude": "29.953130972603677",
    "geocoded_column": {
      "latitude": "29.953130972603677",
      "longitude": "-90.05313303045718"
    }
  },
  {
    "service_request": "2024-1155591",
    "request_type": "Streetlights",
    "request_reason": "Streetlight Outage/Malfunction",
    "date_created": "2024-12-16T19:15:14.000",
    "date_modified": "2024-12-16T19:15:15.000",
    "request_status": "Pending",
    "responsible_agency": "Department of Public Works",
    "final_address": "1100 Arabella St",
    "address_councildis": "A",
    "status": "Pending",
    "contractor": "Legacy Professional Services",
    "rowid": "1155591",
    "final_x": "3666012.4336",
    "final_y": "519969.5182",
    "longitude": "-90.1173617203885",
    "latitude": "29.924196713152746",
    "geocoded_column": {
      "latitude": "29.924196713152746",
      "longitude": "-90.1173617203885"
    }
  },
  {
    "service_request": "2024-1155590",
    "request_type": "Trash/Recycling",
    "request_reason": "Replace Recycling Cart",
    "date_created": "2024-12-16T18:38:35.000",
    "date_modified": "2024-12-16T18:38:35.000",
    "request_status": "Pending",
    "responsible_agency": "Department of Sanitation",
    "final_address": "6400 Avenue A",
    "address_councildis": "A",
    "status": "Pending",
    "rowid": "1155590",
    "final_x": "3665911.45204",
    "final_y": "550725.667797",
    "longitude": "-90.11664959470032",
    "latitude": "30.008768896604284",
    "geocoded_column": {
      "latitude": "30.008768896604284",
      "longitude": "-90.11664959470032"
    }
  },
  {
    "service_request": "2024-1155589",
    "request_type": "Trash/Recycling",
    "request_reason": "Request a Large Item Pick Up",
    "date_created": "2024-12-16T18:31:03.000",
    "date_modified": "2024-12-16T18:31:03.000",
    "request_status": "Pending",
    "responsible_agency": "Department of Sanitation",
    "final_address": "10920 Roger Dr",
    "address_councildis": "E",
    "status": "Assigned to Contractor",
    "contractor": "Waste Pro",
    "rowid": "1155589",
    "final_x": "3712032.81765",
    "final_y": "563312.165728",
    "longitude": "-89.97046565773408",
    "latitude": "30.04194959295222",
    "geocoded_column": {
      "latitude": "30.04194959295222",
      "longitude": "-89.97046565773408"
    }
  },
  {
    "service_request": "2024-1155588",
    "request_type": "Trash/Recycling",
    "request_reason": "Request a Large Item Pick Up",
    "date_created": "2024-12-16T18:26:32.000",
    "date_modified": "2024-12-16T18:26:33.000",
    "request_status": "Pending",
    "responsible_agency": "Department of Sanitation",
    "final_address": "10841 Roger Dr",
    "address_councildis": "E",
    "status": "Assigned to Contractor",
    "contractor": "Waste Pro",
    "rowid": "1155588",
    "final_x": "3711812.37182",
    "final_y": "563244.70224",
    "longitude": "-89.97116487729235",
    "latitude": "30.04177130309243",
    "geocoded_column": {
      "latitude": "30.04177130309243",
      "longitude": "-89.97116487729235"
    }
  },
  {
    "service_request": "2024-1155587",
    "request_type": "Abandoned Vehicles",
    "request_reason": "Abandoned/Junk Vehicles",
    "date_created": "2024-12-16T18:20:45.000",
    "date_modified": "2024-12-16T18:20:45.000",
    "request_status": "Pending",
    "responsible_agency": "Department of Public Works",
    "final_address": "2100 Pauger St",
    "address_councildis": "C",
    "status": "Pending",
    "rowid": "1155587",
    "final_x": "3683749.16642",
    "final_y": "537355.849096",
    "longitude": "-90.06076361815185",
    "latitude": "29.97147377824326",
    "geocoded_column": {
      "latitude": "29.97147377824326",
      "longitude": "-90.06076361815185"
    }
  },
  {
    "service_request": "2024-1155586",
    "request_type": "Abandoned Vehicles",
    "request_reason": "Abandoned/Junk Vehicles",
    "date_created": "2024-12-16T18:19:51.000",
    "date_modified": "2024-12-16T18:19:51.000",
    "request_status": "Pending",
    "responsible_agency": "Department of Public Works",
    "final_address": "2817 N Claiborne Ave",
    "address_councildis": "D",
    "status": "Pending",
    "rowid": "1155586",
    "final_x": "3688281.45027",
    "final_y": "538229.896329",
    "longitude": "-90.04641904369211",
    "latitude": "29.973737917274615",
    "geocoded_column": {
      "latitude": "29.973737917274615",
      "longitude": "-90.04641904369211"
    }
  },
  {
    "service_request": "2024-1155585",
    "request_type": "Streetlights",
    "request_reason": "Streetlight Outage/Malfunction",
    "date_created": "2024-12-16T18:19:32.000",
    "date_modified": "2024-12-16T18:19:33.000",
    "request_status": "Pending",
    "responsible_agency": "Department of Public Works",
    "final_address": "4823 Constance St",
    "address_councildis": "B",
    "status": "Pending",
    "contractor": "Legacy Professional Services",
    "rowid": "1155585",
    "final_x": "3669427.32871",
    "final_y": "518301.685814",
    "longitude": "-90.10663842327637",
    "latitude": "29.919510614953804",
    "geocoded_column": {
      "latitude": "29.919510614953804",
      "longitude": "-90.10663842327637"
    }
  },
  {
    "service_request": "2024-1155584",
    "request_type": "Trash/Recycling",
    "request_reason": "Illegal Dumping",
    "date_created": "2024-12-16T18:17:39.000",
    "date_modified": "2024-12-16T18:17:39.000",
    "request_status": "Pending",
    "responsible_agency": "Department of Sanitation",
    "final_address": "2800 BLK N Robertson St",
    "address_councildis": "C",
    "status": "Pending",
    "rowid": "1155584",
    "final_x": "3688238.07788",
    "final_y": "537772.939662",
    "longitude": "-90.04657222928527",
    "latitude": "29.972482786478018",
    "geocoded_column": {
      "latitude": "29.972482786478018",
      "longitude": "-90.04657222928527"
    }
  },
  {
    "service_request": "2024-1155583",
    "request_type": "Trash/Recycling",
    "request_reason": "Illegal Dumping",
    "date_created": "2024-12-16T18:15:42.000",
    "date_modified": "2024-12-16T18:15:42.000",
    "request_status": "Pending",
    "responsible_agency": "Department of Sanitation",
    "final_address": "1823 N Robertson St",
    "address_councildis": "C",
    "status": "Pending",
    "rowid": "1155583",
    "final_x": "3683598.30594",
    "final_y": "537737.740616",
    "longitude": "-90.06122666715227",
    "latitude": "29.97252845336166",
    "geocoded_column": {
      "latitude": "29.97252845336166",
      "longitude": "-90.06122666715227"
    }
  },
  {
    "service_request": "2024-1155582",
    "request_type": "Abandoned Vehicles",
    "request_reason": "Abandoned/Junk Vehicles",
    "date_created": "2024-12-16T18:15:09.000",
    "date_modified": "2024-12-16T18:15:09.000",
    "request_status": "Pending",
    "responsible_agency": "Department of Public Works",
    "final_address": "2018 Pace Blvd",
    "address_councildis": "C",
    "status": "Pending",
    "rowid": "1155582",
    "final_x": "3694507.27184",
    "final_y": "523064.677051",
    "longitude": "-90.02730254628234",
    "latitude": "29.931845125284863",
    "geocoded_column": {
      "latitude": "29.931845125284863",
      "longitude": "-90.02730254628234"
    }
  },
  {
    "service_request": "2024-1155581",
    "request_type": "Trash/Recycling",
    "request_reason": "Return Trash Cart",
    "date_created": "2024-12-16T18:11:21.000",
    "date_modified": "2024-12-16T18:11:22.000",
    "request_status": "Pending",
    "responsible_agency": "Department of Sanitation",
    "final_address": "2100 Pauger St",
    "address_councildis": "C",
    "status": "Assigned to Contractor",
    "contractor": "IV Waste",
    "rowid": "1155581",
    "final_x": "3683749.16642",
    "final_y": "537355.849096",
    "longitude": "-90.06076361815185",
    "latitude": "29.97147377824326",
    "geocoded_column": {
      "latitude": "29.97147377824326",
      "longitude": "-90.06076361815185"
    }
  },
  {
    "service_request": "2024-1155580",
    "request_type": "Trash/Recycling",
    "request_reason": "Return Trash Cart",
    "date_created": "2024-12-16T18:09:16.000",
    "date_modified": "2024-12-16T18:09:17.000",
    "request_status": "Pending",
    "responsible_agency": "Department of Sanitation",
    "final_address": "1814 N Villere St",
    "address_councildis": "C",
    "status": "Assigned to Contractor",
    "contractor": "IV Waste",
    "rowid": "1155580",
    "final_x": "3683560.99298",
    "final_y": "537262.825224",
    "longitude": "-90.06136115769392",
    "latitude": "29.971223739907913",
    "geocoded_column": {
      "latitude": "29.971223739907913",
      "longitude": "-90.06136115769392"
    }
  },
  {
    "service_request": "2024-1155579",
    "request_type": "Abandoned Vehicles",
    "request_reason": "Abandoned/Junk Vehicles",
    "date_created": "2024-12-16T18:04:34.000",
    "date_modified": "2024-12-16T18:04:34.000",
    "request_status": "Pending",
    "responsible_agency": "Department of Public Works",
    "final_address": "2018 Pace Blvd",
    "address_councildis": "C",
    "status": "Pending",
    "rowid": "1155579",
    "final_x": "3694507.27184",
    "final_y": "523064.677051",
    "longitude": "-90.02730254628234",
    "latitude": "29.931845125284863",
    "geocoded_column": {
      "latitude": "29.931845125284863",
      "longitude": "-90.02730254628234"
    }
  },
  {
    "service_request": "2024-1155578",
    "request_type": "Trash/Recycling",
    "request_reason": "Illegal Dumping",
    "date_created": "2024-12-16T17:57:34.000",
    "date_modified": "2024-12-16T17:57:34.000",
    "request_status": "Pending",
    "responsible_agency": "Department of Sanitation",
    "final_address": "317 Homer St",
    "address_councildis": "C",
    "status": "Pending",
    "rowid": "1155578",
    "final_x": "3686314.83881",
    "final_y": "528240.193152",
    "longitude": "-90.05298254903028",
    "latitude": "29.9463302652577",
    "geocoded_column": {
      "latitude": "29.9463302652577",
      "longitude": "-90.05298254903028"
    }
  },
  {
    "service_request": "2024-1155577",
    "request_type": "Trash/Recycling",
    "request_reason": "Replace Trash Cart",
    "date_created": "2024-12-16T17:40:09.000",
    "date_modified": "2024-12-16T17:40:10.000",
    "request_status": "Pending",
    "responsible_agency": "Department of Sanitation",
    "final_address": "2720 S Carrollton Ave, New Orleans, Louisiana, 70118",
    "address_councildis": "A",
    "status": "Assigned to Contractor",
    "contractor": "IV Waste",
    "rowid": "1155577",
    "final_x": "3665710.68135",
    "final_y": "532507.302404",
    "longitude": "-90.11789443654493",
    "latitude": "29.95868039828293",
    "geocoded_column": {
      "latitude": "29.95868039828293",
      "longitude": "-90.11789443654493"
    }
  },
  {
    "service_request": "2024-1155576",
    "request_type": "Trash/Recycling",
    "request_reason": "Replace Trash Cart",
    "date_created": "2024-12-16T17:32:49.000",
    "date_modified": "2024-12-16T17:32:50.000",
    "request_status": "Pending",
    "responsible_agency": "Department of Sanitation",
    "final_address": "703 Clouet St",
    "address_councildis": "C",
    "status": "Assigned to Contractor",
    "contractor": "IV Waste",
    "rowid": "1155576",
    "final_x": "3688661.65673",
    "final_y": "534525.805253",
    "longitude": "-90.04534976761865",
    "latitude": "29.96354121717965",
    "geocoded_column": {
      "latitude": "29.96354121717965",
      "longitude": "-90.04534976761865"
    }
  },
  {
    "service_request": "2024-1155575",
    "request_type": "Trash/Recycling",
    "request_reason": "Order Trash Cart",
    "date_created": "2024-12-16T17:19:21.000",
    "date_modified": "2024-12-16T17:19:22.000",
    "request_status": "Pending",
    "responsible_agency": "Department of Sanitation",
    "final_address": "935 Governor Nicholls St",
    "address_councildis": "C",
    "status": "Assigned to Contractor",
    "contractor": "Empire Services",
    "rowid": "1155575",
    "final_x": "3682874.4372",
    "final_y": "534543.044741",
    "longitude": "-90.06362457272418",
    "latitude": "29.963766219729205",
    "geocoded_column": {
      "latitude": "29.963766219729205",
      "longitude": "-90.06362457272418"
    }
  },
  {
    "service_request": "2024-1155574",
    "request_type": "Trash/Recycling",
    "request_reason": "Order Recycling Cart",
    "date_created": "2024-12-16T17:18:16.000",
    "date_modified": "2024-12-16T17:18:16.000",
    "request_status": "Pending",
    "responsible_agency": "Department of Sanitation",
    "final_address": "935 Governor Nicholls St",
    "address_councildis": "C",
    "status": "Pending",
    "rowid": "1155574",
    "final_x": "3682874.4372",
    "final_y": "534543.044741",
    "longitude": "-90.06362457272418",
    "latitude": "29.963766219729205",
    "geocoded_column": {
      "latitude": "29.963766219729205",
      "longitude": "-90.06362457272418"
    }
  },
  {
    "service_request": "2024-1155573",
    "request_type": "Trash/Recycling",
    "request_reason": "Request a Large Item Pick Up",
    "date_created": "2024-12-16T16:57:37.000",
    "date_modified": "2024-12-16T16:57:38.000",
    "request_status": "Pending",
    "responsible_agency": "Department of Sanitation",
    "final_address": "8301 Freret St",
    "address_councildis": "A",
    "status": "Assigned to Contractor",
    "contractor": "IV Waste",
    "rowid": "1155573",
    "final_x": "3660953.06374",
    "final_y": "528402.631744",
    "longitude": "-90.13305361362123",
    "latitude": "29.947531780324184",
    "geocoded_column": {
      "latitude": "29.947531780324184",
      "longitude": "-90.13305361362123"
    }
  },
  {
    "service_request": "2024-1155572",
    "request_type": "Trash/Recycling",
    "request_reason": "Request a Large Item Pick Up",
    "date_created": "2024-12-16T16:56:18.000",
    "date_modified": "2024-12-16T16:56:19.000",
    "request_status": "Pending",
    "responsible_agency": "Department of Sanitation",
    "final_address": "8011 Windward Ct",
    "address_councildis": "E",
    "status": "Assigned to Contractor",
    "contractor": "Waste Pro",
    "rowid": "1155572",
    "final_x": "3715007.47794",
    "final_y": "570615.745511",
    "longitude": "-89.96078822670327",
    "latitude": "30.061933829603234",
    "geocoded_column": {
      "latitude": "30.061933829603234",
      "longitude": "-89.96078822670327"
    }
  },
  {
    "service_request": "2024-1155571",
    "request_type": "Trash/Recycling",
    "request_reason": "Order Recycling Cart",
    "date_created": "2024-12-16T16:55:26.000",
    "date_modified": "2024-12-16T16:55:26.000",
    "request_status": "Pending",
    "responsible_agency": "Department of Sanitation",
    "final_address": "721 Milan St",
    "address_councildis": "B",
    "status": "Pending",
    "rowid": "1155571",
    "final_x": "3671895.72257",
    "final_y": "518328.060598",
    "longitude": "-90.09884601984825",
    "latitude": "29.919510244227904",
    "geocoded_column": {
      "latitude": "29.919510244227904",
      "longitude": "-90.09884601984825"
    }
  },
  {
    "service_request": "2024-1155570",
    "request_type": "Streetlights",
    "request_reason": "Streetlight Outage/Malfunction",
    "date_created": "2024-12-16T16:53:47.000",
    "date_modified": "2024-12-16T16:53:48.000",
    "request_status": "Pending",
    "responsible_agency": "Department of Public Works",
    "final_address": "2600 Comet St",
    "address_councildis": "C",
    "status": "Pending",
    "contractor": "Legacy Professional Services",
    "rowid": "1155570",
    "final_x": "3699891.16048",
    "final_y": "521456.933241",
    "longitude": "-90.01036490202578",
    "latitude": "29.9272545516801",
    "geocoded_column": {
      "latitude": "29.9272545516801",
      "longitude": "-90.01036490202578"
    }
  },
  {
    "service_request": "2024-1155569",
    "request_type": "Trash/Recycling",
    "request_reason": "Order Second Trash Cart",
    "date_created": "2024-12-16T16:52:56.000",
    "date_modified": "2024-12-16T16:52:57.000",
    "request_status": "Pending",
    "responsible_agency": "Department of Sanitation",
    "final_address": "721 Milan St",
    "address_councildis": "B",
    "status": "Assigned to Contractor",
    "contractor": "IV Waste",
    "rowid": "1155569",
    "final_x": "3671895.72257",
    "final_y": "518328.060598",
    "longitude": "-90.09884601984825",
    "latitude": "29.919510244227904",
    "geocoded_column": {
      "latitude": "29.919510244227904",
      "longitude": "-90.09884601984825"
    }
  },
  {
    "service_request": "2024-1155568",
    "request_type": "Trash/Recycling",
    "request_reason": "Request a Large Item Pick Up",
    "date_created": "2024-12-16T16:47:24.000",
    "date_modified": "2024-12-16T16:47:25.000",
    "request_status": "Pending",
    "responsible_agency": "Department of Sanitation",
    "final_address": "1801 Flanders St",
    "address_councildis": "C",
    "status": "Assigned to Contractor",
    "contractor": "Richards Disposal",
    "rowid": "1155568",
    "final_x": "3696604.29328",
    "final_y": "524642.419836",
    "longitude": "-90.02062545127312",
    "latitude": "29.936117486584152",
    "geocoded_column": {
      "latitude": "29.936117486584152",
      "longitude": "-90.02062545127312"
    }
  },
  {
    "service_request": "2024-1155567",
    "request_type": "Trash/Recycling",
    "request_reason": "Replace Recycling Cart",
    "date_created": "2024-12-16T16:47:15.000",
    "date_modified": "2024-12-16T16:47:15.000",
    "request_status": "Pending",
    "responsible_agency": "Department of Sanitation",
    "final_address": "5607 Tchoupitoulas St",
    "address_councildis": "A",
    "status": "Pending",
    "rowid": "1155567",
    "final_x": "3665660.6745",
    "final_y": "517189.283893",
    "longitude": "-90.11856514688942",
    "latitude": "29.916562199020806",
    "geocoded_column": {
      "latitude": "29.916562199020806",
      "longitude": "-90.11856514688942"
    }
  },
  {
    "service_request": "2024-1155566",
    "request_type": "Trash/Recycling",
    "request_reason": "Request a Large Item Pick Up",
    "date_created": "2024-12-16T16:42:19.000",
    "date_modified": "2024-12-16T16:42:20.000",
    "request_status": "Pending",
    "responsible_agency": "Department of Sanitation",
    "final_address": "1108 Dauphine St",
    "address_councildis": "C",
    "status": "Assigned to Contractor",
    "contractor": "Empire Services",
    "rowid": "1155566",
    "final_x": "3682934.42108",
    "final_y": "534119.615877",
    "longitude": "-90.06344996873612",
    "latitude": "29.9626001079097",
    "geocoded_column": {
      "latitude": "29.9626001079097",
      "longitude": "-90.06344996873612"
    }
  },
  {
    "service_request": "2024-1155565",
    "request_type": "General Services",
    "request_reason": "General Service Request",
    "date_created": "2024-12-16T16:35:05.000",
    "date_modified": "2024-12-16T16:37:59.000",
    "case_close_date": "2024-12-16T10:37:59.000",
    "request_status": "Closed",
    "responsible_agency": "Orleans Parish Communication District",
    "final_address": "1027 Henriette Delille St",
    "address_councildis": "C",
    "status": "Question Answered.",
    "rowid": "1155565",
    "final_x": "3681842.77628",
    "final_y": "534694.710278",
    "longitude": "-90.0668771601929",
    "latitude": "29.96421464137617",
    "geocoded_column": {
      "latitude": "29.96421464137617",
      "longitude": "-90.0668771601929"
    }
  },
  {
    "service_request": "2024-1155564",
    "request_type": "Streetlights",
    "request_reason": "Streetlight Outage/Malfunction",
    "date_created": "2024-12-16T16:34:28.000",
    "date_modified": "2024-12-16T16:34:30.000",
    "request_status": "Pending",
    "responsible_agency": "Department of Public Works",
    "final_address": "CANAL ST & TCHOUPITOULAS ST",
    "address_councildis": "B",
    "status": "Pending",
    "contractor": "Legacy Professional Services",
    "rowid": "1155564",
    "final_x": "3682128.1",
    "final_y": "529899.58",
    "longitude": "-90.06614359548452",
    "latitude": "29.951020991149228",
    "geocoded_column": {
      "latitude": "29.951020991149228",
      "longitude": "-90.06614359548452"
    }
  },
  {
    "service_request": "2024-1155563",
    "request_type": "Trash/Recycling",
    "request_reason": "Request a Large Item Pick Up",
    "date_created": "2024-12-16T16:34:19.000",
    "date_modified": "2024-12-16T16:34:20.000",
    "request_status": "Pending",
    "responsible_agency": "Department of Sanitation",
    "final_address": "2309 Lamanche St",
    "address_councildis": "E",
    "status": "Assigned to Contractor",
    "contractor": "Waste Pro",
    "rowid": "1155563",
    "final_x": "3699631.37117",
    "final_y": "538269.631433",
    "longitude": "-90.01057230617705",
    "latitude": "29.97349178657203",
    "geocoded_column": {
      "latitude": "29.97349178657203",
      "longitude": "-90.01057230617705"
    }
  },
  {
    "service_request": "2024-1155562",
    "request_type": "Trash/Recycling",
    "request_reason": "Illegal Dumping",
    "date_created": "2024-12-16T16:34:14.000",
    "date_modified": "2024-12-16T16:34:14.000",
    "request_status": "Pending",
    "responsible_agency": "Department of Sanitation",
    "final_address": "PRENTISS AVE & PEOPLES AVE",
    "address_councildis": "D",
    "status": "Pending",
    "rowid": "1155562",
    "final_x": "3687883.4",
    "final_y": "554182.38",
    "longitude": "-90.04711063131543",
    "latitude": "30.017613781147542",
    "geocoded_column": {
      "latitude": "30.017613781147542",
      "longitude": "-90.04711063131543"
    }
  },
  {
    "service_request": "2024-1155561",
    "request_type": "Trash/Recycling",
    "request_reason": "Request a Large Item Pick Up",
    "date_created": "2024-12-16T16:33:46.000",
    "date_modified": "2024-12-16T16:33:46.000",
    "request_status": "Pending",
    "responsible_agency": "Department of Sanitation",
    "final_address": "8026 Cohn St",
    "address_councildis": "A",
    "status": "Assigned to Contractor",
    "contractor": "IV Waste",
    "rowid": "1155561",
    "final_x": "3663806.7104",
    "final_y": "529962.291905",
    "longitude": "-90.12399152927509",
    "latitude": "29.951737840679538",
    "geocoded_column": {
      "latitude": "29.951737840679538",
      "longitude": "-90.12399152927509"
    }
  },
  {
    "service_request": "2024-1155560",
    "request_type": "Trash/Recycling",
    "request_reason": "Order Second Trash Cart",
    "date_created": "2024-12-16T16:31:53.000",
    "date_modified": "2024-12-16T16:31:54.000",
    "request_status": "Pending",
    "responsible_agency": "Department of Sanitation",
    "final_address": "9820 Andover Dr",
    "address_councildis": "E",
    "status": "Assigned to Contractor",
    "contractor": "Waste Pro",
    "rowid": "1155560",
    "final_x": "3708922.15537",
    "final_y": "561937.302559",
    "longitude": "-89.98034773968794",
    "latitude": "30.038270631287542",
    "geocoded_column": {
      "latitude": "30.038270631287542",
      "longitude": "-89.98034773968794"
    }
  },
  {
    "service_request": "2024-1155559",
    "request_type": "Trash/Recycling",
    "request_reason": "Request a Large Item Pick Up",
    "date_created": "2024-12-16T16:29:30.000",
    "date_modified": "2024-12-16T16:29:31.000",
    "request_status": "Pending",
    "responsible_agency": "Department of Sanitation",
    "final_address": "7521 Wave Dr",
    "address_councildis": "E",
    "status": "Assigned to Contractor",
    "contractor": "Waste Pro",
    "rowid": "1155559",
    "final_x": "3715377.20069",
    "final_y": "568336.987109",
    "longitude": "-89.95970589331468",
    "latitude": "30.05565600215738",
    "geocoded_column": {
      "latitude": "30.05565600215738",
      "longitude": "-89.95970589331468"
    }
  },
  {
    "service_request": "2024-1155558",
    "request_type": "Trash/Recycling",
    "request_reason": "Request a Large Item Pick Up",
    "date_created": "2024-12-16T16:25:30.000",
    "date_modified": "2024-12-16T16:25:31.000",
    "request_status": "Pending",
    "responsible_agency": "Department of Sanitation",
    "final_address": "7501 Spring Lake Dr",
    "address_councildis": "E",
    "status": "Assigned to Contractor",
    "contractor": "Waste Pro",
    "rowid": "1155558",
    "final_x": "3701011.60279",
    "final_y": "559337.005149",
    "longitude": "-90.00544221472963",
    "latitude": "30.03137528374669",
    "geocoded_column": {
      "latitude": "30.03137528374669",
      "longitude": "-90.00544221472963"
    }
  },
  {
    "service_request": "2024-1155557",
    "request_type": "Trash/Recycling",
    "request_reason": "Request a Large Item Pick Up",
    "date_created": "2024-12-16T16:24:29.000",
    "date_modified": "2024-12-16T16:24:30.000",
    "request_status": "Pending",
    "responsible_agency": "Department of Sanitation",
    "final_address": "5096 St Ferdinand Dr",
    "address_councildis": "D",
    "status": "Assigned to Contractor",
    "contractor": "IV Waste",
    "rowid": "1155557",
    "final_x": "3689051.70134",
    "final_y": "551970.231382",
    "longitude": "-90.04349794845925",
    "latitude": "30.011495078546137",
    "geocoded_column": {
      "latitude": "30.011495078546137",
      "longitude": "-90.04349794845925"
    }
  },
  {
    "service_request": "2024-1155556",
    "request_type": "Trash/Recycling",
    "request_reason": "Request a Large Item Pick Up",
    "date_created": "2024-12-16T16:23:09.000",
    "date_modified": "2024-12-16T16:23:10.000",
    "request_status": "Pending",
    "responsible_agency": "Department of Sanitation",
    "final_address": "15031 Emory Rd",
    "address_councildis": "E",
    "status": "Assigned to Contractor",
    "contractor": "Waste Pro",
    "rowid": "1155556",
    "final_x": "3721136.93042",
    "final_y": "574190.367786",
    "longitude": "-89.94127594368612",
    "latitude": "30.071559227685015",
    "geocoded_column": {
      "latitude": "30.071559227685015",
      "longitude": "-89.94127594368612"
    }
  },
  {
    "service_request": "2024-1155555",
    "request_type": "Traffic Signals",
    "request_reason": "Traffic Signal Malfunctioning or Damaged",
    "date_created": "2024-12-16T16:22:56.000",
    "date_modified": "2024-12-16T16:22:57.000",
    "request_status": "Pending",
    "responsible_agency": "Department of Public Works",
    "final_address": "JULIA ST & CARONDELET ST",
    "address_councildis": "B",
    "status": "Pending",
    "rowid": "1155555",
    "final_x": "3680002.3",
    "final_y": "528126.68",
    "longitude": "-90.07291738063634",
    "latitude": "29.94621058197401",
    "geocoded_column": {
      "latitude": "29.94621058197401",
      "longitude": "-90.07291738063634"
    }
  },
  {
    "service_request": "2024-1155554",
    "request_type": "Abandoned Vehicles",
    "request_reason": "Abandoned/Junk Vehicles",
    "date_created": "2024-12-16T16:22:43.000",
    "date_modified": "2024-12-16T16:22:43.000",
    "request_status": "Pending",
    "responsible_agency": "Department of Public Works",
    "final_address": "6200 BLK Peoples Ave",
    "address_councildis": "D",
    "status": "Pending",
    "rowid": "1155554",
    "final_x": "3687733.07036",
    "final_y": "556269.762248",
    "longitude": "-90.04751160245378",
    "latitude": "30.02335794692215",
    "geocoded_column": {
      "latitude": "30.02335794692215",
      "longitude": "-90.04751160245378"
    }
  },
  {
    "service_request": "2024-1155553",
    "request_type": "Trash/Recycling",
    "request_reason": "MIssed Recycling Pick-Up",
    "date_created": "2024-12-16T16:15:08.000",
    "date_modified": "2024-12-16T16:15:09.000",
    "request_status": "Pending",
    "responsible_agency": "Department of Sanitation",
    "final_address": "1767 Holiday Dr",
    "address_councildis": "C",
    "status": "Assigned to Contractor",
    "contractor": "Richards Disposal",
    "rowid": "1155553",
    "final_x": "3698848.38781",
    "final_y": "524034.509308",
    "longitude": "-90.01356293268319",
    "latitude": "29.934375061280324",
    "geocoded_column": {
      "latitude": "29.934375061280324",
      "longitude": "-90.01356293268319"
    }
  },
  {
    "service_request": "2024-1155552",
    "request_type": "Trash/Recycling",
    "request_reason": "Replace Trash Cart",
    "date_created": "2024-12-16T16:13:17.000",
    "date_modified": "2024-12-16T16:13:18.000",
    "request_status": "Pending",
    "responsible_agency": "Department of Sanitation",
    "final_address": "8136 Spruce St",
    "address_councildis": "A",
    "status": "Assigned to Contractor",
    "contractor": "IV Waste",
    "rowid": "1155552",
    "final_x": "3663593.024",
    "final_y": "530638.206722",
    "longitude": "-90.12464373889462",
    "latitude": "29.95360258742733",
    "geocoded_column": {
      "latitude": "29.95360258742733",
      "longitude": "-90.12464373889462"
    }
  },
  {
    "service_request": "2024-1155551",
    "request_type": "Streetlights",
    "request_reason": "Streetlight Outage/Malfunction",
    "date_created": "2024-12-16T16:07:50.000",
    "date_modified": "2024-12-16T16:07:51.000",
    "request_status": "Pending",
    "responsible_agency": "Department of Public Works",
    "final_address": "6924 Marshal Foch St",
    "address_councildis": "A",
    "status": "Pending",
    "contractor": "Legacy Professional Services",
    "rowid": "1155551",
    "final_x": "3670315.93012",
    "final_y": "553427.527511",
    "longitude": "-90.10264269206215",
    "latitude": "30.016068726567376",
    "geocoded_column": {
      "latitude": "30.016068726567376",
      "longitude": "-90.10264269206215"
    }
  },
  {
    "service_request": "2024-1155550",
    "request_type": "Trash/Recycling",
    "request_reason": "Request a Large Item Pick Up",
    "date_created": "2024-12-16T16:05:49.000",
    "date_modified": "2024-12-16T16:05:50.000",
    "request_status": "Pending",
    "responsible_agency": "Department of Sanitation",
    "final_address": "10340 Flossmoor Dr",
    "address_councildis": "E",
    "status": "Assigned to Contractor",
    "contractor": "Waste Pro",
    "rowid": "1155550",
    "final_x": "3710205.27742",
    "final_y": "563903.458849",
    "longitude": "-89.97621918628045",
    "latitude": "30.043635053475693",
    "geocoded_column": {
      "latitude": "30.043635053475693",
      "longitude": "-89.97621918628045"
    }
  },
  {
    "service_request": "2024-1155549",
    "request_type": "Trash/Recycling",
    "request_reason": "Request a Large Item Pick Up",
    "date_created": "2024-12-16T16:04:20.000",
    "date_modified": "2024-12-16T16:04:21.000",
    "request_status": "Pending",
    "responsible_agency": "Department of Sanitation",
    "final_address": "14590 Tilbury Rd",
    "address_councildis": "E",
    "status": "Assigned to Contractor",
    "contractor": "Waste Pro",
    "rowid": "1155549",
    "final_x": "3721203.71833",
    "final_y": "573235.390249",
    "longitude": "-89.94110149025187",
    "latitude": "30.06893121276459",
    "geocoded_column": {
      "latitude": "30.06893121276459",
      "longitude": "-89.94110149025187"
    }
  },
  {
    "service_request": "2024-1155548",
    "request_type": "Trash/Recycling",
    "request_reason": "Return Trash Cart",
    "date_created": "2024-12-16T15:58:09.000",
    "date_modified": "2024-12-16T15:58:10.000",
    "request_status": "Pending",
    "responsible_agency": "Department of Sanitation",
    "final_address": "1523 Freret St",
    "address_councildis": "B",
    "status": "Assigned to Contractor",
    "contractor": "IV Waste",
    "rowid": "1155548",
    "final_x": "3676236.66657",
    "final_y": "527124.218111",
    "longitude": "-90.08484128621357",
    "latitude": "29.94356750194635",
    "geocoded_column": {
      "latitude": "29.94356750194635",
      "longitude": "-90.08484128621357"
    }
  },
  {
    "service_request": "2024-1155547",
    "request_type": "Trash/Recycling",
    "request_reason": "Request a Large Item Pick Up",
    "date_created": "2024-12-16T15:57:40.000",
    "date_modified": "2024-12-16T15:57:41.000",
    "request_status": "Pending",
    "responsible_agency": "Department of Sanitation",
    "final_address": "533 Henry Clay Ave",
    "address_councildis": "A",
    "status": "Assigned to Contractor",
    "contractor": "IV Waste",
    "rowid": "1155547",
    "final_x": "3663551.8832",
    "final_y": "518831.688567",
    "longitude": "-90.12516672360553",
    "latitude": "29.9211396058691",
    "geocoded_column": {
      "latitude": "29.9211396058691",
      "longitude": "-90.12516672360553"
    }
  },
  {
    "service_request": "2024-1155546",
    "request_type": "Trash/Recycling",
    "request_reason": "Request a Large Item Pick Up",
    "date_created": "2024-12-16T15:48:52.000",
    "date_modified": "2024-12-16T15:48:53.000",
    "request_status": "Pending",
    "responsible_agency": "Department of Sanitation",
    "final_address": "7400 Dartmoor Dr",
    "address_councildis": "E",
    "status": "Assigned to Contractor",
    "contractor": "Waste Pro",
    "rowid": "1155546",
    "final_x": "3704943.01841",
    "final_y": "561888.866847",
    "longitude": "-89.99292454113606",
    "latitude": "30.038266042314778",
    "geocoded_column": {
      "latitude": "30.038266042314778",
      "longitude": "-89.99292454113606"
    }
  },
  {
    "service_request": "2024-1155545",
    "request_type": "Abandoned Vehicles",
    "request_reason": "Abandoned/Junk Vehicles",
    "date_created": "2024-12-16T15:47:31.000",
    "date_modified": "2024-12-16T15:47:32.000",
    "request_status": "Pending",
    "responsible_agency": "Department of Public Works",
    "final_address": "2901 General Ogden St",
    "address_councildis": "A",
    "status": "Pending",
    "rowid": "1155545",
    "final_x": "3664073.43968",
    "final_y": "534851.562374",
    "longitude": "-90.12298625120394",
    "latitude": "29.965173997451465",
    "geocoded_column": {
      "latitude": "29.965173997451465",
      "longitude": "-90.12298625120394"
    }
  },
  {
    "service_request": "2024-1155544",
    "request_type": "Trash/Recycling",
    "request_reason": "Request a Large Item Pick Up",
    "date_created": "2024-12-16T15:43:39.000",
    "date_modified": "2024-12-16T15:43:40.000",
    "request_status": "Pending",
    "responsible_agency": "Department of Sanitation",
    "final_address": "12910 Mcraven Ct",
    "address_councildis": "E",
    "status": "Assigned to Contractor",
    "contractor": "Waste Pro",
    "rowid": "1155544",
    "final_x": "3716406.47928",
    "final_y": "568130.969253",
    "longitude": "-89.95646040006928",
    "latitude": "30.055055570511488",
    "geocoded_column": {
      "latitude": "30.055055570511488",
      "longitude": "-89.95646040006928"
    }
  },
  {
    "service_request": "2024-1155543",
    "request_type": "Streetlights",
    "request_reason": "Streetlight Outage/Malfunction",
    "date_created": "2024-12-16T15:43:22.000",
    "date_modified": "2024-12-16T15:43:24.000",
    "request_status": "Pending",
    "responsible_agency": "Department of Public Works",
    "final_address": "9870 E Rockton Cir",
    "address_councildis": "E",
    "status": "Pending",
    "contractor": "Legacy Professional Services",
    "rowid": "1155543",
    "final_x": "3708690.12747",
    "final_y": "563257.83024",
    "longitude": "-89.9810317502557",
    "latitude": "30.041909087935842",
    "geocoded_column": {
      "latitude": "30.041909087935842",
      "longitude": "-89.9810317502557"
    }
  },
  {
    "service_request": "2024-1155542",
    "request_type": "Trash/Recycling",
    "request_reason": "Request a Large Item Pick Up",
    "date_created": "2024-12-16T15:42:27.000",
    "date_modified": "2024-12-16T15:42:28.000",
    "request_status": "Pending",
    "responsible_agency": "Department of Sanitation",
    "final_address": "20212 San Rocco St",
    "address_councildis": "E",
    "status": "Assigned to Contractor",
    "contractor": "Waste Pro",
    "rowid": "1155542",
    "final_x": "3759828.80809",
    "final_y": "573026.626985",
    "longitude": "-89.81901055829053",
    "latitude": "30.067010220467306",
    "geocoded_column": {
      "latitude": "30.067010220467306",
      "longitude": "-89.81901055829053"
    }
  },
  {
    "service_request": "2024-1155541",
    "request_type": "Trash/Recycling",
    "request_reason": "Return Recycling Cart",
    "date_created": "2024-12-16T15:41:57.000",
    "date_modified": "2024-12-16T15:41:58.000",
    "request_status": "Pending",
    "responsible_agency": "Department of Sanitation",
    "final_address": "4419 Knight Dr",
    "address_councildis": "E",
    "status": "Pending",
    "rowid": "1155541",
    "final_x": "3708377.53784",
    "final_y": "553852.125207",
    "longitude": "-89.98237011006736",
    "latitude": "30.016057233859833",
    "geocoded_column": {
      "latitude": "30.016057233859833",
      "longitude": "-89.98237011006736"
    }
  },
  {
    "service_request": "2024-1155540",
    "request_type": "Safety & Permits",
    "request_reason": "Construction permit",
    "date_created": "2024-12-16T15:37:22.000",
    "date_modified": "2024-12-16T15:37:22.000",
    "request_status": "Pending",
    "responsible_agency": "Safety and Permits",
    "final_address": "3912 St Claude Ave",
    "address_councildis": "C",
    "status": "Pending",
    "rowid": "1155540",
    "final_x": "3691570.94256",
    "final_y": "535279.026246",
    "longitude": "-90.03613565701062",
    "latitude": "29.96552207085297",
    "geocoded_column": {
      "latitude": "29.96552207085297",
      "longitude": "-90.03613565701062"
    }
  },
  {
    "service_request": "2024-1155539",
    "request_type": "Trash/Recycling",
    "request_reason": "Request a Large Item Pick Up",
    "date_created": "2024-12-16T15:35:58.000",
    "date_modified": "2024-12-16T15:35:59.000",
    "request_status": "Pending",
    "responsible_agency": "Department of Sanitation",
    "final_address": "5314 St Bernard Ave",
    "address_councildis": "D",
    "status": "Assigned to Contractor",
    "contractor": "IV Waste",
    "rowid": "1155539",
    "final_x": "3676618.26574",
    "final_y": "551514.786517",
    "longitude": "-90.0827960395332",
    "latitude": "30.010621745040865",
    "geocoded_column": {
      "latitude": "30.010621745040865",
      "longitude": "-90.0827960395332"
    }
  },
  {
    "service_request": "2024-1155538",
    "request_type": "Trash/Recycling",
    "request_reason": "Return Trash Cart",
    "date_created": "2024-12-16T15:32:09.000",
    "date_modified": "2024-12-16T15:33:05.000",
    "request_status": "Pending",
    "responsible_agency": "Department of Sanitation",
    "final_address": "4734 Laurel St",
    "address_councildis": "B",
    "status": "Assigned to Contractor",
    "contractor": "IV Waste",
    "rowid": "1155538",
    "final_x": "3669729.38798",
    "final_y": "517865.614646",
    "longitude": "-90.10569971713525",
    "latitude": "29.91830266181609",
    "geocoded_column": {
      "latitude": "29.91830266181609",
      "longitude": "-90.10569971713525"
    }
  },
  {
    "service_request": "2024-1155537",
    "request_type": "Trash/Recycling",
    "request_reason": "Request a Large Item Pick Up",
    "date_created": "2024-12-16T15:29:33.000",
    "date_modified": "2024-12-16T15:29:34.000",
    "request_status": "Pending",
    "responsible_agency": "Department of Sanitation",
    "final_address": "2710 General Pershing St",
    "address_councildis": "B",
    "status": "Assigned to Contractor",
    "contractor": "IV Waste",
    "rowid": "1155537",
    "final_x": "3670776.01076",
    "final_y": "524878.47494",
    "longitude": "-90.10215823838368",
    "latitude": "29.937554908986147",
    "geocoded_column": {
      "latitude": "29.937554908986147",
      "longitude": "-90.10215823838368"
    }
  },
  {
    "service_request": "2024-1155536",
    "request_type": "Trash/Recycling",
    "request_reason": "Request a Large Item Pick Up",
    "date_created": "2024-12-16T15:26:35.000",
    "date_modified": "2024-12-16T15:26:36.000",
    "request_status": "Pending",
    "responsible_agency": "Department of Sanitation",
    "final_address": "2200 Carnot St",
    "address_councildis": "D",
    "status": "Assigned to Contractor",
    "contractor": "IV Waste",
    "rowid": "1155536",
    "final_x": "3684075.29359",
    "final_y": "550039.722196",
    "longitude": "-90.05928826856733",
    "latitude": "30.00633996889089",
    "geocoded_column": {
      "latitude": "30.00633996889089",
      "longitude": "-90.05928826856733"
    }
  },
  {
    "service_request": "2024-1155535",
    "request_type": "Mosquito, Termite & Rodent Control",
    "request_reason": "Rodent Complaint (Rats)",
    "date_created": "2024-12-16T15:24:59.000",
    "date_modified": "2024-12-16T15:25:00.000",
    "request_status": "Pending",
    "responsible_agency": "Mosquito, Termite & Rodent Control Board",
    "final_address": "615 Elmira Ave",
    "address_councildis": "C",
    "status": "Pending",
    "rowid": "1155535",
    "final_x": "3688135.12553",
    "final_y": "529324.086593",
    "longitude": "-90.04719687018054",
    "latitude": "29.949254548934345",
    "geocoded_column": {
      "latitude": "29.949254548934345",
      "longitude": "-90.04719687018054"
    }
  },
  {
    "service_request": "2024-1155534",
    "request_type": "Trash/Recycling",
    "request_reason": "Order Trash Cart",
    "date_created": "2024-12-16T15:23:37.000",
    "date_modified": "2024-12-16T15:23:38.000",
    "request_status": "Pending",
    "responsible_agency": "Department of Sanitation",
    "final_address": "2200 Carnot St",
    "address_councildis": "D",
    "status": "Assigned to Contractor",
    "contractor": "IV Waste",
    "rowid": "1155534",
    "final_x": "3684075.29359",
    "final_y": "550039.722196",
    "longitude": "-90.05928826856733",
    "latitude": "30.00633996889089",
    "geocoded_column": {
      "latitude": "30.00633996889089",
      "longitude": "-90.05928826856733"
    }
  },
  {
    "service_request": "2024-1155533",
    "request_type": "Safety & Permits",
    "request_reason": "Zoning Enforcement",
    "date_created": "2024-12-16T15:22:07.000",
    "date_modified": "2024-12-16T15:22:08.000",
    "request_status": "Pending",
    "responsible_agency": "Safety and Permits",
    "final_address": "8933 Fig St",
    "address_councildis": "A",
    "status": "Pending",
    "rowid": "1155533",
    "final_x": "3664034.18944",
    "final_y": "535257.757446",
    "longitude": "-90.12309665356393",
    "latitude": "29.966292040311775",
    "geocoded_column": {
      "latitude": "29.966292040311775",
      "longitude": "-90.12309665356393"
    }
  },
  {
    "service_request": "2024-1155532",
    "request_type": "Trash/Recycling",
    "request_reason": "Request a Large Item Pick Up",
    "date_created": "2024-12-16T15:21:14.000",
    "date_modified": "2024-12-16T15:21:15.000",
    "request_status": "Pending",
    "responsible_agency": "Department of Sanitation",
    "final_address": "1900 BLK N VillerÃ© St",
    "address_councildis": "C",
    "status": "Assigned to Contractor",
    "contractor": "IV Waste",
    "rowid": "1155532",
    "final_x": "3683964.29148",
    "final_y": "537329.966138",
    "longitude": "-90.06008513119723",
    "latitude": "29.971396037931058",
    "geocoded_column": {
      "latitude": "29.971396037931058",
      "longitude": "-90.06008513119723"
    }
  },
  {
    "service_request": "2024-1155531",
    "request_type": "Trash/Recycling",
    "request_reason": "Request a Large Item Pick Up",
    "date_created": "2024-12-16T15:21:13.000",
    "date_modified": "2024-12-16T15:21:14.000",
    "request_status": "Pending",
    "responsible_agency": "Department of Sanitation",
    "final_address": "5314 St Bernard Ave",
    "address_councildis": "D",
    "status": "Assigned to Contractor",
    "contractor": "IV Waste",
    "rowid": "1155531",
    "final_x": "3676618.26574",
    "final_y": "551514.786517",
    "longitude": "-90.0827960395332",
    "latitude": "30.010621745040865",
    "geocoded_column": {
      "latitude": "30.010621745040865",
      "longitude": "-90.0827960395332"
    }
  },
  {
    "service_request": "2024-1155530",
    "request_type": "Trash/Recycling",
    "request_reason": "Request a Large Item Pick Up",
    "date_created": "2024-12-16T15:20:24.000",
    "date_modified": "2024-12-16T15:20:25.000",
    "request_status": "Pending",
    "responsible_agency": "Department of Sanitation",
    "final_address": "7824 Dorsett Dr",
    "address_councildis": "E",
    "status": "Assigned to Contractor",
    "contractor": "Waste Pro",
    "rowid": "1155530",
    "final_x": "3712371.97093",
    "final_y": "568004.264357",
    "longitude": "-89.96921728108391",
    "latitude": "30.054839866901386",
    "geocoded_column": {
      "latitude": "30.054839866901386",
      "longitude": "-89.96921728108391"
    }
  },
  {
    "service_request": "2024-1155529",
    "request_type": "Trash/Recycling",
    "request_reason": "Order Trash Cart",
    "date_created": "2024-12-16T15:19:07.000",
    "date_modified": "2024-12-16T15:19:08.000",
    "request_status": "Pending",
    "responsible_agency": "Department of Sanitation",
    "final_address": "2433 S Robertson St",
    "address_councildis": "B",
    "status": "Assigned to Contractor",
    "contractor": "IV Waste",
    "rowid": "1155529",
    "final_x": "3674713.9803",
    "final_y": "526111.435902",
    "longitude": "-90.0896835187316",
    "latitude": "29.940828215370026",
    "geocoded_column": {
      "latitude": "29.940828215370026",
      "longitude": "-90.0896835187316"
    }
  },
  {
    "service_request": "2024-1155528",
    "request_type": "Trash/Recycling",
    "request_reason": "Request a Large Item Pick Up",
    "date_created": "2024-12-16T15:18:09.000",
    "date_modified": "2024-12-16T15:18:10.000",
    "request_status": "Pending",
    "responsible_agency": "Department of Sanitation",
    "final_address": "2719 Eagle St",
    "address_councildis": "A",
    "status": "Assigned to Contractor",
    "contractor": "IV Waste",
    "rowid": "1155528",
    "final_x": "3663906.07335",
    "final_y": "534132.162565",
    "longitude": "-90.12353877376006",
    "latitude": "29.96320074399675",
    "geocoded_column": {
      "latitude": "29.96320074399675",
      "longitude": "-90.12353877376006"
    }
  },
  {
    "service_request": "2024-1155527",
    "request_type": "Trash/Recycling",
    "request_reason": "Return Trash Cart",
    "date_created": "2024-12-16T15:17:31.000",
    "date_modified": "2024-12-16T15:17:32.000",
    "request_status": "Pending",
    "responsible_agency": "Department of Sanitation",
    "final_address": "2719 Eagle St",
    "address_councildis": "A",
    "status": "Assigned to Contractor",
    "contractor": "IV Waste",
    "rowid": "1155527",
    "final_x": "3663906.07335",
    "final_y": "534132.162565",
    "longitude": "-90.12353877376006",
    "latitude": "29.96320074399675",
    "geocoded_column": {
      "latitude": "29.96320074399675",
      "longitude": "-90.12353877376006"
    }
  },
  {
    "service_request": "2024-1155526",
    "request_type": "Trash/Recycling",
    "request_reason": "Illegal Dumping",
    "date_created": "2024-12-16T15:15:23.000",
    "date_modified": "2024-12-16T15:15:24.000",
    "request_status": "Pending",
    "responsible_agency": "Department of Sanitation",
    "final_address": "CHEF MENTEUR HWY & WILSON AVE",
    "address_councildis": "E",
    "status": "Pending",
    "rowid": "1155526",
    "final_x": "3703246.7",
    "final_y": "552425.58",
    "longitude": "-89.99863366607299",
    "latitude": "30.012300115548967",
    "geocoded_column": {
      "latitude": "30.012300115548967",
      "longitude": "-89.99863366607299"
    }
  },
  {
    "service_request": "2024-1155525",
    "request_type": "Trash/Recycling",
    "request_reason": "Request a Large Item Pick Up",
    "date_created": "2024-12-16T15:15:16.000",
    "date_modified": "2024-12-16T15:15:17.000",
    "request_status": "Pending",
    "responsible_agency": "Department of Sanitation",
    "final_address": "7759 Alabama St",
    "address_councildis": "D",
    "status": "Assigned to Contractor",
    "contractor": "Waste Pro",
    "rowid": "1155525",
    "final_x": "3694736.23261",
    "final_y": "559207.257372",
    "longitude": "-90.0252772376606",
    "latitude": "30.031216997573104",
    "geocoded_column": {
      "latitude": "30.031216997573104",
      "longitude": "-90.0252772376606"
    }
  },
  {
    "service_request": "2024-1155524",
    "request_type": "Trash/Recycling",
    "request_reason": "Request a Large Item Pick Up",
    "date_created": "2024-12-16T15:13:03.000",
    "date_modified": "2024-12-16T15:13:04.000",
    "request_status": "Pending",
    "responsible_agency": "Department of Sanitation",
    "final_address": "7841 Branch Dr",
    "address_councildis": "E",
    "status": "Assigned to Contractor",
    "contractor": "Waste Pro",
    "rowid": "1155524",
    "final_x": "3714217.54539",
    "final_y": "569458.44151",
    "longitude": "-89.96332892388374",
    "latitude": "30.058777714628157",
    "geocoded_column": {
      "latitude": "30.058777714628157",
      "longitude": "-89.96332892388374"
    }
  },
  {
    "service_request": "2024-1155523",
    "request_type": "Abandoned Vehicles",
    "request_reason": "Abandoned/Junk Vehicles",
    "date_created": "2024-12-16T15:11:39.000",
    "date_modified": "2024-12-16T15:17:03.000",
    "request_status": "Pending",
    "responsible_agency": "Department of Public Works",
    "final_address": "2343 N Claiborne Ave",
    "address_councildis": "D",
    "status": "Pending",
    "rowid": "1155523",
    "final_x": "3686014.57513",
    "final_y": "538270.117385",
    "longitude": "-90.05357689417272",
    "latitude": "29.97391832169293",
    "geocoded_column": {
      "latitude": "29.97391832169293",
      "longitude": "-90.05357689417272"
    }
  },
  {
    "service_request": "2024-1155522",
    "request_type": "Trash/Recycling",
    "request_reason": "Repair Trash Cart",
    "date_created": "2024-12-16T15:11:15.000",
    "date_modified": "2024-12-16T15:11:16.000",
    "request_status": "Pending",
    "responsible_agency": "Department of Sanitation",
    "final_address": "4718 Bundy Rd",
    "address_councildis": "E",
    "status": "Assigned to Contractor",
    "contractor": "Waste Pro",
    "rowid": "1155522",
    "final_x": "3709281.75729",
    "final_y": "555629.194329",
    "longitude": "-89.97944686212111",
    "latitude": "30.02091413824224",
    "geocoded_column": {
      "latitude": "30.02091413824224",
      "longitude": "-89.97944686212111"
    }
  },
  {
    "service_request": "2024-1155521",
    "request_type": "Trash/Recycling",
    "request_reason": "Request a Large Item Pick Up",
    "date_created": "2024-12-16T15:11:07.000",
    "date_modified": "2024-12-16T15:13:17.000",
    "request_status": "Pending",
    "responsible_agency": "Department of Sanitation",
    "final_address": "3631 Washington Ave",
    "address_councildis": "B",
    "status": "Assigned to Contractor",
    "contractor": "IV Waste",
    "rowid": "1155521",
    "final_x": "3671919.97831",
    "final_y": "528657.654208",
    "longitude": "-90.09841805574376",
    "latitude": "29.947912571172594",
    "geocoded_column": {
      "latitude": "29.947912571172594",
      "longitude": "-90.09841805574376"
    }
  },
  {
    "service_request": "2024-1155520",
    "request_type": "Roads and Streets",
    "request_reason": "Sidewalk Damaged or Missing",
    "date_created": "2024-12-16T15:06:40.000",
    "date_modified": "2024-12-16T15:06:41.000",
    "request_status": "Pending",
    "responsible_agency": "Department of Public Works",
    "final_address": "3112 N Roman St",
    "address_councildis": "D",
    "status": "Pending",
    "rowid": "1155520",
    "final_x": "3689792.76656",
    "final_y": "538551.650185",
    "longitude": "-90.04163453888279",
    "latitude": "29.974575867876485",
    "geocoded_column": {
      "latitude": "29.974575867876485",
      "longitude": "-90.04163453888279"
    }
  },
  {
    "service_request": "2024-1155519",
    "request_type": "Trash/Recycling",
    "request_reason": "Repair Trash Cart",
    "date_created": "2024-12-16T15:05:32.000",
    "date_modified": "2024-12-16T15:05:33.000",
    "request_status": "Pending",
    "responsible_agency": "Department of Sanitation",
    "final_address": "921 N Miro St",
    "address_councildis": "D",
    "status": "Assigned to Contractor",
    "contractor": "IV Waste",
    "rowid": "1155519",
    "final_x": "3678648.73947",
    "final_y": "551142.778581",
    "longitude": "-90.07639388268083",
    "latitude": "30.00953776837034",
    "geocoded_column": {
      "latitude": "30.00953776837034",
      "longitude": "-90.07639388268083"
    }
  },
  {
    "service_request": "2024-1155518",
    "request_type": "Trash/Recycling",
    "request_reason": "Order Recycling Cart",
    "date_created": "2024-12-16T15:04:02.000",
    "date_modified": "2024-12-16T15:04:03.000",
    "request_status": "Pending",
    "responsible_agency": "Department of Sanitation",
    "final_address": "921 N Miro St",
    "address_councildis": "D",
    "status": "Pending",
    "rowid": "1155518",
    "final_x": "3678648.73947",
    "final_y": "551142.778581",
    "longitude": "-90.07639388268083",
    "latitude": "30.00953776837034",
    "geocoded_column": {
      "latitude": "30.00953776837034",
      "longitude": "-90.07639388268083"
    }
  },
  {
    "service_request": "2024-1155517",
    "request_type": "Trash/Recycling",
    "request_reason": "Request a Large Item Pick Up",
    "date_created": "2024-12-16T15:03:42.000",
    "date_modified": "2024-12-16T15:03:44.000",
    "request_status": "Pending",
    "responsible_agency": "Department of Sanitation",
    "final_address": "8532 Gervais St",
    "address_councildis": "E",
    "status": "Assigned to Contractor",
    "contractor": "Waste Pro",
    "rowid": "1155517",
    "final_x": "3703832.67882",
    "final_y": "562632.84176",
    "longitude": "-89.99640604467133",
    "latitude": "30.04034734816663",
    "geocoded_column": {
      "latitude": "30.04034734816663",
      "longitude": "-89.99640604467133"
    }
  },
  {
    "service_request": "2024-1155516",
    "request_type": "Trash/Recycling",
    "request_reason": "Repair Trash Cart",
    "date_created": "2024-12-16T15:01:53.000",
    "date_modified": "2024-12-16T15:01:54.000",
    "request_status": "Pending",
    "responsible_agency": "Department of Sanitation",
    "final_address": "4527 Canal St",
    "address_councildis": "A",
    "status": "Assigned to Contractor",
    "contractor": "IV Waste",
    "rowid": "1155516",
    "final_x": "3669613.97569",
    "final_y": "539672.959818",
    "longitude": "-90.10532631135428",
    "latitude": "29.978269136731186",
    "geocoded_column": {
      "latitude": "29.978269136731186",
      "longitude": "-90.10532631135428"
    }
  },
  {
    "service_request": "2024-1155515",
    "request_type": "Trash/Recycling",
    "request_reason": "Request a Large Item Pick Up",
    "date_created": "2024-12-16T14:59:09.000",
    "date_modified": "2024-12-16T14:59:10.000",
    "request_status": "Pending",
    "responsible_agency": "Department of Sanitation",
    "final_address": "7001 Whitmore Pl",
    "address_councildis": "E",
    "status": "Assigned to Contractor",
    "contractor": "Waste Pro",
    "rowid": "1155515",
    "final_x": "3719152.76735",
    "final_y": "569130.47959",
    "longitude": "-89.94774185911365",
    "latitude": "30.05771278555479",
    "geocoded_column": {
      "latitude": "30.05771278555479",
      "longitude": "-89.94774185911365"
    }
  },
  {
    "service_request": "2024-1155514",
    "request_type": "Trash/Recycling",
    "request_reason": "Replace Trash Cart",
    "date_created": "2024-12-16T14:58:34.000",
    "date_modified": "2024-12-16T14:58:35.000",
    "request_status": "Pending",
    "responsible_agency": "Department of Sanitation",
    "final_address": "1619 Cambronne St",
    "address_councildis": "A",
    "status": "Assigned to Contractor",
    "contractor": "IV Waste",
    "rowid": "1155514",
    "final_x": "3662269.75482",
    "final_y": "530249.122049",
    "longitude": "-90.12883500276519",
    "latitude": "29.952571044948332",
    "geocoded_column": {
      "latitude": "29.952571044948332",
      "longitude": "-90.12883500276519"
    }
  },
  {
    "service_request": "2024-1155513",
    "request_type": "Trash/Recycling",
    "request_reason": "Request a Large Item Pick Up",
    "date_created": "2024-12-16T14:56:17.000",
    "date_modified": "2024-12-16T14:56:18.000",
    "request_status": "Pending",
    "responsible_agency": "Department of Sanitation",
    "final_address": "10740 Dwyer Rd",
    "address_councildis": "E",
    "status": "Assigned to Contractor",
    "contractor": "Waste Pro",
    "rowid": "1155513",
    "final_x": "3715190.35275",
    "final_y": "558247.877532",
    "longitude": "-89.96067849876772",
    "latitude": "30.027921191897622",
    "geocoded_column": {
      "latitude": "30.027921191897622",
      "longitude": "-89.96067849876772"
    }
  },
  {
    "service_request": "2024-1155512",
    "request_type": "Trash/Recycling",
    "request_reason": "Repair Trash Cart",
    "date_created": "2024-12-16T14:55:50.000",
    "date_modified": "2024-12-16T14:55:51.000",
    "request_status": "Pending",
    "responsible_agency": "Department of Sanitation",
    "final_address": "4828 Camelot Dr",
    "address_councildis": "E",
    "status": "Assigned to Contractor",
    "contractor": "Waste Pro",
    "rowid": "1155512",
    "final_x": "3708234.72152",
    "final_y": "556236.499546",
    "longitude": "-89.98273254449542",
    "latitude": "30.022617966295506",
    "geocoded_column": {
      "latitude": "30.022617966295506",
      "longitude": "-89.98273254449542"
    }
  },
  {
    "service_request": "2024-1155511",
    "request_type": "Parks & Parkways",
    "request_reason": "Request Tree Service (Right of Way/Public Property)",
    "date_created": "2024-12-16T14:54:03.000",
    "date_modified": "2024-12-16T14:54:04.000",
    "request_status": "Pending",
    "responsible_agency": "Department of Parks & Parkway",
    "final_address": "4828 Camelot Dr",
    "address_councildis": "E",
    "status": "Pending",
    "rowid": "1155511",
    "final_x": "3708234.72152",
    "final_y": "556236.499546",
    "longitude": "-89.98273254449542",
    "latitude": "30.022617966295506",
    "geocoded_column": {
      "latitude": "30.022617966295506",
      "longitude": "-89.98273254449542"
    }
  },
  {
    "service_request": "2024-1155510",
    "request_type": "Trash/Recycling",
    "request_reason": "Repair Trash Cart",
    "date_created": "2024-12-16T14:51:53.000",
    "date_modified": "2024-12-16T14:51:54.000",
    "request_status": "Pending",
    "responsible_agency": "Department of Sanitation",
    "final_address": "3337 Republic St",
    "address_councildis": "D",
    "status": "Assigned to Contractor",
    "contractor": "IV Waste",
    "rowid": "1155510",
    "final_x": "3680563.83119",
    "final_y": "544783.764879",
    "longitude": "-90.07056484337238",
    "latitude": "29.99199484490607",
    "geocoded_column": {
      "latitude": "29.99199484490607",
      "longitude": "-90.07056484337238"
    }
  },
  {
    "service_request": "2024-1155509",
    "request_type": "Trash/Recycling",
    "request_reason": "Request a Large Item Pick Up",
    "date_created": "2024-12-16T14:50:27.000",
    "date_modified": "2024-12-16T14:50:28.000",
    "request_status": "Pending",
    "responsible_agency": "Department of Sanitation",
    "final_address": "7910 Sheephead St",
    "address_councildis": "E",
    "status": "Assigned to Contractor",
    "contractor": "Waste Pro",
    "rowid": "1155509",
    "final_x": "3699266.87204",
    "final_y": "561128.836382",
    "longitude": "-90.01089025446718",
    "latitude": "30.03635760648067",
    "geocoded_column": {
      "latitude": "30.03635760648067",
      "longitude": "-90.01089025446718"
    }
  },
  {
    "service_request": "2024-1155508",
    "request_type": "Trash/Recycling",
    "request_reason": "Request a Large Item Pick Up",
    "date_created": "2024-12-16T14:49:00.000",
    "date_modified": "2024-12-16T14:49:01.000",
    "request_status": "Pending",
    "responsible_agency": "Department of Sanitation",
    "final_address": "5314 Baccich St",
    "address_councildis": "D",
    "status": "Assigned to Contractor",
    "contractor": "IV Waste",
    "rowid": "1155508",
    "final_x": "3687532.69065",
    "final_y": "552445.907094",
    "longitude": "-90.04828026359323",
    "latitude": "30.01284994067202",
    "geocoded_column": {
      "latitude": "30.01284994067202",
      "longitude": "-90.04828026359323"
    }
  },
  {
    "service_request": "2024-1155507",
    "request_type": "Streetlights",
    "request_reason": "Streetlight Outage/Malfunction",
    "date_created": "2024-12-16T14:48:44.000",
    "date_modified": "2024-12-16T14:48:45.000",
    "request_status": "Pending",
    "responsible_agency": "Department of Public Works",
    "final_address": "7111 Ridgefield Dr",
    "address_councildis": "E",
    "status": "Pending",
    "contractor": "Legacy Professional Services",
    "rowid": "1155507",
    "final_x": "3719232.63423",
    "final_y": "569922.416614",
    "longitude": "-89.94745913707105",
    "latitude": "30.059887626938405",
    "geocoded_column": {
      "latitude": "30.059887626938405",
      "longitude": "-89.94745913707105"
    }
  },
  {
    "service_request": "2024-1155506",
    "request_type": "Trash/Recycling",
    "request_reason": "Replace Trash Cart",
    "date_created": "2024-12-16T14:45:49.000",
    "date_modified": "2024-12-16T14:45:49.000",
    "request_status": "Pending",
    "responsible_agency": "Department of Sanitation",
    "final_address": "2529 Acacia Street, New Orleans 70122",
    "address_councildis": "D",
    "status": "Assigned to Contractor",
    "contractor": "IV Waste",
    "rowid": "1155506",
    "final_x": "3686638.64393",
    "final_y": "546358.421264",
    "longitude": "-90.05132014634921",
    "latitude": "29.996139105151634",
    "geocoded_column": {
      "latitude": "29.996139105151634",
      "longitude": "-90.05132014634921"
    }
  },
  {
    "service_request": "2024-1155505",
    "request_type": "Trash/Recycling",
    "request_reason": "Request a Large Item Pick Up",
    "date_created": "2024-12-16T14:42:31.000",
    "date_modified": "2024-12-16T14:42:32.000",
    "request_status": "Pending",
    "responsible_agency": "Department of Sanitation",
    "final_address": "4721 Painters St",
    "address_councildis": "D",
    "status": "Assigned to Contractor",
    "contractor": "IV Waste",
    "rowid": "1155505",
    "final_x": "3686307.10095",
    "final_y": "550404.147348",
    "longitude": "-90.05222457536249",
    "latitude": "30.007273583826304",
    "geocoded_column": {
      "latitude": "30.007273583826304",
      "longitude": "-90.05222457536249"
    }
  },
  {
    "service_request": "2024-1155504",
    "request_type": "Trash/Recycling",
    "request_reason": "Request a Large Item Pick Up",
    "date_created": "2024-12-16T14:39:15.000",
    "date_modified": "2024-12-16T14:39:17.000",
    "request_status": "Pending",
    "responsible_agency": "Department of Sanitation",
    "final_address": "5831 Brighton Pl",
    "address_councildis": "C",
    "status": "Assigned to Contractor",
    "contractor": "Richards Disposal",
    "rowid": "1155504",
    "final_x": "3705194.07966",
    "final_y": "520029.286392",
    "longitude": "-89.99367775578419",
    "latitude": "29.923159602078485",
    "geocoded_column": {
      "latitude": "29.923159602078485",
      "longitude": "-89.99367775578419"
    }
  },
  {
    "service_request": "2024-1155503",
    "request_type": "Roads and Streets",
    "request_reason": "Street Subsidence (Sinking)",
    "date_created": "2024-12-16T14:39:06.000",
    "date_modified": "2024-12-16T14:40:39.000",
    "request_status": "Pending",
    "responsible_agency": "Department of Public Works",
    "final_address": "5609 Dauphine St",
    "address_councildis": "E",
    "status": "Pending",
    "rowid": "1155503",
    "final_x": "3697844.45975",
    "final_y": "532633.762116",
    "longitude": "-90.01642028043021",
    "latitude": "29.958051757392607",
    "geocoded_column": {
      "latitude": "29.958051757392607",
      "longitude": "-90.01642028043021"
    }
  },
  {
    "service_request": "2024-1155502",
    "request_type": "Trash/Recycling",
    "request_reason": "Replace Trash Cart",
    "date_created": "2024-12-16T14:34:45.000",
    "date_modified": "2024-12-16T14:34:46.000",
    "request_status": "Pending",
    "responsible_agency": "Department of Sanitation",
    "final_address": "3400 Pleasure St",
    "address_councildis": "D",
    "status": "Assigned to Contractor",
    "contractor": "IV Waste",
    "rowid": "1155502",
    "final_x": "3692473.86352",
    "final_y": "544707.354255",
    "longitude": "-90.03294638256583",
    "latitude": "29.99141846522705",
    "geocoded_column": {
      "latitude": "29.99141846522705",
      "longitude": "-90.03294638256583"
    }
  },
  {
    "service_request": "2024-1155501",
    "request_type": "Drainage",
    "request_reason": "Catch Basin Clogged",
    "date_created": "2024-12-16T14:33:40.000",
    "date_modified": "2024-12-16T14:33:41.000",
    "request_status": "Pending",
    "responsible_agency": "Department of Public Works",
    "final_address": "2235 Easter Ln",
    "address_councildis": "C",
    "status": "Pending",
    "rowid": "1155501",
    "final_x": "3699189.4833",
    "final_y": "522948.767547",
    "longitude": "-90.0125256209518",
    "latitude": "29.93137883978189",
    "geocoded_column": {
      "latitude": "29.93137883978189",
      "longitude": "-90.0125256209518"
    }
  },
  {
    "service_request": "2024-1155500",
    "request_type": "Trash/Recycling",
    "request_reason": "Replace Recycling Cart",
    "date_created": "2024-12-16T14:32:08.000",
    "date_modified": "2024-12-16T14:32:08.000",
    "request_status": "Pending",
    "responsible_agency": "Department of Sanitation",
    "final_address": "1627 Paul Morphy St",
    "address_councildis": "D",
    "status": "Pending",
    "rowid": "1155500",
    "final_x": "3678913.74018",
    "final_y": "540606.260747",
    "longitude": "-90.07592195115633",
    "latitude": "29.980558065533227",
    "geocoded_column": {
      "latitude": "29.980558065533227",
      "longitude": "-90.07592195115633"
    }
  },
  {
    "service_request": "2024-1155499",
    "request_type": "Trash/Recycling",
    "request_reason": "Request a Large Item Pick Up",
    "date_created": "2024-12-16T14:30:58.000",
    "date_modified": "2024-12-16T14:31:00.000",
    "request_status": "Pending",
    "responsible_agency": "Department of Sanitation",
    "final_address": "4815 Magazine St",
    "address_councildis": "B",
    "status": "Assigned to Contractor",
    "contractor": "IV Waste",
    "rowid": "1155499",
    "final_x": "3669422.22586",
    "final_y": "518673.249591",
    "longitude": "-90.10664197448828",
    "latitude": "29.9205324481128",
    "geocoded_column": {
      "latitude": "29.9205324481128",
      "longitude": "-90.10664197448828"
    }
  },
  {
    "service_request": "2024-1155498",
    "request_type": "Drainage",
    "request_reason": "Catch Basin Damaged",
    "date_created": "2024-12-16T14:30:11.000",
    "date_modified": "2024-12-16T14:30:12.000",
    "request_status": "Pending",
    "responsible_agency": "Department of Public Works",
    "final_address": "5919 Morrison Rd",
    "address_councildis": "D",
    "status": "Pending",
    "rowid": "1155498",
    "final_x": "3695355.44778",
    "final_y": "557660.549339",
    "longitude": "-90.02337638113504",
    "latitude": "30.026944689332144",
    "geocoded_column": {
      "latitude": "30.026944689332144",
      "longitude": "-90.02337638113504"
    }
  },
  {
    "service_request": "2024-1155497",
    "request_type": "Abandoned Vehicles",
    "request_reason": "Abandoned/Junk Vehicles",
    "date_created": "2024-12-16T14:29:27.000",
    "date_modified": "2024-12-16T14:29:28.000",
    "request_status": "Pending",
    "responsible_agency": "Department of Public Works",
    "final_address": "10321 Chevy Chase Dr",
    "address_councildis": "E",
    "status": "Pending",
    "rowid": "1155497",
    "final_x": "3710298.56459",
    "final_y": "563471.784864",
    "longitude": "-89.97594052300386",
    "latitude": "30.04244508473971",
    "geocoded_column": {
      "latitude": "30.04244508473971",
      "longitude": "-89.97594052300386"
    }
  },
  {
    "service_request": "2024-1155496",
    "request_type": "Drainage",
    "request_reason": "Street Flooding",
    "date_created": "2024-12-16T14:29:17.000",
    "date_modified": "2024-12-16T14:29:17.000",
    "request_status": "Pending",
    "responsible_agency": "Department of Public Works",
    "final_address": "9436 Palm St",
    "address_councildis": "A",
    "status": "Pending",
    "rowid": "1155496",
    "final_x": "3664079.97972",
    "final_y": "537938.474761",
    "longitude": "-90.12286261637621",
    "latitude": "29.973661797147958",
    "geocoded_column": {
      "latitude": "29.973661797147958",
      "longitude": "-90.12286261637621"
    }
  },
  {
    "service_request": "2024-1155495",
    "request_type": "Trash/Recycling",
    "request_reason": "Replace Trash Cart",
    "date_created": "2024-12-16T14:29:15.000",
    "date_modified": "2024-12-16T14:29:16.000",
    "request_status": "Pending",
    "responsible_agency": "Department of Sanitation",
    "final_address": "1718 Erie St",
    "address_councildis": "C",
    "status": "Assigned to Contractor",
    "contractor": "Richards Disposal",
    "rowid": "1155495",
    "final_x": "3690410.78121",
    "final_y": "522308.532602",
    "longitude": "-90.04026161718977",
    "latitude": "29.92989373470203",
    "geocoded_column": {
      "latitude": "29.92989373470203",
      "longitude": "-90.04026161718977"
    }
  },
  {
    "service_request": "2024-1155494",
    "request_type": "Trash/Recycling",
    "request_reason": "Replace Trash Cart",
    "date_created": "2024-12-16T14:28:40.000",
    "date_modified": "2024-12-16T14:28:40.000",
    "request_status": "Pending",
    "responsible_agency": "Department of Sanitation",
    "final_address": "1718 Erie St",
    "address_councildis": "C",
    "status": "Assigned to Contractor",
    "contractor": "Richards Disposal",
    "rowid": "1155494",
    "final_x": "3690410.78121",
    "final_y": "522308.532602",
    "longitude": "-90.04026161718977",
    "latitude": "29.92989373470203",
    "geocoded_column": {
      "latitude": "29.92989373470203",
      "longitude": "-90.04026161718977"
    }
  },
  {
    "service_request": "2024-1155493",
    "request_type": "Trash/Recycling",
    "request_reason": "Replace Trash Cart",
    "date_created": "2024-12-16T14:27:13.000",
    "date_modified": "2024-12-16T14:27:14.000",
    "request_status": "Pending",
    "responsible_agency": "Department of Sanitation",
    "final_address": "400 BLK N Claiborne Ave",
    "address_councildis": "B",
    "status": "Assigned to Contractor",
    "contractor": "IV Waste",
    "rowid": "1155493",
    "final_x": "3679146.42415",
    "final_y": "533883.176772",
    "longitude": "-90.07542014750857",
    "latitude": "29.962064869567975",
    "geocoded_column": {
      "latitude": "29.962064869567975",
      "longitude": "-90.07542014750857"
    }
  },
  {
    "service_request": "2024-1155492",
    "request_type": "Trash/Recycling",
    "request_reason": "Request a Large Item Pick Up",
    "date_created": "2024-12-16T14:26:22.000",
    "date_modified": "2024-12-16T14:26:23.000",
    "request_status": "Pending",
    "responsible_agency": "Department of Sanitation",
    "final_address": "7420 Camberley Dr",
    "address_councildis": "E",
    "status": "Assigned to Contractor",
    "contractor": "Waste Pro",
    "rowid": "1155492",
    "final_x": "3712731.11678",
    "final_y": "565502.363042",
    "longitude": "-89.9681763252542",
    "latitude": "30.047948895172297",
    "geocoded_column": {
      "latitude": "30.047948895172297",
      "longitude": "-89.9681763252542"
    }
  },
  {
    "service_request": "2024-1155491",
    "request_type": "Street and Traffic Signs",
    "request_reason": "Stop Sign Missing or Damaged",
    "date_created": "2024-12-16T14:26:15.000",
    "date_modified": "2024-12-16T14:26:16.000",
    "request_status": "Pending",
    "responsible_agency": "Department of Public Works",
    "final_address": "N PRIEUR ST & TOURO ST",
    "address_councildis": "D",
    "status": "Pending",
    "rowid": "1155491",
    "final_x": "3683995.9",
    "final_y": "539190.38",
    "longitude": "-90.05992001114201",
    "latitude": "29.97651056209029",
    "geocoded_column": {
      "latitude": "29.97651056209029",
      "longitude": "-90.05992001114201"
    }
  },
  {
    "service_request": "2024-1155490",
    "request_type": "Trash/Recycling",
    "request_reason": "Repair Trash Cart",
    "date_created": "2024-12-16T14:25:37.000",
    "date_modified": "2024-12-16T14:25:38.000",
    "request_status": "Pending",
    "responsible_agency": "Department of Sanitation",
    "final_address": "4120 General Pershing St",
    "address_councildis": "B",
    "status": "Assigned to Contractor",
    "contractor": "IV Waste",
    "rowid": "1155490",
    "final_x": "3669985.60756",
    "final_y": "529323.842561",
    "longitude": "-90.10450309704451",
    "latitude": "29.94980155303426",
    "geocoded_column": {
      "latitude": "29.94980155303426",
      "longitude": "-90.10450309704451"
    }
  },
  {
    "service_request": "2024-1155489",
    "request_type": "Drainage",
    "request_reason": "Street Flooding",
    "date_created": "2024-12-16T14:25:20.000",
    "date_modified": "2024-12-16T14:25:20.000",
    "request_status": "Pending",
    "responsible_agency": "Department of Public Works",
    "final_address": "9436 Palm St",
    "address_councildis": "A",
    "status": "Pending",
    "rowid": "1155489",
    "final_x": "3664079.97972",
    "final_y": "537938.474761",
    "longitude": "-90.12286261637621",
    "latitude": "29.973661797147958",
    "geocoded_column": {
      "latitude": "29.973661797147958",
      "longitude": "-90.12286261637621"
    }
  },
  {
    "service_request": "2024-1155488",
    "request_type": "Trash/Recycling",
    "request_reason": "Order Recycling Cart",
    "date_created": "2024-12-16T14:24:48.000",
    "date_modified": "2024-12-16T14:24:49.000",
    "request_status": "Pending",
    "responsible_agency": "Department of Sanitation",
    "final_address": "6310 Pandora St",
    "address_councildis": "D",
    "status": "Pending",
    "rowid": "1155488",
    "final_x": "3696824.49667",
    "final_y": "557263.729243",
    "longitude": "-90.01874874124934",
    "latitude": "30.025807324753462",
    "geocoded_column": {
      "latitude": "30.025807324753462",
      "longitude": "-90.01874874124934"
    }
  },
  {
    "service_request": "2024-1155487",
    "request_type": "Trash/Recycling",
    "request_reason": "Order Trash Cart",
    "date_created": "2024-12-16T14:24:27.000",
    "date_modified": "2024-12-16T14:24:28.000",
    "request_status": "Pending",
    "responsible_agency": "Department of Sanitation",
    "final_address": "6310 Pandora St",
    "address_councildis": "D",
    "status": "Assigned to Contractor",
    "contractor": "Waste Pro",
    "rowid": "1155487",
    "final_x": "3696824.49667",
    "final_y": "557263.729243",
    "longitude": "-90.01874874124934",
    "latitude": "30.025807324753462",
    "geocoded_column": {
      "latitude": "30.025807324753462",
      "longitude": "-90.01874874124934"
    }
  },
  {
    "service_request": "2024-1155486",
    "request_type": "Trash/Recycling",
    "request_reason": "Illegal Dumping",
    "date_created": "2024-12-16T14:24:00.000",
    "date_modified": "2024-12-16T14:24:01.000",
    "request_status": "Pending",
    "responsible_agency": "Department of Sanitation",
    "final_address": "607 Lang St",
    "address_councildis": "C",
    "status": "Pending",
    "rowid": "1155486",
    "final_x": "3702005.96106",
    "final_y": "520722.266937",
    "longitude": "-90.0037159709561",
    "latitude": "29.92516716499408",
    "geocoded_column": {
      "latitude": "29.92516716499408",
      "longitude": "-90.0037159709561"
    }
  },
  {
    "service_request": "2024-1155485",
    "request_type": "Trash/Recycling",
    "request_reason": "Repair Recycling Cart",
    "date_created": "2024-12-16T14:20:15.000",
    "date_modified": "2024-12-16T14:20:17.000",
    "request_status": "Pending",
    "responsible_agency": "Department of Sanitation",
    "final_address": "5011 Dreux Ave",
    "address_councildis": "D",
    "status": "Pending",
    "rowid": "1155485",
    "final_x": "3691940.28771",
    "final_y": "553448.476887",
    "longitude": "-90.03431880044442",
    "latitude": "30.01546998126646",
    "geocoded_column": {
      "latitude": "30.01546998126646",
      "longitude": "-90.03431880044442"
    }
  },
  {
    "service_request": "2024-1155484",
    "request_type": "Abandoned Vehicles",
    "request_reason": "Abandoned/Junk Vehicles",
    "date_created": "2024-12-16T14:19:43.000",
    "date_modified": "2024-12-16T14:22:27.000",
    "request_status": "Pending",
    "responsible_agency": "Department of Public Works",
    "final_address": "7420 Weaver Ave",
    "address_councildis": "E",
    "status": "Pending",
    "rowid": "1155484",
    "final_x": "3707672.86104",
    "final_y": "563803.377441",
    "longitude": "-89.98422636662515",
    "latitude": "30.043442097015465",
    "geocoded_column": {
      "latitude": "30.043442097015465",
      "longitude": "-89.98422636662515"
    }
  },
  {
    "service_request": "2024-1155483",
    "request_type": "Drainage",
    "request_reason": "Street Flooding",
    "date_created": "2024-12-16T14:19:04.000",
    "date_modified": "2024-12-16T14:19:04.000",
    "request_status": "Pending",
    "responsible_agency": "Department of Public Works",
    "final_address": "9436 Palm St",
    "address_councildis": "A",
    "status": "Pending",
    "rowid": "1155483",
    "final_x": "3664079.97972",
    "final_y": "537938.474761",
    "longitude": "-90.12286261637621",
    "latitude": "29.973661797147958",
    "geocoded_column": {
      "latitude": "29.973661797147958",
      "longitude": "-90.12286261637621"
    }
  },
  {
    "service_request": "2024-1155482",
    "request_type": "Abandoned Vehicles",
    "request_reason": "Abandoned/Junk Vehicles",
    "date_created": "2024-12-16T14:17:24.000",
    "date_modified": "2024-12-16T14:17:24.000",
    "request_status": "Pending",
    "responsible_agency": "Department of Public Works",
    "final_address": "7246 Downman Rd",
    "address_councildis": "D",
    "status": "Pending",
    "rowid": "1155482",
    "final_x": "3694923.59658",
    "final_y": "557175.614683",
    "longitude": "-90.02475848179233",
    "latitude": "30.0256248711551",
    "geocoded_column": {
      "latitude": "30.0256248711551",
      "longitude": "-90.02475848179233"
    }
  },
  {
    "service_request": "2024-1155481",
    "request_type": "Property Maintenance",
    "request_reason": "Property Maintenance",
    "date_created": "2024-12-16T14:16:41.000",
    "date_modified": "2024-12-16T14:18:12.000",
    "request_status": "Pending",
    "responsible_agency": "Department of Code Enforcement",
    "final_address": "830 Deslonde St",
    "address_councildis": "E",
    "status": "Pending",
    "rowid": "1155481",
    "final_x": "3695096.40342",
    "final_y": "533527.162116",
    "longitude": "-90.02506562237743",
    "latitude": "29.960594850123556",
    "geocoded_column": {
      "latitude": "29.960594850123556",
      "longitude": "-90.02506562237743"
    }
  },
  {
    "service_request": "2024-1155480",
    "request_type": "Drainage",
    "request_reason": "Catch Basin Clogged",
    "date_created": "2024-12-16T14:15:35.000",
    "date_modified": "2024-12-16T14:15:35.000",
    "request_status": "Pending",
    "responsible_agency": "Department of Public Works",
    "final_address": "1916 Prytania St",
    "address_councildis": "B",
    "status": "Pending",
    "rowid": "1155480",
    "final_x": "3678633.12104",
    "final_y": "523782.865275",
    "longitude": "-90.07739068110115",
    "latitude": "29.93430787045944",
    "geocoded_column": {
      "latitude": "29.93430787045944",
      "longitude": "-90.07739068110115"
    }
  },
  {
    "service_request": "2024-1155479",
    "request_type": "Trash/Recycling",
    "request_reason": "Request a Large Item Pick Up",
    "date_created": "2024-12-16T14:13:20.000",
    "date_modified": "2024-12-16T14:14:45.000",
    "request_status": "Pending",
    "responsible_agency": "Department of Sanitation",
    "final_address": "1443 Alvar St",
    "address_councildis": "D",
    "status": "Assigned to Contractor",
    "contractor": "IV Waste",
    "rowid": "1155479",
    "final_x": "3691896.84572",
    "final_y": "536821.789384",
    "longitude": "-90.03505127144199",
    "latitude": "29.969753976538588",
    "geocoded_column": {
      "latitude": "29.969753976538588",
      "longitude": "-90.03505127144199"
    }
  },
  {
    "service_request": "2024-1155478",
    "request_type": "Abandoned Vehicles",
    "request_reason": "Abandoned/Junk Vehicles",
    "date_created": "2024-12-16T14:11:44.000",
    "date_modified": "2024-12-16T14:13:27.000",
    "request_status": "Pending",
    "responsible_agency": "Department of Public Works",
    "final_address": "3056 Sullen Pl",
    "address_councildis": "C",
    "status": "Pending",
    "rowid": "1155478",
    "final_x": "3707865.90008",
    "final_y": "519274.071799",
    "longitude": "-89.98527196384441",
    "latitude": "29.92099686280827",
    "geocoded_column": {
      "latitude": "29.92099686280827",
      "longitude": "-89.98527196384441"
    }
  },
  {
    "service_request": "2024-1155477",
    "request_type": "Abandoned Vehicles",
    "request_reason": "Abandoned/Junk Vehicles",
    "date_created": "2024-12-16T14:09:57.000",
    "date_modified": "2024-12-16T14:09:58.000",
    "request_status": "Pending",
    "responsible_agency": "Department of Public Works",
    "final_address": "1330 Port St",
    "address_councildis": "C",
    "status": "Pending",
    "rowid": "1155477",
    "final_x": "3687643.41718",
    "final_y": "537377.379592",
    "longitude": "-90.04846427670591",
    "latitude": "29.97141348364691",
    "geocoded_column": {
      "latitude": "29.97141348364691",
      "longitude": "-90.04846427670591"
    }
  },
  {
    "service_request": "2024-1155476",
    "request_type": "Trash/Recycling",
    "request_reason": "Order Trash Cart",
    "date_created": "2024-12-16T14:09:37.000",
    "date_modified": "2024-12-16T14:09:38.000",
    "request_status": "Pending",
    "responsible_agency": "Department of Sanitation",
    "final_address": "2524 Alvar St",
    "address_councildis": "D",
    "status": "Assigned to Contractor",
    "contractor": "IV Waste",
    "rowid": "1155476",
    "final_x": "3692824.85616",
    "final_y": "540983.065803",
    "longitude": "-90.03197128872304",
    "latitude": "29.981167058666642",
    "geocoded_column": {
      "latitude": "29.981167058666642",
      "longitude": "-90.03197128872304"
    }
  },
  {
    "service_request": "2024-1155475",
    "request_type": "Trash/Recycling",
    "request_reason": "Replace Recycling Cart",
    "date_created": "2024-12-16T14:08:53.000",
    "date_modified": "2024-12-16T14:08:53.000",
    "request_status": "Pending",
    "responsible_agency": "Department of Sanitation",
    "final_address": "1829 Fourth St",
    "address_councildis": "B",
    "status": "Pending",
    "rowid": "1155475",
    "final_x": "3675667.23169",
    "final_y": "523553.791355",
    "longitude": "-90.08676178126679",
    "latitude": "29.933767047150177",
    "geocoded_column": {
      "latitude": "29.933767047150177",
      "longitude": "-90.08676178126679"
    }
  },
  {
    "service_request": "2024-1155474",
    "request_type": "Trash/Recycling",
    "request_reason": "Order Recycling Cart",
    "date_created": "2024-12-16T14:04:54.000",
    "date_modified": "2024-12-16T14:04:55.000",
    "request_status": "Pending",
    "responsible_agency": "Department of Sanitation",
    "final_address": "3421 Delachaise St",
    "address_councildis": "B",
    "status": "Pending",
    "rowid": "1155474",
    "final_x": "3671465.19291",
    "final_y": "527580.572159",
    "longitude": "-90.09989060628563",
    "latitude": "29.944964417495108",
    "geocoded_column": {
      "latitude": "29.944964417495108",
      "longitude": "-90.09989060628563"
    }
  },
  {
    "service_request": "2024-1155473",
    "request_type": "Trash/Recycling",
    "request_reason": "Request a Large Item Pick Up",
    "date_created": "2024-12-16T14:04:33.000",
    "date_modified": "2024-12-16T14:04:34.000",
    "request_status": "Pending",
    "responsible_agency": "Department of Sanitation",
    "final_address": "919 Hillary St",
    "address_councildis": "A",
    "status": "Assigned to Contractor",
    "contractor": "IV Waste",
    "rowid": "1155473",
    "final_x": "3662725.70989",
    "final_y": "526479.96947",
    "longitude": "-90.12752053799923",
    "latitude": "29.942193897042703",
    "geocoded_column": {
      "latitude": "29.942193897042703",
      "longitude": "-90.12752053799923"
    }
  },
  {
    "service_request": "2024-1155472",
    "request_type": "Trash/Recycling",
    "request_reason": "Request a Large Item Pick Up",
    "date_created": "2024-12-16T14:03:25.000",
    "date_modified": "2024-12-16T14:03:26.000",
    "request_status": "Pending",
    "responsible_agency": "Department of Sanitation",
    "final_address": "919 Hillary St",
    "address_councildis": "A",
    "status": "Assigned to Contractor",
    "contractor": "IV Waste",
    "rowid": "1155472",
    "final_x": "3662725.70989",
    "final_y": "526479.96947",
    "longitude": "-90.12752053799923",
    "latitude": "29.942193897042703",
    "geocoded_column": {
      "latitude": "29.942193897042703",
      "longitude": "-90.12752053799923"
    }
  },
  {
    "service_request": "2024-1155471",
    "request_type": "Abandoned Vehicles",
    "request_reason": "Abandoned/Junk Vehicles",
    "date_created": "2024-12-16T14:01:15.000",
    "date_modified": "2024-12-16T14:01:15.000",
    "request_status": "Pending",
    "responsible_agency": "Department of Public Works",
    "final_address": "503 S Scott St",
    "address_councildis": "B",
    "status": "Pending",
    "rowid": "1155471",
    "final_x": "3670732.11937",
    "final_y": "536541.680775",
    "longitude": "-90.10190108593605",
    "latitude": "29.969626178680322",
    "geocoded_column": {
      "latitude": "29.969626178680322",
      "longitude": "-90.10190108593605"
    }
  },
  {
    "service_request": "2024-1155470",
    "request_type": "Drainage",
    "request_reason": "Ditch and Culvert Maintenance",
    "date_created": "2024-12-16T14:00:04.000",
    "date_modified": "2024-12-16T14:00:04.000",
    "request_status": "Pending",
    "responsible_agency": "Department of Public Works",
    "final_address": "3800 BLK General Meyer Ave",
    "address_councildis": "C",
    "status": "Pending",
    "rowid": "1155470",
    "final_x": "3698227.17864",
    "final_y": "525123.51811",
    "longitude": "-90.01548452038651",
    "latitude": "29.937389118021596",
    "geocoded_column": {
      "latitude": "29.937389118021596",
      "longitude": "-90.01548452038651"
    }
  },
  {
    "service_request": "2024-1155469",
    "request_type": "Health Related Request",
    "request_reason": "Noise Ordinance Complaint",
    "date_created": "2024-12-16T13:58:51.000",
    "date_modified": "2024-12-16T13:58:52.000",
    "request_status": "Pending",
    "responsible_agency": "Health Department",
    "final_address": "1507 Napoleon Ave",
    "address_councildis": "B",
    "status": "Pending",
    "rowid": "1155469",
    "final_x": "3670965.18817",
    "final_y": "520661.853625",
    "longitude": "-90.10170407882987",
    "latitude": "29.925954965627486",
    "geocoded_column": {
      "latitude": "29.925954965627486",
      "longitude": "-90.10170407882987"
    }
  },
  {
    "service_request": "2024-1155468",
    "request_type": "Abandoned Vehicles",
    "request_reason": "Abandoned/Junk Vehicles",
    "date_created": "2024-12-16T13:58:47.000",
    "date_modified": "2024-12-16T13:58:47.000",
    "request_status": "Pending",
    "responsible_agency": "Department of Public Works",
    "final_address": "503 S Scott St",
    "address_councildis": "B",
    "status": "Pending",
    "rowid": "1155468",
    "final_x": "3670732.11937",
    "final_y": "536541.680775",
    "longitude": "-90.10190108593605",
    "latitude": "29.969626178680322",
    "geocoded_column": {
      "latitude": "29.969626178680322",
      "longitude": "-90.10190108593605"
    }
  },
  {
    "service_request": "2024-1155467",
    "request_type": "Health Related Request",
    "request_reason": "Noise Ordinance Complaint",
    "date_created": "2024-12-16T13:58:32.000",
    "date_modified": "2024-12-16T13:58:32.000",
    "request_status": "Closed",
    "responsible_agency": "Health Department",
    "final_address": "1507 Napoleon Ave",
    "address_councildis": "B",
    "status": "Unfounded",
    "rowid": "1155467",
    "final_x": "3670965.18817",
    "final_y": "520661.853625",
    "longitude": "-90.10170407882987",
    "latitude": "29.925954965627486",
    "geocoded_column": {
      "latitude": "29.925954965627486",
      "longitude": "-90.10170407882987"
    }
  },
  {
    "service_request": "2024-1155466",
    "request_type": "Trash/Recycling",
    "request_reason": "Request a Large Item Pick Up",
    "date_created": "2024-12-16T13:57:13.000",
    "date_modified": "2024-12-16T13:57:15.000",
    "request_status": "Pending",
    "responsible_agency": "Department of Sanitation",
    "final_address": "8137 Cohn St",
    "address_councildis": "A",
    "status": "Assigned to Contractor",
    "contractor": "IV Waste",
    "rowid": "1155466",
    "final_x": "3663426.02669",
    "final_y": "530431.072514",
    "longitude": "-90.12517794486021",
    "latitude": "29.953037878034632",
    "geocoded_column": {
      "latitude": "29.953037878034632",
      "longitude": "-90.12517794486021"
    }
  },
  {
    "service_request": "2024-1155465",
    "request_type": "Drainage",
    "request_reason": "Ditch and Culvert Maintenance",
    "date_created": "2024-12-16T13:55:15.000",
    "date_modified": "2024-12-16T13:55:15.000",
    "request_status": "Pending",
    "responsible_agency": "Department of Public Works",
    "final_address": "1600 BLK Richland Rd",
    "address_councildis": "C",
    "status": "Pending",
    "rowid": "1155465",
    "final_x": "3697925.10411",
    "final_y": "524874.77845",
    "longitude": "-90.0164472095202",
    "latitude": "29.936714719507883",
    "geocoded_column": {
      "latitude": "29.936714719507883",
      "longitude": "-90.0164472095202"
    }
  },
  {
    "service_request": "2024-1155464",
    "request_type": "Streetlights",
    "request_reason": "Streetlight Outage/Malfunction",
    "date_created": "2024-12-16T13:51:50.000",
    "date_modified": "2024-12-16T13:51:52.000",
    "request_status": "Pending",
    "responsible_agency": "Department of Public Works",
    "final_address": "1734 Richland Rd",
    "address_councildis": "C",
    "status": "Pending",
    "contractor": "Legacy Professional Services",
    "rowid": "1155464",
    "final_x": "3698019.00048",
    "final_y": "524901.314492",
    "longitude": "-90.01614981308317",
    "latitude": "29.93678471686475",
    "geocoded_column": {
      "latitude": "29.93678471686475",
      "longitude": "-90.01614981308317"
    }
  },
  {
    "service_request": "2024-1155463",
    "request_type": "Trash/Recycling",
    "request_reason": "Request a Large Item Pick Up",
    "date_created": "2024-12-16T13:50:47.000",
    "date_modified": "2024-12-16T13:50:49.000",
    "request_status": "Pending",
    "responsible_agency": "Department of Sanitation",
    "final_address": "7438 Strathmore Dr",
    "address_councildis": "E",
    "status": "Assigned to Contractor",
    "contractor": "Waste Pro",
    "rowid": "1155463",
    "final_x": "3714579.00427",
    "final_y": "566719.191779",
    "longitude": "-89.96228999951636",
    "latitude": "30.051234013687996",
    "geocoded_column": {
      "latitude": "30.051234013687996",
      "longitude": "-89.96228999951636"
    }
  },