[
  {
    "service_request": "2023-1051454",
    "request_type": "Roads/Drainage",
    "request_reason": "Pothole",
    "date_created": "2023-11-22T00:50:10.000",
    "date_modified": "2023-11-22T00:50:10.000",
    "request_status": "Pending",
    "responsible_agency": "Department of Public Works",
    "final_address": "1400 BLK Foucher St",
    "address_councildis": "B",
    "status": "Pending",
    "rowid": "1051454",
    "final_x": "3673745.32176",
    "final_y": "520516.387233",
    "longitude": "-90.0929329723875",
    "latitude": "29.925472519036987",
    "geocoded_column": {
      "latitude": "29.925472519036987",
      "longitude": "-90.0929329723875"
    }
  },
  {
    "service_request": "2023-1051453",
    "request_type": "Trash/Recycling",
    "request_reason": "Request a Large Item Pick Up",
    "date_created": "2023-11-21T23:07:50.000",
    "date_modified": "2023-11-21T23:07:51.000",
    "request_status": "Pending",
    "responsible_agency": "Department of Sanitation",
    "final_address": "4744 Cardenas Dr",
    "address_councildis": "E",
    "status": "Assigned to Contractor",
    "contractor": "Waste Pro",
    "rowid": "1051453",
    "final_x": "3713611.42341",
    "final_y": "556371.594778",
    "longitude": "-89.9657385190626",
    "latitude": "30.02281407098994",
    "geocoded_column": {
      "latitude": "30.02281407098994",
      "longitude": "-89.9657385190626"
    }
  },
  {
    "service_request": "2023-1051452",
    "request_type": "Trash/Recycling",
    "request_reason": "Request a Large Item Pick Up",
    "date_created": "2023-11-21T23:06:57.000",
    "date_modified": "2023-11-21T23:06:58.000",
    "request_status": "Pending",
    "responsible_agency": "Department of Sanitation",
    "final_address": "4744 Cardenas Dr",
    "address_councildis": "E",
    "status": "Assigned to Contractor",
    "contractor": "Waste Pro",
    "rowid": "1051452",
    "final_x": "3713611.42341",
    "final_y": "556371.594778",
    "longitude": "-89.9657385190626",
    "latitude": "30.02281407098994",
    "geocoded_column": {
      "latitude": "30.02281407098994",
      "longitude": "-89.9657385190626"
    }
  },
  {
    "service_request": "2023-1051451",
    "request_type": "Roads/Drainage",
    "request_reason": "Road Shoulder Repair",
    "date_created": "2023-11-21T21:56:29.000",
    "date_modified": "2023-11-21T21:56:29.000",
    "request_status": "Pending",
    "responsible_agency": "Department of Public Works",
    "final_address": "1736 Valmont St",
    "address_councildis": "B",
    "status": "Pending",
    "rowid": "1051451",
    "final_x": "3667904.17389",
    "final_y": "522135.264762",
    "longitude": "-90.11131722851702",
    "latitude": "29.930096492868557",
    "geocoded_column": {
      "latitude": "29.930096492868557",
      "longitude": "-90.11131722851702"
    }
  },
  {
    "service_request": "2023-1051450",
    "request_type": "Property Maintenance",
    "request_reason": "Property Maintenance",
    "date_created": "2023-11-21T21:54:33.000",
    "date_modified": "2023-11-21T21:54:33.000",
    "request_status": "Pending",
    "responsible_agency": "Department of Code Enforcement",
    "final_address": "2037 First St",
    "address_councildis": "B",
    "status": "Pending",
    "rowid": "1051450",
    "final_x": "3676020.40193",
    "final_y": "524683.305148",
    "longitude": "-90.08560800966494",
    "latitude": "29.93686227132431",
    "geocoded_column": {
      "latitude": "29.93686227132431",
      "longitude": "-90.08560800966494"
    }
  },
  {
    "service_request": "2023-1051449",
    "request_type": "Parks & Parkways",
    "request_reason": "Request Tree Service (Right of Way/Public Property)",
    "date_created": "2023-11-21T21:53:30.000",
    "date_modified": "2023-11-21T21:53:30.000",
    "request_status": "Pending",
    "responsible_agency": "Department of Parks & Parkway",
    "final_address": "4007 Vendome Pl",
    "address_councildis": "B",
    "status": "Pending",
    "rowid": "1051449",
    "final_x": "3668754.87822",
    "final_y": "529870.132225",
    "longitude": "-90.10837064754975",
    "latitude": "29.951339905710167",
    "geocoded_column": {
      "latitude": "29.951339905710167",
      "longitude": "-90.10837064754975"
    }
  },
  {
    "service_request": "2023-1051448",
    "request_type": "Roads/Drainage",
    "request_reason": "Pothole",
    "date_created": "2023-11-21T21:39:08.000",
    "date_modified": "2023-11-21T21:39:08.000",
    "request_status": "Pending",
    "responsible_agency": "Department of Public Works",
    "final_address": "4909 Carondelet St",
    "address_councildis": "B",
    "status": "Pending",
    "rowid": "1051448",
    "final_x": "3668967.87502",
    "final_y": "521173.868281",
    "longitude": "-90.10799174322814",
    "latitude": "29.927421723435902",
    "geocoded_column": {
      "latitude": "29.927421723435902",
      "longitude": "-90.10799174322814"
    }
  },
  {
    "service_request": "2023-1051447",
    "request_type": "Trash/Recycling",
    "request_reason": "Missed Trash Pick-Up",
    "date_created": "2023-11-21T20:49:14.000",
    "date_modified": "2023-11-21T20:49:15.000",
    "request_status": "Pending",
    "responsible_agency": "Department of Sanitation",
    "final_address": "2900 BLK Saint Philip St",
    "address_councildis": "A",
    "status": "Assigned to Contractor",
    "contractor": "Richards Disposal",
    "rowid": "1051447",
    "final_x": "3676407.96933",
    "final_y": "538617.441582",
    "longitude": "-90.08390476178778",
    "latitude": "29.97516486716291",
    "geocoded_column": {
      "latitude": "29.97516486716291",
      "longitude": "-90.08390476178778"
    }
  },
  {
    "service_request": "2023-1051446",
    "request_type": "Trash/Recycling",
    "request_reason": "Replace Trash Cart",
    "date_created": "2023-11-21T19:49:05.000",
    "date_modified": "2023-11-21T19:49:06.000",
    "request_status": "Pending",
    "responsible_agency": "Department of Sanitation",
    "final_address": "1229 Teche St",
    "address_councildis": "C",
    "status": "Assigned to Contractor",
    "contractor": "Richards Disposal",
    "rowid": "1051446",
    "final_x": "3686587.3887",
    "final_y": "526863.532094",
    "longitude": "-90.05217061483943",
    "latitude": "29.942536537511018",
    "geocoded_column": {
      "latitude": "29.942536537511018",
      "longitude": "-90.05217061483943"
    }
  },
  {
    "service_request": "2023-1051445",
    "request_type": "Abandoned Vehicles",
    "request_reason": "Abandoned/Junk Vehicles",
    "date_created": "2023-11-21T19:48:04.000",
    "date_modified": "2023-11-21T19:48:04.000",
    "request_status": "Pending",
    "responsible_agency": "Department of Public Works",
    "final_address": "2125 Hope St",
    "address_councildis": "D",
    "status": "Pending",
    "rowid": "1051445",
    "final_x": "3683632.59887",
    "final_y": "542160.971085",
    "longitude": "-90.06096324494578",
    "latitude": "29.984689742312238",
    "geocoded_column": {
      "latitude": "29.984689742312238",
      "longitude": "-90.06096324494578"
    }
  },
  {
    "service_request": "2023-1051444",
    "request_type": "Abandoned Vehicles",
    "request_reason": "Abandoned/Junk Vehicles",
    "date_created": "2023-11-21T19:44:04.000",
    "date_modified": "2023-11-21T19:44:04.000",
    "request_status": "Pending",
    "responsible_agency": "Department of Public Works",
    "final_address": "9020 Marks St",
    "address_councildis": "A",
    "status": "Pending",
    "rowid": "1051444",
    "final_x": "3666384.22189",
    "final_y": "538222.660809",
    "longitude": "-90.11557575832522",
    "latitude": "29.974376080171854",
    "geocoded_column": {
      "latitude": "29.974376080171854",
      "longitude": "-90.11557575832522"
    }
  },
  {
    "service_request": "2023-1051443",
    "request_type": "Abandoned Vehicles",
    "request_reason": "Abandoned/Junk Vehicles",
    "date_created": "2023-11-21T19:26:14.000",
    "date_modified": "2023-11-21T19:26:14.000",
    "request_status": "Pending",
    "responsible_agency": "Department of Public Works",
    "final_address": "20845 Old Spanish Trl",
    "address_councildis": "E",
    "status": "Pending",
    "rowid": "1051443",
    "final_x": "3763374.02934",
    "final_y": "572433.025321",
    "longitude": "-89.80782880130361",
    "latitude": "30.065248787006055",
    "geocoded_column": {
      "latitude": "30.065248787006055",
      "longitude": "-89.80782880130361"
    }
  },
  {
    "service_request": "2023-1051442",
    "request_type": "Traffic Signals/Signs/Striping/Streetlights",
    "request_reason": "Street Light Outage/Malfunction",
    "date_created": "2023-11-21T18:44:21.000",
    "date_modified": "2023-11-21T18:44:22.000",
    "request_status": "Pending",
    "responsible_agency": "Department of Public Works",
    "final_address": "3267 Desaix Blvd",
    "address_councildis": "D",
    "status": "Assigned to Contractor",
    "contractor": "Legacy Professional Services",
    "rowid": "1051442",
    "final_x": "3677761.15022",
    "final_y": "543694.951054",
    "longitude": "-90.07945557871298",
    "latitude": "29.989085618090346",
    "geocoded_column": {
      "latitude": "29.989085618090346",
      "longitude": "-90.07945557871298"
    }
  },
  {
    "service_request": "2023-1051441",
    "request_type": "Traffic Signals/Signs/Striping/Streetlights",
    "request_reason": "Street Light Outage/Malfunction",
    "date_created": "2023-11-21T17:56:26.000",
    "date_modified": "2023-11-21T17:56:27.000",
    "request_status": "Pending",
    "responsible_agency": "Department of Public Works",
    "final_address": "521 Baronne St",
    "address_councildis": "B",
    "status": "Assigned to Contractor",
    "contractor": "Legacy Professional Services",
    "rowid": "1051441",
    "final_x": "3679846.69474",
    "final_y": "529353.524673",
    "longitude": "-90.07336608636082",
    "latitude": "29.949588699596685",
    "geocoded_column": {
      "latitude": "29.949588699596685",
      "longitude": "-90.07336608636082"
    }
  },
  {
    "service_request": "2023-1051440",
    "request_type": "Trash/Recycling",
    "request_reason": "Replace Trash Cart",
    "date_created": "2023-11-21T17:41:37.000",
    "date_modified": "2023-11-21T17:41:38.000",
    "request_status": "Pending",
    "responsible_agency": "Department of Sanitation",
    "final_address": "4828 Banks St",
    "address_councildis": "A",
    "status": "Assigned to Contractor",
    "contractor": "Richards Disposal",
    "rowid": "1051440",
    "final_x": "3667868.47028",
    "final_y": "539207.787274",
    "longitude": "-90.1108549400924",
    "latitude": "29.977041390429218",
    "geocoded_column": {
      "latitude": "29.977041390429218",
      "longitude": "-90.1108549400924"
    }
  },
  {
    "service_request": "2023-1051439",
    "request_type": "Roads/Drainage",
    "request_reason": "Pothole",
    "date_created": "2023-11-21T17:39:11.000",
    "date_modified": "2023-11-21T17:39:11.000",
    "request_status": "Pending",
    "responsible_agency": "Department of Public Works",
    "final_address": "1422 Josephine St",
    "address_councildis": "B",
    "status": "Pending",
    "rowid": "1051439",
    "final_x": "3678381.02882",
    "final_y": "523271.131963",
    "longitude": "-90.07820422491805",
    "latitude": "29.93290836720927",
    "geocoded_column": {
      "latitude": "29.93290836720927",
      "longitude": "-90.07820422491805"
    }
  },
  {
    "service_request": "2023-1051438",
    "request_type": "Traffic Signals/Signs/Striping/Streetlights",
    "request_reason": "Street Light Outage/Malfunction",
    "date_created": "2023-11-21T17:36:31.000",
    "date_modified": "2023-11-21T17:36:32.000",
    "request_status": "Pending",
    "responsible_agency": "Department of Public Works",
    "final_address": "2400 BLK Napoleon Ave",
    "address_councildis": "B",
    "status": "Assigned to Contractor",
    "contractor": "Legacy Professional Services",
    "rowid": "1051438",
    "final_x": "3670511.63893",
    "final_y": "523864.280799",
    "longitude": "-90.10302726068878",
    "latitude": "29.93477401053035",
    "geocoded_column": {
      "latitude": "29.93477401053035",
      "longitude": "-90.10302726068878"
    }
  },
  {
    "service_request": "2023-1051436",
    "request_type": "Trash/Recycling",
    "request_reason": "Replace Trash Cart",
    "date_created": "2023-11-21T17:12:34.000",
    "date_modified": "2023-11-21T17:12:34.000",
    "request_status": "Pending",
    "responsible_agency": "Department of Sanitation",
    "final_address": "1810 Adams St",
    "address_councildis": "A",
    "status": "Assigned to Contractor",
    "contractor": "Richards Disposal",
    "rowid": "1051436",
    "final_x": "3664510.72436",
    "final_y": "529039.824512",
    "longitude": "-90.12179937776797",
    "latitude": "29.949180903901322",
    "geocoded_column": {
      "latitude": "29.949180903901322",
      "longitude": "-90.12179937776797"
    }
  },
  {
    "service_request": "2023-1051435",
    "request_type": "Trash/Recycling",
    "request_reason": "Missed Trash Pick-Up",
    "date_created": "2023-11-21T17:11:04.000",
    "date_modified": "2023-11-21T17:11:05.000",
    "request_status": "Pending",
    "responsible_agency": "Department of Sanitation",
    "final_address": "7230 Lake Barrington Dr",
    "address_councildis": "E",
    "status": "Assigned to Contractor",
    "contractor": "Waste Pro",
    "rowid": "1051435",
    "final_x": "3712070.77438",
    "final_y": "564459.471905",
    "longitude": "-89.97030256949513",
    "latitude": "30.04510298154369",
    "geocoded_column": {
      "latitude": "30.04510298154369",
      "longitude": "-89.97030256949513"
    }
  },
  {
    "service_request": "2023-1051434",
    "request_type": "Trash/Recycling",
    "request_reason": "Request a Large Item Pick Up",
    "date_created": "2023-11-21T17:07:12.000",
    "date_modified": "2023-11-21T17:07:13.000",
    "request_status": "Pending",
    "responsible_agency": "Department of Sanitation",
    "final_address": "3125 N Derbigny St",
    "address_councildis": "D",
    "status": "Assigned to Contractor",
    "contractor": "IV Waste",
    "rowid": "1051434",
    "final_x": "3689834.14313",
    "final_y": "538220.987913",
    "longitude": "-90.04151563555112",
    "latitude": "29.973665380888797",
    "geocoded_column": {
      "latitude": "29.973665380888797",
      "longitude": "-90.04151563555112"
    }
  },
  {
    "service_request": "2023-1051433",
    "request_type": "Trash/Recycling",
    "request_reason": "Repair Trash Cart",
    "date_created": "2023-11-21T17:04:01.000",
    "date_modified": "2023-11-21T17:04:02.000",
    "request_status": "Pending",
    "responsible_agency": "Department of Sanitation",
    "final_address": "816 Louisiana Ave",
    "address_councildis": "B",
    "status": "Assigned to Contractor",
    "contractor": "Richards Disposal",
    "rowid": "1051433",
    "final_x": "3675352.41294",
    "final_y": "518717.031991",
    "longitude": "-90.0879216133657",
    "latitude": "29.92047693708126",
    "geocoded_column": {
      "latitude": "29.92047693708126",
      "longitude": "-90.0879216133657"
    }
  },
  {
    "service_request": "2023-1051432",
    "request_type": "Trash/Recycling",
    "request_reason": "Return Trash Cart",
    "date_created": "2023-11-21T16:58:42.000",
    "date_modified": "2023-11-21T16:58:43.000",
    "request_status": "Pending",
    "responsible_agency": "Department of Sanitation",
    "final_address": "720 Harmony St",
    "address_councildis": "B",
    "status": "Assigned to Contractor",
    "contractor": "Richards Disposal",
    "rowid": "1051432",
    "final_x": "3676364.33416",
    "final_y": "518801.830263",
    "longitude": "-90.08472453190373",
    "latitude": "29.920679823787502",
    "geocoded_column": {
      "latitude": "29.920679823787502",
      "longitude": "-90.08472453190373"
    }
  },
  {
    "service_request": "2023-1051431",
    "request_type": "Property Maintenance",
    "request_reason": "Property Maintenance",
    "date_created": "2023-11-21T16:50:49.000",
    "date_modified": "2023-11-21T16:50:49.000",
    "request_status": "Pending",
    "responsible_agency": "Department of Code Enforcement",
    "final_address": "2861 Bristol Pl",
    "address_councildis": "C",
    "status": "Pending",
    "rowid": "1051431",
    "final_x": "3702681.0826",
    "final_y": "520368.55564",
    "longitude": "-90.00159782042311",
    "latitude": "29.924173023053534",
    "geocoded_column": {
      "latitude": "29.924173023053534",
      "longitude": "-90.00159782042311"
    }
  },
  {
    "service_request": "2023-1051429",
    "request_type": "Roads/Drainage",
    "request_reason": "Pothole",
    "date_created": "2023-11-21T16:47:03.000",
    "date_modified": "2023-11-21T16:47:03.000",
    "request_status": "Pending",
    "responsible_agency": "Department of Public Works",
    "final_address": "1301 Constantinople St",
    "address_councildis": "B",
    "status": "Pending",
    "rowid": "1051429",
    "final_x": "3672430.66305",
    "final_y": "520250.7726",
    "longitude": "-90.09709199725775",
    "latitude": "29.924781230435865",
    "geocoded_column": {
      "latitude": "29.924781230435865",
      "longitude": "-90.09709199725775"
    }
  },
  {
    "service_request": "2023-1051428",
    "request_type": "Abandoned Vehicles",
    "request_reason": "Abandoned/Junk Vehicles",
    "date_created": "2023-11-21T16:46:46.000",
    "date_modified": "2023-11-21T16:46:46.000",
    "request_status": "Pending",
    "responsible_agency": "Department of Public Works",
    "final_address": "10200 Almonaster Ave",
    "address_councildis": "E",
    "status": "Inspected",
    "rowid": "1051428",
    "final_x": "3713684.56383",
    "final_y": "551626.395989",
    "longitude": "-89.96568637555853",
    "latitude": "30.00976423388402",
    "geocoded_column": {
      "latitude": "30.00976423388402",
      "longitude": "-89.96568637555853"
    }
  },
  {
    "service_request": "2023-1051427",
    "request_type": "Trash/Recycling",
    "request_reason": "Missed Trash Pick-Up",
    "date_created": "2023-11-21T16:45:39.000",
    "date_modified": "2023-11-21T16:45:40.000",
    "request_status": "Pending",
    "responsible_agency": "Department of Sanitation",
    "final_address": "1 Marywood Ct",
    "address_councildis": "E",
    "status": "Assigned to Contractor",
    "contractor": "Waste Pro",
    "rowid": "1051427",
    "final_x": "3712883.22974",
    "final_y": "566309.500835",
    "longitude": "-89.96766516291125",
    "latitude": "30.050163212495477",
    "geocoded_column": {
      "latitude": "30.050163212495477",
      "longitude": "-89.96766516291125"
    }
  },
  {
    "service_request": "2023-1051426",
    "request_type": "Trash/Recycling",
    "request_reason": "Start Trash Service",
    "date_created": "2023-11-21T16:45:00.000",
    "date_modified": "2023-11-21T16:45:01.000",
    "request_status": "Pending",
    "responsible_agency": "Department of Sanitation",
    "final_address": "2628 Dumaine St",
    "address_councildis": "D",
    "status": "Assigned to Contractor",
    "contractor": "Richards Disposal",
    "rowid": "1051426",
    "final_x": "3677370.5197",
    "final_y": "537318.63668",
    "longitude": "-90.08090960869158",
    "latitude": "29.971564704051193",
    "geocoded_column": {
      "latitude": "29.971564704051193",
      "longitude": "-90.08090960869158"
    }
  },
  {
    "service_request": "2023-1051425",
    "request_type": "Trash/Recycling",
    "request_reason": "Repair Trash Cart",
    "date_created": "2023-11-21T16:40:44.000",
    "date_modified": "2023-11-21T16:41:33.000",
    "request_status": "Pending",
    "responsible_agency": "Department of Sanitation",
    "final_address": "410 River Oaks Dr",
    "address_councildis": "C",
    "status": "Assigned to Contractor",
    "contractor": "Richards Disposal",
    "rowid": "1051425",
    "final_x": "3701605.42621",
    "final_y": "522080.980986",
    "longitude": "-90.0049305990391",
    "latitude": "29.928915932538384",
    "geocoded_column": {
      "latitude": "29.928915932538384",
      "longitude": "-90.0049305990391"
    }
  },
  {
    "service_request": "2023-1051424",
    "request_type": "Trash/Recycling",
    "request_reason": "Dead Animal Pick Up",
    "date_created": "2023-11-21T16:33:07.000",
    "date_modified": "2023-11-21T16:33:07.000",
    "request_status": "Pending",
    "responsible_agency": "Department of Sanitation",
    "final_address": "1620 Tennessee St",
    "address_councildis": "E",
    "status": "Assigned to Contractor",
    "contractor": "Waste Pro",
    "rowid": "1051424",
    "final_x": "3696197.91446",
    "final_y": "536377.364871",
    "longitude": "-90.02148424449713",
    "latitude": "29.9683972684863",
    "geocoded_column": {
      "latitude": "29.9683972684863",
      "longitude": "-90.02148424449713"
    }
  },
  {
    "service_request": "2023-1051423",
    "request_type": "Trash/Recycling",
    "request_reason": "Order Recycling Cart",
    "date_created": "2023-11-21T16:32:43.000",
    "date_modified": "2023-11-21T16:32:44.000",
    "request_status": "Pending",
    "responsible_agency": "Department of Sanitation",
    "final_address": "1523 Pressburg St",
    "address_councildis": "D",
    "status": "Pending",
    "contractor": "IV Waste",
    "rowid": "1051423",
    "final_x": "3678533.22171",
    "final_y": "554111.911832",
    "longitude": "-90.07665596476205",
    "latitude": "30.01770529880292",
    "geocoded_column": {
      "latitude": "30.01770529880292",
      "longitude": "-90.07665596476205"
    }
  },
  {
    "service_request": "2023-1051422",
    "request_type": "Traffic Signals/Signs/Striping/Streetlights",
    "request_reason": "Street Light Outage/Malfunction",
    "date_created": "2023-11-21T16:32:03.000",
    "date_modified": "2023-11-21T16:32:04.000",
    "request_status": "Pending",
    "responsible_agency": "Department of Public Works",
    "final_address": "2600 BLK Danbury Dr",
    "address_councildis": "C",
    "status": "Assigned to Contractor",
    "contractor": "Legacy Professional Services",
    "rowid": "1051422",
    "final_x": "3703651.06477",
    "final_y": "520739.398926",
    "longitude": "-89.99852231362031",
    "latitude": "29.92516167959316",
    "geocoded_column": {
      "latitude": "29.92516167959316",
      "longitude": "-89.99852231362031"
    }
  },
  {
    "service_request": "2023-1051421",
    "request_type": "Traffic Signals/Signs/Striping/Streetlights",
    "request_reason": "Street Light Outage/Malfunction",
    "date_created": "2023-11-21T16:29:47.000",
    "date_modified": "2023-11-21T16:29:47.000",
    "request_status": "Pending",
    "responsible_agency": "Department of Public Works",
    "final_address": "9776 W Rockton Cir",
    "address_councildis": "E",
    "status": "Assigned to Contractor",
    "contractor": "Legacy Professional Services",
    "rowid": "1051421",
    "final_x": "3708091.52875",
    "final_y": "562896.275808",
    "longitude": "-89.98293699672585",
    "latitude": "30.04093436846144",
    "geocoded_column": {
      "latitude": "30.04093436846144",
      "longitude": "-89.98293699672585"
    }
  },
  {
    "service_request": "2023-1051420",
    "request_type": "Roads/Drainage",
    "request_reason": "Pothole",
    "date_created": "2023-11-21T16:29:17.000",
    "date_modified": "2023-11-21T16:29:17.000",
    "request_status": "Pending",
    "responsible_agency": "Department of Public Works",
    "final_address": "1502 Eleonore St",
    "address_councildis": "A",
    "status": "Pending",
    "rowid": "1051420",
    "final_x": "3665786.09434",
    "final_y": "521795.186042",
    "longitude": "-90.11801507263215",
    "latitude": "29.92922332626592",
    "geocoded_column": {
      "latitude": "29.92922332626592",
      "longitude": "-90.11801507263215"
    }
  },
  {
    "service_request": "2023-1051419",
    "request_type": "Trash/Recycling",
    "request_reason": "Dead Animal Pick Up",
    "date_created": "2023-11-21T16:25:07.000",
    "date_modified": "2023-11-21T16:25:08.000",
    "request_status": "Pending",
    "responsible_agency": "Department of Sanitation",
    "final_address": "4531 Congress Dr",
    "address_councildis": "D",
    "status": "Assigned to Contractor",
    "contractor": "IV Waste",
    "rowid": "1051419",
    "final_x": "3692515.28899",
    "final_y": "551329.897237",
    "longitude": "-90.03257805608712",
    "latitude": "30.009626738155458",
    "geocoded_column": {
      "latitude": "30.009626738155458",
      "longitude": "-90.03257805608712"
    }
  },
  {
    "service_request": "2023-1051418",
    "request_type": "Trash/Recycling",
    "request_reason": "Request a Large Item Pick Up",
    "date_created": "2023-11-21T16:12:59.000",
    "date_modified": "2023-11-21T16:13:00.000",
    "request_status": "Pending",
    "responsible_agency": "Department of Sanitation",
    "final_address": "3657 Piedmont Dr",
    "address_councildis": "D",
    "status": "Assigned to Contractor",
    "contractor": "IV Waste",
    "rowid": "1051418",
    "final_x": "3686016.97398",
    "final_y": "546233.707408",
    "longitude": "-90.05328835293862",
    "latitude": "29.995815297330473",
    "geocoded_column": {
      "latitude": "29.995815297330473",
      "longitude": "-90.05328835293862"
    }
  },
  {
    "service_request": "2023-1051417",
    "request_type": "Roads/Drainage",
    "request_reason": "Debris in Roadway",
    "date_created": "2023-11-21T16:08:07.000",
    "date_modified": "2023-11-21T16:08:07.000",
    "request_status": "Pending",
    "responsible_agency": "Department of Public Works",
    "final_address": "4200 S Tonti St",
    "address_councildis": "B",
    "status": "Pending",
    "rowid": "1051417",
    "final_x": "3670805.50465",
    "final_y": "528174.422272",
    "longitude": "-90.10195330030096",
    "latitude": "29.94661682091391",
    "geocoded_column": {
      "latitude": "29.94661682091391",
      "longitude": "-90.10195330030096"
    }
  },
  {
    "service_request": "2023-1051416",
    "request_type": "Trash/Recycling",
    "request_reason": "Repair Trash Cart",
    "date_created": "2023-11-21T16:06:38.000",
    "date_modified": "2023-11-21T16:06:39.000",
    "request_status": "Pending",
    "responsible_agency": "Department of Sanitation",
    "final_address": "7834 Willow St",
    "address_councildis": "A",
    "status": "Assigned to Contractor",
    "contractor": "Richards Disposal",
    "rowid": "1051416",
    "final_x": "3663050.76173",
    "final_y": "528273.602688",
    "longitude": "-90.12643462661997",
    "latitude": "29.947116404952933",
    "geocoded_column": {
      "latitude": "29.947116404952933",
      "longitude": "-90.12643462661997"
    }
  },
  {
    "service_request": "2023-1051415",
    "request_type": "Roads/Drainage",
    "request_reason": "Pothole",
    "date_created": "2023-11-21T16:06:32.000",
    "date_modified": "2023-11-21T16:06:32.000",
    "request_status": "Pending",
    "responsible_agency": "Department of Public Works",
    "final_address": "1312 Milan St",
    "address_councildis": "B",
    "status": "Pending",
    "rowid": "1051415",
    "final_x": "3671625.82823",
    "final_y": "520286.919608",
    "longitude": "-90.09963137110304",
    "latitude": "29.92490447494246",
    "geocoded_column": {
      "latitude": "29.92490447494246",
      "longitude": "-90.09963137110304"
    }
  },
  {
    "service_request": "2023-1051414",
    "request_type": "Roads/Drainage",
    "request_reason": "Pothole",
    "date_created": "2023-11-21T16:05:45.000",
    "date_modified": "2023-11-21T16:05:45.000",
    "request_status": "Pending",
    "responsible_agency": "Department of Public Works",
    "final_address": "1579 Henry Clay Ave",
    "address_councildis": "A",
    "status": "Pending",
    "rowid": "1051414",
    "final_x": "3665125.97453",
    "final_y": "522693.49369",
    "longitude": "-90.12006892685164",
    "latitude": "29.931712623369517",
    "geocoded_column": {
      "latitude": "29.931712623369517",
      "longitude": "-90.12006892685164"
    }
  },
  {
    "service_request": "2023-1051413",
    "request_type": "Trash/Recycling",
    "request_reason": "Repair Trash Cart",
    "date_created": "2023-11-21T16:04:04.000",
    "date_modified": "2023-11-21T16:04:05.000",
    "request_status": "Pending",
    "responsible_agency": "Department of Sanitation",
    "final_address": "3518 Blair St",
    "address_councildis": "C",
    "status": "Assigned to Contractor",
    "contractor": "Richards Disposal",
    "rowid": "1051413",
    "final_x": "3709383.47819",
    "final_y": "517734.691702",
    "longitude": "-89.9805390672933",
    "latitude": "29.916714926002268",
    "geocoded_column": {
      "latitude": "29.916714926002268",
      "longitude": "-89.9805390672933"
    }
  },
  {
    "service_request": "2023-1051412",
    "request_type": "Trash/Recycling",
    "request_reason": "Order Trash Cart",
    "date_created": "2023-11-21T16:02:00.000",
    "date_modified": "2023-11-21T16:02:01.000",
    "request_status": "Pending",
    "responsible_agency": "Department of Sanitation",
    "final_address": "2016 Jena St",
    "address_councildis": "B",
    "status": "Assigned to Contractor",
    "contractor": "Richards Disposal",
    "rowid": "1051412",
    "final_x": "3670211.40564",
    "final_y": "522376.62873",
    "longitude": "-90.10402548114287",
    "latitude": "29.930692305845735",
    "geocoded_column": {
      "latitude": "29.930692305845735",
      "longitude": "-90.10402548114287"
    }
  },
  {
    "service_request": "2023-1051411",
    "request_type": "Roads/Drainage",
    "request_reason": "Accessibility Ramps, Curbs and Sidewalk Repair",
    "date_created": "2023-11-21T16:00:18.000",
    "date_modified": "2023-11-21T16:00:18.000",
    "request_status": "Pending",
    "responsible_agency": "Department of Public Works",
    "final_address": "8529 Pritchard Pl",
    "address_councildis": "A",
    "status": "Pending",
    "rowid": "1051411",
    "final_x": "3664835.34477",
    "final_y": "534053.753541",
    "longitude": "-90.12060685074663",
    "latitude": "29.962958134212027",
    "geocoded_column": {
      "latitude": "29.962958134212027",
      "longitude": "-90.12060685074663"
    }
  },
  {
    "service_request": "2023-1051410",
    "request_type": "Trash/Recycling",
    "request_reason": "Request a Large Item Pick Up",
    "date_created": "2023-11-21T15:51:01.000",
    "date_modified": "2023-11-21T15:51:02.000",
    "request_status": "Pending",
    "responsible_agency": "Department of Sanitation",
    "final_address": "11210 Ivy Ln",
    "address_councildis": "E",
    "status": "Assigned to Contractor",
    "contractor": "Waste Pro",
    "rowid": "1051410",
    "final_x": "3716274.83916",
    "final_y": "559930.277021",
    "longitude": "-89.95718778671575",
    "latitude": "30.032511350272546",
    "geocoded_column": {
      "latitude": "30.032511350272546",
      "longitude": "-89.95718778671575"
    }
  },
  {
    "service_request": "2023-1051409",
    "request_type": "Trash/Recycling",
    "request_reason": "Order Recycling Cart",
    "date_created": "2023-11-21T15:49:03.000",
    "date_modified": "2023-11-21T15:49:03.000",
    "request_status": "Pending",
    "responsible_agency": "Department of Sanitation",
    "final_address": "3701 Baronne St",
    "address_councildis": "B",
    "status": "Pending",
    "rowid": "1051409",
    "final_x": "3672924.9698",
    "final_y": "521908.985786",
    "longitude": "-90.09547508396513",
    "latitude": "29.92932611029281",
    "geocoded_column": {
      "latitude": "29.92932611029281",
      "longitude": "-90.09547508396513"
    }
  },
  {
    "service_request": "2023-1051408",
    "request_type": "Trash/Recycling",
    "request_reason": "Order Trash Cart",
    "date_created": "2023-11-21T15:47:31.000",
    "date_modified": "2023-11-21T15:47:32.000",
    "request_status": "Pending",
    "responsible_agency": "Department of Sanitation",
    "final_address": "3701 Baronne St",
    "address_councildis": "B",
    "status": "Assigned to Contractor",
    "contractor": "Richards Disposal",
    "rowid": "1051408",
    "final_x": "3672924.9698",
    "final_y": "521908.985786",
    "longitude": "-90.09547508396513",
    "latitude": "29.92932611029281",
    "geocoded_column": {
      "latitude": "29.92932611029281",
      "longitude": "-90.09547508396513"
    }
  },
  {
    "service_request": "2023-1051407",
    "request_type": "Roads/Drainage",
    "request_reason": "Catch Basin - Clogged",
    "date_created": "2023-11-21T15:47:02.000",
    "date_modified": "2023-11-21T15:47:02.000",
    "request_status": "Pending",
    "responsible_agency": "Department of Public Works",
    "final_address": "2206 Mandeville St",
    "address_councildis": "D",
    "status": "Pending",
    "rowid": "1051407",
    "final_x": "3685408.23529",
    "final_y": "540482.845963",
    "longitude": "-90.05541390878801",
    "latitude": "29.980021155885957",
    "geocoded_column": {
      "latitude": "29.980021155885957",
      "longitude": "-90.05541390878801"
    }
  },
  {
    "service_request": "2023-1051406",
    "request_type": "Roads/Drainage",
    "request_reason": "Pothole",
    "date_created": "2023-11-21T15:43:57.000",
    "date_modified": "2023-11-21T15:43:57.000",
    "request_status": "Pending",
    "responsible_agency": "Department of Public Works",
    "final_address": "1325 Henry Clay Ave",
    "address_councildis": "A",
    "status": "Pending",
    "rowid": "1051406",
    "final_x": "3664550.24192",
    "final_y": "521306.716217",
    "longitude": "-90.12193274180115",
    "latitude": "29.927916172790592",
    "geocoded_column": {
      "latitude": "29.927916172790592",
      "longitude": "-90.12193274180115"
    }
  },
  {
    "service_request": "2023-1051405",
    "request_type": "Graffiti Removal",
    "request_reason": "Graffiti Removal",
    "date_created": "2023-11-21T15:39:26.000",
    "date_modified": "2023-11-21T15:56:21.000",
    "request_status": "Pending",
    "responsible_agency": "Department of Code Enforcement",
    "final_address": "8454 Morrison Rd",
    "address_councildis": "E",
    "status": "Processed",
    "rowid": "1051405",
    "final_x": "3704153.11594",
    "final_y": "560889.20963",
    "longitude": "-89.99545770593257",
    "latitude": "30.035542761128102",
    "geocoded_column": {
      "latitude": "30.035542761128102",
      "longitude": "-89.99545770593257"
    }
  },
  {
    "service_request": "2023-1051404",
    "request_type": "Roads/Drainage",
    "request_reason": "Pothole",
    "date_created": "2023-11-21T15:36:28.000",
    "date_modified": "2023-11-21T15:36:28.000",
    "request_status": "Pending",
    "responsible_agency": "Department of Public Works",
    "final_address": "1234 Henry Clay Ave",
    "address_councildis": "A",
    "status": "Pending",
    "rowid": "1051404",
    "final_x": "3664327.06445",
    "final_y": "521120.367609",
    "longitude": "-90.12264347982506",
    "latitude": "29.92741025864685",
    "geocoded_column": {
      "latitude": "29.92741025864685",
      "longitude": "-90.12264347982506"
    }
  },
  {
    "service_request": "2023-1051403",
    "request_type": "Trash/Recycling",
    "request_reason": "Missed Trash Pick-Up",
    "date_created": "2023-11-21T15:35:22.000",
    "date_modified": "2023-11-21T15:35:22.000",
    "request_status": "Pending",
    "responsible_agency": "Department of Sanitation",
    "final_address": "7210 Lake Barrington Dr",
    "address_councildis": "E",
    "status": "Assigned to Contractor",
    "contractor": "Waste Pro",
    "rowid": "1051403",
    "final_x": "3712146.96766",
    "final_y": "564345.654497",
    "longitude": "-89.9700660445677",
    "latitude": "30.044787537238648",
    "geocoded_column": {
      "latitude": "30.044787537238648",
      "longitude": "-89.9700660445677"
    }
  },
  {
    "service_request": "2023-1051401",
    "request_type": "Abandoned Vehicles",
    "request_reason": "Abandoned/Junk Vehicles",
    "date_created": "2023-11-21T15:30:26.000",
    "date_modified": "2023-11-21T15:30:26.000",
    "request_status": "Pending",
    "responsible_agency": "Department of Public Works",
    "final_address": "10200 BLK Almonaster Ave",
    "address_councildis": "E",
    "status": "Inspected",
    "rowid": "1051401",
    "final_x": "3714488.88923",
    "final_y": "551896.847109",
    "longitude": "-89.96313503455288",
    "latitude": "30.010481447366526",
    "geocoded_column": {
      "latitude": "30.010481447366526",
      "longitude": "-89.96313503455288"
    }
  },
  {
    "service_request": "2023-1051402",
    "request_type": "Roads/Drainage",
    "request_reason": "Pothole",
    "date_created": "2023-11-21T15:30:26.000",
    "date_modified": "2023-11-21T15:30:26.000",
    "request_status": "Pending",
    "responsible_agency": "Department of Public Works",
    "final_address": "4216 Chestnut St",
    "address_councildis": "B",
    "status": "Pending",
    "rowid": "1051402",
    "final_x": "3671574.31393",
    "final_y": "519539.203703",
    "longitude": "-90.09981939416457",
    "latitude": "29.922850019854593",
    "geocoded_column": {
      "latitude": "29.922850019854593",
      "longitude": "-90.09981939416457"
    }
  },
  {
    "service_request": "2023-1051400",
    "request_type": "Trash/Recycling",
    "request_reason": "Repair Trash Cart",
    "date_created": "2023-11-21T15:28:37.000",
    "date_modified": "2023-11-21T15:28:38.000",
    "request_status": "Pending",
    "responsible_agency": "Department of Sanitation",
    "final_address": "14082 Partridge Ln",
    "address_councildis": "E",
    "status": "Assigned to Contractor",
    "contractor": "Waste Pro",
    "rowid": "1051400",
    "final_x": "3719787.01228",
    "final_y": "571915.864488",
    "longitude": "-89.94563048846695",
    "latitude": "30.065350326068465",
    "geocoded_column": {
      "latitude": "30.065350326068465",
      "longitude": "-89.94563048846695"
    }
  },
  {
    "service_request": "2023-1051399",
    "request_type": "Mosquito, Termite & Rodent Control",
    "request_reason": "Mosquito Complaint",
    "date_created": "2023-11-21T15:19:29.000",
    "date_modified": "2023-11-21T15:19:29.000",
    "request_status": "Pending",
    "responsible_agency": "Mosquito, Termite & Rodent Control Board",
    "final_address": "2522 Hudson Pl",
    "address_councildis": "C",
    "status": "Pending",
    "rowid": "1051399",
    "final_x": "3703478.02545",
    "final_y": "521786.115642",
    "longitude": "-89.9990300633913",
    "latitude": "29.928045328649784",
    "geocoded_column": {
      "latitude": "29.928045328649784",
      "longitude": "-89.9990300633913"
    }
  },
  {
    "service_request": "2023-1051398",
    "request_type": "Trash/Recycling",
    "request_reason": "Missed Trash Pick-Up",
    "date_created": "2023-11-21T15:09:23.000",
    "date_modified": "2023-11-21T15:09:24.000",
    "request_status": "Pending",
    "responsible_agency": "Department of Sanitation",
    "final_address": "7000 BLK Ransom St",
    "address_councildis": "E",
    "status": "Assigned to Contractor",
    "contractor": "Waste Pro",
    "rowid": "1051398",
    "final_x": "3701428.12204",
    "final_y": "553371.836942",
    "longitude": "-90.0043446362425",
    "latitude": "30.01496008327861",
    "geocoded_column": {
      "latitude": "30.01496008327861",
      "longitude": "-90.0043446362425"
    }
  },
  {
    "service_request": "2023-1051397",
    "request_type": "Trash/Recycling",
    "request_reason": "Request a Large Item Pick Up",
    "date_created": "2023-11-21T15:05:28.000",
    "date_modified": "2023-11-21T15:05:29.000",
    "request_status": "Pending",
    "responsible_agency": "Department of Sanitation",
    "final_address": "7200 Thornley Dr",
    "address_councildis": "E",
    "status": "Assigned to Contractor",
    "contractor": "Waste Pro",
    "rowid": "1051397",
    "final_x": "3702890.17514",
    "final_y": "559749.937757",
    "longitude": "-89.99949070006933",
    "latitude": "30.0324506934833",
    "geocoded_column": {
      "latitude": "30.0324506934833",
      "longitude": "-89.99949070006933"
    }
  },
  {
    "service_request": "2023-1051396",
    "request_type": "Trash/Recycling",
    "request_reason": "Request a Large Item Pick Up",
    "date_created": "2023-11-21T15:01:11.000",
    "date_modified": "2023-11-21T16:21:13.000",
    "case_close_date": "2023-11-21T10:21:13.000",
    "request_status": "Closed",
    "responsible_agency": "Department of Sanitation",
    "final_address": "1039 Henriette Delille St",
    "address_councildis": "C",
    "status": "Duplicate Request",
    "contractor": "Richards Disposal",
    "rowid": "1051396",
    "final_x": "3681889.73378",
    "final_y": "534749.450182",
    "longitude": "-90.0667269616528",
    "latitude": "29.96436373017848",
    "geocoded_column": {
      "latitude": "29.96436373017848",
      "longitude": "-90.0667269616528"
    }
  },
  {
    "service_request": "2023-1051395",
    "request_type": "Trash/Recycling",
    "request_reason": "Repair Trash Cart",
    "date_created": "2023-11-21T14:55:11.000",
    "date_modified": "2023-11-21T14:55:11.000",
    "request_status": "Pending",
    "responsible_agency": "Department of Sanitation",
    "final_address": "851 Bungalow Ct",
    "address_councildis": "A",
    "status": "Assigned to Contractor",
    "contractor": "Richards Disposal",
    "rowid": "1051395",
    "final_x": "3672632.64417",
    "final_y": "540719.865099",
    "longitude": "-90.09575653657019",
    "latitude": "29.981058468672597",
    "geocoded_column": {
      "latitude": "29.981058468672597",
      "longitude": "-90.09575653657019"
    }
  },
  {
    "service_request": "2023-1051394",
    "request_type": "Trash/Recycling",
    "request_reason": "Request a Large Item Pick Up",
    "date_created": "2023-11-21T14:46:23.000",
    "date_modified": "2023-11-21T14:46:23.000",
    "request_status": "Pending",
    "responsible_agency": "Department of Sanitation",
    "final_address": "3716 First St",
    "address_councildis": "B",
    "status": "Assigned to Contractor",
    "contractor": "Richards Disposal",
    "rowid": "1051394",
    "final_x": "3672784.02433",
    "final_y": "529468.960769",
    "longitude": "-90.09566224244716",
    "latitude": "29.950117763377396",
    "geocoded_column": {
      "latitude": "29.950117763377396",
      "longitude": "-90.09566224244716"
    }
  },
  {
    "service_request": "2023-1051393",
    "request_type": "Trash/Recycling",
    "request_reason": "Replace Trash Cart",
    "date_created": "2023-11-21T14:46:19.000",
    "date_modified": "2023-11-21T14:46:20.000",
    "request_status": "Pending",
    "responsible_agency": "Department of Sanitation",
    "final_address": "145 18Th St",
    "address_councildis": "A",
    "status": "Assigned to Contractor",
    "contractor": "IV Waste",
    "rowid": "1051393",
    "final_x": "3665718.0304",
    "final_y": "548752.543635",
    "longitude": "-90.11732683404195",
    "latitude": "30.003349134809874",
    "geocoded_column": {
      "latitude": "30.003349134809874",
      "longitude": "-90.11732683404195"
    }
  },
  {
    "service_request": "2023-1051392",
    "request_type": "Parks & Parkways",
    "request_reason": "Request Tree Service (Right of Way/Public Property)",
    "date_created": "2023-11-21T14:45:44.000",
    "date_modified": "2023-11-21T14:45:44.000",
    "request_status": "Pending",
    "responsible_agency": "Department of Parks & Parkway",
    "final_address": "4412 St Ann St",
    "address_councildis": "A",
    "status": "Pending",
    "rowid": "1051392",
    "final_x": "3671469.31483",
    "final_y": "541301.441228",
    "longitude": "-90.09941108058611",
    "latitude": "29.982692101780703",
    "geocoded_column": {
      "latitude": "29.982692101780703",
      "longitude": "-90.09941108058611"
    }
  },
  {
    "service_request": "2023-1051391",
    "request_type": "Trash/Recycling",
    "request_reason": "Request a Large Item Pick Up",
    "date_created": "2023-11-21T14:44:07.000",
    "date_modified": "2023-11-21T14:44:08.000",
    "request_status": "Pending",
    "responsible_agency": "Department of Sanitation",
    "final_address": "4959 Perelli Dr",
    "address_councildis": "E",
    "status": "Assigned to Contractor",
    "contractor": "Waste Pro",
    "rowid": "1051391",
    "final_x": "3711654.1205",
    "final_y": "557504.679835",
    "longitude": "-89.97188054569989",
    "latitude": "30.02599369752653",
    "geocoded_column": {
      "latitude": "30.02599369752653",
      "longitude": "-89.97188054569989"
    }
  },
  {
    "service_request": "2023-1051390",
    "request_type": "Abandoned Vehicles",
    "request_reason": "Abandoned/Junk Vehicles",
    "date_created": "2023-11-21T14:40:57.000",
    "date_modified": "2023-11-21T14:40:57.000",
    "request_status": "Pending",
    "responsible_agency": "Department of Public Works",
    "final_address": "9673 Irby St",
    "address_councildis": "E",
    "status": "Pending",
    "rowid": "1051390",
    "final_x": "3707057.80459",
    "final_y": "564848.780578",
    "longitude": "-89.98613134433924",
    "latitude": "30.046336436129597",
    "geocoded_column": {
      "latitude": "30.046336436129597",
      "longitude": "-89.98613134433924"
    }
  },
  {
    "service_request": "2023-1051389",
    "request_type": "Trash/Recycling",
    "request_reason": "Order Recycling Cart",
    "date_created": "2023-11-21T14:37:37.000",
    "date_modified": "2023-11-21T14:37:37.000",
    "request_status": "Pending",
    "responsible_agency": "Department of Sanitation",
    "final_address": "2931 St Claude Ave",
    "address_councildis": "C",
    "status": "Pending",
    "rowid": "1051389",
    "final_x": "3688401.44431",
    "final_y": "536252.633159",
    "longitude": "-90.04611022881703",
    "latitude": "29.968297431309566",
    "geocoded_column": {
      "latitude": "29.968297431309566",
      "longitude": "-90.04611022881703"
    }
  },
  {
    "service_request": "2023-1051388",
    "request_type": "Mosquito, Termite & Rodent Control",
    "request_reason": "Mosquito Complaint",
    "date_created": "2023-11-21T14:36:38.000",
    "date_modified": "2023-11-21T14:36:38.000",
    "request_status": "Pending",
    "responsible_agency": "Mosquito, Termite & Rodent Control Board",
    "final_address": "2619 Verbena St",
    "address_councildis": "D",
    "status": "Pending",
    "rowid": "1051388",
    "final_x": "3687210.32342",
    "final_y": "547845.108882",
    "longitude": "-90.0494616366597",
    "latitude": "30.00020935976215",
    "geocoded_column": {
      "latitude": "30.00020935976215",
      "longitude": "-90.0494616366597"
    }
  },
  {
    "service_request": "2023-1051387",
    "request_type": "Trash/Recycling",
    "request_reason": "Replace Trash Cart",
    "date_created": "2023-11-21T14:34:30.000",
    "date_modified": "2023-11-21T14:34:30.000",
    "request_status": "Pending",
    "responsible_agency": "Department of Sanitation",
    "final_address": "4609 Anson St",
    "address_councildis": "C",
    "status": "Assigned to Contractor",
    "contractor": "Richards Disposal",
    "rowid": "1051387",
    "final_x": "3701979.28215",
    "final_y": "521574.359225",
    "longitude": "-90.0037689766046",
    "latitude": "29.92751097531784",
    "geocoded_column": {
      "latitude": "29.92751097531784",
      "longitude": "-90.0037689766046"
    }
  },
  {
    "service_request": "2023-1051386",
    "request_type": "Traffic Signals/Signs/Striping/Streetlights",
    "request_reason": "Street Light Outage/Malfunction",
    "date_created": "2023-11-21T14:25:34.000",
    "date_modified": "2023-11-21T14:25:35.000",
    "request_status": "Pending",
    "responsible_agency": "Department of Public Works",
    "final_address": "101 Winthrop Pl",
    "address_councildis": "D",
    "status": "Assigned to Contractor",
    "contractor": "Legacy Professional Services",
    "rowid": "1051386",
    "final_x": "3677750.12328",
    "final_y": "543775.868686",
    "longitude": "-90.07948761268956",
    "latitude": "29.989308445095325",
    "geocoded_column": {
      "latitude": "29.989308445095325",
      "longitude": "-90.07948761268956"
    }
  },
  {
    "service_request": "2023-1051385",
    "request_type": "Trash/Recycling",
    "request_reason": "Missed Trash Pick-Up",
    "date_created": "2023-11-21T14:20:28.000",
    "date_modified": "2023-11-21T14:21:37.000",
    "request_status": "Pending",
    "responsible_agency": "Department of Sanitation",
    "final_address": "7272 Endston Ct",
    "address_councildis": "E",
    "status": "Assigned to Contractor",
    "contractor": "Waste Pro",
    "rowid": "1051385",
    "final_x": "3711908.50949",
    "final_y": "564766.369954",
    "longitude": "-89.9708038651153",
    "latitude": "30.045952133714387",
    "geocoded_column": {
      "latitude": "30.045952133714387",
      "longitude": "-89.9708038651153"
    }
  },
  {
    "service_request": "2023-1051384",
    "request_type": "Trash/Recycling",
    "request_reason": "Replace Trash Cart",
    "date_created": "2023-11-21T14:19:09.000",
    "date_modified": "2023-11-21T14:19:10.000",
    "request_status": "Pending",
    "responsible_agency": "Department of Sanitation",
    "final_address": "1019 Foucher St",
    "address_councildis": "B",
    "status": "Assigned to Contractor",
    "contractor": "Richards Disposal",
    "rowid": "1051384",
    "final_x": "3674278.31764",
    "final_y": "519122.490615",
    "longitude": "-90.0912981619636",
    "latitude": "29.921623875302313",
    "geocoded_column": {
      "latitude": "29.921623875302313",
      "longitude": "-90.0912981619636"
    }
  },
  {
    "service_request": "2023-1051383",
    "request_type": "Trash/Recycling",
    "request_reason": "Request a Large Item Pick Up",
    "date_created": "2023-11-21T14:18:18.000",
    "date_modified": "2023-11-21T14:18:18.000",
    "request_status": "Pending",
    "responsible_agency": "Department of Sanitation",
    "final_address": "1613 Prytania St",
    "address_councildis": "B",
    "status": "Assigned to Contractor",
    "contractor": "Richards Disposal",
    "rowid": "1051383",
    "final_x": "3679370.2829",
    "final_y": "524921.37798",
    "longitude": "-90.07502401321526",
    "latitude": "29.937416166981176",
    "geocoded_column": {
      "latitude": "29.937416166981176",
      "longitude": "-90.07502401321526"
    }
  },
  {
    "service_request": "2023-1051382",
    "request_type": "Abandoned Vehicles",
    "request_reason": "Abandoned/Junk Vehicles",
    "date_created": "2023-11-21T14:14:09.000",
    "date_modified": "2023-11-21T14:14:09.000",
    "request_status": "Pending",
    "responsible_agency": "Department of Public Works",
    "final_address": "5300 BLK Wilton Dr",
    "address_councildis": "D",
    "status": "Pending",
    "rowid": "1051382",
    "final_x": "3681915.22734",
    "final_y": "552519.534184",
    "longitude": "-90.06602580272957",
    "latitude": "30.013224418061807",
    "geocoded_column": {
      "latitude": "30.013224418061807",
      "longitude": "-90.06602580272957"
    }
  },
  {
    "service_request": "2023-1051381",
    "request_type": "Traffic Signals/Signs/Striping/Streetlights",
    "request_reason": "Street Light Outage/Malfunction",
    "date_created": "2023-11-21T14:11:27.000",
    "date_modified": "2023-11-21T14:11:27.000",
    "request_status": "Pending",
    "responsible_agency": "Department of Public Works",
    "final_address": "5656 St Bernard Ave",
    "address_councildis": "D",
    "status": "Assigned to Contractor",
    "contractor": "Legacy Professional Services",
    "rowid": "1051381",
    "final_x": "3676767.43131",
    "final_y": "553175.833879",
    "longitude": "-90.08226746953954",
    "latitude": "30.015184552632753",
    "geocoded_column": {
      "latitude": "30.015184552632753",
      "longitude": "-90.08226746953954"
    }
  },
  {
    "service_request": "2023-1051380",
    "request_type": "Trash/Recycling",
    "request_reason": "Missed Trash Pick-Up",
    "date_created": "2023-11-21T14:11:20.000",
    "date_modified": "2023-11-21T14:11:21.000",
    "request_status": "Pending",
    "responsible_agency": "Department of Sanitation",
    "final_address": "11100 Morrison Rd",
    "address_councildis": "E",
    "status": "Assigned to Contractor",
    "contractor": "Waste Pro",
    "rowid": "1051380",
    "final_x": "3711553.83755",
    "final_y": "565117.76413",
    "longitude": "-89.97191160073136",
    "latitude": "30.046929917449873",
    "geocoded_column": {
      "latitude": "30.046929917449873",
      "longitude": "-89.97191160073136"
    }
  },
  {
    "service_request": "2023-1051379",
    "request_type": "Trash/Recycling",
    "request_reason": "Request a Large Item Pick Up",
    "date_created": "2023-11-21T14:10:43.000",
    "date_modified": "2023-11-21T14:10:43.000",
    "request_status": "Pending",
    "responsible_agency": "Department of Sanitation",
    "final_address": "7230 Cove Dr",
    "address_councildis": "E",
    "status": "Assigned to Contractor",
    "contractor": "Waste Pro",
    "rowid": "1051379",
    "final_x": "3700004.08714",
    "final_y": "559020.610972",
    "longitude": "-90.00863754536789",
    "latitude": "30.030537387819003",
    "geocoded_column": {
      "latitude": "30.030537387819003",
      "longitude": "-90.00863754536789"
    }
  },
  {
    "service_request": "2023-1051378",
    "request_type": "Trash/Recycling",
    "request_reason": "Illegal Dumping",
    "date_created": "2023-11-21T14:06:50.000",
    "date_modified": "2023-11-21T14:06:50.000",
    "request_status": "Pending",
    "responsible_agency": "Department of Sanitation",
    "final_address": "PELOPIDAS ST & ST ANTHONY AVE",
    "address_councildis": "D",
    "status": "Pending",
    "rowid": "1051378",
    "final_x": "3682530.4",
    "final_y": "547966.08",
    "longitude": "-90.06424152616438",
    "latitude": "30.000685339382095",
    "geocoded_column": {
      "latitude": "30.000685339382095",
      "longitude": "-90.06424152616438"
    }
  },
  {
    "service_request": "2023-1051377",
    "request_type": "Utility Poles",
    "request_reason": "Utility Pole Leaning",
    "date_created": "2023-11-21T14:06:09.000",
    "date_modified": "2023-11-21T14:07:23.000",
    "request_status": "Pending",
    "responsible_agency": "Utility Company Collective",
    "final_address": "2559 St Nick Dr",
    "address_councildis": "C",
    "status": "Pending",
    "rowid": "1051377",
    "final_x": "3699300.36848",
    "final_y": "521672.750585",
    "longitude": "-90.01222201613227",
    "latitude": "29.92786671792598",
    "geocoded_column": {
      "latitude": "29.92786671792598",
      "longitude": "-90.01222201613227"
    }
  },
  {
    "service_request": "2023-1051375",
    "request_type": "Trash/Recycling",
    "request_reason": "Order Trash Cart",
    "date_created": "2023-11-21T14:05:35.000",
    "date_modified": "2023-11-21T14:05:35.000",
    "request_status": "Pending",
    "responsible_agency": "Department of Sanitation",
    "final_address": "2420 Fats Domino Ave",
    "address_councildis": "E",
    "status": "Assigned to Contractor",
    "contractor": "Waste Pro",
    "rowid": "1051375",
    "final_x": "3699288.32868",
    "final_y": "538847.846601",
    "longitude": "-90.01163463559386",
    "latitude": "29.975092553573457",
    "geocoded_column": {
      "latitude": "29.975092553573457",
      "longitude": "-90.01163463559386"
    }
  },
  {
    "service_request": "2023-1051376",
    "request_type": "Trash/Recycling",
    "request_reason": "MIssed Recycling Pick-Up",
    "date_created": "2023-11-21T14:05:35.000",
    "date_modified": "2023-11-21T14:05:36.000",
    "request_status": "Pending",
    "responsible_agency": "Department of Sanitation",
    "final_address": "427 Fern St",
    "address_councildis": "A",
    "status": "Assigned to Contractor",
    "contractor": "Richards Disposal",
    "rowid": "1051376",
    "final_x": "3660830.78586",
    "final_y": "525928.722621",
    "longitude": "-90.13352148465962",
    "latitude": "29.940732838198116",
    "geocoded_column": {
      "latitude": "29.940732838198116",
      "longitude": "-90.13352148465962"
    }
  },
  {
    "service_request": "2023-1051374",
    "request_type": "Trash/Recycling",
    "request_reason": "Request a Large Item Pick Up",
    "date_created": "2023-11-21T14:00:07.000",
    "date_modified": "2023-11-21T14:00:08.000",
    "request_status": "Pending",
    "responsible_agency": "Department of Code Enforcement",
    "final_address": "7578 Avon Park Blvd",
    "address_councildis": "E",
    "status": "Assigned to Contractor",
    "contractor": "Waste Pro",
    "rowid": "1051374",
    "final_x": "3719746.77036",
    "final_y": "572464.701225",
    "longitude": "-89.94573668657534",
    "latitude": "30.066860736448213",
    "geocoded_column": {
      "latitude": "30.066860736448213",
      "longitude": "-89.94573668657534"
    }
  },
  {
    "service_request": "2023-1051373",
    "request_type": "Traffic Signals/Signs/Striping/Streetlights",
    "request_reason": "Street Light Outage/Malfunction",
    "date_created": "2023-11-21T13:59:45.000",
    "date_modified": "2023-11-21T13:59:46.000",
    "request_status": "Pending",
    "responsible_agency": "Department of Public Works",
    "final_address": "3315 Desaix Blvd",
    "address_councildis": "D",
    "status": "Assigned to Contractor",
    "contractor": "Legacy Professional Services",
    "rowid": "1051373",
    "final_x": "3677471.59944",
    "final_y": "543707.749134",
    "longitude": "-90.0803697420874",
    "latitude": "29.989129517472783",
    "geocoded_column": {
      "latitude": "29.989129517472783",
      "longitude": "-90.0803697420874"
    }
  },
  {
    "service_request": "2023-1051372",
    "request_type": "Traffic Signals/Signs/Striping/Streetlights",
    "request_reason": "Street Light Outage/Malfunction",
    "date_created": "2023-11-21T13:57:51.000",
    "date_modified": "2023-11-21T13:57:52.000",
    "request_status": "Pending",
    "responsible_agency": "Department of Public Works",
    "final_address": "3275 Desaix Blvd",
    "address_councildis": "D",
    "status": "Assigned to Contractor",
    "contractor": "Legacy Professional Services",
    "rowid": "1051372",
    "final_x": "3677702.5627",
    "final_y": "543698.475086",
    "longitude": "-90.07964051758603",
    "latitude": "29.98909707066014",
    "geocoded_column": {
      "latitude": "29.98909707066014",
      "longitude": "-90.07964051758603"
    }
  },
  {
    "service_request": "2023-1051371",
    "request_type": "Traffic Signals/Signs/Striping/Streetlights",
    "request_reason": "Street Light Outage/Malfunction",
    "date_created": "2023-11-21T13:53:41.000",
    "date_modified": "2023-11-21T14:02:55.000",
    "request_status": "Pending",
    "responsible_agency": "Department of Public Works",
    "final_address": "3245 Desaix Blvd",
    "address_councildis": "D",
    "status": "Assigned to Contractor",
    "contractor": "Legacy Professional Services",
    "rowid": "1051371",
    "final_x": "3677934.49384",
    "final_y": "543687.28987",
    "longitude": "-90.07890830240187",
    "latitude": "29.989059335628262",
    "geocoded_column": {
      "latitude": "29.989059335628262",
      "longitude": "-90.07890830240187"
    }
  },
  {
    "service_request": "2023-1051370",
    "request_type": "Parks & Parkways",
    "request_reason": "Request Tree Service (Right of Way/Public Property)",
    "date_created": "2023-11-21T13:52:11.000",
    "date_modified": "2023-11-21T13:52:12.000",
    "request_status": "Pending",
    "responsible_agency": "Department of Parks & Parkway",
    "final_address": "2655 Myrtle St",
    "address_councildis": "D",
    "status": "Pending",
    "rowid": "1051370",
    "final_x": "3687597.69884",
    "final_y": "546139.667408",
    "longitude": "-90.04829831993592",
    "latitude": "29.995508071510248",
    "geocoded_column": {
      "latitude": "29.995508071510248",
      "longitude": "-90.04829831993592"
    }
  },
  {
    "service_request": "2023-1051369",
    "request_type": "Trash/Recycling",
    "request_reason": "Request a Large Item Pick Up",
    "date_created": "2023-11-21T13:51:52.000",
    "date_modified": "2023-11-21T13:51:53.000",
    "request_status": "Pending",
    "responsible_agency": "Department of Sanitation",
    "final_address": "3708 Pauger St",
    "address_councildis": "D",
    "status": "Assigned to Contractor",
    "contractor": "IV Waste",
    "rowid": "1051369",
    "final_x": "3683198.56424",
    "final_y": "543659.253902",
    "longitude": "-90.06228167385692",
    "latitude": "29.98882273646926",
    "geocoded_column": {
      "latitude": "29.98882273646926",
      "longitude": "-90.06228167385692"
    }
  },
  {
    "service_request": "2023-1051368",
    "request_type": "Traffic Signals/Signs/Striping/Streetlights",
    "request_reason": "Traffic Sign Missing/Damaged",
    "date_created": "2023-11-21T13:50:41.000",
    "date_modified": "2023-11-21T13:50:41.000",
    "request_status": "Pending",
    "responsible_agency": "Department of Public Works",
    "final_address": "2551 Abundance St",
    "address_councildis": "D",
    "status": "Pending",
    "rowid": "1051368",
    "final_x": "3687023.41718",
    "final_y": "543935.10555",
    "longitude": "-90.05019040238733",
    "latitude": "29.98946401315616",
    "geocoded_column": {
      "latitude": "29.98946401315616",
      "longitude": "-90.05019040238733"
    }
  },
  {
    "service_request": "2023-1051367",
    "request_type": "Trash/Recycling",
    "request_reason": "Missed Trash Pick-Up",
    "date_created": "2023-11-21T13:46:28.000",
    "date_modified": "2023-11-21T13:46:28.000",
    "request_status": "Pending",
    "responsible_agency": "Department of Sanitation",
    "final_address": "7431 Lake Barrington Dr",
    "address_councildis": "E",
    "status": "Assigned to Contractor",
    "contractor": "Waste Pro",
    "rowid": "1051367",
    "final_x": "3712657.59",
    "final_y": "565092.893794",
    "longitude": "-89.9684241249294",
    "latitude": "30.046825429026843",
    "geocoded_column": {
      "latitude": "30.046825429026843",
      "longitude": "-89.9684241249294"
    }
  },
  {
    "service_request": "2023-1051366",
    "request_type": "Trash/Recycling",
    "request_reason": "MIssed Recycling Pick-Up",
    "date_created": "2023-11-21T13:46:09.000",
    "date_modified": "2023-11-21T13:46:10.000",
    "request_status": "Pending",
    "responsible_agency": "Department of Sanitation",
    "final_address": "1300 BLK N Broad St",
    "address_councildis": "D",
    "status": "Assigned to Contractor",
    "contractor": "Richards Disposal",
    "rowid": "1051366",
    "final_x": "3678095.64016",
    "final_y": "538769.277236",
    "longitude": "-90.07856940149249",
    "latitude": "29.975531654718296",
    "geocoded_column": {
      "latitude": "29.975531654718296",
      "longitude": "-90.07856940149249"
    }
  },
  {
    "service_request": "2023-1051365",
    "request_type": "Parks & Parkways",
    "request_reason": "Request Tree Service (Right of Way/Public Property)",
    "date_created": "2023-11-21T13:43:29.000",
    "date_modified": "2023-11-21T13:43:30.000",
    "request_status": "Pending",
    "responsible_agency": "Department of Parks & Parkway",
    "final_address": "7143 Deanne St",
    "address_councildis": "D",
    "status": "Pending",
    "rowid": "1051365",
    "final_x": "3695586.39056",
    "final_y": "556886.766426",
    "longitude": "-90.02267459596864",
    "latitude": "30.02480981887474",
    "geocoded_column": {
      "latitude": "30.02480981887474",
      "longitude": "-90.02267459596864"
    }
  },
  {
    "service_request": "2023-1051364",
    "request_type": "Trash/Recycling",
    "request_reason": "Request a Large Item Pick Up",
    "date_created": "2023-11-21T13:37:05.000",
    "date_modified": "2023-11-21T13:37:06.000",
    "request_status": "Pending",
    "responsible_agency": "Department of Sanitation",
    "final_address": "10806 Curran Rd",
    "address_councildis": "E",
    "status": "Assigned to Contractor",
    "contractor": "Waste Pro",
    "rowid": "1051364",
    "final_x": "3709873.36248",
    "final_y": "565633.894562",
    "longitude": "-89.977203444661",
    "latitude": "30.04840386127021",
    "geocoded_column": {
      "latitude": "30.04840386127021",
      "longitude": "-89.977203444661"
    }
  },
  {
    "service_request": "2023-1051363",
    "request_type": "Trash/Recycling",
    "request_reason": "Replace Recycling Cart",
    "date_created": "2023-11-21T13:28:17.000",
    "date_modified": "2023-11-21T13:29:03.000",
    "request_status": "Pending",
    "responsible_agency": "Department of Sanitation",
    "final_address": "1010 N Rendon St",
    "address_councildis": "A",
    "status": "Pending",
    "rowid": "1051363",
    "final_x": "3675768.19854",
    "final_y": "539255.637834",
    "longitude": "-90.08590338496421",
    "latitude": "29.97693885467243",
    "geocoded_column": {
      "latitude": "29.97693885467243",
      "longitude": "-90.08590338496421"
    }
  },
  {
    "service_request": "2023-1051362",
    "request_type": "Trash/Recycling",
    "request_reason": "Illegal Dumping",
    "date_created": "2023-11-21T13:26:23.000",
    "date_modified": "2023-11-21T13:26:23.000",
    "request_status": "Pending",
    "responsible_agency": "Department of Sanitation",
    "final_address": "2018 Felicity St",
    "address_councildis": "B",
    "status": "Pending",
    "rowid": "1051362",
    "final_x": "3677130.59989",
    "final_y": "525860.310269",
    "longitude": "-90.08206247886505",
    "latitude": "29.940065360302086",
    "geocoded_column": {
      "latitude": "29.940065360302086",
      "longitude": "-90.08206247886505"
    }
  },
  {
    "service_request": "2023-1051360",
    "request_type": "Roads/Drainage",
    "request_reason": "Road Shoulder Repair",
    "date_created": "2023-11-21T13:20:55.000",
    "date_modified": "2023-11-21T13:20:55.000",
    "request_status": "Pending",
    "responsible_agency": "Department of Public Works",
    "final_address": "2854 Maurepas St",
    "address_councildis": "A",
    "status": "Pending",
    "rowid": "1051360",
    "final_x": "3677949.32072",
    "final_y": "540639.115595",
    "longitude": "-90.07896687067871",
    "latitude": "29.98067747002621",
    "geocoded_column": {
      "latitude": "29.98067747002621",
      "longitude": "-90.07896687067871"
    }
  },
  {
    "service_request": "2023-1051359",
    "request_type": "Abandoned Vehicles",
    "request_reason": "Abandoned/Junk Vehicles",
    "date_created": "2023-11-21T13:20:31.000",
    "date_modified": "2023-11-21T13:20:31.000",
    "request_status": "Pending",
    "responsible_agency": "Department of Public Works",
    "final_address": "1010 N Rendon St",
    "address_councildis": "A",
    "status": "Pending",
    "rowid": "1051359",
    "final_x": "3675768.19854",
    "final_y": "539255.637834",
    "longitude": "-90.08590338496421",
    "latitude": "29.97693885467243",
    "geocoded_column": {
      "latitude": "29.97693885467243",
      "longitude": "-90.08590338496421"
    }
  },
  {
    "service_request": "2023-1051358",
    "request_type": "Trash/Recycling",
    "request_reason": "Replace Trash Cart",
    "date_created": "2023-11-21T13:20:15.000",
    "date_modified": "2023-11-21T13:20:16.000",
    "request_status": "Pending",
    "responsible_agency": "Department of Sanitation",
    "final_address": "3019 Ursulines Ave",
    "address_councildis": "A",
    "status": "Assigned to Contractor",
    "contractor": "Richards Disposal",
    "rowid": "1051358",
    "final_x": "3676416.96929",
    "final_y": "539172.871562",
    "longitude": "-90.08385720900495",
    "latitude": "29.976691839330442",
    "geocoded_column": {
      "latitude": "29.976691839330442",
      "longitude": "-90.08385720900495"
    }
  },
  {
    "service_request": "2023-1051357",
    "request_type": "Trash/Recycling",
    "request_reason": "Missed Trash Pick-Up",
    "date_created": "2023-11-21T13:19:33.000",
    "date_modified": "2023-11-21T13:21:11.000",
    "request_status": "Pending",
    "responsible_agency": "Department of Sanitation",
    "final_address": "7268 Endston Ct",
    "address_councildis": "E",
    "status": "Assigned to Contractor",
    "contractor": "Waste Pro",
    "rowid": "1051357",
    "final_x": "3711926.09304",
    "final_y": "564708.58397",
    "longitude": "-89.97075046457952",
    "latitude": "30.045792670660223",
    "geocoded_column": {
      "latitude": "30.045792670660223",
      "longitude": "-89.97075046457952"
    }
  },
  {
    "service_request": "2023-1051356",
    "request_type": "Trash/Recycling",
    "request_reason": "Replace Recycling Cart",
    "date_created": "2023-11-21T13:18:22.000",
    "date_modified": "2023-11-21T13:18:22.000",
    "request_status": "Pending",
    "responsible_agency": "Department of Sanitation",
    "final_address": "2421 State St",
    "address_councildis": "A",
    "status": "Pending",
    "rowid": "1051356",
    "final_x": "3666817.61217",
    "final_y": "525520.574461",
    "longitude": "-90.11463367461357",
    "latitude": "29.939436832133882",
    "geocoded_column": {
      "latitude": "29.939436832133882",
      "longitude": "-90.11463367461357"
    }
  },
  {
    "service_request": "2023-1051355",
    "request_type": "Trash/Recycling",
    "request_reason": "MIssed Recycling Pick-Up",
    "date_created": "2023-11-21T13:17:01.000",
    "date_modified": "2023-11-21T13:17:02.000",
    "request_status": "Pending",
    "responsible_agency": "Department of Sanitation",
    "final_address": "612 Moss St",
    "address_councildis": "A",
    "status": "Assigned to Contractor",
    "contractor": "Richards Disposal",
    "rowid": "1051355",
    "final_x": "3674346.33147",
    "final_y": "538326.226953",
    "longitude": "-90.09042594106351",
    "latitude": "29.974425777838345",
    "geocoded_column": {
      "latitude": "29.974425777838345",
      "longitude": "-90.09042594106351"
    }
  },
  {
    "service_request": "2023-1051354",
    "request_type": "Trash/Recycling",
    "request_reason": "Replace Recycling Cart",
    "date_created": "2023-11-21T13:16:47.000",
    "date_modified": "2023-11-21T13:16:47.000",
    "request_status": "Pending",
    "responsible_agency": "Department of Sanitation",
    "final_address": "2421 State St",
    "address_councildis": "A",
    "status": "Pending",
    "rowid": "1051354",
    "final_x": "3666817.61217",
    "final_y": "525520.574461",
    "longitude": "-90.11463367461357",
    "latitude": "29.939436832133882",
    "geocoded_column": {
      "latitude": "29.939436832133882",
      "longitude": "-90.11463367461357"
    }
  },
  {
    "service_request": "2023-1051353",
    "request_type": "Property Maintenance",
    "request_reason": "Property Maintenance",
    "date_created": "2023-11-21T13:16:33.000",
    "date_modified": "2023-11-21T13:16:33.000",
    "request_status": "Pending",
    "responsible_agency": "Department of Code Enforcement",
    "final_address": "1825 Duels St",
    "address_councildis": "D",
    "status": "Pending",
    "rowid": "1051353",
    "final_x": "3681743.71688",
    "final_y": "542374.197837",
    "longitude": "-90.0669219512397",
    "latitude": "29.9853335787027",
    "geocoded_column": {
      "latitude": "29.9853335787027",
      "longitude": "-90.0669219512397"
    }
  },
  {
    "service_request": "2023-1051352",
    "request_type": "Trash/Recycling",
    "request_reason": "Repair Recycling Cart",
    "date_created": "2023-11-21T13:15:11.000",
    "date_modified": "2023-11-21T13:15:11.000",
    "request_status": "Pending",
    "responsible_agency": "Department of Sanitation",
    "final_address": "2421 State St",
    "address_councildis": "A",
    "status": "Pending",
    "rowid": "1051352",
    "final_x": "3666817.61217",
    "final_y": "525520.574461",
    "longitude": "-90.11463367461357",
    "latitude": "29.939436832133882",
    "geocoded_column": {
      "latitude": "29.939436832133882",
      "longitude": "-90.11463367461357"
    }
  },
  {
    "service_request": "2023-1051351",
    "request_type": "Roads/Drainage",
    "request_reason": "Pothole",
    "date_created": "2023-11-21T13:12:38.000",
    "date_modified": "2023-11-21T13:12:38.000",
    "request_status": "Pending",
    "responsible_agency": "Department of Public Works",
    "final_address": "1625 Bordeaux St",
    "address_councildis": "B",
    "status": "Pending",
    "rowid": "1051351",
    "final_x": "3669398.33998",
    "final_y": "520940.763257",
    "longitude": "-90.10664074596716",
    "latitude": "29.926768094232536",
    "geocoded_column": {
      "latitude": "29.926768094232536",
      "longitude": "-90.10664074596716"
    }
  },
  {
    "service_request": "2023-1051350",
    "request_type": "Trash/Recycling",
    "request_reason": "Replace Trash Cart",
    "date_created": "2023-11-21T13:08:58.000",
    "date_modified": "2023-11-21T13:08:58.000",
    "request_status": "Pending",
    "responsible_agency": "Department of Sanitation",
    "final_address": "2421 State St",
    "address_councildis": "A",
    "status": "Assigned to Contractor",
    "contractor": "Richards Disposal",
    "rowid": "1051350",
    "final_x": "3666817.61217",
    "final_y": "525520.574461",
    "longitude": "-90.11463367461357",
    "latitude": "29.939436832133882",
    "geocoded_column": {
      "latitude": "29.939436832133882",
      "longitude": "-90.11463367461357"
    }
  },
  {
    "service_request": "2023-1051349",
    "request_type": "Property Maintenance",
    "request_reason": "Property Maintenance",
    "date_created": "2023-11-21T13:07:48.000",
    "date_modified": "2023-11-21T13:09:49.000",
    "request_status": "Pending",
    "responsible_agency": "Department of Code Enforcement",
    "final_address": "6308 Debore Dr",
    "address_councildis": "D",
    "status": "Pending",
    "rowid": "1051349",
    "final_x": "3690745.73545",
    "final_y": "556659.18729",
    "longitude": "-90.03797834077709",
    "latitude": "30.024335418641446",
    "geocoded_column": {
      "latitude": "30.024335418641446",
      "longitude": "-90.03797834077709"
    }
  },
  {
    "service_request": "2023-1051348",
    "request_type": "Trash/Recycling",
    "request_reason": "Replace Trash Cart",
    "date_created": "2023-11-21T13:05:20.000",
    "date_modified": "2023-11-21T13:05:52.000",
    "request_status": "Pending",
    "responsible_agency": "Department of Sanitation",
    "final_address": "1626 Second St",
    "address_councildis": "B",
    "status": "Assigned to Contractor",
    "contractor": "Richards Disposal",
    "rowid": "1051348",
    "final_x": "3676527.07374",
    "final_y": "523245.664059",
    "longitude": "-90.08405790406405",
    "latitude": "29.932894048451985",
    "geocoded_column": {
      "latitude": "29.932894048451985",
      "longitude": "-90.08405790406405"
    }
  },
  {
    "service_request": "2023-1051347",
    "request_type": "Roads/Drainage",
    "request_reason": "Street Subsidence (Sinking)",
    "date_created": "2023-11-21T13:04:35.000",
    "date_modified": "2023-11-21T13:04:35.000",
    "request_status": "Pending",
    "responsible_agency": "Department of Public Works",
    "final_address": "1829 Bordeaux St",
    "address_councildis": "B",
    "status": "Pending",
    "rowid": "1051347",
    "final_x": "3669329.725",
    "final_y": "521672.549241",
    "longitude": "-90.1068326189762",
    "latitude": "29.92878229206484",
    "geocoded_column": {
      "latitude": "29.92878229206484",
      "longitude": "-90.1068326189762"
    }
  },
  {
    "service_request": "2023-1051346",
    "request_type": "Property Maintenance",
    "request_reason": "Property Maintenance",
    "date_created": "2023-11-21T13:03:08.000",
    "date_modified": "2023-11-21T13:03:08.000",
    "request_status": "Pending",
    "responsible_agency": "Department of Code Enforcement",
    "final_address": "6068 Canal Blvd",
    "address_councildis": "A",
    "status": "Pending",
    "rowid": "1051346",
    "final_x": "3668403.33185",
    "final_y": "547897.583826",
    "longitude": "-90.10887238651094",
    "latitude": "30.000919661027034",
    "geocoded_column": {
      "latitude": "30.000919661027034",
      "longitude": "-90.10887238651094"
    }
  },
  {
    "service_request": "2023-1051345",
    "request_type": "Trash/Recycling",
    "request_reason": "Request a Large Item Pick Up",
    "date_created": "2023-11-21T13:00:49.000",
    "date_modified": "2023-11-21T13:00:50.000",
    "request_status": "Pending",
    "responsible_agency": "Department of Sanitation",
    "final_address": "2621 Fats Domino Ave",
    "address_councildis": "E",
    "status": "Assigned to Contractor",
    "contractor": "Waste Pro",
    "rowid": "1051345",
    "final_x": "3699695.32874",
    "final_y": "539553.356234",
    "longitude": "-90.01032350474644",
    "latitude": "29.977019534260414",
    "geocoded_column": {
      "latitude": "29.977019534260414",
      "longitude": "-90.01032350474644"
    }
  },
  {
    "service_request": "2023-1051344",
    "request_type": "Roads/Drainage",
    "request_reason": "Pothole",
    "date_created": "2023-11-21T13:00:34.000",
    "date_modified": "2023-11-21T13:03:48.000",
    "request_status": "Pending",
    "responsible_agency": "Department of Public Works",
    "final_address": "1205 Tupelo St",
    "address_councildis": "E",
    "status": "Pending",
    "rowid": "1051344",
    "final_x": "3699678.25296",
    "final_y": "533683.257093",
    "longitude": "-90.01059145391642",
    "latitude": "29.960879416283117",
    "geocoded_column": {
      "latitude": "29.960879416283117",
      "longitude": "-90.01059145391642"
    }
  },
  {
    "service_request": "2023-1051343",
    "request_type": "Trash/Recycling",
    "request_reason": "MIssed Recycling Pick-Up",
    "date_created": "2023-11-21T12:57:45.000",
    "date_modified": "2023-11-21T12:57:46.000",
    "request_status": "Pending",
    "responsible_agency": "Department of Sanitation",
    "final_address": "5200 BLK Michoud Blvd",
    "address_councildis": "E",
    "status": "Assigned to Contractor",
    "contractor": "Waste Pro",
    "rowid": "1051343",
    "final_x": "3724746.43761",
    "final_y": "562618.620613",
    "longitude": "-89.93031323904569",
    "latitude": "30.039620714465073",
    "geocoded_column": {
      "latitude": "30.039620714465073",
      "longitude": "-89.93031323904569"
    }
  },
  {
    "service_request": "2023-1051342",
    "request_type": "Trash/Recycling",
    "request_reason": "Repair Trash Cart",
    "date_created": "2023-11-21T12:51:48.000",
    "date_modified": "2023-11-21T12:51:48.000",
    "request_status": "Pending",
    "responsible_agency": "Department of Sanitation",
    "final_address": "940 Mouton St",
    "address_councildis": "A",
    "status": "Assigned to Contractor",
    "contractor": "IV Waste",
    "rowid": "1051342",
    "final_x": "3670810.63649",
    "final_y": "553115.633879",
    "longitude": "-90.10109023236915",
    "latitude": "30.01519651053367",
    "geocoded_column": {
      "latitude": "30.01519651053367",
      "longitude": "-90.10109023236915"
    }
  },
  {
    "service_request": "2023-1051341",
    "request_type": "Trash/Recycling",
    "request_reason": "Request a Large Item Pick Up",
    "date_created": "2023-11-21T12:49:05.000",
    "date_modified": "2023-11-21T12:49:06.000",
    "request_status": "Pending",
    "responsible_agency": "Department of Sanitation",
    "final_address": "89 Spanish Fort Blvd",
    "address_councildis": "D",
    "status": "Assigned to Contractor",
    "contractor": "IV Waste",
    "rowid": "1051341",
    "final_x": "3673988.38542",
    "final_y": "555750.480537",
    "longitude": "-90.09095976122573",
    "latitude": "30.0223470453973",
    "geocoded_column": {
      "latitude": "30.0223470453973",
      "longitude": "-90.09095976122573"
    }
  },
  {
    "service_request": "2023-1051340",
    "request_type": "Trash/Recycling",
    "request_reason": "Request a Large Item Pick Up",
    "date_created": "2023-11-21T12:46:39.000",
    "date_modified": "2023-11-21T12:46:40.000",
    "request_status": "Pending",
    "responsible_agency": "Department of Sanitation",
    "final_address": "637 St Philip St",
    "address_councildis": "C",
    "status": "Assigned to Contractor",
    "contractor": "Empire Services",
    "rowid": "1051340",
    "final_x": "3683327.60271",
    "final_y": "533287.689988",
    "longitude": "-90.06223749875235",
    "latitude": "29.960300609617587",
    "geocoded_column": {
      "latitude": "29.960300609617587",
      "longitude": "-90.06223749875235"
    }
  },
  {
    "service_request": "2023-1051339",
    "request_type": "Trash/Recycling",
    "request_reason": "Request a Large Item Pick Up",
    "date_created": "2023-11-21T12:39:00.000",
    "date_modified": "2023-11-21T12:39:01.000",
    "request_status": "Pending",
    "responsible_agency": "Department of Sanitation",
    "final_address": "7822 Zimple St",
    "address_councildis": "A",
    "status": "Assigned to Contractor",
    "contractor": "Richards Disposal",
    "rowid": "1051339",
    "final_x": "3662345.90432",
    "final_y": "527359.628415",
    "longitude": "-90.12869047531791",
    "latitude": "29.94462366318619",
    "geocoded_column": {
      "latitude": "29.94462366318619",
      "longitude": "-90.12869047531791"
    }
  },
  {
    "service_request": "2023-1051338",
    "request_type": "Trash/Recycling",
    "request_reason": "Request a Large Item Pick Up",
    "date_created": "2023-11-21T12:38:11.000",
    "date_modified": "2023-11-21T12:38:12.000",
    "request_status": "Pending",
    "responsible_agency": "Department of Sanitation",
    "final_address": "EUPHROSINE ST & S TELEMACHUS ST",
    "address_councildis": "B",
    "status": "Assigned to Contractor",
    "contractor": "Richards Disposal",
    "rowid": "1051338",
    "final_x": "3669617.5",
    "final_y": "533652.98",
    "longitude": "-90.10551891533099",
    "latitude": "29.961716104688463",
    "geocoded_column": {
      "latitude": "29.961716104688463",
      "longitude": "-90.10551891533099"
    }
  },
  {
    "service_request": "2023-1051337",
    "request_type": "Trash/Recycling",
    "request_reason": "Repair Trash Cart",
    "date_created": "2023-11-21T12:36:17.000",
    "date_modified": "2023-11-21T12:36:18.000",
    "request_status": "Pending",
    "responsible_agency": "Department of Sanitation",
    "final_address": "1510 Camp St",
    "address_councildis": "B",
    "status": "Assigned to Contractor",
    "contractor": "Richards Disposal",
    "rowid": "1051337",
    "final_x": "3679822.49531",
    "final_y": "523830.065019",
    "longitude": "-90.07363422519695",
    "latitude": "29.934401754262023",
    "geocoded_column": {
      "latitude": "29.934401754262023",
      "longitude": "-90.07363422519695"
    }
  },
  {
    "service_request": "2023-1051336",
    "request_type": "Trash/Recycling",
    "request_reason": "Missed Trash Pick-Up",
    "date_created": "2023-11-21T12:35:12.000",
    "date_modified": "2023-11-21T12:35:12.000",
    "request_status": "Pending",
    "responsible_agency": "Department of Sanitation",
    "final_address": "1510 Camp St",
    "address_councildis": "B",
    "status": "Assigned to Contractor",
    "contractor": "Richards Disposal",
    "rowid": "1051336",
    "final_x": "3679822.49531",
    "final_y": "523830.065019",
    "longitude": "-90.07363422519695",
    "latitude": "29.934401754262023",
    "geocoded_column": {
      "latitude": "29.934401754262023",
      "longitude": "-90.07363422519695"
    }
  },
  {
    "service_request": "2023-1051335",
    "request_type": "Trash/Recycling",
    "request_reason": "Request a Large Item Pick Up",
    "date_created": "2023-11-21T12:33:10.000",
    "date_modified": "2023-11-21T12:33:11.000",
    "request_status": "Pending",
    "responsible_agency": "Department of Sanitation",
    "final_address": "9029 Green St",
    "address_councildis": "A",
    "status": "Assigned to Contractor",
    "contractor": "Richards Disposal",
    "rowid": "1051335",
    "final_x": "3660651.99846",
    "final_y": "532001.686595",
    "longitude": "-90.13388524595148",
    "latitude": "29.957436694237707",
    "geocoded_column": {
      "latitude": "29.957436694237707",
      "longitude": "-90.13388524595148"
    }
  },
  {
    "service_request": "2023-1051334",
    "request_type": "Abandoned Vehicles",
    "request_reason": "Abandoned/Junk Vehicles",
    "date_created": "2023-11-21T12:30:58.000",
    "date_modified": "2023-11-21T12:30:58.000",
    "request_status": "Pending",
    "responsible_agency": "Department of Public Works",
    "final_address": "1901 Prytania St",
    "address_councildis": "B",
    "status": "Pending",
    "rowid": "1051334",
    "final_x": "3678641.62408",
    "final_y": "523909.093372",
    "longitude": "-90.07735946925473",
    "latitude": "29.93465469994406",
    "geocoded_column": {
      "latitude": "29.93465469994406",
      "longitude": "-90.07735946925473"
    }
  },
  {
    "service_request": "2023-1051333",
    "request_type": "Trash/Recycling",
    "request_reason": "Order Recycling Cart",
    "date_created": "2023-11-21T12:30:51.000",
    "date_modified": "2023-11-21T12:30:51.000",
    "request_status": "Pending",
    "responsible_agency": "Department of Sanitation",
    "final_address": "5710 Patton St",
    "address_councildis": "A",
    "status": "Pending",
    "rowid": "1051333",
    "final_x": "3665554.55757",
    "final_y": "518272.35135",
    "longitude": "-90.11886386300525",
    "latitude": "29.91954338930887",
    "geocoded_column": {
      "latitude": "29.91954338930887",
      "longitude": "-90.11886386300525"
    }
  },
  {
    "service_request": "2023-1051332",
    "request_type": "Trash/Recycling",
    "request_reason": "Missed Trash Pick-Up",
    "date_created": "2023-11-21T12:30:42.000",
    "date_modified": "2023-11-21T12:31:33.000",
    "request_status": "Pending",
    "responsible_agency": "Department of Sanitation",
    "final_address": "1600 BLK Dufossat St",
    "address_councildis": "B",
    "status": "Assigned to Contractor",
    "contractor": "Richards Disposal",
    "rowid": "1051332",
    "final_x": "3668138.5295",
    "final_y": "521631.641892",
    "longitude": "-90.11059436927883",
    "latitude": "29.928704815820403",
    "geocoded_column": {
      "latitude": "29.928704815820403",
      "longitude": "-90.11059436927883"
    }
  },
  {
    "service_request": "2023-1051331",
    "request_type": "Trash/Recycling",
    "request_reason": "Request a Large Item Pick Up",
    "date_created": "2023-11-21T12:30:05.000",
    "date_modified": "2023-11-21T12:30:05.000",
    "request_status": "Pending",
    "responsible_agency": "Department of Sanitation",
    "final_address": "1469 Westbrook Dr",
    "address_councildis": "D",
    "status": "Assigned to Contractor",
    "contractor": "IV Waste",
    "rowid": "1051331",
    "final_x": "3678296.32629",
    "final_y": "549564.627219",
    "longitude": "-90.07756192265667",
    "latitude": "30.00520904112432",
    "geocoded_column": {
      "latitude": "30.00520904112432",
      "longitude": "-90.07756192265667"
    }
  },
  {
    "service_request": "2023-1051330",
    "request_type": "Trash/Recycling",
    "request_reason": "Replace Trash Cart",
    "date_created": "2023-11-21T12:29:26.000",
    "date_modified": "2023-11-21T12:29:32.000",
    "request_status": "Pending",
    "responsible_agency": "Department of Sanitation",
    "final_address": "5710 Patton St",
    "address_councildis": "A",
    "status": "Assigned to Contractor",
    "contractor": "Richards Disposal",
    "rowid": "1051330",
    "final_x": "3665554.55757",
    "final_y": "518272.35135",
    "longitude": "-90.11886386300525",
    "latitude": "29.91954338930887",
    "geocoded_column": {
      "latitude": "29.91954338930887",
      "longitude": "-90.11886386300525"
    }
  },
  {
    "service_request": "2023-1051329",
    "request_type": "Trash/Recycling",
    "request_reason": "MIssed Recycling Pick-Up",
    "date_created": "2023-11-21T12:25:01.000",
    "date_modified": "2023-11-21T12:55:32.000",
    "case_close_date": "2023-11-21T06:55:32.000",
    "request_status": "Closed",
    "responsible_agency": "Department of Sanitation",
    "final_address": "3303 N Claiborne Ave",
    "address_councildis": "D",
    "status": "Invalid Request",
    "contractor": "IV Waste",
    "contractor_action": "Invalid Pick-Up",
    "rowid": "1051329",
    "final_x": "3690479.07868",
    "final_y": "537649.29332",
    "longitude": "-90.03949918482228",
    "latitude": "29.97207341437952",
    "geocoded_column": {
      "latitude": "29.97207341437952",
      "longitude": "-90.03949918482228"
    }
  },
  {
    "service_request": "2023-1051328",
    "request_type": "Trash/Recycling",
    "request_reason": "Order Recycling Cart",
    "date_created": "2023-11-21T12:24:05.000",
    "date_modified": "2023-11-21T12:24:05.000",
    "request_status": "Pending",
    "responsible_agency": "Department of Sanitation",
    "final_address": "416 Hay Pl",
    "address_councildis": "A",
    "status": "Pending",
    "rowid": "1051328",
    "final_x": "3664991.8274",
    "final_y": "554177.157784",
    "longitude": "-90.11943948108885",
    "latitude": "30.018286106522915",
    "geocoded_column": {
      "latitude": "30.018286106522915",
      "longitude": "-90.11943948108885"
    }
  },
  {
    "service_request": "2023-1051327",
    "request_type": "Trash/Recycling",
    "request_reason": "Order Trash Cart",
    "date_created": "2023-11-21T12:23:38.000",
    "date_modified": "2023-11-21T12:23:39.000",
    "request_status": "Pending",
    "responsible_agency": "Department of Sanitation",
    "final_address": "416 Hay Pl",
    "address_councildis": "A",
    "status": "Assigned to Contractor",
    "contractor": "IV Waste",
    "rowid": "1051327",
    "final_x": "3664991.8274",
    "final_y": "554177.157784",
    "longitude": "-90.11943948108885",
    "latitude": "30.018286106522915",
    "geocoded_column": {
      "latitude": "30.018286106522915",
      "longitude": "-90.11943948108885"
    }
  },
  {
    "service_request": "2023-1051326",
    "request_type": "Trash/Recycling",
    "request_reason": "Missed Trash Pick-Up",
    "date_created": "2023-11-21T12:22:36.000",
    "date_modified": "2023-11-21T12:22:37.000",
    "request_status": "Pending",
    "responsible_agency": "Department of Sanitation",
    "final_address": "225 Whitney Ave",
    "address_councildis": "C",
    "status": "Assigned to Contractor",
    "contractor": "Richards Disposal",
    "rowid": "1051326",
    "final_x": "3690212.01193",
    "final_y": "530834.475202",
    "longitude": "-90.04058543924532",
    "latitude": "29.953343333803574",
    "geocoded_column": {
      "latitude": "29.953343333803574",
      "longitude": "-90.04058543924532"
    }
  },
  {
    "service_request": "2023-1051325",
    "request_type": "Trash/Recycling",
    "request_reason": "MIssed Recycling Pick-Up",
    "date_created": "2023-11-21T12:22:09.000",
    "date_modified": "2023-11-21T12:22:20.000",
    "case_close_date": "2023-10-20T19:00:00.000",
    "request_status": "Closed",
    "responsible_agency": "Department of Sanitation",
    "final_address": "3303 N Claiborne Ave",
    "address_councildis": "D",
    "status": "Invalid Request",
    "contractor": "IV Waste",
    "contractor_action": "Invalid Pick-Up",
    "rowid": "1051325",
    "final_x": "3690479.07868",
    "final_y": "537649.29332",
    "longitude": "-90.03949918482228",
    "latitude": "29.97207341437952",
    "geocoded_column": {
      "latitude": "29.97207341437952",
      "longitude": "-90.03949918482228"
    }
  },
  {
    "service_request": "2023-1051324",
    "request_type": "Trash/Recycling",
    "request_reason": "Request a Large Item Pick Up",
    "date_created": "2023-11-21T12:22:03.000",
    "date_modified": "2023-11-21T12:22:04.000",
    "request_status": "Pending",
    "responsible_agency": "Department of Sanitation",
    "final_address": "10210 Dreux Ave",
    "address_councildis": "E",
    "status": "Assigned to Contractor",
    "contractor": "Waste Pro",
    "rowid": "1051324",
    "final_x": "3713284.41291",
    "final_y": "555864.715865",
    "longitude": "-89.96679088741085",
    "latitude": "30.021431081423433",
    "geocoded_column": {
      "latitude": "30.021431081423433",
      "longitude": "-89.96679088741085"
    }
  },
  {
    "service_request": "2023-1051323",
    "request_type": "Parks & Parkways",
    "request_reason": "Request Tree Service (Right of Way/Public Property)",
    "date_created": "2023-11-21T12:19:17.000",
    "date_modified": "2023-11-21T12:19:17.000",
    "request_status": "Pending",
    "responsible_agency": "Department of Parks & Parkway",
    "final_address": "6058 Perlita St",
    "address_councildis": "D",
    "status": "Pending",
    "rowid": "1051323",
    "final_x": "3678247.33768",
    "final_y": "554802.129048",
    "longitude": "-90.07753534598953",
    "latitude": "30.01961176416025",
    "geocoded_column": {
      "latitude": "30.01961176416025",
      "longitude": "-90.07753534598953"
    }
  },
  {
    "service_request": "2023-1051322",
    "request_type": "Trash/Recycling",
    "request_reason": "Illegal Dumping",
    "date_created": "2023-11-21T12:18:42.000",
    "date_modified": "2023-11-21T12:18:42.000",
    "request_status": "Pending",
    "responsible_agency": "Department of Sanitation",
    "final_address": "3612 Upperline St",
    "address_councildis": "B",
    "status": "Pending",
    "rowid": "1051322",
    "final_x": "3669257.15047",
    "final_y": "528162.601152",
    "longitude": "-90.10684242432613",
    "latitude": "29.94662997876134",
    "geocoded_column": {
      "latitude": "29.94662997876134",
      "longitude": "-90.10684242432613"
    }
  },
  {
    "service_request": "2023-1051321",
    "request_type": "Trash/Recycling",
    "request_reason": "Order Trash Cart",
    "date_created": "2023-11-21T12:14:30.000",
    "date_modified": "2023-11-21T12:14:31.000",
    "request_status": "Pending",
    "responsible_agency": "Department of Sanitation",
    "final_address": "7817 Vanderkloot Ave",
    "address_councildis": "E",
    "status": "Assigned to Contractor",
    "contractor": "Waste Pro",
    "rowid": "1051321",
    "final_x": "3705690.68011",
    "final_y": "563773.187617",
    "longitude": "-89.99049196718526",
    "latitude": "30.043423108863923",
    "geocoded_column": {
      "latitude": "30.043423108863923",
      "longitude": "-89.99049196718526"
    }
  },
  {
    "service_request": "2023-1051320",
    "request_type": "Traffic Signals/Signs/Striping/Streetlights",
    "request_reason": "Street Light Outage/Malfunction",
    "date_created": "2023-11-21T12:13:19.000",
    "date_modified": "2023-11-21T12:13:20.000",
    "request_status": "Pending",
    "responsible_agency": "Department of Public Works",
    "final_address": "1834 Broadway St",
    "address_councildis": "A",
    "status": "Assigned to Contractor",
    "contractor": "Legacy Professional Services",
    "rowid": "1051320",
    "final_x": "3665456.008",
    "final_y": "528520.851968",
    "longitude": "-90.118832057248",
    "latitude": "29.947726380948694",
    "geocoded_column": {
      "latitude": "29.947726380948694",
      "longitude": "-90.118832057248"
    }
  },
  {
    "service_request": "2023-1051319",
    "request_type": "Trash/Recycling",
    "request_reason": "Dead Animal Pick Up",
    "date_created": "2023-11-21T12:12:10.000",
    "date_modified": "2023-11-21T12:12:10.000",
    "request_status": "Pending",
    "responsible_agency": "Department of Sanitation",
    "final_address": "8931 Peach St",
    "address_councildis": "A",
    "status": "Assigned to Contractor",
    "contractor": "Richards Disposal",
    "rowid": "1051319",
    "final_x": "3666423.65069",
    "final_y": "537812.455304",
    "longitude": "-90.11546500199275",
    "latitude": "29.973246999721784",
    "geocoded_column": {
      "latitude": "29.973246999721784",
      "longitude": "-90.11546500199275"
    }
  },
  {
    "service_request": "2023-1051317",
    "request_type": "Traffic Signals/Signs/Striping/Streetlights",
    "request_reason": "Street Light Outage/Malfunction",
    "date_created": "2023-11-21T12:09:36.000",
    "date_modified": "2023-11-21T12:09:37.000",
    "request_status": "Pending",
    "responsible_agency": "Department of Public Works",
    "final_address": "1834 Broadway St",
    "address_councildis": "A",
    "status": "Assigned to Contractor",
    "contractor": "Legacy Professional Services",
    "rowid": "1051317",
    "final_x": "3665456.008",
    "final_y": "528520.851968",
    "longitude": "-90.118832057248",
    "latitude": "29.947726380948694",
    "geocoded_column": {
      "latitude": "29.947726380948694",
      "longitude": "-90.118832057248"
    }
  },
  {
    "service_request": "2023-1051316",
    "request_type": "Property Maintenance",
    "request_reason": "Property Maintenance",
    "date_created": "2023-11-21T12:07:33.000",
    "date_modified": "2023-11-21T12:07:33.000",
    "request_status": "Pending",
    "responsible_agency": "Department of Code Enforcement",
    "final_address": "S ROMAN ST & CANAL ST",
    "address_councildis": "B",
    "status": "Pending",
    "rowid": "1051316",
    "final_x": "3677793.5",
    "final_y": "533199.48",
    "longitude": "-90.07971609870623",
    "latitude": "29.96022570467552",
    "geocoded_column": {
      "latitude": "29.96022570467552",
      "longitude": "-90.07971609870623"
    }
  },
  {
    "service_request": "2023-1051315",
    "request_type": "Traffic Signals/Signs/Striping/Streetlights",
    "request_reason": "Street Light Outage/Malfunction",
    "date_created": "2023-11-21T12:05:10.000",
    "date_modified": "2023-11-21T12:05:11.000",
    "request_status": "Pending",
    "responsible_agency": "Department of Public Works",
    "final_address": "1834 Broadway St",
    "address_councildis": "A",
    "status": "Assigned to Contractor",
    "contractor": "Legacy Professional Services",
    "rowid": "1051315",
    "final_x": "3665456.008",
    "final_y": "528520.851968",
    "longitude": "-90.118832057248",
    "latitude": "29.947726380948694",
    "geocoded_column": {
      "latitude": "29.947726380948694",
      "longitude": "-90.118832057248"
    }
  },
  {
    "service_request": "2023-1051314",
    "request_type": "Abandoned Vehicles",
    "request_reason": "Abandoned/Junk Vehicles",
    "date_created": "2023-11-21T11:59:10.000",
    "date_modified": "2023-11-21T11:59:11.000",
    "request_status": "Pending",
    "responsible_agency": "Department of Public Works",
    "final_address": "900 Pacific Ave",
    "address_councildis": "C",
    "status": "Pending",
    "rowid": "1051314",
    "final_x": "3688482.65436",
    "final_y": "528276.6928",
    "longitude": "-90.04613672160968",
    "latitude": "29.94636384380555",
    "geocoded_column": {
      "latitude": "29.94636384380555",
      "longitude": "-90.04613672160968"
    }
  },