[
  {
    "service_request": "2024-1114770",
    "request_type": "Utility Poles",
    "request_reason": "Utility Pole Leaning",
    "date_created": "2024-07-22T23:00:10.000",
    "date_modified": "2024-07-22T23:00:17.000",
    "request_status": "Pending",
    "responsible_agency": "Utility Company Collective",
    "final_address": "2501 Amelia St",
    "address_councildis": "B",
    "status": "Pending",
    "rowid": "1114770",
    "final_x": "3672390.71553",
    "final_y": "524322.746748",
    "longitude": "-90.09707941732725",
    "latitude": "29.93597903240438",
    "geocoded_column": {
      "latitude": "29.93597903240438",
      "longitude": "-90.09707941732725"
    }
  },
  {
    "service_request": "2024-1114769",
    "request_type": "Trash/Recycling",
    "request_reason": "Missed Trash Pick-Up",
    "date_created": "2024-07-22T22:32:49.000",
    "date_modified": "2024-07-22T22:32:50.000",
    "request_status": "Pending",
    "responsible_agency": "Department of Sanitation",
    "final_address": "633 Harmony St",
    "address_councildis": "B",
    "status": "Assigned to Contractor",
    "contractor": "IV Waste",
    "rowid": "1114769",
    "final_x": "3676545.82497",
    "final_y": "518607.671415",
    "longitude": "-90.08415833008416",
    "latitude": "29.92014051024334",
    "geocoded_column": {
      "latitude": "29.92014051024334",
      "longitude": "-90.08415833008416"
    }
  },
  {
    "service_request": "2024-1114768",
    "request_type": "Trash/Recycling",
    "request_reason": "Illegal Dumping",
    "date_created": "2024-07-22T22:09:15.000",
    "date_modified": "2024-07-22T22:09:15.000",
    "request_status": "Pending",
    "responsible_agency": "Department of Sanitation",
    "final_address": "4007 St Charles Ave",
    "address_councildis": "B",
    "status": "Pending",
    "rowid": "1114768",
    "final_x": "3672200.40097",
    "final_y": "521068.107193",
    "longitude": "-90.09779103945499",
    "latitude": "29.927035467644565",
    "geocoded_column": {
      "latitude": "29.927035467644565",
      "longitude": "-90.09779103945499"
    }
  },
  {
    "service_request": "2024-1114767",
    "request_type": "Trash/Recycling",
    "request_reason": "Request a Large Item Pick Up",
    "date_created": "2024-07-22T21:51:07.000",
    "date_modified": "2024-07-22T21:51:08.000",
    "request_status": "Pending",
    "responsible_agency": "Department of Sanitation",
    "final_address": "500 BLK Pelican Ave",
    "address_councildis": "C",
    "status": "Assigned to Contractor",
    "contractor": "Richards Disposal",
    "rowid": "1114767",
    "final_x": "3687044.3119",
    "final_y": "530762.539641",
    "longitude": "-90.05059019838723",
    "latitude": "29.95324342369387",
    "geocoded_column": {
      "latitude": "29.95324342369387",
      "longitude": "-90.05059019838723"
    }
  },
  {
    "service_request": "2024-1114766",
    "request_type": "Trash/Recycling",
    "request_reason": "Replace Recycling Cart",
    "date_created": "2024-07-22T20:21:52.000",
    "date_modified": "2024-07-22T20:21:52.000",
    "request_status": "Pending",
    "responsible_agency": "Department of Sanitation",
    "final_address": "925 N Lopez St",
    "address_councildis": "A",
    "status": "Pending",
    "rowid": "1114766",
    "final_x": "3675802.01352",
    "final_y": "538822.385097",
    "longitude": "-90.0858114841512",
    "latitude": "29.975746545768466",
    "geocoded_column": {
      "latitude": "29.975746545768466",
      "longitude": "-90.0858114841512"
    }
  },
  {
    "service_request": "2024-1114765",
    "request_type": "Property Maintenance",
    "request_reason": "Property Maintenance",
    "date_created": "2024-07-22T20:10:19.000",
    "date_modified": "2024-07-22T20:10:19.000",
    "request_status": "Pending",
    "responsible_agency": "Department of Code Enforcement",
    "final_address": "4334 Lonely Oak Dr",
    "address_councildis": "E",
    "status": "Pending",
    "rowid": "1114765",
    "final_x": "3702516.67524",
    "final_y": "552653.685974",
    "longitude": "-90.0009317372445",
    "latitude": "30.012950681463828",
    "geocoded_column": {
      "latitude": "30.012950681463828",
      "longitude": "-90.0009317372445"
    }
  },
  {
    "service_request": "2024-1114764",
    "request_type": "Mosquito, Termite & Rodent Control",
    "request_reason": "Rodent Complaint (Rats)",
    "date_created": "2024-07-22T20:06:37.000",
    "date_modified": "2024-07-22T20:06:37.000",
    "request_status": "Pending",
    "responsible_agency": "Mosquito, Termite & Rodent Control Board",
    "final_address": "4334 Lonely Oak Dr",
    "address_councildis": "E",
    "status": "Pending",
    "rowid": "1114764",
    "final_x": "3702516.67524",
    "final_y": "552653.685974",
    "longitude": "-90.0009317372445",
    "latitude": "30.012950681463828",
    "geocoded_column": {
      "latitude": "30.012950681463828",
      "longitude": "-90.0009317372445"
    }
  },
  {
    "service_request": "2024-1114763",
    "request_type": "Trash/Recycling",
    "request_reason": "Request a Large Item Pick Up",
    "date_created": "2024-07-22T19:50:48.000",
    "date_modified": "2024-07-22T19:50:49.000",
    "request_status": "Pending",
    "responsible_agency": "Department of Sanitation",
    "final_address": "10311 Flossmoor Dr",
    "address_councildis": "E",
    "status": "Assigned to Contractor",
    "contractor": "Waste Pro",
    "rowid": "1114763",
    "final_x": "3709955.83768",
    "final_y": "563931.027297",
    "longitude": "-89.97700648445907",
    "latitude": "30.04371897655244",
    "geocoded_column": {
      "latitude": "30.04371897655244",
      "longitude": "-89.97700648445907"
    }
  },
  {
    "service_request": "2024-1114762",
    "request_type": "Property Maintenance",
    "request_reason": "Property Maintenance",
    "date_created": "2024-07-22T19:47:44.000",
    "date_modified": "2024-07-22T19:47:44.000",
    "request_status": "Pending",
    "responsible_agency": "Department of Code Enforcement",
    "final_address": "4336 Lonely Oak Dr",
    "address_councildis": "E",
    "status": "Pending",
    "rowid": "1114762",
    "final_x": "3702510.35921",
    "final_y": "552680.217686",
    "longitude": "-90.00095071761247",
    "latitude": "30.0130238355167",
    "geocoded_column": {
      "latitude": "30.0130238355167",
      "longitude": "-90.00095071761247"
    }
  },
  {
    "service_request": "2024-1114761",
    "request_type": "Property Maintenance",
    "request_reason": "Property Maintenance",
    "date_created": "2024-07-22T19:44:52.000",
    "date_modified": "2024-07-22T19:44:52.000",
    "request_status": "Pending",
    "responsible_agency": "Department of Code Enforcement",
    "final_address": "4334 Lonely Oak Dr",
    "address_councildis": "E",
    "status": "Pending",
    "rowid": "1114761",
    "final_x": "3702516.67524",
    "final_y": "552653.685974",
    "longitude": "-90.0009317372445",
    "latitude": "30.012950681463828",
    "geocoded_column": {
      "latitude": "30.012950681463828",
      "longitude": "-90.0009317372445"
    }
  },
  {
    "service_request": "2024-1114760",
    "request_type": "Abandoned Vehicles",
    "request_reason": "Abandoned/Junk Vehicles",
    "date_created": "2024-07-22T19:37:23.000",
    "date_modified": "2024-07-22T19:37:23.000",
    "request_status": "Pending",
    "responsible_agency": "Department of Public Works",
    "final_address": "2424 Hamilton St",
    "address_councildis": "A",
    "status": "Pending",
    "rowid": "1114760",
    "final_x": "3662333.49197",
    "final_y": "534078.535685",
    "longitude": "-90.12850660836936",
    "latitude": "29.963098848028082",
    "geocoded_column": {
      "latitude": "29.963098848028082",
      "longitude": "-90.12850660836936"
    }
  },
  {
    "service_request": "2024-1114759",
    "request_type": "Property Maintenance",
    "request_reason": "Property Maintenance",
    "date_created": "2024-07-22T19:28:06.000",
    "date_modified": "2024-07-22T19:28:06.000",
    "request_status": "Pending",
    "responsible_agency": "Department of Code Enforcement",
    "final_address": "6001 General Haig St",
    "address_councildis": "A",
    "status": "Pending",
    "rowid": "1114759",
    "final_x": "3670609.21691",
    "final_y": "547148.856081",
    "longitude": "-90.10192922511796",
    "latitude": "29.998795920007282",
    "geocoded_column": {
      "latitude": "29.998795920007282",
      "longitude": "-90.10192922511796"
    }
  },
  {
    "service_request": "2024-1114758",
    "request_type": "Property Maintenance",
    "request_reason": "Property Maintenance",
    "date_created": "2024-07-22T19:27:43.000",
    "date_modified": "2024-07-22T19:27:43.000",
    "request_status": "Pending",
    "responsible_agency": "Department of Code Enforcement",
    "final_address": "4336 Lonely Oak Dr",
    "address_councildis": "E",
    "status": "Pending",
    "rowid": "1114758",
    "final_x": "3702510.35921",
    "final_y": "552680.217686",
    "longitude": "-90.00095071761247",
    "latitude": "30.0130238355167",
    "geocoded_column": {
      "latitude": "30.0130238355167",
      "longitude": "-90.00095071761247"
    }
  },
  {
    "service_request": "2024-1114757",
    "request_type": "Trash/Recycling",
    "request_reason": "Request a Large Item Pick Up",
    "date_created": "2024-07-22T19:27:04.000",
    "date_modified": "2024-07-22T19:27:05.000",
    "request_status": "Pending",
    "responsible_agency": "Department of Sanitation",
    "final_address": "1600 Holiday Pl",
    "address_councildis": "C",
    "status": "Assigned to Contractor",
    "contractor": "Richards Disposal",
    "rowid": "1114757",
    "final_x": "3699009.20727",
    "final_y": "525239.677053",
    "longitude": "-90.01301139306163",
    "latitude": "29.937683760490604",
    "geocoded_column": {
      "latitude": "29.937683760490604",
      "longitude": "-90.01301139306163"
    }
  },
  {
    "service_request": "2024-1114756",
    "request_type": "Property Maintenance",
    "request_reason": "Property Maintenance",
    "date_created": "2024-07-22T19:26:03.000",
    "date_modified": "2024-07-22T19:26:03.000",
    "request_status": "Pending",
    "responsible_agency": "Department of Code Enforcement",
    "final_address": "4334 Lonely Oak Dr",
    "address_councildis": "E",
    "status": "Pending",
    "rowid": "1114756",
    "final_x": "3702516.67524",
    "final_y": "552653.685974",
    "longitude": "-90.0009317372445",
    "latitude": "30.012950681463828",
    "geocoded_column": {
      "latitude": "30.012950681463828",
      "longitude": "-90.0009317372445"
    }
  },
  {
    "service_request": "2024-1114755",
    "request_type": "Healthy Homes",
    "request_reason": "Healthy Homes",
    "date_created": "2024-07-22T19:20:44.000",
    "date_modified": "2024-07-22T19:20:44.000",
    "request_status": "Pending",
    "responsible_agency": "Department of Code Enforcement",
    "final_address": "2315 Laharpe St",
    "address_councildis": "D",
    "status": "Pending",
    "rowid": "1114755",
    "final_x": "3679928.90747",
    "final_y": "539156.185098",
    "longitude": "-90.072765999211",
    "latitude": "29.976540189828786",
    "geocoded_column": {
      "latitude": "29.976540189828786",
      "longitude": "-90.072765999211"
    }
  },
  {
    "service_request": "2024-1114753",
    "request_type": "Abandoned Vehicles",
    "request_reason": "Abandoned/Junk Vehicles",
    "date_created": "2024-07-22T18:48:05.000",
    "date_modified": "2024-07-22T18:48:05.000",
    "request_status": "Pending",
    "responsible_agency": "Department of Public Works",
    "final_address": "MANDOLIN ST & ST ANTHONY AVE",
    "address_councildis": "D",
    "status": "Pending",
    "rowid": "1114753",
    "final_x": "3682566.6",
    "final_y": "548342.48",
    "longitude": "-90.06411399685514",
    "latitude": "30.00171920200416",
    "geocoded_column": {
      "latitude": "30.00171920200416",
      "longitude": "-90.06411399685514"
    }
  },
  {
    "service_request": "2024-1114752",
    "request_type": "Trash/Recycling",
    "request_reason": "Order Recycling Cart",
    "date_created": "2024-07-22T18:46:31.000",
    "date_modified": "2024-07-22T18:46:31.000",
    "request_status": "Pending",
    "responsible_agency": "Department of Sanitation",
    "final_address": "3225 Dauphine St",
    "address_councildis": "C",
    "status": "Pending",
    "rowid": "1114752",
    "final_x": "3689491.62652",
    "final_y": "534692.436038",
    "longitude": "-90.04272289201302",
    "latitude": "29.96397371524081",
    "geocoded_column": {
      "latitude": "29.96397371524081",
      "longitude": "-90.04272289201302"
    }
  },
  {
    "service_request": "2024-1114751",
    "request_type": "Roads/Drainage",
    "request_reason": "Pothole",
    "date_created": "2024-07-22T18:37:29.000",
    "date_modified": "2024-07-22T18:37:29.000",
    "request_status": "Pending",
    "responsible_agency": "Department of Public Works",
    "final_address": "4216 Chestnut St",
    "address_councildis": "B",
    "status": "Pending",
    "rowid": "1114751",
    "final_x": "3671574.31393",
    "final_y": "519539.203703",
    "longitude": "-90.09981939416457",
    "latitude": "29.922850019854593",
    "geocoded_column": {
      "latitude": "29.922850019854593",
      "longitude": "-90.09981939416457"
    }
  },
  {
    "service_request": "2024-1114750",
    "request_type": "Roads/Drainage",
    "request_reason": "Pothole",
    "date_created": "2024-07-22T18:37:00.000",
    "date_modified": "2024-07-22T18:37:00.000",
    "request_status": "Pending",
    "responsible_agency": "Department of Public Works",
    "final_address": "1312 Milan St",
    "address_councildis": "B",
    "status": "Pending",
    "rowid": "1114750",
    "final_x": "3671625.82823",
    "final_y": "520286.919608",
    "longitude": "-90.09963137110304",
    "latitude": "29.92490447494246",
    "geocoded_column": {
      "latitude": "29.92490447494246",
      "longitude": "-90.09963137110304"
    }
  },
  {
    "service_request": "2024-1114749",
    "request_type": "Roads/Drainage",
    "request_reason": "Street Subsidence (Sinking)",
    "date_created": "2024-07-22T18:36:29.000",
    "date_modified": "2024-07-22T18:36:29.000",
    "request_status": "Pending",
    "responsible_agency": "Department of Public Works",
    "final_address": "1428 Burbank Dr",
    "address_councildis": "D",
    "status": "Pending",
    "rowid": "1114749",
    "final_x": "3677705.01717",
    "final_y": "554234.256024",
    "longitude": "-90.07926853819262",
    "latitude": "30.018066650519753",
    "geocoded_column": {
      "latitude": "30.018066650519753",
      "longitude": "-90.07926853819262"
    }
  },
  {
    "service_request": "2024-1114748",
    "request_type": "Traffic Signals/Signs/Striping/Streetlights",
    "request_reason": "Street Name Sign Damaged or Missing",
    "date_created": "2024-07-22T18:35:07.000",
    "date_modified": "2024-07-22T18:35:07.000",
    "request_status": "Pending",
    "responsible_agency": "Department of Public Works",
    "final_address": "7838 Tulsa St",
    "address_councildis": "E",
    "status": "Pending",
    "rowid": "1114748",
    "final_x": "3704148.96202",
    "final_y": "553411.829975",
    "longitude": "-89.99574667291733",
    "latitude": "30.01498299715181",
    "geocoded_column": {
      "latitude": "30.01498299715181",
      "longitude": "-89.99574667291733"
    }
  },
  {
    "service_request": "2024-1114747",
    "request_type": "Trash/Recycling",
    "request_reason": "Request a Large Item Pick Up",
    "date_created": "2024-07-22T18:32:46.000",
    "date_modified": "2024-07-22T18:32:47.000",
    "request_status": "Pending",
    "responsible_agency": "Department of Sanitation",
    "final_address": "7838 Tulsa St",
    "address_councildis": "E",
    "status": "Assigned to Contractor",
    "contractor": "Waste Pro",
    "rowid": "1114747",
    "final_x": "3704148.96202",
    "final_y": "553411.829975",
    "longitude": "-89.99574667291733",
    "latitude": "30.01498299715181",
    "geocoded_column": {
      "latitude": "30.01498299715181",
      "longitude": "-89.99574667291733"
    }
  },
  {
    "service_request": "2024-1114746",
    "request_type": "Trash/Recycling",
    "request_reason": "Request a Large Item Pick Up",
    "date_created": "2024-07-22T18:28:50.000",
    "date_modified": "2024-07-22T18:28:51.000",
    "request_status": "Pending",
    "responsible_agency": "Department of Sanitation",
    "final_address": "4812 Cleveland Ave",
    "address_councildis": "A",
    "status": "Assigned to Contractor",
    "contractor": "IV Waste",
    "rowid": "1114746",
    "final_x": "3668414.47886",
    "final_y": "539764.886282",
    "longitude": "-90.10911166516453",
    "latitude": "29.97855719611478",
    "geocoded_column": {
      "latitude": "29.97855719611478",
      "longitude": "-90.10911166516453"
    }
  },
  {
    "service_request": "2024-1114743",
    "request_type": "Trash/Recycling",
    "request_reason": "Illegal Dumping",
    "date_created": "2024-07-22T17:40:31.000",
    "date_modified": "2024-07-22T17:40:31.000",
    "request_status": "Pending",
    "responsible_agency": "Department of Sanitation",
    "final_address": "2800 BLK Urquhart St",
    "address_councildis": "C",
    "status": "Pending",
    "rowid": "1114743",
    "final_x": "3688056.97359",
    "final_y": "537010.05208",
    "longitude": "-90.04717123106124",
    "latitude": "29.970390704202053",
    "geocoded_column": {
      "latitude": "29.970390704202053",
      "longitude": "-90.04717123106124"
    }
  },
  {
    "service_request": "2024-1114742",
    "request_type": "Roads/Drainage",
    "request_reason": "Debris in Roadway",
    "date_created": "2024-07-22T17:35:58.000",
    "date_modified": "2024-07-22T17:35:58.000",
    "request_status": "Pending",
    "responsible_agency": "Department of Public Works",
    "final_address": "2800 BLK Urquhart St",
    "address_councildis": "C",
    "status": "Pending",
    "rowid": "1114742",
    "final_x": "3688056.97359",
    "final_y": "537010.05208",
    "longitude": "-90.04717123106124",
    "latitude": "29.970390704202053",
    "geocoded_column": {
      "latitude": "29.970390704202053",
      "longitude": "-90.04717123106124"
    }
  },
  {
    "service_request": "2024-1114741",
    "request_type": "Parks & Parkways",
    "request_reason": "Request Tree Service (Right of Way/Public Property)",
    "date_created": "2024-07-22T17:34:52.000",
    "date_modified": "2024-07-22T17:34:52.000",
    "request_status": "Pending",
    "responsible_agency": "Department of Parks & Parkway",
    "final_address": "2932 St Bernard Ave",
    "address_councildis": "D",
    "status": "Pending",
    "rowid": "1114741",
    "final_x": "3679439.62453",
    "final_y": "542935.594381",
    "longitude": "-90.07418013488574",
    "latitude": "29.98694704274744",
    "geocoded_column": {
      "latitude": "29.98694704274744",
      "longitude": "-90.07418013488574"
    }
  },
  {
    "service_request": "2024-1114740",
    "request_type": "Trash/Recycling",
    "request_reason": "Request a Large Item Pick Up",
    "date_created": "2024-07-22T17:34:33.000",
    "date_modified": "2024-07-22T17:34:34.000",
    "request_status": "Pending",
    "responsible_agency": "Department of Sanitation",
    "final_address": "5220 Norgate Dr",
    "address_councildis": "E",
    "status": "Assigned to Contractor",
    "contractor": "Waste Pro",
    "rowid": "1114740",
    "final_x": "3707359.77003",
    "final_y": "557375.156187",
    "longitude": "-89.9854548386491",
    "latitude": "30.025777156241666",
    "geocoded_column": {
      "latitude": "30.025777156241666",
      "longitude": "-89.9854548386491"
    }
  },
  {
    "service_request": "2024-1114739",
    "request_type": "Property Maintenance",
    "request_reason": "Property Maintenance",
    "date_created": "2024-07-22T17:30:09.000",
    "date_modified": "2024-07-22T17:30:09.000",
    "request_status": "Pending",
    "responsible_agency": "Department of Code Enforcement",
    "final_address": "1050 Annunciation St",
    "address_councildis": "B",
    "status": "Pending",
    "rowid": "1114739",
    "final_x": "3681649.20469",
    "final_y": "526146.660606",
    "longitude": "-90.06778658341321",
    "latitude": "29.940716276022762",
    "geocoded_column": {
      "latitude": "29.940716276022762",
      "longitude": "-90.06778658341321"
    }
  },
  {
    "service_request": "2024-1114738",
    "request_type": "Roads/Drainage",
    "request_reason": "Street Flooding / Drainage",
    "date_created": "2024-07-22T17:26:59.000",
    "date_modified": "2024-07-22T17:26:59.000",
    "request_status": "Pending",
    "responsible_agency": "Department of Public Works",
    "final_address": "1503 Valmont St",
    "address_councildis": "B",
    "status": "Pending",
    "rowid": "1114738",
    "final_x": "3667809.31847",
    "final_y": "520474.710392",
    "longitude": "-90.11167256232912",
    "latitude": "29.925533276917353",
    "geocoded_column": {
      "latitude": "29.925533276917353",
      "longitude": "-90.11167256232912"
    }
  },
  {
    "service_request": "2024-1114737",
    "request_type": "Property Maintenance",
    "request_reason": "Property Maintenance",
    "date_created": "2024-07-22T17:23:48.000",
    "date_modified": "2024-07-22T17:23:48.000",
    "request_status": "Pending",
    "responsible_agency": "Department of Code Enforcement",
    "final_address": "5113 N Villere St",
    "address_councildis": "E",
    "status": "Pending",
    "rowid": "1114737",
    "final_x": "3696694.92829",
    "final_y": "535316.81415",
    "longitude": "-90.01995304915437",
    "latitude": "29.965465476604184",
    "geocoded_column": {
      "latitude": "29.965465476604184",
      "longitude": "-90.01995304915437"
    }
  },
  {
    "service_request": "2024-1114736",
    "request_type": "Abandoned Vehicles",
    "request_reason": "Abandoned/Junk Vehicles",
    "date_created": "2024-07-22T17:22:51.000",
    "date_modified": "2024-07-22T17:22:51.000",
    "request_status": "Pending",
    "responsible_agency": "Department of Public Works",
    "final_address": "1610 Allen Toussaint Blvd",
    "address_councildis": "D",
    "status": "Pending",
    "rowid": "1114736",
    "final_x": "3679122.13621",
    "final_y": "555269.311065",
    "longitude": "-90.07475505755605",
    "latitude": "30.020869953757085",
    "geocoded_column": {
      "latitude": "30.020869953757085",
      "longitude": "-90.07475505755605"
    }
  },
  {
    "service_request": "2024-1114735",
    "request_type": "Abandoned Vehicles",
    "request_reason": "Abandoned/Junk Vehicles",
    "date_created": "2024-07-22T17:22:24.000",
    "date_modified": "2024-07-22T17:22:24.000",
    "request_status": "Pending",
    "responsible_agency": "Department of Public Works",
    "final_address": "7661 Wave Dr",
    "address_councildis": "E",
    "status": "Pending",
    "rowid": "1114735",
    "final_x": "3714906.95352",
    "final_y": "568974.38167",
    "longitude": "-89.9611681134045",
    "latitude": "30.057424067034063",
    "geocoded_column": {
      "latitude": "30.057424067034063",
      "longitude": "-89.9611681134045"
    }
  },
  {
    "service_request": "2024-1114734",
    "request_type": "Parks & Parkways",
    "request_reason": "Request Tree Service (Right of Way/Public Property)",
    "date_created": "2024-07-22T17:15:18.000",
    "date_modified": "2024-07-22T17:15:18.000",
    "request_status": "Pending",
    "responsible_agency": "Department of Parks & Parkway",
    "final_address": "1510 Gardena Dr",
    "address_councildis": "D",
    "status": "Pending",
    "rowid": "1114734",
    "final_x": "3678751.25486",
    "final_y": "551440.733205",
    "longitude": "-90.07605967166803",
    "latitude": "30.01035394413916",
    "geocoded_column": {
      "latitude": "30.01035394413916",
      "longitude": "-90.07605967166803"
    }
  },
  {
    "service_request": "2024-1114733",
    "request_type": "Trash/Recycling",
    "request_reason": "Illegal Dumping",
    "date_created": "2024-07-22T17:08:13.000",
    "date_modified": "2024-07-22T17:08:13.000",
    "request_status": "Pending",
    "responsible_agency": "Department of Sanitation",
    "final_address": "750 S Norman C Francis Prkwy",
    "address_councildis": "B",
    "status": "Pending",
    "rowid": "1114733",
    "final_x": "3671561.74759",
    "final_y": "534316.472453",
    "longitude": "-90.09935672119532",
    "latitude": "29.963483059544206",
    "geocoded_column": {
      "latitude": "29.963483059544206",
      "longitude": "-90.09935672119532"
    }
  },
  {
    "service_request": "2024-1114732",
    "request_type": "Mosquito, Termite & Rodent Control",
    "request_reason": "Mosquito Complaint",
    "date_created": "2024-07-22T17:06:26.000",
    "date_modified": "2024-07-22T17:06:26.000",
    "request_status": "Pending",
    "responsible_agency": "Mosquito, Termite & Rodent Control Board",
    "final_address": "8023 Devine Ave",
    "address_councildis": "E",
    "status": "Pending",
    "rowid": "1114732",
    "final_x": "3705068.9466",
    "final_y": "564277.553825",
    "longitude": "-89.99243823956664",
    "latitude": "30.044829935640895",
    "geocoded_column": {
      "latitude": "30.044829935640895",
      "longitude": "-89.99243823956664"
    }
  },
  {
    "service_request": "2024-1114731",
    "request_type": "Trash/Recycling",
    "request_reason": "Request a Large Item Pick Up",
    "date_created": "2024-07-22T17:04:38.000",
    "date_modified": "2024-07-22T17:04:39.000",
    "request_status": "Pending",
    "responsible_agency": "Department of Sanitation",
    "final_address": "1847 Montegut St",
    "address_councildis": "D",
    "status": "Assigned to Contractor",
    "contractor": "IV Waste",
    "rowid": "1114731",
    "final_x": "3689211.64278",
    "final_y": "539096.809226",
    "longitude": "-90.04345048196937",
    "latitude": "29.976092862695506",
    "geocoded_column": {
      "latitude": "29.976092862695506",
      "longitude": "-90.04345048196937"
    }
  },
  {
    "service_request": "2024-1114729",
    "request_type": "Trash/Recycling",
    "request_reason": "Replace Trash Cart",
    "date_created": "2024-07-22T17:01:42.000",
    "date_modified": "2024-07-22T17:01:43.000",
    "request_status": "Pending",
    "responsible_agency": "Department of Sanitation",
    "final_address": "8023 Devine Ave",
    "address_councildis": "E",
    "status": "Assigned to Contractor",
    "contractor": "Waste Pro",
    "rowid": "1114729",
    "final_x": "3705068.9466",
    "final_y": "564277.553825",
    "longitude": "-89.99243823956664",
    "latitude": "30.044829935640895",
    "geocoded_column": {
      "latitude": "30.044829935640895",
      "longitude": "-89.99243823956664"
    }
  },
  {
    "service_request": "2024-1114728",
    "request_type": "Trash/Recycling",
    "request_reason": "Request a Large Item Pick Up",
    "date_created": "2024-07-22T17:00:39.000",
    "date_modified": "2024-07-22T17:00:40.000",
    "request_status": "Pending",
    "responsible_agency": "Department of Sanitation",
    "final_address": "PRESSBURG ST & EADS ST",
    "address_councildis": "D",
    "status": "Assigned to Contractor",
    "contractor": "IV Waste",
    "rowid": "1114728",
    "final_x": "3686809.3",
    "final_y": "554854.48",
    "longitude": "-90.05048058195591",
    "latitude": "30.019494916292118",
    "geocoded_column": {
      "latitude": "30.019494916292118",
      "longitude": "-90.05048058195591"
    }
  },
  {
    "service_request": "2024-1114727",
    "request_type": "Trash/Recycling",
    "request_reason": "Request a Large Item Pick Up",
    "date_created": "2024-07-22T16:59:12.000",
    "date_modified": "2024-07-22T16:59:12.000",
    "request_status": "Pending",
    "responsible_agency": "Department of Sanitation",
    "final_address": "13 Grand Cypress Ct",
    "address_councildis": "C",
    "status": "Assigned to Contractor",
    "contractor": "Richards Disposal",
    "rowid": "1114727",
    "final_x": "3721910.14815",
    "final_y": "513192.202802",
    "longitude": "-89.94117445669653",
    "latitude": "29.903812112828582",
    "geocoded_column": {
      "latitude": "29.903812112828582",
      "longitude": "-89.94117445669653"
    }
  },
  {
    "service_request": "2024-1114726",
    "request_type": "Trash/Recycling",
    "request_reason": "Request a Large Item Pick Up",
    "date_created": "2024-07-22T16:57:23.000",
    "date_modified": "2024-07-22T16:57:23.000",
    "request_status": "Pending",
    "responsible_agency": "Department of Sanitation",
    "final_address": "2024 Valmont St",
    "address_councildis": "B",
    "status": "Assigned to Contractor",
    "contractor": "IV Waste",
    "rowid": "1114726",
    "final_x": "3668051.15713",
    "final_y": "523101.572027",
    "longitude": "-90.1108206789719",
    "latitude": "29.93274921849346",
    "geocoded_column": {
      "latitude": "29.93274921849346",
      "longitude": "-90.1108206789719"
    }
  },
  {
    "service_request": "2024-1114725",
    "request_type": "Trash/Recycling",
    "request_reason": "Request a Large Item Pick Up",
    "date_created": "2024-07-22T16:54:45.000",
    "date_modified": "2024-07-22T16:54:46.000",
    "request_status": "Pending",
    "responsible_agency": "Department of Sanitation",
    "final_address": "10410 Heritage Dr",
    "address_councildis": "E",
    "status": "Assigned to Contractor",
    "contractor": "Waste Pro",
    "rowid": "1114725",
    "final_x": "3709802.65054",
    "final_y": "564379.425697",
    "longitude": "-89.97747384890134",
    "latitude": "30.044956877246463",
    "geocoded_column": {
      "latitude": "30.044956877246463",
      "longitude": "-89.97747384890134"
    }
  },
  {
    "service_request": "2024-1114724",
    "request_type": "Trash/Recycling",
    "request_reason": "Replace Recycling Cart",
    "date_created": "2024-07-22T16:52:31.000",
    "date_modified": "2024-07-22T16:52:31.000",
    "request_status": "Pending",
    "responsible_agency": "Department of Sanitation",
    "final_address": "2009 Milan St",
    "address_councildis": "B",
    "status": "Pending",
    "rowid": "1114724",
    "final_x": "3671492.89831",
    "final_y": "522479.467706",
    "longitude": "-90.09997649044509",
    "latitude": "29.930937214089507",
    "geocoded_column": {
      "latitude": "29.930937214089507",
      "longitude": "-90.09997649044509"
    }
  },
  {
    "service_request": "2024-1114723",
    "request_type": "Trash/Recycling",
    "request_reason": "Damaged Caused By Contractor",
    "date_created": "2024-07-22T16:52:20.000",
    "date_modified": "2024-07-22T16:52:21.000",
    "request_status": "Pending",
    "responsible_agency": "Department of Sanitation",
    "final_address": "7210 Voyageur Dr",
    "address_councildis": "E",
    "status": "Assigned to Contractor",
    "contractor": "Waste Pro",
    "rowid": "1114723",
    "final_x": "3726632.56326",
    "final_y": "568839.051429",
    "longitude": "-89.92411082951509",
    "latitude": "30.05666066194751",
    "geocoded_column": {
      "latitude": "30.05666066194751",
      "longitude": "-89.92411082951509"
    }
  },
  {
    "service_request": "2024-1114721",
    "request_type": "Trash/Recycling",
    "request_reason": "Repair Trash Cart",
    "date_created": "2024-07-22T16:49:10.000",
    "date_modified": "2024-07-22T16:49:11.000",
    "request_status": "Pending",
    "responsible_agency": "Department of Sanitation",
    "final_address": "2523 Laurel St",
    "address_councildis": "B",
    "status": "Assigned to Contractor",
    "contractor": "IV Waste",
    "rowid": "1114721",
    "final_x": "3678044.40661",
    "final_y": "520630.624312",
    "longitude": "-90.07935814206512",
    "latitude": "29.925657967702183",
    "geocoded_column": {
      "latitude": "29.925657967702183",
      "longitude": "-90.07935814206512"
    }
  },
  {
    "service_request": "2024-1114720",
    "request_type": "Property Maintenance",
    "request_reason": "Property Maintenance",
    "date_created": "2024-07-22T16:41:22.000",
    "date_modified": "2024-07-22T16:41:22.000",
    "request_status": "Pending",
    "responsible_agency": "Department of Code Enforcement",
    "final_address": "2503 Milan St",
    "address_councildis": "B",
    "status": "Pending",
    "rowid": "1114720",
    "final_x": "3671325.44539",
    "final_y": "524165.417852",
    "longitude": "-90.10044785128905",
    "latitude": "29.93557798851764",
    "geocoded_column": {
      "latitude": "29.93557798851764",
      "longitude": "-90.10044785128905"
    }
  },
  {
    "service_request": "2024-1114719",
    "request_type": "Roads/Drainage",
    "request_reason": "Catch Basin - Broken/Damage",
    "date_created": "2024-07-22T16:39:55.000",
    "date_modified": "2024-07-22T16:39:55.000",
    "request_status": "Pending",
    "responsible_agency": "Department of Public Works",
    "final_address": "1640 S Carrollton Ave",
    "address_councildis": "A",
    "status": "Pending",
    "rowid": "1114719",
    "final_x": "3663087.17568",
    "final_y": "529654.986113",
    "longitude": "-90.12627370780291",
    "latitude": "29.950913710500185",
    "geocoded_column": {
      "latitude": "29.950913710500185",
      "longitude": "-90.12627370780291"
    }
  },
  {
    "service_request": "2024-1114718",
    "request_type": "Trash/Recycling",
    "request_reason": "Request a Large Item Pick Up",
    "date_created": "2024-07-22T16:36:04.000",
    "date_modified": "2024-07-22T16:36:05.000",
    "request_status": "Pending",
    "responsible_agency": "Department of Sanitation",
    "final_address": "11293 Waverly Dr",
    "address_councildis": "E",
    "status": "Assigned to Contractor",
    "contractor": "Waste Pro",
    "rowid": "1114718",
    "final_x": "3717761.04479",
    "final_y": "560520.893022",
    "longitude": "-89.9524688255522",
    "latitude": "30.034086143834074",
    "geocoded_column": {
      "latitude": "30.034086143834074",
      "longitude": "-89.9524688255522"
    }
  },
  {
    "service_request": "2024-1114717",
    "request_type": "Trash/Recycling",
    "request_reason": "Request a Large Item Pick Up",
    "date_created": "2024-07-22T16:32:48.000",
    "date_modified": "2024-07-22T16:32:49.000",
    "request_status": "Pending",
    "responsible_agency": "Department of Sanitation",
    "final_address": "800 Crystal St",
    "address_councildis": "D",
    "status": "Assigned to Contractor",
    "contractor": "IV Waste",
    "rowid": "1114717",
    "final_x": "3670405.58254",
    "final_y": "556141.845402",
    "longitude": "-90.10226729009332",
    "latitude": "30.023529485688933",
    "geocoded_column": {
      "latitude": "30.023529485688933",
      "longitude": "-90.10226729009332"
    }
  },
  {
    "service_request": "2024-1114716",
    "request_type": "Trash/Recycling",
    "request_reason": "Request a Large Item Pick Up",
    "date_created": "2024-07-22T16:29:45.000",
    "date_modified": "2024-07-22T16:29:46.000",
    "request_status": "Pending",
    "responsible_agency": "Department of Sanitation",
    "final_address": "4742 Lurline St",
    "address_councildis": "E",
    "status": "Assigned to Contractor",
    "contractor": "Waste Pro",
    "rowid": "1114716",
    "final_x": "3711897.67557",
    "final_y": "556116.596122",
    "longitude": "-89.97116309314504",
    "latitude": "30.02216905467571",
    "geocoded_column": {
      "latitude": "30.02216905467571",
      "longitude": "-89.97116309314504"
    }
  },
  {
    "service_request": "2024-1114715",
    "request_type": "Roads/Drainage",
    "request_reason": "Pothole",
    "date_created": "2024-07-22T16:18:51.000",
    "date_modified": "2024-07-22T16:18:51.000",
    "request_status": "Pending",
    "responsible_agency": "Department of Public Works",
    "final_address": "1400 BLK Valence St",
    "address_councildis": "B",
    "status": "Pending",
    "rowid": "1114715",
    "final_x": "3669784.65285",
    "final_y": "520336.257015",
    "longitude": "-90.1054417057675",
    "latitude": "29.925094517046503",
    "geocoded_column": {
      "latitude": "29.925094517046503",
      "longitude": "-90.1054417057675"
    }
  },
  {
    "service_request": "2024-1114714",
    "request_type": "Parks & Parkways",
    "request_reason": "Request Grass Cutting Service (City Owned Property)",
    "date_created": "2024-07-22T16:17:39.000",
    "date_modified": "2024-07-22T16:17:39.000",
    "request_status": "Pending",
    "responsible_agency": "Department of Parks & Parkway",
    "final_address": "4788 Donna Dr",
    "address_councildis": "E",
    "status": "Pending",
    "rowid": "1114714",
    "final_x": "3710904.33195",
    "final_y": "556155.86153",
    "longitude": "-89.97430030871489",
    "latitude": "30.022309451603167",
    "geocoded_column": {
      "latitude": "30.022309451603167",
      "longitude": "-89.97430030871489"
    }
  },
  {
    "service_request": "2024-1114713",
    "request_type": "Trash/Recycling",
    "request_reason": "Request a Large Item Pick Up",
    "date_created": "2024-07-22T16:16:20.000",
    "date_modified": "2024-07-22T16:16:21.000",
    "request_status": "Pending",
    "responsible_agency": "Department of Sanitation",
    "final_address": "3138 Toulouse St",
    "address_councildis": "A",
    "status": "Assigned to Contractor",
    "contractor": "IV Waste",
    "rowid": "1114713",
    "final_x": "3674925.49582",
    "final_y": "537669.959304",
    "longitude": "-90.08861931425572",
    "latitude": "29.972603978578746",
    "geocoded_column": {
      "latitude": "29.972603978578746",
      "longitude": "-90.08861931425572"
    }
  },
  {
    "service_request": "2024-1114712",
    "request_type": "Roads/Drainage",
    "request_reason": "Catch Basin - Clogged",
    "date_created": "2024-07-22T16:15:44.000",
    "date_modified": "2024-07-22T16:15:44.000",
    "request_status": "Pending",
    "responsible_agency": "Department of Public Works",
    "final_address": "3609 Canal St",
    "address_councildis": "B",
    "status": "Pending",
    "rowid": "1114712",
    "final_x": "3672590.53844",
    "final_y": "537333.944392",
    "longitude": "-90.09600500695453",
    "latitude": "29.97174958800917",
    "geocoded_column": {
      "latitude": "29.97174958800917",
      "longitude": "-90.09600500695453"
    }
  },
  {
    "service_request": "2024-1114711",
    "request_type": "Trash/Recycling",
    "request_reason": "Order Recycling Cart",
    "date_created": "2024-07-22T16:13:34.000",
    "date_modified": "2024-07-22T16:13:34.000",
    "request_status": "Pending",
    "responsible_agency": "Department of Sanitation",
    "final_address": "1735 Louisa St",
    "address_councildis": "D",
    "status": "Pending",
    "rowid": "1114711",
    "final_x": "3690223.6134",
    "final_y": "538363.008777",
    "longitude": "-90.04028054732228",
    "latitude": "29.97404380890275",
    "geocoded_column": {
      "latitude": "29.97404380890275",
      "longitude": "-90.04028054732228"
    }
  },
  {
    "service_request": "2024-1114710",
    "request_type": "Trash/Recycling",
    "request_reason": "Request a Large Item Pick Up",
    "date_created": "2024-07-22T16:13:14.000",
    "date_modified": "2024-07-22T16:13:15.000",
    "request_status": "Pending",
    "responsible_agency": "Department of Sanitation",
    "final_address": "4936 Desire Dr",
    "address_councildis": "D",
    "status": "Assigned to Contractor",
    "contractor": "IV Waste",
    "rowid": "1114710",
    "final_x": "3691524.20297",
    "final_y": "552151.586006",
    "longitude": "-90.03567983592377",
    "latitude": "30.01191697653781",
    "geocoded_column": {
      "latitude": "30.01191697653781",
      "longitude": "-90.03567983592377"
    }
  },
  {
    "service_request": "2024-1114709",
    "request_type": "Trash/Recycling",
    "request_reason": "Order Trash Cart",
    "date_created": "2024-07-22T16:12:29.000",
    "date_modified": "2024-07-22T16:12:30.000",
    "request_status": "Pending",
    "responsible_agency": "Department of Sanitation",
    "final_address": "1735 Louisa St",
    "address_councildis": "D",
    "status": "Assigned to Contractor",
    "contractor": "IV Waste",
    "rowid": "1114709",
    "final_x": "3690223.6134",
    "final_y": "538363.008777",
    "longitude": "-90.04028054732228",
    "latitude": "29.97404380890275",
    "geocoded_column": {
      "latitude": "29.97404380890275",
      "longitude": "-90.04028054732228"
    }
  },
  {
    "service_request": "2024-1114708",
    "request_type": "Roads/Drainage",
    "request_reason": "Damaged Sidewalk",
    "date_created": "2024-07-22T16:08:58.000",
    "date_modified": "2024-07-22T16:08:58.000",
    "request_status": "Pending",
    "responsible_agency": "Department of Public Works",
    "final_address": "5200 BLK Danneel St",
    "address_councildis": "B",
    "status": "Pending",
    "rowid": "1114708",
    "final_x": "3668060.05328",
    "final_y": "522163.577836",
    "longitude": "-90.11082418753892",
    "latitude": "29.93016977275902",
    "geocoded_column": {
      "latitude": "29.93016977275902",
      "longitude": "-90.11082418753892"
    }
  },
  {
    "service_request": "2024-1114707",
    "request_type": "Property Maintenance",
    "request_reason": "Property Maintenance",
    "date_created": "2024-07-22T16:08:42.000",
    "date_modified": "2024-07-22T16:08:42.000",
    "request_status": "Pending",
    "responsible_agency": "Department of Code Enforcement",
    "final_address": "6124 Milne Blvd",
    "address_councildis": "A",
    "status": "Pending",
    "rowid": "1114707",
    "final_x": "3667052.88557",
    "final_y": "548370.08629",
    "longitude": "-90.11312267131353",
    "latitude": "30.00225849062126",
    "geocoded_column": {
      "latitude": "30.00225849062126",
      "longitude": "-90.11312267131353"
    }
  },
  {
    "service_request": "2024-1114706",
    "request_type": "Parks & Parkways",
    "request_reason": "Request Tree Service (Right of Way/Public Property)",
    "date_created": "2024-07-22T16:06:19.000",
    "date_modified": "2024-07-22T16:06:20.000",
    "request_status": "Pending",
    "responsible_agency": "Department of Parks & Parkway",
    "final_address": "4518 Chestnut St",
    "address_councildis": "B",
    "status": "Pending",
    "rowid": "1114706",
    "final_x": "3670422.72122",
    "final_y": "519429.546423",
    "longitude": "-90.10345824497558",
    "latitude": "29.922582534880192",
    "geocoded_column": {
      "latitude": "29.922582534880192",
      "longitude": "-90.10345824497558"
    }
  },
  {
    "service_request": "2024-1114705",
    "request_type": "Property Maintenance",
    "request_reason": "Property Maintenance",
    "date_created": "2024-07-22T16:05:52.000",
    "date_modified": "2024-07-22T16:05:52.000",
    "request_status": "Pending",
    "responsible_agency": "Department of Code Enforcement",
    "final_address": "3107 Toulouse St",
    "address_councildis": "A",
    "status": "Pending",
    "rowid": "1114705",
    "final_x": "3675134.74325",
    "final_y": "537600.770888",
    "longitude": "-90.08796084702304",
    "latitude": "29.97240748227054",
    "geocoded_column": {
      "latitude": "29.97240748227054",
      "longitude": "-90.08796084702304"
    }
  },
  {
    "service_request": "2024-1114704",
    "request_type": "Property Maintenance",
    "request_reason": "Property Maintenance",
    "date_created": "2024-07-22T16:04:20.000",
    "date_modified": "2024-07-22T16:04:20.000",
    "request_status": "Pending",
    "responsible_agency": "Department of Code Enforcement",
    "final_address": "4417 Flite St",
    "address_councildis": "D",
    "status": "Pending",
    "rowid": "1114704",
    "final_x": "3696452.13072",
    "final_y": "552526.846934",
    "longitude": "-90.02009690706575",
    "latitude": "30.01279443026874",
    "geocoded_column": {
      "latitude": "30.01279443026874",
      "longitude": "-90.02009690706575"
    }
  },
  {
    "service_request": "2024-1114703",
    "request_type": "Roads/Drainage",
    "request_reason": "Catch Basin - Clogged",
    "date_created": "2024-07-22T16:02:33.000",
    "date_modified": "2024-07-22T16:02:33.000",
    "request_status": "Pending",
    "responsible_agency": "Department of Public Works",
    "final_address": "1640 S Carrollton Ave",
    "address_councildis": "A",
    "status": "Pending",
    "rowid": "1114703",
    "final_x": "3663087.17568",
    "final_y": "529654.986113",
    "longitude": "-90.12627370780291",
    "latitude": "29.950913710500185",
    "geocoded_column": {
      "latitude": "29.950913710500185",
      "longitude": "-90.12627370780291"
    }
  },
  {
    "service_request": "2024-1114702",
    "request_type": "Trash/Recycling",
    "request_reason": "Request a Large Item Pick Up",
    "date_created": "2024-07-22T16:02:24.000",
    "date_modified": "2024-07-22T16:02:25.000",
    "request_status": "Pending",
    "responsible_agency": "Department of Sanitation",
    "final_address": "5143 Van Chu Dr",
    "address_councildis": "E",
    "status": "Assigned to Contractor",
    "contractor": "Waste Pro",
    "rowid": "1114702",
    "final_x": "3727672.97171",
    "final_y": "563660.863393",
    "longitude": "-89.92102404818317",
    "latitude": "30.042387594734286",
    "geocoded_column": {
      "latitude": "30.042387594734286",
      "longitude": "-89.92102404818317"
    }
  },
  {
    "service_request": "2024-1114701",
    "request_type": "Trash/Recycling",
    "request_reason": "Request a Large Item Pick Up",
    "date_created": "2024-07-22T16:02:19.000",
    "date_modified": "2024-07-22T16:02:20.000",
    "request_status": "Pending",
    "responsible_agency": "Department of Sanitation",
    "final_address": "7835 Michigan St",
    "address_councildis": "E",
    "status": "Assigned to Contractor",
    "contractor": "Waste Pro",
    "rowid": "1114701",
    "final_x": "3711270.26168",
    "final_y": "567329.280996",
    "longitude": "-89.97272484704715",
    "latitude": "30.053019954498765",
    "geocoded_column": {
      "latitude": "30.053019954498765",
      "longitude": "-89.97272484704715"
    }
  },
  {
    "service_request": "2024-1114699",
    "request_type": "Roads/Drainage",
    "request_reason": "Catch Basin - Clogged",
    "date_created": "2024-07-22T16:00:17.000",
    "date_modified": "2024-07-22T16:00:17.000",
    "request_status": "Pending",
    "responsible_agency": "Department of Public Works",
    "final_address": "1640 S Carrollton Ave",
    "address_councildis": "A",
    "status": "Pending",
    "rowid": "1114699",
    "final_x": "3663087.17568",
    "final_y": "529654.986113",
    "longitude": "-90.12627370780291",
    "latitude": "29.950913710500185",
    "geocoded_column": {
      "latitude": "29.950913710500185",
      "longitude": "-90.12627370780291"
    }
  },
  {
    "service_request": "2024-1114697",
    "request_type": "Property Maintenance",
    "request_reason": "Property Maintenance",
    "date_created": "2024-07-22T15:58:34.000",
    "date_modified": "2024-07-22T15:58:35.000",
    "request_status": "Pending",
    "responsible_agency": "Department of Code Enforcement",
    "final_address": "3316 Clouet St",
    "address_councildis": "D",
    "status": "Pending",
    "rowid": "1114697",
    "final_x": "3691145.35446",
    "final_y": "544858.335375",
    "longitude": "-90.03713743601031",
    "latitude": "29.99187499802111",
    "geocoded_column": {
      "latitude": "29.99187499802111",
      "longitude": "-90.03713743601031"
    }
  },
  {
    "service_request": "2024-1114696",
    "request_type": "Roads/Drainage",
    "request_reason": "Catch Basin - Clogged",
    "date_created": "2024-07-22T15:57:29.000",
    "date_modified": "2024-07-22T15:57:30.000",
    "request_status": "Pending",
    "responsible_agency": "Department of Public Works",
    "final_address": "3921 N Tonti St",
    "address_councildis": "D",
    "status": "Pending",
    "rowid": "1114696",
    "final_x": "3692789.28694",
    "final_y": "539947.951498",
    "longitude": "-90.03212075862359",
    "latitude": "29.978321975838508",
    "geocoded_column": {
      "latitude": "29.978321975838508",
      "longitude": "-90.03212075862359"
    }
  },
  {
    "service_request": "2024-1114695",
    "request_type": "Trash/Recycling",
    "request_reason": "MIssed Recycling Pick-Up",
    "date_created": "2024-07-22T15:56:43.000",
    "date_modified": "2024-07-22T17:02:56.000",
    "case_close_date": "2024-07-22T12:02:56.000",
    "request_status": "Closed",
    "responsible_agency": "Department of Sanitation",
    "final_address": "1410 Thalia St",
    "address_councildis": "B",
    "status": "Invalid Request",
    "contractor": "IV Waste",
    "contractor_action": "Invalid Request",
    "rowid": "1114695",
    "final_x": "3679969.49877",
    "final_y": "525375.765245",
    "longitude": "-90.0731164711927",
    "latitude": "29.938647474163314",
    "geocoded_column": {
      "latitude": "29.938647474163314",
      "longitude": "-90.0731164711927"
    }
  },
  {
    "service_request": "2024-1114694",
    "request_type": "Traffic Signals/Signs/Striping/Streetlights",
    "request_reason": "Street Light Outage/Malfunction",
    "date_created": "2024-07-22T15:55:57.000",
    "date_modified": "2024-07-22T15:55:57.000",
    "request_status": "Pending",
    "responsible_agency": "Department of Public Works",
    "final_address": "3921 N Tonti St",
    "address_councildis": "D",
    "status": "Assigned to Contractor",
    "contractor": "Legacy Professional Services",
    "rowid": "1114694",
    "final_x": "3692789.28694",
    "final_y": "539947.951498",
    "longitude": "-90.03212075862359",
    "latitude": "29.978321975838508",
    "geocoded_column": {
      "latitude": "29.978321975838508",
      "longitude": "-90.03212075862359"
    }
  },
  {
    "service_request": "2024-1114693",
    "request_type": "Trash/Recycling",
    "request_reason": "Request a Large Item Pick Up",
    "date_created": "2024-07-22T15:55:33.000",
    "date_modified": "2024-07-22T15:55:34.000",
    "request_status": "Pending",
    "responsible_agency": "Department of Sanitation",
    "final_address": "8421 Lomond Rd",
    "address_councildis": "E",
    "status": "Assigned to Contractor",
    "contractor": "Waste Pro",
    "rowid": "1114693",
    "final_x": "3703614.27556",
    "final_y": "562107.635231",
    "longitude": "-89.99711562106411",
    "latitude": "30.03891024172641",
    "geocoded_column": {
      "latitude": "30.03891024172641",
      "longitude": "-89.99711562106411"
    }
  },
  {
    "service_request": "2024-1114692",
    "request_type": "Trash/Recycling",
    "request_reason": "Request a Large Item Pick Up",
    "date_created": "2024-07-22T15:55:28.000",
    "date_modified": "2024-07-22T15:55:29.000",
    "request_status": "Pending",
    "responsible_agency": "Department of Sanitation",
    "final_address": "1008 Soniat St",
    "address_councildis": "B",
    "status": "Assigned to Contractor",
    "contractor": "IV Waste",
    "rowid": "1114692",
    "final_x": "3668294.56782",
    "final_y": "519071.903671",
    "longitude": "-90.11018804439786",
    "latitude": "29.92166176771244",
    "geocoded_column": {
      "latitude": "29.92166176771244",
      "longitude": "-90.11018804439786"
    }
  },
  {
    "service_request": "2024-1114691",
    "request_type": "Trash/Recycling",
    "request_reason": "Start Trash Service",
    "date_created": "2024-07-22T15:53:30.000",
    "date_modified": "2024-07-22T15:53:31.000",
    "request_status": "Pending",
    "responsible_agency": "Department of Sanitation",
    "final_address": "7021 Yorktown Dr",
    "address_councildis": "E",
    "status": "Assigned to Contractor",
    "contractor": "Waste Pro",
    "rowid": "1114691",
    "final_x": "3706226.61015",
    "final_y": "560528.951262",
    "longitude": "-89.98891851514233",
    "latitude": "30.03448546108901",
    "geocoded_column": {
      "latitude": "30.03448546108901",
      "longitude": "-89.98891851514233"
    }
  },
  {
    "service_request": "2024-1114690",
    "request_type": "Trash/Recycling",
    "request_reason": "Replace Trash Cart",
    "date_created": "2024-07-22T15:53:04.000",
    "date_modified": "2024-07-22T15:53:04.000",
    "request_status": "Pending",
    "responsible_agency": "Department of Sanitation",
    "final_address": "6960 Ridgefield Dr",
    "address_councildis": "E",
    "status": "Assigned to Contractor",
    "contractor": "Waste Pro",
    "rowid": "1114690",
    "final_x": "3719636.20012",
    "final_y": "569143.70999",
    "longitude": "-89.94621330077412",
    "latitude": "30.057733081011037",
    "geocoded_column": {
      "latitude": "30.057733081011037",
      "longitude": "-89.94621330077412"
    }
  },
  {
    "service_request": "2024-1114689",
    "request_type": "Roads/Drainage",
    "request_reason": "Damaged Sidewalk",
    "date_created": "2024-07-22T15:50:39.000",
    "date_modified": "2024-07-22T15:50:39.000",
    "request_status": "Pending",
    "responsible_agency": "Department of Public Works",
    "final_address": "2855 St Charles Ave",
    "address_councildis": "B",
    "status": "Pending",
    "rowid": "1114689",
    "final_x": "3675502.7972",
    "final_y": "522369.56633",
    "longitude": "-90.08732154746049",
    "latitude": "29.930515731521275",
    "geocoded_column": {
      "latitude": "29.930515731521275",
      "longitude": "-90.08732154746049"
    }
  },
  {
    "service_request": "2024-1114688",
    "request_type": "Trash/Recycling",
    "request_reason": "Replace Trash Cart",
    "date_created": "2024-07-22T15:48:41.000",
    "date_modified": "2024-07-22T15:48:42.000",
    "request_status": "Pending",
    "responsible_agency": "Department of Sanitation",
    "final_address": "Cleveland Avenue & South Gayoso Street",
    "address_councildis": "B",
    "status": "Assigned to Contractor",
    "contractor": "Richards Disposal",
    "rowid": "1114688",
    "final_x": "3674089.26203",
    "final_y": "535533.599622",
    "longitude": "-90.09133342854493",
    "latitude": "29.966754663691404",
    "geocoded_column": {
      "latitude": "29.966754663691404",
      "longitude": "-90.09133342854493"
    }
  },
  {
    "service_request": "2024-1114687",
    "request_type": "Abandoned Vehicles",
    "request_reason": "Abandoned/Junk Vehicles",
    "date_created": "2024-07-22T15:42:48.000",
    "date_modified": "2024-07-22T15:45:43.000",
    "request_status": "Pending",
    "responsible_agency": "Department of Public Works",
    "final_address": "4545 Downman Rd",
    "address_councildis": "D",
    "status": "Pending",
    "rowid": "1114687",
    "final_x": "3696100.84861",
    "final_y": "553700.537175",
    "longitude": "-90.02116429597885",
    "latitude": "30.01603270299533",
    "geocoded_column": {
      "latitude": "30.01603270299533",
      "longitude": "-90.02116429597885"
    }
  },
  {
    "service_request": "2024-1114686",
    "request_type": "Trash/Recycling",
    "request_reason": "Order Trash Cart",
    "date_created": "2024-07-22T15:40:43.000",
    "date_modified": "2024-07-22T15:40:44.000",
    "request_status": "Pending",
    "responsible_agency": "Department of Sanitation",
    "final_address": "1638 Spain St",
    "address_councildis": "D",
    "status": "Assigned to Contractor",
    "contractor": "IV Waste",
    "rowid": "1114686",
    "final_x": "3685932.03042",
    "final_y": "538565.376201",
    "longitude": "-90.05382717552689",
    "latitude": "29.97473271474159",
    "geocoded_column": {
      "latitude": "29.97473271474159",
      "longitude": "-90.05382717552689"
    }
  },
  {
    "service_request": "2024-1114685",
    "request_type": "Trash/Recycling",
    "request_reason": "Replace Trash Cart",
    "date_created": "2024-07-22T15:38:01.000",
    "date_modified": "2024-07-22T15:38:02.000",
    "request_status": "Pending",
    "responsible_agency": "Department of Sanitation",
    "final_address": "3610 Mimosa Ct",
    "address_councildis": "C",
    "status": "Assigned to Contractor",
    "contractor": "Richards Disposal",
    "rowid": "1114685",
    "final_x": "3703015.89751",
    "final_y": "513266.542386",
    "longitude": "-90.00080164648305",
    "latitude": "29.90463421511576",
    "geocoded_column": {
      "latitude": "29.90463421511576",
      "longitude": "-90.00080164648305"
    }
  },
  {
    "service_request": "2024-1114684",
    "request_type": "Trash/Recycling",
    "request_reason": "Request a Large Item Pick Up",
    "date_created": "2024-07-22T15:35:45.000",
    "date_modified": "2024-07-22T15:35:46.000",
    "request_status": "Pending",
    "responsible_agency": "Department of Sanitation",
    "final_address": "7615 Forum Blvd",
    "address_councildis": "E",
    "status": "Assigned to Contractor",
    "contractor": "Waste Pro",
    "rowid": "1114684",
    "final_x": "3720285.94988",
    "final_y": "573151.349225",
    "longitude": "-89.94400595364228",
    "latitude": "30.068730764755852",
    "geocoded_column": {
      "latitude": "30.068730764755852",
      "longitude": "-89.94400595364228"
    }
  },
  {
    "service_request": "2024-1114683",
    "request_type": "Trash/Recycling",
    "request_reason": "Repair Trash Cart",
    "date_created": "2024-07-22T15:35:16.000",
    "date_modified": "2024-07-22T15:35:17.000",
    "request_status": "Pending",
    "responsible_agency": "Department of Sanitation",
    "final_address": "5256 Beaver Dr",
    "address_councildis": "E",
    "status": "Assigned to Contractor",
    "contractor": "Waste Pro",
    "rowid": "1114683",
    "final_x": "3717584.36997",
    "final_y": "559363.709661",
    "longitude": "-89.95307118355935",
    "latitude": "30.030910208684283",
    "geocoded_column": {
      "latitude": "30.030910208684283",
      "longitude": "-89.95307118355935"
    }
  },
  {
    "service_request": "2024-1114682",
    "request_type": "Trash/Recycling",
    "request_reason": "Missed Trash Pick-Up",
    "date_created": "2024-07-22T15:33:54.000",
    "date_modified": "2024-07-22T16:38:48.000",
    "case_close_date": "2024-07-22T11:38:48.000",
    "request_status": "Closed",
    "responsible_agency": "Department of Sanitation",
    "final_address": "226 S Dupre St",
    "address_councildis": "B",
    "status": "Invalid Request",
    "contractor": "IV Waste",
    "contractor_action": "Invalid Request",
    "rowid": "1114682",
    "final_x": "3674247.29608",
    "final_y": "535080.799942",
    "longitude": "-90.09084986232318",
    "latitude": "29.96550490623715",
    "geocoded_column": {
      "latitude": "29.96550490623715",
      "longitude": "-90.09084986232318"
    }
  },
  {
    "service_request": "2024-1114680",
    "request_type": "Roads/Drainage",
    "request_reason": "Street Flooding / Drainage",
    "date_created": "2024-07-22T15:30:50.000",
    "date_modified": "2024-07-22T15:30:50.000",
    "request_status": "Pending",
    "responsible_agency": "Department of Public Works",
    "final_address": "2219 Pine St",
    "address_councildis": "A",
    "status": "Pending",
    "rowid": "1114680",
    "final_x": "3666020.07482",
    "final_y": "529687.271745",
    "longitude": "-90.11701197517648",
    "latitude": "29.950917205971965",
    "geocoded_column": {
      "latitude": "29.950917205971965",
      "longitude": "-90.11701197517648"
    }
  },
  {
    "service_request": "2024-1114679",
    "request_type": "Trash/Recycling",
    "request_reason": "Request a Large Item Pick Up",
    "date_created": "2024-07-22T15:28:17.000",
    "date_modified": "2024-07-22T15:28:18.000",
    "request_status": "Pending",
    "responsible_agency": "Department of Sanitation",
    "final_address": "1309 General Taylor St",
    "address_councildis": "B",
    "status": "Assigned to Contractor",
    "contractor": "IV Waste",
    "rowid": "1114679",
    "final_x": "3672828.44353",
    "final_y": "520362.03756",
    "longitude": "-90.09583254057156",
    "latitude": "29.925075366813143",
    "geocoded_column": {
      "latitude": "29.925075366813143",
      "longitude": "-90.09583254057156"
    }
  },
  {
    "service_request": "2024-1114678",
    "request_type": "Parks & Parkways",
    "request_reason": "Request Tree Service (Right of Way/Public Property)",
    "date_created": "2024-07-22T15:26:54.000",
    "date_modified": "2024-07-22T15:26:55.000",
    "request_status": "Pending",
    "responsible_agency": "Department of Parks & Parkway",
    "final_address": "GENERAL TAYLOR & S CLAIBORNE AVE",
    "address_councildis": "B",
    "status": "Pending",
    "rowid": "1114678",
    "final_x": "3671494.0",
    "final_y": "525908.58",
    "longitude": "-90.09985648070885",
    "latitude": "29.9403661313847",
    "geocoded_column": {
      "latitude": "29.9403661313847",
      "longitude": "-90.09985648070885"
    }
  },
  {
    "service_request": "2024-1114676",
    "request_type": "Trash/Recycling",
    "request_reason": "Request a Large Item Pick Up",
    "date_created": "2024-07-22T15:23:34.000",
    "date_modified": "2024-07-22T15:23:35.000",
    "request_status": "Pending",
    "responsible_agency": "Department of Sanitation",
    "final_address": "7201 Salem Dr",
    "address_councildis": "E",
    "status": "Assigned to Contractor",
    "contractor": "Waste Pro",
    "rowid": "1114676",
    "final_x": "3706415.65246",
    "final_y": "561538.376223",
    "longitude": "-89.98828367487326",
    "latitude": "30.037254881773514",
    "geocoded_column": {
      "latitude": "30.037254881773514",
      "longitude": "-89.98828367487326"
    }
  },
  {
    "service_request": "2024-1114675",
    "request_type": "Roads/Drainage",
    "request_reason": "Catch Basin - Clogged",
    "date_created": "2024-07-22T15:23:10.000",
    "date_modified": "2024-07-22T15:23:10.000",
    "request_status": "Pending",
    "responsible_agency": "Department of Public Works",
    "final_address": "4156 Davey St",
    "address_councildis": "D",
    "status": "Pending",
    "rowid": "1114675",
    "final_x": "3676115.86273",
    "final_y": "547365.245521",
    "longitude": "-90.08452620646996",
    "latitude": "29.999227045589997",
    "geocoded_column": {
      "latitude": "29.999227045589997",
      "longitude": "-90.08452620646996"
    }
  },
  {
    "service_request": "2024-1114674",
    "request_type": "Trash/Recycling",
    "request_reason": "Repair Trash Cart",
    "date_created": "2024-07-22T15:21:08.000",
    "date_modified": "2024-07-22T15:21:09.000",
    "request_status": "Pending",
    "responsible_agency": "Department of Sanitation",
    "final_address": "6046 Warwick Ct",
    "address_councildis": "C",
    "status": "Assigned to Contractor",
    "contractor": "Richards Disposal",
    "rowid": "1114674",
    "final_x": "3706271.81783",
    "final_y": "515948.849588",
    "longitude": "-89.99042673331175",
    "latitude": "29.911905123966022",
    "geocoded_column": {
      "latitude": "29.911905123966022",
      "longitude": "-89.99042673331175"
    }
  },
  {
    "service_request": "2024-1114673",
    "request_type": "Trash/Recycling",
    "request_reason": "Request a Large Item Pick Up",
    "date_created": "2024-07-22T15:19:09.000",
    "date_modified": "2024-07-22T15:19:10.000",
    "request_status": "Pending",
    "responsible_agency": "Department of Sanitation",
    "final_address": "14071 Quail Creek Ln",
    "address_councildis": "E",
    "status": "Assigned to Contractor",
    "contractor": "Waste Pro",
    "rowid": "1114673",
    "final_x": "3719136.03199",
    "final_y": "572534.917865",
    "longitude": "-89.94766462412272",
    "latitude": "30.067074124508967",
    "geocoded_column": {
      "latitude": "30.067074124508967",
      "longitude": "-89.94766462412272"
    }
  },
  {
    "service_request": "2024-1114672",
    "request_type": "Trash/Recycling",
    "request_reason": "Missed Trash Pick-Up",
    "date_created": "2024-07-22T15:17:23.000",
    "date_modified": "2024-07-22T15:17:47.000",
    "request_status": "Pending",
    "responsible_agency": "Department of Sanitation",
    "final_address": "14071 Quail Creek Ln",
    "address_councildis": "E",
    "contractor": "Waste Pro",
    "rowid": "1114672",
    "final_x": "3719136.03199",
    "final_y": "572534.917865",
    "longitude": "-89.94766462412272",
    "latitude": "30.067074124508967",
    "geocoded_column": {
      "latitude": "30.067074124508967",
      "longitude": "-89.94766462412272"
    }
  },
  {
    "service_request": "2024-1114671",
    "request_type": "Abandoned Vehicles",
    "request_reason": "Abandoned/Junk Vehicles",
    "date_created": "2024-07-22T15:17:10.000",
    "date_modified": "2024-07-22T15:19:13.000",
    "request_status": "Pending",
    "responsible_agency": "Department of Public Works",
    "final_address": "2457 N Galvez St",
    "address_councildis": "D",
    "status": "Pending",
    "rowid": "1114671",
    "final_x": "3686687.02678",
    "final_y": "540182.882827",
    "longitude": "-90.05138556182146",
    "latitude": "29.9791570857515",
    "geocoded_column": {
      "latitude": "29.9791570857515",
      "longitude": "-90.05138556182146"
    }
  },
  {
    "service_request": "2024-1114670",
    "request_type": "Parks & Parkways",
    "request_reason": "Request Tree Service (Right of Way/Public Property)",
    "date_created": "2024-07-22T15:16:18.000",
    "date_modified": "2024-07-22T15:16:19.000",
    "request_status": "Pending",
    "responsible_agency": "Department of Parks & Parkway",
    "final_address": "1513 Gardena Dr",
    "address_councildis": "D",
    "status": "Pending",
    "rowid": "1114670",
    "final_x": "3678792.95016",
    "final_y": "551618.064725",
    "longitude": "-90.07592179239859",
    "latitude": "30.010840284087493",
    "geocoded_column": {
      "latitude": "30.010840284087493",
      "longitude": "-90.07592179239859"
    }
  },
  {
    "service_request": "2024-1114669",
    "request_type": "Healthy Homes",
    "request_reason": "Healthy Homes",
    "date_created": "2024-07-22T15:16:02.000",
    "date_modified": "2024-07-22T15:16:02.000",
    "request_status": "Pending",
    "responsible_agency": "Department of Code Enforcement",
    "final_address": "2821 Bacchus Dr",
    "address_councildis": "C",
    "status": "Pending",
    "rowid": "1114669",
    "final_x": "3710192.94065",
    "final_y": "518991.981623",
    "longitude": "-89.97793715118071",
    "latitude": "29.92014573050673",
    "geocoded_column": {
      "latitude": "29.92014573050673",
      "longitude": "-89.97793715118071"
    }
  },
  {
    "service_request": "2024-1114668",
    "request_type": "Parks & Parkways",
    "request_reason": "Request Tree Service (Right of Way/Public Property)",
    "date_created": "2024-07-22T15:13:08.000",
    "date_modified": "2024-07-22T15:13:09.000",
    "request_status": "Pending",
    "responsible_agency": "Department of Parks & Parkway",
    "final_address": "9100 BLK Lake Forest Blvd",
    "address_councildis": "E",
    "status": "Pending",
    "rowid": "1114668",
    "final_x": "3707822.83661",
    "final_y": "558527.327615",
    "longitude": "-89.98394874960341",
    "latitude": "30.028930190731803",
    "geocoded_column": {
      "latitude": "30.028930190731803",
      "longitude": "-89.98394874960341"
    }
  },
  {
    "service_request": "2024-1114667",
    "request_type": "Abandoned Vehicles",
    "request_reason": "Abandoned/Junk Vehicles",
    "date_created": "2024-07-22T15:10:16.000",
    "date_modified": "2024-07-22T15:20:17.000",
    "request_status": "Pending",
    "responsible_agency": "Department of Public Works",
    "final_address": "WILLOW ST & LEONIDAS ST",
    "address_councildis": "A",
    "status": "Pending",
    "rowid": "1114667",
    "final_x": "3661121.8",
    "final_y": "530090.28",
    "longitude": "-90.13246500025383",
    "latitude": "29.95216741124683",
    "geocoded_column": {
      "latitude": "29.95216741124683",
      "longitude": "-90.13246500025383"
    }
  },
  {
    "service_request": "2024-1114666",
    "request_type": "Trash/Recycling",
    "request_reason": "Repair Trash Cart",
    "date_created": "2024-07-22T15:10:14.000",
    "date_modified": "2024-07-22T15:10:15.000",
    "request_status": "Pending",
    "responsible_agency": "Department of Sanitation",
    "final_address": "1052 Terry St",
    "address_councildis": "C",
    "status": "Assigned to Contractor",
    "contractor": "Richards Disposal",
    "rowid": "1114666",
    "final_x": "3697053.5009",
    "final_y": "527410.885823",
    "longitude": "-90.01910705360189",
    "latitude": "29.94371565072948",
    "geocoded_column": {
      "latitude": "29.94371565072948",
      "longitude": "-90.01910705360189"
    }
  },
  {
    "service_request": "2024-1114665",
    "request_type": "Traffic Signals/Signs/Striping/Streetlights",
    "request_reason": "Street Light Outage/Malfunction",
    "date_created": "2024-07-22T15:09:54.000",
    "date_modified": "2024-07-22T15:09:55.000",
    "request_status": "Pending",
    "responsible_agency": "Department of Public Works",
    "final_address": "5300 Mandeville St",
    "address_councildis": "D",
    "status": "Assigned to Contractor",
    "contractor": "Legacy Professional Services",
    "rowid": "1114665",
    "final_x": "3684428.62761",
    "final_y": "552527.38479",
    "longitude": "-90.0580845326825",
    "latitude": "30.013169329392113",
    "geocoded_column": {
      "latitude": "30.013169329392113",
      "longitude": "-90.0580845326825"
    }
  },
  {
    "service_request": "2024-1114664",
    "request_type": "Parks & Parkways",
    "request_reason": "Request Tree Service (Right of Way/Public Property)",
    "date_created": "2024-07-22T15:09:49.000",
    "date_modified": "2024-07-22T15:14:54.000",
    "request_status": "Pending",
    "responsible_agency": "Department of Parks & Parkway",
    "final_address": "8930 Lake Forest Blvd",
    "address_councildis": "E",
    "status": "Pending",
    "rowid": "1114664",
    "final_x": "3707347.51736",
    "final_y": "558289.881628",
    "longitude": "-89.98545955476317",
    "latitude": "30.028292689837787",
    "geocoded_column": {
      "latitude": "30.028292689837787",
      "longitude": "-89.98545955476317"
    }
  },
  {
    "service_request": "2024-1114663",
    "request_type": "Roads/Drainage",
    "request_reason": "Street Flooding / Drainage",
    "date_created": "2024-07-22T15:08:51.000",
    "date_modified": "2024-07-22T15:08:51.000",
    "request_status": "Pending",
    "responsible_agency": "Department of Public Works",
    "final_address": "2200 BLK Prytania St",
    "address_councildis": "B",
    "status": "Pending",
    "rowid": "1114663",
    "final_x": "3677768.46136",
    "final_y": "523155.733988",
    "longitude": "-90.08014203985107",
    "latitude": "29.932609496466398",
    "geocoded_column": {
      "latitude": "29.932609496466398",
      "longitude": "-90.08014203985107"
    }
  },
  {
    "service_request": "2024-1114662",
    "request_type": "Abandoned Vehicles",
    "request_reason": "Abandoned/Junk Vehicles",
    "date_created": "2024-07-22T15:05:00.000",
    "date_modified": "2024-07-22T15:06:19.000",
    "request_status": "Pending",
    "responsible_agency": "Department of Public Works",
    "final_address": "6010 Coliseum St",
    "address_councildis": "A",
    "status": "Pending",
    "rowid": "1114662",
    "final_x": "3664842.416",
    "final_y": "520208.271032",
    "longitude": "-90.12104709841476",
    "latitude": "29.924887297413267",
    "geocoded_column": {
      "latitude": "29.924887297413267",
      "longitude": "-90.12104709841476"
    }
  },
  {
    "service_request": "2024-1114661",
    "request_type": "Trash/Recycling",
    "request_reason": "Request a Large Item Pick Up",
    "date_created": "2024-07-22T15:02:22.000",
    "date_modified": "2024-07-22T15:03:26.000",
    "request_status": "Pending",
    "responsible_agency": "Department of Sanitation",
    "final_address": "7938 Mackenzie St",
    "address_councildis": "E",
    "status": "Assigned to Contractor",
    "contractor": "Waste Pro",
    "rowid": "1114661",
    "final_x": "3710289.43115",
    "final_y": "567101.531172",
    "longitude": "-89.97583348416175",
    "latitude": "30.05242572223468",
    "geocoded_column": {
      "latitude": "30.05242572223468",
      "longitude": "-89.97583348416175"
    }
  },
  {
    "service_request": "2024-1114660",
    "request_type": "Roads/Drainage",
    "request_reason": "Street Subsidence (Sinking)",
    "date_created": "2024-07-22T15:01:05.000",
    "date_modified": "2024-07-22T15:01:05.000",
    "request_status": "Pending",
    "responsible_agency": "Department of Public Works",
    "final_address": "2 Westpark Ct",
    "address_councildis": "C",
    "status": "Pending",
    "rowid": "1114660",
    "final_x": "3696111.53507",
    "final_y": "521705.524281",
    "longitude": "-90.02228718050897",
    "latitude": "29.928057543703442",
    "geocoded_column": {
      "latitude": "29.928057543703442",
      "longitude": "-90.02228718050897"
    }
  },
  {
    "service_request": "2024-1114659",
    "request_type": "Trash/Recycling",
    "request_reason": "Illegal Dumping",
    "date_created": "2024-07-22T14:57:10.000",
    "date_modified": "2024-07-22T14:57:47.000",
    "request_status": "Pending",
    "responsible_agency": "Department of Sanitation",
    "final_address": "408 S Dupre St",
    "address_councildis": "B",
    "status": "Pending",
    "rowid": "1114659",
    "final_x": "3673813.9172",
    "final_y": "534551.877573",
    "longitude": "-90.09223654797233",
    "latitude": "29.964063461997096",
    "geocoded_column": {
      "latitude": "29.964063461997096",
      "longitude": "-90.09223654797233"
    }
  },
  {
    "service_request": "2024-1114658",
    "request_type": "Trash/Recycling",
    "request_reason": "Illegal Dumping",
    "date_created": "2024-07-22T14:57:02.000",
    "date_modified": "2024-07-22T14:57:02.000",
    "request_status": "Pending",
    "responsible_agency": "Department of Sanitation",
    "final_address": "3000 Benefit St",
    "address_councildis": "D",
    "status": "Pending",
    "rowid": "1114658",
    "final_x": "3690361.59907",
    "final_y": "544361.176335",
    "longitude": "-90.03963087803172",
    "latitude": "29.990532345074733",
    "geocoded_column": {
      "latitude": "29.990532345074733",
      "longitude": "-90.03963087803172"
    }
  },
  {
    "service_request": "2024-1114657",
    "request_type": "Trash/Recycling",
    "request_reason": "Replace Trash Cart",
    "date_created": "2024-07-22T14:56:22.000",
    "date_modified": "2024-07-22T14:56:23.000",
    "request_status": "Pending",
    "responsible_agency": "Department of Sanitation",
    "final_address": "4308 S Derbigny St",
    "address_councildis": "B",
    "status": "Assigned to Contractor",
    "contractor": "IV Waste",
    "rowid": "1114657",
    "final_x": "3670608.70478",
    "final_y": "526240.219198",
    "longitude": "-90.10264026191228",
    "latitude": "29.941304206336067",
    "geocoded_column": {
      "latitude": "29.941304206336067",
      "longitude": "-90.10264026191228"
    }
  },
  {
    "service_request": "2024-1114656",
    "request_type": "Parks & Parkways",
    "request_reason": "Request Tree Service (Right of Way/Public Property)",
    "date_created": "2024-07-22T14:55:56.000",
    "date_modified": "2024-07-22T14:55:56.000",
    "request_status": "Pending",
    "responsible_agency": "Department of Parks & Parkway",
    "final_address": "7101 Marshal Foch St",
    "address_councildis": "A",
    "status": "Pending",
    "rowid": "1114656",
    "final_x": "3670551.77646",
    "final_y": "554222.773208",
    "longitude": "-90.10187051620167",
    "latitude": "30.018248402463215",
    "geocoded_column": {
      "latitude": "30.018248402463215",
      "longitude": "-90.10187051620167"
    }
  },
  {
    "service_request": "2024-1114655",
    "request_type": "Trash/Recycling",
    "request_reason": "Repair Recycling Cart",
    "date_created": "2024-07-22T14:52:17.000",
    "date_modified": "2024-07-22T14:55:49.000",
    "request_status": "Pending",
    "responsible_agency": "Department of Sanitation",
    "final_address": "925 Moss St",
    "address_councildis": "A",
    "status": "Pending",
    "rowid": "1114655",
    "final_x": "3674676.22811",
    "final_y": "539786.163722",
    "longitude": "-90.08933398901819",
    "latitude": "29.97843026162769",
    "geocoded_column": {
      "latitude": "29.97843026162769",
      "longitude": "-90.08933398901819"
    }
  },
  {
    "service_request": "2024-1114654",
    "request_type": "Traffic Signals/Signs/Striping/Streetlights",
    "request_reason": "Street Light Outage/Malfunction",
    "date_created": "2024-07-22T14:49:31.000",
    "date_modified": "2024-07-22T14:49:32.000",
    "request_status": "Pending",
    "responsible_agency": "Department of Public Works",
    "final_address": "6313 Pritchard Pl",
    "address_councildis": "B",
    "status": "Assigned to Contractor",
    "contractor": "Legacy Professional Services",
    "rowid": "1114654",
    "final_x": "3668313.93562",
    "final_y": "531029.06509",
    "longitude": "-90.10972385497395",
    "latitude": "29.954539546124092",
    "geocoded_column": {
      "latitude": "29.954539546124092",
      "longitude": "-90.10972385497395"
    }
  },
  {
    "service_request": "2024-1114653",
    "request_type": "Trash/Recycling",
    "request_reason": "Repair Trash Cart",
    "date_created": "2024-07-22T14:48:57.000",
    "date_modified": "2024-07-22T14:48:58.000",
    "request_status": "Pending",
    "responsible_agency": "Department of Sanitation",
    "final_address": "119 Westpark Ct",
    "address_councildis": "C",
    "status": "Assigned to Contractor",
    "contractor": "Richards Disposal",
    "rowid": "1114653",
    "final_x": "3695793.03344",
    "final_y": "521977.543034",
    "longitude": "-90.02328279477982",
    "latitude": "29.92881551903901",
    "geocoded_column": {
      "latitude": "29.92881551903901",
      "longitude": "-90.02328279477982"
    }
  },
  {
    "service_request": "2024-1114652",
    "request_type": "Abandoned Vehicles",
    "request_reason": "Abandoned/Junk Vehicles",
    "date_created": "2024-07-22T14:47:58.000",
    "date_modified": "2024-07-22T14:50:39.000",
    "request_status": "Pending",
    "responsible_agency": "Department of Public Works",
    "final_address": "3700 BLK General Pershing St",
    "address_councildis": "B",
    "status": "Pending",
    "rowid": "1114652",
    "final_x": "3670504.33907",
    "final_y": "528350.867627",
    "longitude": "-90.10289820831436",
    "latitude": "29.947110883808048",
    "geocoded_column": {
      "latitude": "29.947110883808048",
      "longitude": "-90.10289820831436"
    }
  },
  {
    "service_request": "2024-1114651",
    "request_type": "Trash/Recycling",
    "request_reason": "Request a Large Item Pick Up",
    "date_created": "2024-07-22T14:45:46.000",
    "date_modified": "2024-07-22T14:45:47.000",
    "request_status": "Pending",
    "responsible_agency": "Department of Sanitation",
    "final_address": "403 Eliza St",
    "address_councildis": "C",
    "status": "Assigned to Contractor",
    "contractor": "Richards Disposal",
    "rowid": "1114651",
    "final_x": "3686683.40924",
    "final_y": "529646.186881",
    "longitude": "-90.05176919556521",
    "latitude": "29.95018493972133",
    "geocoded_column": {
      "latitude": "29.95018493972133",
      "longitude": "-90.05176919556521"
    }
  },
  {
    "service_request": "2024-1114650",
    "request_type": "Roads/Drainage",
    "request_reason": "Accessibility Ramps, Curbs and Sidewalk Repair",
    "date_created": "2024-07-22T14:44:42.000",
    "date_modified": "2024-07-22T14:44:42.000",
    "request_status": "Pending",
    "responsible_agency": "Department of Public Works",
    "final_address": "6724 Louis Xiv St",
    "address_councildis": "A",
    "status": "Pending",
    "rowid": "1114650",
    "final_x": "3668434.32212",
    "final_y": "552269.652566",
    "longitude": "-90.10862686197356",
    "latitude": "30.01294041294701",
    "geocoded_column": {
      "latitude": "30.01294041294701",
      "longitude": "-90.10862686197356"
    }
  },
  {
    "service_request": "2024-1114649",
    "request_type": "Property Maintenance",
    "request_reason": "Property Maintenance",
    "date_created": "2024-07-22T14:44:41.000",
    "date_modified": "2024-07-22T14:57:06.000",
    "case_close_date": "2024-07-22T09:57:06.000",
    "request_status": "Closed",
    "responsible_agency": "Department of Code Enforcement",
    "final_address": "115 Liberty Terrace Dr",
    "address_councildis": "D",
    "status": "Referred to Code Enforcement",
    "rowid": "1114649",
    "final_x": "3689698.04355",
    "final_y": "545509.819856",
    "longitude": "-90.0416859768784",
    "latitude": "29.99371128370428",
    "geocoded_column": {
      "latitude": "29.99371128370428",
      "longitude": "-90.0416859768784"
    }
  },
  {
    "service_request": "2024-1114648",
    "request_type": "Traffic Signals/Signs/Striping/Streetlights",
    "request_reason": "Street Light Outage/Malfunction",
    "date_created": "2024-07-22T14:42:54.000",
    "date_modified": "2024-07-22T14:43:25.000",
    "request_status": "Pending",
    "responsible_agency": "Department of Public Works",
    "final_address": "1432 Clouet St",
    "address_councildis": "C",
    "status": "Assigned to Contractor",
    "contractor": "Legacy Professional Services",
    "rowid": "1114648",
    "final_x": "3689325.29622",
    "final_y": "537432.033352",
    "longitude": "-90.04315073411621",
    "latitude": "29.971511798049274",
    "geocoded_column": {
      "latitude": "29.971511798049274",
      "longitude": "-90.04315073411621"
    }
  },
  {
    "service_request": "2024-1114647",
    "request_type": "Roads/Drainage",
    "request_reason": "Catch Basin - Clogged",
    "date_created": "2024-07-22T14:41:09.000",
    "date_modified": "2024-07-22T14:41:10.000",
    "request_status": "Pending",
    "responsible_agency": "Department of Public Works",
    "final_address": "251 Oakmont Dr",
    "address_councildis": "E",
    "status": "Pending",
    "rowid": "1114647",
    "final_x": "3719942.27442",
    "final_y": "562834.918496",
    "longitude": "-89.94548737869408",
    "latitude": "30.040376314649286",
    "geocoded_column": {
      "latitude": "30.040376314649286",
      "longitude": "-89.94548737869408"
    }
  },
  {
    "service_request": "2024-1114646",
    "request_type": "Safety & Permits",
    "request_reason": "Licenses & Permits",
    "date_created": "2024-07-22T14:38:16.000",
    "date_modified": "2024-07-22T14:38:16.000",
    "request_status": "Pending",
    "responsible_agency": "Safety and Permits",
    "final_address": "700 Turquoise St",
    "address_councildis": "D",
    "status": "Pending",
    "rowid": "1114646",
    "final_x": "3669912.29492",
    "final_y": "555176.766169",
    "longitude": "-90.10385870204372",
    "latitude": "30.02089042552347",
    "geocoded_column": {
      "latitude": "30.02089042552347",
      "longitude": "-90.10385870204372"
    }
  },
  {
    "service_request": "2024-1114645",
    "request_type": "Trash/Recycling",
    "request_reason": "Request a Large Item Pick Up",
    "date_created": "2024-07-22T14:37:44.000",
    "date_modified": "2024-07-22T14:37:45.000",
    "request_status": "Pending",
    "responsible_agency": "Department of Sanitation",
    "final_address": "7001 General Diaz St",
    "address_councildis": "A",
    "status": "Assigned to Contractor",
    "contractor": "IV Waste",
    "rowid": "1114645",
    "final_x": "3670174.20097",
    "final_y": "553985.455384",
    "longitude": "-90.10307156785514",
    "latitude": "30.01760701511324",
    "geocoded_column": {
      "latitude": "30.01760701511324",
      "longitude": "-90.10307156785514"
    }
  },
  {
    "service_request": "2024-1114644",
    "request_type": "Trash/Recycling",
    "request_reason": "Request a Large Item Pick Up",
    "date_created": "2024-07-22T14:35:24.000",
    "date_modified": "2024-07-22T14:35:24.000",
    "request_status": "Pending",
    "responsible_agency": "Department of Sanitation",
    "final_address": "5620 St Helena Pl",
    "address_councildis": "E",
    "status": "Assigned to Contractor",
    "contractor": "Waste Pro",
    "rowid": "1114644",
    "final_x": "3726380.20857",
    "final_y": "564443.079649",
    "longitude": "-89.92507924172597",
    "latitude": "30.044582113128058",
    "geocoded_column": {
      "latitude": "30.044582113128058",
      "longitude": "-89.92507924172597"
    }
  },
  {
    "service_request": "2024-1114643",
    "request_type": "Trash/Recycling",
    "request_reason": "Repair Trash Cart",
    "date_created": "2024-07-22T14:32:18.000",
    "date_modified": "2024-07-22T14:32:20.000",
    "request_status": "Pending",
    "responsible_agency": "Department of Sanitation",
    "final_address": "21 Sullivan Pl",
    "address_councildis": "C",
    "status": "Assigned to Contractor",
    "contractor": "Richards Disposal",
    "rowid": "1114643",
    "final_x": "3702282.18589",
    "final_y": "522020.902778",
    "longitude": "-90.00279642226684",
    "latitude": "29.92872914749276",
    "geocoded_column": {
      "latitude": "29.92872914749276",
      "longitude": "-90.00279642226684"
    }
  },
  {
    "service_request": "2024-1114642",
    "request_type": "Trash/Recycling",
    "request_reason": "Missed Trash Pick-Up",
    "date_created": "2024-07-22T14:32:12.000",
    "date_modified": "2024-07-22T15:59:17.000",
    "case_close_date": "2024-07-22T10:59:17.000",
    "request_status": "Closed",
    "responsible_agency": "Department of Sanitation",
    "final_address": "2483 Royal St",
    "address_councildis": "C",
    "status": "Invalid Request",
    "contractor": "IV Waste",
    "contractor_action": "Invalid",
    "rowid": "1114642",
    "final_x": "3686561.67721",
    "final_y": "535009.762054",
    "longitude": "-90.05196417600004",
    "latitude": "29.96493666873159",
    "geocoded_column": {
      "latitude": "29.96493666873159",
      "longitude": "-90.05196417600004"
    }
  },
  {
    "service_request": "2024-1114641",
    "request_type": "Trash/Recycling",
    "request_reason": "Request a Large Item Pick Up",
    "date_created": "2024-07-22T14:30:36.000",
    "date_modified": "2024-07-22T14:30:36.000",
    "request_status": "Pending",
    "responsible_agency": "Department of Sanitation",
    "final_address": "927 Milan St",
    "address_councildis": "B",
    "status": "Assigned to Contractor",
    "contractor": "IV Waste",
    "rowid": "1114641",
    "final_x": "3671817.38779",
    "final_y": "519097.054455",
    "longitude": "-90.09906713774141",
    "latitude": "29.921627052992818",
    "geocoded_column": {
      "latitude": "29.921627052992818",
      "longitude": "-90.09906713774141"
    }
  },
  {
    "service_request": "2024-1114640",
    "request_type": "Trash/Recycling",
    "request_reason": "Request a Large Item Pick Up",
    "date_created": "2024-07-22T14:29:44.000",
    "date_modified": "2024-07-22T14:29:45.000",
    "request_status": "Pending",
    "responsible_agency": "Department of Sanitation",
    "final_address": "18 Arbor Ln",
    "address_councildis": "C",
    "status": "Assigned to Contractor",
    "contractor": "Richards Disposal",
    "rowid": "1114640",
    "final_x": "3716466.74412",
    "final_y": "518045.242422",
    "longitude": "-89.95816985193927",
    "latitude": "29.917336986397657",
    "geocoded_column": {
      "latitude": "29.917336986397657",
      "longitude": "-89.95816985193927"
    }
  },
  {
    "service_request": "2024-1114639",
    "request_type": "Roads/Drainage",
    "request_reason": "Catch Basin - Clogged",
    "date_created": "2024-07-22T14:28:09.000",
    "date_modified": "2024-07-22T14:28:09.000",
    "request_status": "Pending",
    "responsible_agency": "Department of Public Works",
    "final_address": "1412 Deslonde St",
    "address_councildis": "E",
    "status": "Pending",
    "rowid": "1114639",
    "final_x": "3695686.69936",
    "final_y": "535677.006726",
    "longitude": "-90.02312396853951",
    "latitude": "29.966487616036467",
    "geocoded_column": {
      "latitude": "29.966487616036467",
      "longitude": "-90.02312396853951"
    }
  },
  {
    "service_request": "2024-1114638",
    "request_type": "Property Maintenance",
    "request_reason": "Property Maintenance",
    "date_created": "2024-07-22T14:25:20.000",
    "date_modified": "2024-07-22T14:52:06.000",
    "case_close_date": "2024-07-22T09:52:06.000",
    "request_status": "Closed",
    "responsible_agency": "Department of Code Enforcement",
    "final_address": "4700 Bright Dr",
    "address_councildis": "E",
    "status": "Referred to Code Enforcement",
    "rowid": "1114638",
    "final_x": "3715833.78111",
    "final_y": "556707.341786",
    "longitude": "-89.95870373127988",
    "latitude": "30.023664122308624",
    "geocoded_column": {
      "latitude": "30.023664122308624",
      "longitude": "-89.95870373127988"
    }
  },
  {
    "service_request": "2024-1114637",
    "request_type": "Roads/Drainage",
    "request_reason": "Catch Basin - Clogged",
    "date_created": "2024-07-22T14:23:42.000",
    "date_modified": "2024-07-22T14:23:43.000",
    "request_status": "Pending",
    "responsible_agency": "Department of Public Works",
    "final_address": "8428 Palm St",
    "address_councildis": "A",
    "status": "Pending",
    "rowid": "1114637",
    "final_x": "3666715.04865",
    "final_y": "535538.890438",
    "longitude": "-90.11462107538584",
    "latitude": "29.96698693325643",
    "geocoded_column": {
      "latitude": "29.96698693325643",
      "longitude": "-90.11462107538584"
    }
  },
  {
    "service_request": "2024-1114636",
    "request_type": "Trash/Recycling",
    "request_reason": "Order Recycling Cart",
    "date_created": "2024-07-22T14:22:27.000",
    "date_modified": "2024-07-22T14:22:27.000",
    "request_status": "Pending",
    "responsible_agency": "Department of Sanitation",
    "final_address": "4713 Iberville St",
    "address_councildis": "A",
    "status": "Pending",
    "rowid": "1114636",
    "final_x": "3669325.79553",
    "final_y": "540342.367115",
    "longitude": "-90.10621384889012",
    "latitude": "29.98011826932792",
    "geocoded_column": {
      "latitude": "29.98011826932792",
      "longitude": "-90.10621384889012"
    }
  },
  {
    "service_request": "2024-1114635",
    "request_type": "Trash/Recycling",
    "request_reason": "Request a Large Item Pick Up",
    "date_created": "2024-07-22T14:20:36.000",
    "date_modified": "2024-07-22T14:20:37.000",
    "request_status": "Pending",
    "responsible_agency": "Department of Sanitation",
    "final_address": "602 Herald St",
    "address_councildis": "C",
    "status": "Assigned to Contractor",
    "contractor": "Richards Disposal",
    "rowid": "1114635",
    "final_x": "3702365.7089",
    "final_y": "520731.449977",
    "longitude": "-90.00258003346683",
    "latitude": "29.925180931889656",
    "geocoded_column": {
      "latitude": "29.925180931889656",
      "longitude": "-90.00258003346683"
    }
  },
  {
    "service_request": "2024-1114634",
    "request_type": "Property Maintenance",
    "request_reason": "Property Maintenance",
    "date_created": "2024-07-22T14:17:42.000",
    "date_modified": "2024-07-22T14:17:43.000",
    "request_status": "Pending",
    "responsible_agency": "Department of Code Enforcement",
    "final_address": "326 Dearmas St",
    "address_councildis": "C",
    "status": "Pending",
    "rowid": "1114634",
    "final_x": "3686448.40226",
    "final_y": "527175.846847",
    "longitude": "-90.05259840469797",
    "latitude": "29.9433995696233",
    "geocoded_column": {
      "latitude": "29.9433995696233",
      "longitude": "-90.05259840469797"
    }
  },
  {
    "service_request": "2024-1114633",
    "request_type": "Traffic Signals/Signs/Striping/Streetlights",
    "request_reason": "Street Light Outage/Malfunction",
    "date_created": "2024-07-22T14:17:17.000",
    "date_modified": "2024-07-22T14:24:10.000",
    "request_status": "Pending",
    "responsible_agency": "Department of Public Works",
    "final_address": "7661 Jonlee Dr",
    "address_councildis": "E",
    "status": "Assigned to Contractor",
    "contractor": "Legacy Professional Services",
    "rowid": "1114633",
    "final_x": "3716996.91205",
    "final_y": "570808.271143",
    "longitude": "-89.95449235515908",
    "latitude": "30.062397520594082",
    "geocoded_column": {
      "latitude": "30.062397520594082",
      "longitude": "-89.95449235515908"
    }
  },
  {
    "service_request": "2024-1114632",
    "request_type": "Property Maintenance",
    "request_reason": "Property Maintenance",
    "date_created": "2024-07-22T14:14:33.000",
    "date_modified": "2024-07-22T15:50:57.000",
    "case_close_date": "2024-07-22T10:50:56.000",
    "request_status": "Closed",
    "responsible_agency": "Department of Code Enforcement",
    "final_address": "3443 Esplanade Ave Apt 628",
    "address_councildis": "A",
    "status": "Referred to External Agency",
    "rowid": "1114632",
    "final_x": "3675016.12072",
    "final_y": "541997.141324",
    "longitude": "-90.08818459957656",
    "latitude": "29.98449953873604",
    "geocoded_column": {
      "latitude": "29.98449953873604",
      "longitude": "-90.08818459957656"
    }
  },
  {
    "service_request": "2024-1114631",
    "request_type": "Trash/Recycling",
    "request_reason": "Illegal Dumping",
    "date_created": "2024-07-22T14:13:29.000",
    "date_modified": "2024-07-22T14:13:29.000",
    "request_status": "Pending",
    "responsible_agency": "Department of Sanitation",
    "final_address": "600 BLK Esplanade Ave",
    "address_councildis": "C",
    "status": "Pending",
    "rowid": "1114631",
    "final_x": "3684171.233",
    "final_y": "534286.046045",
    "longitude": "-90.05953844740263",
    "latitude": "29.963019985981543",
    "geocoded_column": {
      "latitude": "29.963019985981543",
      "longitude": "-90.05953844740263"
    }
  },
  {
    "service_request": "2024-1114630",
    "request_type": "Parks & Parkways",
    "request_reason": "Request Tree Service (Right of Way/Public Property)",
    "date_created": "2024-07-22T14:12:13.000",
    "date_modified": "2024-07-22T14:12:14.000",
    "request_status": "Pending",
    "responsible_agency": "Department of Parks & Parkway",
    "final_address": "7000 Lake Barrington Dr",
    "address_councildis": "E",
    "status": "Pending",
    "rowid": "1114630",
    "final_x": "3712733.46379",
    "final_y": "563709.968033",
    "longitude": "-89.96823639702313",
    "latitude": "30.043020456463445",
    "geocoded_column": {
      "latitude": "30.043020456463445",
      "longitude": "-89.96823639702313"
    }
  },
  {
    "service_request": "2024-1114629",
    "request_type": "Trash/Recycling",
    "request_reason": "Request a Large Item Pick Up",
    "date_created": "2024-07-22T14:09:21.000",
    "date_modified": "2024-07-22T14:09:22.000",
    "request_status": "Pending",
    "responsible_agency": "Department of Sanitation",
    "final_address": "42 Crane St",
    "address_councildis": "D",
    "status": "Assigned to Contractor",
    "contractor": "IV Waste",
    "rowid": "1114629",
    "final_x": "3673229.33729",
    "final_y": "554999.568793",
    "longitude": "-90.0933838485865",
    "latitude": "30.020304915430234",
    "geocoded_column": {
      "latitude": "30.020304915430234",
      "longitude": "-90.0933838485865"
    }
  },
  {
    "service_request": "2024-1114628",
    "request_type": "Trash/Recycling",
    "request_reason": "Repair Trash Cart",
    "date_created": "2024-07-22T14:09:11.000",
    "date_modified": "2024-07-22T14:09:12.000",
    "request_status": "Pending",
    "responsible_agency": "Department of Sanitation",
    "final_address": "1205 Valence St",
    "address_councildis": "B",
    "status": "Assigned to Contractor",
    "contractor": "IV Waste",
    "rowid": "1114628",
    "final_x": "3669899.03559",
    "final_y": "519801.370488",
    "longitude": "-90.10509873404295",
    "latitude": "29.923620378319395",
    "geocoded_column": {
      "latitude": "29.923620378319395",
      "longitude": "-90.10509873404295"
    }
  },
  {
    "service_request": "2024-1114627",
    "request_type": "Trash/Recycling",
    "request_reason": "MIssed Recycling Pick-Up",
    "date_created": "2024-07-22T14:08:03.000",
    "date_modified": "2024-07-22T17:13:30.000",
    "case_close_date": "2024-07-22T12:13:30.000",
    "request_status": "Closed",
    "responsible_agency": "Department of Sanitation",
    "final_address": "2362 Laurel St",
    "address_councildis": "B",
    "status": "Assigned to Contractor",
    "contractor": "IV Waste",
    "contractor_action": "Completed",
    "rowid": "1114627",
    "final_x": "3678612.80981",
    "final_y": "520922.457017",
    "longitude": "-90.07755376943358",
    "latitude": "29.926443296148406",
    "geocoded_column": {
      "latitude": "29.926443296148406",
      "longitude": "-90.07755376943358"
    }
  },
  {
    "service_request": "2024-1114626",
    "request_type": "Trash/Recycling",
    "request_reason": "Request a Large Item Pick Up",
    "date_created": "2024-07-22T14:06:11.000",
    "date_modified": "2024-07-22T14:06:12.000",
    "request_status": "Pending",
    "responsible_agency": "Department of Sanitation",
    "final_address": "4635 Palmyra St",
    "address_councildis": "A",
    "status": "Assigned to Contractor",
    "contractor": "IV Waste",
    "rowid": "1114626",
    "final_x": "3668714.95374",
    "final_y": "539200.35841",
    "longitude": "-90.10818171543413",
    "latitude": "29.976996104266327",
    "geocoded_column": {
      "latitude": "29.976996104266327",
      "longitude": "-90.10818171543413"
    }
  },
  {
    "service_request": "2024-1114625",
    "request_type": "Roads/Drainage",
    "request_reason": "Street Subsidence (Sinking)",
    "date_created": "2024-07-22T14:05:21.000",
    "date_modified": "2024-07-22T14:05:22.000",
    "request_status": "Pending",
    "responsible_agency": "Department of Public Works",
    "final_address": "KABEL DR & MACARTHUR BLVD",
    "address_councildis": "C",
    "status": "Pending",
    "rowid": "1114625",
    "final_x": "3700629.8",
    "final_y": "520202.08",
    "longitude": "-90.00807903465346",
    "latitude": "29.92378066696838",
    "geocoded_column": {
      "latitude": "29.92378066696838",
      "longitude": "-90.00807903465346"
    }
  },
  {
    "service_request": "2024-1114624",
    "request_type": "Trash/Recycling",
    "request_reason": "Illegal Dumping",
    "date_created": "2024-07-22T14:05:00.000",
    "date_modified": "2024-07-22T14:05:01.000",
    "request_status": "Pending",
    "responsible_agency": "Department of Sanitation",
    "final_address": "5709 Royal St",
    "address_councildis": "E",
    "status": "Pending",
    "rowid": "1114624",
    "final_x": "3698063.10435",
    "final_y": "532200.281987",
    "longitude": "-90.01574560560165",
    "latitude": "29.956852929113012",
    "geocoded_column": {
      "latitude": "29.956852929113012",
      "longitude": "-90.01574560560165"
    }
  },