[
  {
    "service_request": "2025-1195608",
    "request_type": "Trash/Recycling",
    "request_reason": "Order Trash Cart",
    "date_created": "2025-05-27T23:35:25.000",
    "date_modified": "2025-05-27T23:35:27.000",
    "request_status": "Pending",
    "responsible_agency": "Department of Sanitation",
    "final_address": "1705 Eagle St Apt 1A",
    "address_councildis": "A",
    "status": "Assigned to Contractor",
    "contractor": "IV Waste",
    "rowid": "1195608",
    "final_x": "3661385.1703",
    "final_y": "531361.683906",
    "longitude": "-90.13159129141246",
    "latitude": "29.95565577029256",
    "geocoded_column": {
      "latitude": "29.95565577029256",
      "longitude": "-90.13159129141246"
    }
  },
  {
    "service_request": "2025-1195607",
    "request_type": "Trash/Recycling",
    "request_reason": "Request a Large Item Pick Up",
    "date_created": "2025-05-27T23:02:55.000",
    "date_modified": "2025-05-27T23:02:57.000",
    "request_status": "Pending",
    "responsible_agency": "Department of Sanitation",
    "final_address": "5515 N Robertson St",
    "address_councildis": "E",
    "status": "Assigned to Contractor",
    "contractor": "Waste Pro",
    "rowid": "1195607",
    "final_x": "3698273.78224",
    "final_y": "535358.126726",
    "longitude": "-90.01496562721007",
    "latitude": "29.965529216295362",
    "geocoded_column": {
      "latitude": "29.965529216295362",
      "longitude": "-90.01496562721007"
    }
  },
  {
    "service_request": "2025-1195606",
    "request_type": "Safety & Permits",
    "request_reason": "Construction permit",
    "date_created": "2025-05-27T22:57:53.000",
    "date_modified": "2025-05-27T22:57:55.000",
    "request_status": "Pending",
    "responsible_agency": "Safety and Permits",
    "final_address": "202 Harrison Ave",
    "address_councildis": "A",
    "status": "Pending",
    "rowid": "1195606",
    "final_x": "3666952.92417",
    "final_y": "549326.367763",
    "longitude": "-90.11340629913319",
    "latitude": "30.004890859906457",
    "geocoded_column": {
      "latitude": "30.004890859906457",
      "longitude": "-90.11340629913319"
    }
  },
  {
    "service_request": "2025-1195605",
    "request_type": "Trash/Recycling",
    "request_reason": "Request a Large Item Pick Up",
    "date_created": "2025-05-27T22:50:40.000",
    "date_modified": "2025-05-27T22:50:42.000",
    "request_status": "Pending",
    "responsible_agency": "Department of Sanitation",
    "final_address": "2369 St Thomas St",
    "address_councildis": "B",
    "status": "Assigned to Contractor",
    "contractor": "IV Waste",
    "rowid": "1195605",
    "final_x": "3679160.25544",
    "final_y": "520065.857464",
    "longitude": "-90.07585531130066",
    "latitude": "29.92407141796851",
    "geocoded_column": {
      "latitude": "29.92407141796851",
      "longitude": "-90.07585531130066"
    }
  },
  {
    "service_request": "2025-1195604",
    "request_type": "Streetlights",
    "request_reason": "New Streetlight Request",
    "date_created": "2025-05-27T22:28:10.000",
    "date_modified": "2025-05-27T22:28:11.000",
    "request_status": "Pending",
    "responsible_agency": "Department of Public Works",
    "final_address": "4343 Werner Dr",
    "address_councildis": "E",
    "status": "Pending",
    "contractor": "Legacy Professional Services",
    "rowid": "1195604",
    "final_x": "3705059.60196",
    "final_y": "553244.637079",
    "longitude": "-89.99287568779077",
    "latitude": "30.014494020046566",
    "geocoded_column": {
      "latitude": "30.014494020046566",
      "longitude": "-89.99287568779077"
    }
  },
  {
    "service_request": "2025-1195603",
    "request_type": "Trash/Recycling",
    "request_reason": "Request a Large Item Pick Up",
    "date_created": "2025-05-27T22:22:08.000",
    "date_modified": "2025-05-27T22:22:10.000",
    "request_status": "Pending",
    "responsible_agency": "Department of Sanitation",
    "final_address": "334 Broadway St",
    "address_councildis": "A",
    "status": "Assigned to Contractor",
    "contractor": "IV Waste",
    "rowid": "1195603",
    "final_x": "3661585.68838",
    "final_y": "522741.624698",
    "longitude": "-90.13124367637386",
    "latitude": "29.931947568263265",
    "geocoded_column": {
      "latitude": "29.931947568263265",
      "longitude": "-90.13124367637386"
    }
  },
  {
    "service_request": "2025-1195601",
    "request_type": "Streetlights",
    "request_reason": "Streetlight Outage/Malfunction",
    "date_created": "2025-05-27T21:59:23.000",
    "date_modified": "2025-05-27T22:01:11.000",
    "request_status": "Pending",
    "responsible_agency": "Department of Public Works",
    "final_address": "5128 Venus St",
    "address_councildis": "D",
    "status": "Pending",
    "contractor": "Legacy Professional Services",
    "rowid": "1195601",
    "final_x": "3686311.06089",
    "final_y": "551799.906518",
    "longitude": "-90.0521627609675",
    "latitude": "30.011111290453147",
    "geocoded_column": {
      "latitude": "30.011111290453147",
      "longitude": "-90.0521627609675"
    }
  },
  {
    "service_request": "2025-1195600",
    "request_type": "Trash/Recycling",
    "request_reason": "Request a Large Item Pick Up",
    "date_created": "2025-05-27T21:22:34.000",
    "date_modified": "2025-05-27T21:22:36.000",
    "request_status": "Pending",
    "responsible_agency": "Department of Sanitation",
    "final_address": "5707 Willow St",
    "address_councildis": "A",
    "status": "Assigned to Contractor",
    "contractor": "IV Waste",
    "rowid": "1195600",
    "final_x": "3667503.34887",
    "final_y": "525488.772221",
    "longitude": "-90.11246977565567",
    "latitude": "29.93932931393179",
    "geocoded_column": {
      "latitude": "29.93932931393179",
      "longitude": "-90.11246977565567"
    }
  },
  {
    "service_request": "2025-1195599",
    "request_type": "Drainage",
    "request_reason": "Catch Basin Damaged",
    "date_created": "2025-05-27T21:20:13.000",
    "date_modified": "2025-05-27T21:20:15.000",
    "request_status": "Pending",
    "responsible_agency": "Sewerage & Water Board",
    "final_address": "1 Pinewood Ct",
    "address_councildis": "C",
    "status": "Pending",
    "rowid": "1195599",
    "final_x": "3696154.4033",
    "final_y": "522828.390907",
    "longitude": "-90.02211129367919",
    "latitude": "29.931143694242735",
    "geocoded_column": {
      "latitude": "29.931143694242735",
      "longitude": "-90.02211129367919"
    }
  },
  {
    "service_request": "2025-1195598",
    "request_type": "Drainage",
    "request_reason": "Street Flooding",
    "date_created": "2025-05-27T21:07:18.000",
    "date_modified": "2025-05-27T21:07:20.000",
    "request_status": "Pending",
    "responsible_agency": "Sewerage & Water Board",
    "final_address": "1416 Filmore Ave",
    "address_councildis": "D",
    "status": "Pending",
    "rowid": "1195598",
    "final_x": "3677832.10638",
    "final_y": "551660.344405",
    "longitude": "-90.0789560135442",
    "latitude": "30.010985495306983",
    "geocoded_column": {
      "latitude": "30.010985495306983",
      "longitude": "-90.0789560135442"
    }
  },
  {
    "service_request": "2025-1195597",
    "request_type": "Abandoned Vehicles",
    "request_reason": "Abandoned/Junk Vehicles",
    "date_created": "2025-05-27T21:01:51.000",
    "date_modified": "2025-05-27T21:01:52.000",
    "request_status": "Pending",
    "responsible_agency": "Department of Public Works",
    "final_address": "1000 BLK Bourbon St",
    "address_councildis": "C",
    "status": "Pending",
    "rowid": "1195597",
    "final_x": "3683043.94391",
    "final_y": "533704.036054",
    "longitude": "-90.06311865877531",
    "latitude": "29.96145406792814",
    "geocoded_column": {
      "latitude": "29.96145406792814",
      "longitude": "-90.06311865877531"
    }
  },
  {
    "service_request": "2025-1195595",
    "request_type": "Property Maintenance",
    "request_reason": "Property Maintenance",
    "date_created": "2025-05-27T20:56:58.000",
    "date_modified": "2025-05-27T20:56:59.000",
    "request_status": "Pending",
    "responsible_agency": "Department of Code Enforcement",
    "final_address": "100 BLK Bourbon St",
    "address_councildis": "C",
    "status": "Pending",
    "rowid": "1195595",
    "final_x": "3681046.05782",
    "final_y": "531075.957977",
    "longitude": "-90.06951917153452",
    "latitude": "29.954288492495905",
    "geocoded_column": {
      "latitude": "29.954288492495905",
      "longitude": "-90.06951917153452"
    }
  },
  {
    "service_request": "2025-1195594",
    "request_type": "Trash/Recycling",
    "request_reason": "Repair Trash Cart",
    "date_created": "2025-05-27T20:48:26.000",
    "date_modified": "2025-05-27T20:48:28.000",
    "request_status": "Pending",
    "responsible_agency": "Department of Sanitation",
    "final_address": "3151 State Street Dr",
    "address_councildis": "A",
    "status": "Assigned to Contractor",
    "contractor": "IV Waste",
    "rowid": "1195594",
    "final_x": "3667576.48231",
    "final_y": "527927.590591",
    "longitude": "-90.11215682414108",
    "latitude": "29.946033134414193",
    "geocoded_column": {
      "latitude": "29.946033134414193",
      "longitude": "-90.11215682414108"
    }
  },
  {
    "service_request": "2025-1195593",
    "request_type": "Trash/Recycling",
    "request_reason": "Request a Large Item Pick Up",
    "date_created": "2025-05-27T20:48:09.000",
    "date_modified": "2025-05-27T20:48:11.000",
    "request_status": "Pending",
    "responsible_agency": "Department of Sanitation",
    "final_address": "7416 Edward St",
    "address_councildis": "E",
    "status": "Assigned to Contractor",
    "contractor": "Waste Pro",
    "rowid": "1195593",
    "final_x": "3701192.91805",
    "final_y": "560327.220893",
    "longitude": "-90.00483297536326",
    "latitude": "30.03409221390936",
    "geocoded_column": {
      "latitude": "30.03409221390936",
      "longitude": "-90.00483297536326"
    }
  },
  {
    "service_request": "2025-1195592",
    "request_type": "Trash/Recycling",
    "request_reason": "Missed Trash Pick-Up",
    "date_created": "2025-05-27T20:34:22.000",
    "date_modified": "2025-05-27T20:34:24.000",
    "request_status": "Pending",
    "responsible_agency": "Department of Sanitation",
    "final_address": "4782 Hickerson Dr",
    "address_councildis": "E",
    "status": "Assigned to Contractor",
    "contractor": "Waste Pro",
    "rowid": "1195592",
    "final_x": "3710225.44798",
    "final_y": "556032.945113",
    "longitude": "-89.97644999423244",
    "latitude": "30.021993601969115",
    "geocoded_column": {
      "latitude": "30.021993601969115",
      "longitude": "-89.97644999423244"
    }
  },
  {
    "service_request": "2025-1195591",
    "request_type": "Abandoned Vehicles",
    "request_reason": "Abandoned/Junk Vehicles",
    "date_created": "2025-05-27T20:26:02.000",
    "date_modified": "2025-05-27T20:26:04.000",
    "request_status": "Pending",
    "responsible_agency": "Department of Public Works",
    "final_address": "2607 Danneel St",
    "address_councildis": "B",
    "status": "Pending",
    "rowid": "1195591",
    "final_x": "3675560.72891",
    "final_y": "524054.58758",
    "longitude": "-90.08708081050145",
    "latitude": "29.935147258862333",
    "geocoded_column": {
      "latitude": "29.935147258862333",
      "longitude": "-90.08708081050145"
    }
  },
  {
    "service_request": "2025-1195590",
    "request_type": "Trash/Recycling",
    "request_reason": "Replace Trash Cart",
    "date_created": "2025-05-27T20:18:49.000",
    "date_modified": "2025-05-27T20:18:52.000",
    "request_status": "Pending",
    "responsible_agency": "Department of Sanitation",
    "final_address": "2625 Soniat St",
    "address_councildis": "B",
    "status": "Assigned to Contractor",
    "contractor": "IV Waste",
    "rowid": "1195590",
    "final_x": "3668613.10497",
    "final_y": "525167.488061",
    "longitude": "-90.10897696041873",
    "latitude": "29.938413326784392",
    "geocoded_column": {
      "latitude": "29.938413326784392",
      "longitude": "-90.10897696041873"
    }
  },
  {
    "service_request": "2025-1195589",
    "request_type": "Trash/Recycling",
    "request_reason": "Replace Trash Cart",
    "date_created": "2025-05-27T20:09:32.000",
    "date_modified": "2025-05-27T20:09:34.000",
    "request_status": "Pending",
    "responsible_agency": "Department of Sanitation",
    "final_address": "45 Flamingo St",
    "address_councildis": "D",
    "status": "Assigned to Contractor",
    "contractor": "IV Waste",
    "rowid": "1195589",
    "final_x": "3674462.81076",
    "final_y": "555325.207449",
    "longitude": "-90.08947527757411",
    "latitude": "30.02116354520433",
    "geocoded_column": {
      "latitude": "30.02116354520433",
      "longitude": "-90.08947527757411"
    }
  },
  {
    "service_request": "2025-1195588",
    "request_type": "Trash/Recycling",
    "request_reason": "Request a Large Item Pick Up",
    "date_created": "2025-05-27T20:09:18.000",
    "date_modified": "2025-05-27T20:09:20.000",
    "request_status": "Pending",
    "responsible_agency": "Department of Sanitation",
    "final_address": "1808 Leonidas St",
    "address_councildis": "A",
    "status": "Assigned to Contractor",
    "contractor": "IV Waste",
    "rowid": "1195588",
    "final_x": "3662110.05536",
    "final_y": "531230.051842",
    "longitude": "-90.1293067177122",
    "latitude": "29.95527290041778",
    "geocoded_column": {
      "latitude": "29.95527290041778",
      "longitude": "-90.1293067177122"
    }
  },
  {
    "service_request": "2025-1195587",
    "request_type": "Trash/Recycling",
    "request_reason": "Request a Large Item Pick Up",
    "date_created": "2025-05-27T19:56:40.000",
    "date_modified": "2025-05-27T19:56:42.000",
    "request_status": "Pending",
    "responsible_agency": "Department of Sanitation",
    "final_address": "1801 Marigny St",
    "address_councildis": "D",
    "status": "Assigned to Contractor",
    "contractor": "IV Waste",
    "rowid": "1195587",
    "final_x": "3685252.54313",
    "final_y": "538950.537098",
    "longitude": "-90.05595960071776",
    "latitude": "29.97581261794942",
    "geocoded_column": {
      "latitude": "29.97581261794942",
      "longitude": "-90.05595960071776"
    }
  },
  {
    "service_request": "2025-1195586",
    "request_type": "Trash/Recycling",
    "request_reason": "Replace Trash Cart",
    "date_created": "2025-05-27T19:49:28.000",
    "date_modified": "2025-05-27T19:49:30.000",
    "request_status": "Pending",
    "responsible_agency": "Department of Sanitation",
    "final_address": "7560 Parry St",
    "address_councildis": "E",
    "status": "Assigned to Contractor",
    "contractor": "Waste Pro",
    "rowid": "1195586",
    "final_x": "3714585.76447",
    "final_y": "568131.472549",
    "longitude": "-89.96221521965573",
    "latitude": "30.055116985179676",
    "geocoded_column": {
      "latitude": "30.055116985179676",
      "longitude": "-89.96221521965573"
    }
  },
  {
    "service_request": "2025-1195585",
    "request_type": "Trash/Recycling",
    "request_reason": "Request a Large Item Pick Up",
    "date_created": "2025-05-27T19:47:57.000",
    "date_modified": "2025-05-27T19:47:59.000",
    "request_status": "Pending",
    "responsible_agency": "Department of Sanitation",
    "final_address": "1717 Audubon St",
    "address_councildis": "A",
    "status": "Assigned to Contractor",
    "contractor": "IV Waste",
    "rowid": "1195585",
    "final_x": "3665517.53959",
    "final_y": "527903.406783",
    "longitude": "-90.11865844332365",
    "latitude": "29.94602681250084",
    "geocoded_column": {
      "latitude": "29.94602681250084",
      "longitude": "-90.11865844332365"
    }
  },
  {
    "service_request": "2025-1195584",
    "request_type": "Trash/Recycling",
    "request_reason": "Replace Trash Cart",
    "date_created": "2025-05-27T19:35:12.000",
    "date_modified": "2025-05-27T19:35:14.000",
    "request_status": "Pending",
    "responsible_agency": "Department of Sanitation",
    "final_address": "3001 St Ann St",
    "address_councildis": "A",
    "status": "Assigned to Contractor",
    "contractor": "IV Waste",
    "rowid": "1195584",
    "final_x": "3675929.44206",
    "final_y": "538027.024393",
    "longitude": "-90.08543638571265",
    "latitude": "29.973555760411127",
    "geocoded_column": {
      "latitude": "29.973555760411127",
      "longitude": "-90.08543638571265"
    }
  },
  {
    "service_request": "2025-1195583",
    "request_type": "Roads and Streets",
    "request_reason": "Sidewalk Damaged or Missing",
    "date_created": "2025-05-27T19:22:15.000",
    "date_modified": "2025-05-27T19:22:17.000",
    "request_status": "Pending",
    "responsible_agency": "Department of Public Works",
    "final_address": "5828 Mandeville St",
    "address_councildis": "D",
    "status": "Pending",
    "rowid": "1195583",
    "final_x": "3684238.69628",
    "final_y": "554543.662488",
    "longitude": "-90.05861374462928",
    "latitude": "30.01871916578631",
    "geocoded_column": {
      "latitude": "30.01871916578631",
      "longitude": "-90.05861374462928"
    }
  },
  {
    "service_request": "2025-1195582",
    "request_type": "Parks & Parkways",
    "request_reason": "Request Tree Service (Right of Way/Public Property)",
    "date_created": "2025-05-27T19:19:45.000",
    "date_modified": "2025-05-27T19:19:47.000",
    "request_status": "Pending",
    "responsible_agency": "Department of Parks & Parkway",
    "final_address": "128 S Norman C Francis Prkwy",
    "address_councildis": "B",
    "status": "Pending",
    "rowid": "1195582",
    "final_x": "3673126.80084",
    "final_y": "536383.973639",
    "longitude": "-90.09434384494779",
    "latitude": "29.969121555890062",
    "geocoded_column": {
      "latitude": "29.969121555890062",
      "longitude": "-90.09434384494779"
    }
  },
  {
    "service_request": "2025-1195581",
    "request_type": "Trash/Recycling",
    "request_reason": "Request a Large Item Pick Up",
    "date_created": "2025-05-27T19:00:27.000",
    "date_modified": "2025-05-27T19:00:29.000",
    "request_status": "Pending",
    "responsible_agency": "Department of Sanitation",
    "final_address": "7525 Sandy Cove Dr",
    "address_councildis": "E",
    "status": "Assigned to Contractor",
    "contractor": "Waste Pro",
    "rowid": "1195581",
    "final_x": "3716007.59192",
    "final_y": "568955.403686",
    "longitude": "-89.95768990110459",
    "latitude": "30.057335598660284",
    "geocoded_column": {
      "latitude": "30.057335598660284",
      "longitude": "-89.95768990110459"
    }
  },
  {
    "service_request": "2025-1195580",
    "request_type": "Trash/Recycling",
    "request_reason": "Replace Recycling Cart",
    "date_created": "2025-05-27T18:42:36.000",
    "date_modified": "2025-05-27T18:42:38.000",
    "request_status": "Pending",
    "responsible_agency": "Department of Sanitation",
    "final_address": "218 N St Patrick St",
    "address_councildis": "A",
    "status": "Pending",
    "rowid": "1195580",
    "final_x": "3669572.18074",
    "final_y": "540251.083659",
    "longitude": "-90.10543874845304",
    "latitude": "29.979860013152777",
    "geocoded_column": {
      "latitude": "29.979860013152777",
      "longitude": "-90.10543874845304"
    }
  },
  {
    "service_request": "2025-1195579",
    "request_type": "Trash/Recycling",
    "request_reason": "Request a Large Item Pick Up",
    "date_created": "2025-05-27T18:31:41.000",
    "date_modified": "2025-05-27T18:31:43.000",
    "request_status": "Pending",
    "responsible_agency": "Department of Sanitation",
    "final_address": "7229 Onyx St",
    "address_councildis": "D",
    "status": "Assigned to Contractor",
    "contractor": "IV Waste",
    "rowid": "1195579",
    "final_x": "3668908.69166",
    "final_y": "555310.269849",
    "longitude": "-90.10702529292583",
    "latitude": "30.021287084617313",
    "geocoded_column": {
      "latitude": "30.021287084617313",
      "longitude": "-90.10702529292583"
    }
  },
  {
    "service_request": "2025-1195578",
    "request_type": "Trash/Recycling",
    "request_reason": "Request a Large Item Pick Up",
    "date_created": "2025-05-27T18:31:10.000",
    "date_modified": "2025-05-27T18:31:12.000",
    "request_status": "Pending",
    "responsible_agency": "Department of Sanitation",
    "final_address": "433 Elmira Ave",
    "address_councildis": "C",
    "status": "Assigned to Contractor",
    "contractor": "Richards Disposal",
    "rowid": "1195578",
    "final_x": "3688164.38108",
    "final_y": "530045.648001",
    "longitude": "-90.04707892298876",
    "latitude": "29.951237692569638",
    "geocoded_column": {
      "latitude": "29.951237692569638",
      "longitude": "-90.04707892298876"
    }
  },
  {
    "service_request": "2025-1195577",
    "request_type": "Trash/Recycling",
    "request_reason": "Request a Large Item Pick Up",
    "date_created": "2025-05-27T18:29:21.000",
    "date_modified": "2025-05-27T18:29:23.000",
    "request_status": "Pending",
    "responsible_agency": "Department of Sanitation",
    "final_address": "7033 Freret St, New Orleans, Louisiana, 70118",
    "address_councildis": "A",
    "status": "Assigned to Contractor",
    "contractor": "IV Waste",
    "rowid": "1195577",
    "final_x": "3664165.71316",
    "final_y": "525684.712701",
    "longitude": "-90.12300063311314",
    "latitude": "29.93996544866302",
    "geocoded_column": {
      "latitude": "29.93996544866302",
      "longitude": "-90.12300063311314"
    }
  },
  {
    "service_request": "2025-1195576",
    "request_type": "Trash/Recycling",
    "request_reason": "Missed Trash Pick-Up",
    "date_created": "2025-05-27T18:28:07.000",
    "date_modified": "2025-05-27T18:28:10.000",
    "request_status": "Pending",
    "responsible_agency": "Department of Sanitation",
    "final_address": "7033 Freret St, New Orleans, Louisiana, 70118",
    "address_councildis": "A",
    "status": "Assigned to Contractor",
    "contractor": "IV Waste",
    "rowid": "1195576",
    "final_x": "3664165.71316",
    "final_y": "525684.712701",
    "longitude": "-90.12300063311314",
    "latitude": "29.93996544866302",
    "geocoded_column": {
      "latitude": "29.93996544866302",
      "longitude": "-90.12300063311314"
    }
  },
  {
    "service_request": "2025-1195575",
    "request_type": "Trash/Recycling",
    "request_reason": "Request a Large Item Pick Up",
    "date_created": "2025-05-27T18:27:11.000",
    "date_modified": "2025-05-27T18:27:13.000",
    "request_status": "Pending",
    "responsible_agency": "Department of Sanitation",
    "final_address": "1415 Calhoun St",
    "address_councildis": "A",
    "status": "Assigned to Contractor",
    "contractor": "IV Waste",
    "rowid": "1195575",
    "final_x": "3664346.88852",
    "final_y": "521721.567226",
    "longitude": "-90.1225608460207",
    "latitude": "29.929062792307736",
    "geocoded_column": {
      "latitude": "29.929062792307736",
      "longitude": "-90.1225608460207"
    }
  },
  {
    "service_request": "2025-1195574",
    "request_type": "Trash/Recycling",
    "request_reason": "Request a Large Item Pick Up",
    "date_created": "2025-05-27T18:24:03.000",
    "date_modified": "2025-05-27T18:24:05.000",
    "request_status": "Pending",
    "responsible_agency": "Department of Sanitation",
    "final_address": "6060 Winchester Park Dr",
    "address_councildis": "E",
    "status": "Assigned to Contractor",
    "contractor": "Waste Pro",
    "rowid": "1195574",
    "final_x": "3713973.54642",
    "final_y": "563660.202465",
    "longitude": "-89.96431914755593",
    "latitude": "30.04284294087939",
    "geocoded_column": {
      "latitude": "30.04284294087939",
      "longitude": "-89.96431914755593"
    }
  },
  {
    "service_request": "2025-1195573",
    "request_type": "Trash/Recycling",
    "request_reason": "Order Recycling Cart",
    "date_created": "2025-05-27T18:23:37.000",
    "date_modified": "2025-05-27T18:23:39.000",
    "request_status": "Pending",
    "responsible_agency": "Department of Sanitation",
    "final_address": "248 Cherokee St",
    "address_councildis": "A",
    "status": "Pending",
    "rowid": "1195573",
    "final_x": "3661212.55507",
    "final_y": "524446.792764",
    "longitude": "-90.13236520500695",
    "latitude": "29.93664700232731",
    "geocoded_column": {
      "latitude": "29.93664700232731",
      "longitude": "-90.13236520500695"
    }
  },
  {
    "service_request": "2025-1195572",
    "request_type": "Streetlights",
    "request_reason": "Streetlight Outage/Malfunction",
    "date_created": "2025-05-27T18:18:26.000",
    "date_modified": "2025-05-27T18:18:28.000",
    "request_status": "Pending",
    "responsible_agency": "Department of Public Works",
    "final_address": "5563 Rosemary Pl",
    "address_councildis": "A",
    "status": "Pending",
    "contractor": "Legacy Professional Services",
    "rowid": "1195572",
    "final_x": "3667186.42394",
    "final_y": "544460.624399",
    "longitude": "-90.11283235808882",
    "latitude": "29.991504904029423",
    "geocoded_column": {
      "latitude": "29.991504904029423",
      "longitude": "-90.11283235808882"
    }
  },
  {
    "service_request": "2025-1195571",
    "request_type": "Trash/Recycling",
    "request_reason": "Request a Large Item Pick Up",
    "date_created": "2025-05-27T18:11:43.000",
    "date_modified": "2025-05-27T18:11:45.000",
    "request_status": "Pending",
    "responsible_agency": "Department of Sanitation",
    "final_address": "2231 Dreux Ave",
    "address_councildis": "D",
    "status": "Assigned to Contractor",
    "contractor": "IV Waste",
    "rowid": "1195571",
    "final_x": "3684067.08207",
    "final_y": "552092.586774",
    "longitude": "-90.05924209663395",
    "latitude": "30.01198485229877",
    "geocoded_column": {
      "latitude": "30.01198485229877",
      "longitude": "-90.05924209663395"
    }
  },
  {
    "service_request": "2025-1195570",
    "request_type": "Trash/Recycling",
    "request_reason": "Request a Large Item Pick Up",
    "date_created": "2025-05-27T17:50:03.000",
    "date_modified": "2025-05-27T17:50:05.000",
    "request_status": "Pending",
    "responsible_agency": "Department of Sanitation",
    "final_address": "6014 Catina St",
    "address_councildis": "A",
    "status": "Assigned to Contractor",
    "contractor": "IV Waste",
    "rowid": "1195570",
    "final_x": "3666741.58151",
    "final_y": "547725.790674",
    "longitude": "-90.11412777923982",
    "latitude": "30.000496011887712",
    "geocoded_column": {
      "latitude": "30.000496011887712",
      "longitude": "-90.11412777923982"
    }
  },
  {
    "service_request": "2025-1195569",
    "request_type": "General Services",
    "request_reason": "General Service Request",
    "date_created": "2025-05-27T17:46:58.000",
    "date_modified": "2025-05-27T17:47:00.000",
    "request_status": "Pending",
    "responsible_agency": "Orleans Parish Communication District",
    "final_address": "1000 Joseph St",
    "address_councildis": "A",
    "status": "Pending",
    "rowid": "1195569",
    "final_x": "3666145.29645",
    "final_y": "519619.014648",
    "longitude": "-90.11695406256294",
    "latitude": "29.92322906112982",
    "geocoded_column": {
      "latitude": "29.92322906112982",
      "longitude": "-90.11695406256294"
    }
  },
  {
    "service_request": "2025-1195568",
    "request_type": "General Services",
    "request_reason": "General Service Request",
    "date_created": "2025-05-27T17:45:07.000",
    "date_modified": "2025-05-27T17:45:09.000",
    "request_status": "Pending",
    "responsible_agency": "Orleans Parish Communication District",
    "final_address": "104 Aurora Dr",
    "address_councildis": "C",
    "status": "Pending",
    "rowid": "1195568",
    "final_x": "3706929.12459",
    "final_y": "521124.989625",
    "longitude": "-89.98816032696344",
    "latitude": "29.926116511309093",
    "geocoded_column": {
      "latitude": "29.926116511309093",
      "longitude": "-89.98816032696344"
    }
  },
  {
    "service_request": "2025-1195567",
    "request_type": "Trash/Recycling",
    "request_reason": "Missed Trash Pick-Up",
    "date_created": "2025-05-27T17:44:29.000",
    "date_modified": "2025-05-27T17:44:31.000",
    "request_status": "Pending",
    "responsible_agency": "Department of Sanitation",
    "final_address": "3120 Laurel St New Orleans, LA 70115",
    "address_councildis": "B",
    "status": "Assigned to Contractor",
    "contractor": "IV Waste",
    "rowid": "1195567",
    "final_x": "3676389.88654",
    "final_y": "519468.098231",
    "longitude": "-90.08462095561443",
    "latitude": "29.922511080295305",
    "geocoded_column": {
      "latitude": "29.922511080295305",
      "longitude": "-90.08462095561443"
    }
  },
  {
    "service_request": "2025-1195566",
    "request_type": "Roads and Streets",
    "request_reason": "Pothole",
    "date_created": "2025-05-27T17:40:52.000",
    "date_modified": "2025-05-27T17:40:53.000",
    "request_status": "Pending",
    "responsible_agency": "Department of Public Works",
    "final_address": "3125 Dauphine St",
    "address_councildis": "C",
    "status": "Pending",
    "rowid": "1195566",
    "final_x": "3688923.46358",
    "final_y": "534832.851846",
    "longitude": "-90.04451210555816",
    "latitude": "29.964377393859102",
    "geocoded_column": {
      "latitude": "29.964377393859102",
      "longitude": "-90.04451210555816"
    }
  },
  {
    "service_request": "2025-1195565",
    "request_type": "Roads and Streets",
    "request_reason": "Abandoned Service Cut",
    "date_created": "2025-05-27T17:37:01.000",
    "date_modified": "2025-05-27T17:37:03.000",
    "request_status": "Pending",
    "responsible_agency": "Department of Public Works",
    "final_address": "927 Lesseps St",
    "address_councildis": "C",
    "status": "Pending",
    "rowid": "1195565",
    "final_x": "3692591.30838",
    "final_y": "534512.754885",
    "longitude": "-90.03294086111002",
    "latitude": "29.963383292243204",
    "geocoded_column": {
      "latitude": "29.963383292243204",
      "longitude": "-90.03294086111002"
    }
  },
  {
    "service_request": "2025-1195564",
    "request_type": "General Services",
    "request_reason": "General Service Request",
    "date_created": "2025-05-27T17:34:42.000",
    "date_modified": "2025-05-27T17:34:43.000",
    "request_status": "Pending",
    "responsible_agency": "Orleans Parish Communication District",
    "final_address": "100 BLK S Norman C Francis Pkwy",
    "address_councildis": "B",
    "status": "Pending",
    "rowid": "1195564",
    "final_x": "3673148.61036",
    "final_y": "536494.37529",
    "longitude": "-90.09427119858796",
    "latitude": "29.96942447471111",
    "geocoded_column": {
      "latitude": "29.96942447471111",
      "longitude": "-90.09427119858796"
    }
  },
  {
    "service_request": "2025-1195563",
    "request_type": "Street and Traffic Signs",
    "request_reason": "Street Name Sign Damaged or Missing",
    "date_created": "2025-05-27T17:33:55.000",
    "date_modified": "2025-05-27T17:33:57.000",
    "request_status": "Pending",
    "responsible_agency": "Department of Public Works",
    "final_address": "DAUPHINE ST & DESIRE ST",
    "address_councildis": "C",
    "status": "Pending",
    "rowid": "1195563",
    "final_x": "3689899.2",
    "final_y": "534563.38",
    "longitude": "-90.04144041154642",
    "latitude": "29.96360622714185",
    "geocoded_column": {
      "latitude": "29.96360622714185",
      "longitude": "-90.04144041154642"
    }
  },
  {
    "service_request": "2025-1195562",
    "request_type": "Street and Traffic Signs",
    "request_reason": "Street Name Sign Damaged or Missing",
    "date_created": "2025-05-27T17:29:40.000",
    "date_modified": "2025-05-27T17:29:42.000",
    "request_status": "Pending",
    "responsible_agency": "Department of Public Works",
    "final_address": "PIETY ST & DAUPHINE ST",
    "address_councildis": "C",
    "status": "Pending",
    "rowid": "1195562",
    "final_x": "3689548.6",
    "final_y": "534650.98",
    "longitude": "-90.04254445031329",
    "latitude": "29.963857960985035",
    "geocoded_column": {
      "latitude": "29.963857960985035",
      "longitude": "-90.04254445031329"
    }
  },
  {
    "service_request": "2025-1195561",
    "request_type": "Property Maintenance",
    "request_reason": "Property Maintenance",
    "date_created": "2025-05-27T17:28:29.000",
    "date_modified": "2025-05-27T17:28:32.000",
    "request_status": "Pending",
    "responsible_agency": "Department of Code Enforcement",
    "final_address": "901 Piety St",
    "address_councildis": "C",
    "status": "Pending",
    "rowid": "1195561",
    "final_x": "3689679.88809",
    "final_y": "535029.022342",
    "longitude": "-90.04211640355143",
    "latitude": "29.96489337804015",
    "geocoded_column": {
      "latitude": "29.96489337804015",
      "longitude": "-90.04211640355143"
    }
  },
  {
    "service_request": "2025-1195560",
    "request_type": "Roads and Streets",
    "request_reason": "Pothole",
    "date_created": "2025-05-27T17:23:38.000",
    "date_modified": "2025-05-27T17:23:40.000",
    "request_status": "Pending",
    "responsible_agency": "Department of Public Works",
    "final_address": "6218 Perlita Dr",
    "address_councildis": "D",
    "status": "Pending",
    "rowid": "1195560",
    "final_x": "3678409.24232",
    "final_y": "555651.437529",
    "longitude": "-90.07699435744655",
    "latitude": "30.021942173930782",
    "geocoded_column": {
      "latitude": "30.021942173930782",
      "longitude": "-90.07699435744655"
    }
  },
  {
    "service_request": "2025-1195559",
    "request_type": "Streetlights",
    "request_reason": "New Streetlight Request",
    "date_created": "2025-05-27T17:23:16.000",
    "date_modified": "2025-05-27T17:23:18.000",
    "request_status": "Pending",
    "responsible_agency": "Department of Public Works",
    "final_address": "MANDEVILLE ST & N ROBERTSON ST",
    "address_councildis": "C",
    "status": "Pending",
    "contractor": "Legacy Professional Services",
    "rowid": "1195559",
    "final_x": "3685661.9",
    "final_y": "537839.68",
    "longitude": "-90.0547058881976",
    "latitude": "29.972745595319847",
    "geocoded_column": {
      "latitude": "29.972745595319847",
      "longitude": "-90.0547058881976"
    }
  },
  {
    "service_request": "2025-1195558",
    "request_type": "General Services",
    "request_reason": "General Service Request",
    "date_created": "2025-05-27T17:22:28.000",
    "date_modified": "2025-05-27T17:22:31.000",
    "request_status": "Pending",
    "responsible_agency": "Orleans Parish Communication District",
    "final_address": "261 Oakmont Dr",
    "address_councildis": "E",
    "status": "Pending",
    "rowid": "1195558",
    "final_x": "3719835.03916",
    "final_y": "562835.508192",
    "longitude": "-89.94582625032749",
    "latitude": "30.04038150693947",
    "geocoded_column": {
      "latitude": "30.04038150693947",
      "longitude": "-89.94582625032749"
    }
  },
  {
    "service_request": "2025-1195557",
    "request_type": "General Services",
    "request_reason": "General Service Request",
    "date_created": "2025-05-27T17:05:02.000",
    "date_modified": "2025-05-27T17:05:05.000",
    "request_status": "Pending",
    "responsible_agency": "Orleans Parish Communication District",
    "final_address": "3200 BLK Gibson St",
    "address_councildis": "D",
    "status": "Pending",
    "rowid": "1195557",
    "final_x": "3678997.7837",
    "final_y": "544308.409858",
    "longitude": "-90.07552814970504",
    "latitude": "29.990735147597874",
    "geocoded_column": {
      "latitude": "29.990735147597874",
      "longitude": "-90.07552814970504"
    }
  },
  {
    "service_request": "2025-1195556",
    "request_type": "Trash/Recycling",
    "request_reason": "Order Recycling Cart",
    "date_created": "2025-05-27T17:01:12.000",
    "date_modified": "2025-05-27T17:01:13.000",
    "request_status": "Pending",
    "responsible_agency": "Department of Sanitation",
    "final_address": "2360 Mendez St",
    "address_councildis": "D",
    "status": "Pending",
    "rowid": "1195556",
    "final_x": "3684944.98383",
    "final_y": "553458.668119",
    "longitude": "-90.0564203363955",
    "latitude": "30.015714206158048",
    "geocoded_column": {
      "latitude": "30.015714206158048",
      "longitude": "-90.0564203363955"
    }
  },
  {
    "service_request": "2025-1195555",
    "request_type": "Trash/Recycling",
    "request_reason": "Order Trash Cart",
    "date_created": "2025-05-27T17:00:34.000",
    "date_modified": "2025-05-27T17:00:36.000",
    "request_status": "Pending",
    "responsible_agency": "Department of Sanitation",
    "final_address": "2360 Mendez St",
    "address_councildis": "D",
    "status": "Assigned to Contractor",
    "contractor": "IV Waste",
    "rowid": "1195555",
    "final_x": "3684944.98383",
    "final_y": "553458.668119",
    "longitude": "-90.0564203363955",
    "latitude": "30.015714206158048",
    "geocoded_column": {
      "latitude": "30.015714206158048",
      "longitude": "-90.0564203363955"
    }
  },
  {
    "service_request": "2025-1195554",
    "request_type": "Trash/Recycling",
    "request_reason": "Request a Large Item Pick Up",
    "date_created": "2025-05-27T16:58:15.000",
    "date_modified": "2025-05-27T16:58:17.000",
    "request_status": "Pending",
    "responsible_agency": "Department of Sanitation",
    "final_address": "2230 Broadway St",
    "address_councildis": "A",
    "status": "Assigned to Contractor",
    "contractor": "IV Waste",
    "rowid": "1195554",
    "final_x": "3666236.18849",
    "final_y": "529694.845761",
    "longitude": "-90.11632934069942",
    "latitude": "29.950931722358888",
    "geocoded_column": {
      "latitude": "29.950931722358888",
      "longitude": "-90.11632934069942"
    }
  },
  {
    "service_request": "2025-1195553",
    "request_type": "Trash/Recycling",
    "request_reason": "Request a Large Item Pick Up",
    "date_created": "2025-05-27T16:52:54.000",
    "date_modified": "2025-05-27T16:52:56.000",
    "request_status": "Pending",
    "responsible_agency": "Department of Sanitation",
    "final_address": "2700 Octavia St",
    "address_councildis": "A",
    "status": "Assigned to Contractor",
    "contractor": "IV Waste",
    "rowid": "1195553",
    "final_x": "3667848.0994",
    "final_y": "525408.310397",
    "longitude": "-90.11138405927521",
    "latitude": "29.939097965127182",
    "geocoded_column": {
      "latitude": "29.939097965127182",
      "longitude": "-90.11138405927521"
    }
  },
  {
    "service_request": "2025-1195552",
    "request_type": "Streetlights",
    "request_reason": "Streetlight Outage/Malfunction",
    "date_created": "2025-05-27T16:52:11.000",
    "date_modified": "2025-05-27T16:52:13.000",
    "request_status": "Pending",
    "responsible_agency": "Department of Public Works",
    "final_address": "7951 Sandpiper Dr",
    "address_councildis": "E",
    "status": "Pending",
    "contractor": "Legacy Professional Services",
    "rowid": "1195552",
    "final_x": "3715265.56171",
    "final_y": "570675.481447",
    "longitude": "-89.95997016711073",
    "latitude": "30.06208957586831",
    "geocoded_column": {
      "latitude": "30.06208957586831",
      "longitude": "-89.95997016711073"
    }
  },
  {
    "service_request": "2025-1195551",
    "request_type": "Property Maintenance",
    "request_reason": "Property Maintenance",
    "date_created": "2025-05-27T16:51:47.000",
    "date_modified": "2025-05-27T16:51:53.000",
    "request_status": "Pending",
    "responsible_agency": "Department of Code Enforcement",
    "final_address": "6351 Congress Dr",
    "address_councildis": "D",
    "status": "Pending",
    "rowid": "1195551",
    "final_x": "3690624.43689",
    "final_y": "556932.379866",
    "longitude": "-90.03835186503488",
    "latitude": "30.0250903655863",
    "geocoded_column": {
      "latitude": "30.0250903655863",
      "longitude": "-90.03835186503488"
    }
  },
  {
    "service_request": "2025-1195550",
    "request_type": "Trash/Recycling",
    "request_reason": "Request a Large Item Pick Up",
    "date_created": "2025-05-27T16:49:51.000",
    "date_modified": "2025-05-27T16:49:52.000",
    "request_status": "Pending",
    "responsible_agency": "Department of Sanitation",
    "final_address": "8911 Bunker Hill Rd",
    "address_councildis": "E",
    "status": "Assigned to Contractor",
    "contractor": "Waste Pro",
    "rowid": "1195550",
    "final_x": "3705872.09387",
    "final_y": "561640.549919",
    "longitude": "-89.98999764469443",
    "latitude": "30.037553352135095",
    "geocoded_column": {
      "latitude": "30.037553352135095",
      "longitude": "-89.98999764469443"
    }
  },
  {
    "service_request": "2025-1195549",
    "request_type": "Trash/Recycling",
    "request_reason": "Request a Large Item Pick Up",
    "date_created": "2025-05-27T16:45:52.000",
    "date_modified": "2025-05-27T16:45:54.000",
    "request_status": "Pending",
    "responsible_agency": "Department of Sanitation",
    "final_address": "13420 N Lemans St",
    "address_councildis": "E",
    "status": "Assigned to Contractor",
    "contractor": "Waste Pro",
    "rowid": "1195549",
    "final_x": "3725256.97632",
    "final_y": "562912.656288",
    "longitude": "-89.92868841416389",
    "latitude": "30.040411992617933",
    "geocoded_column": {
      "latitude": "30.040411992617933",
      "longitude": "-89.92868841416389"
    }
  },
  {
    "service_request": "2025-1195548",
    "request_type": "Trash/Recycling",
    "request_reason": "Replace Trash Cart",
    "date_created": "2025-05-27T16:44:53.000",
    "date_modified": "2025-05-27T16:44:54.000",
    "request_status": "Pending",
    "responsible_agency": "Department of Sanitation",
    "final_address": "0 BLK N Oak Ridge Ct",
    "address_councildis": "E",
    "status": "Assigned to Contractor",
    "contractor": "Waste Pro",
    "rowid": "1195548",
    "final_x": "3713382.83173",
    "final_y": "567868.908997",
    "longitude": "-89.96602730569832",
    "latitude": "30.054434566801945",
    "geocoded_column": {
      "latitude": "30.054434566801945",
      "longitude": "-89.96602730569832"
    }
  },
  {
    "service_request": "2025-1195547",
    "request_type": "Trash/Recycling",
    "request_reason": "Request a Large Item Pick Up",
    "date_created": "2025-05-27T16:36:24.000",
    "date_modified": "2025-05-27T16:36:25.000",
    "request_status": "Pending",
    "responsible_agency": "Department of Sanitation",
    "final_address": "833 Piety St",
    "address_councildis": "C",
    "status": "Assigned to Contractor",
    "contractor": "IV Waste",
    "rowid": "1195547",
    "final_x": "3689670.65993",
    "final_y": "534895.304454",
    "longitude": "-90.04215030375644",
    "latitude": "29.96452598652267",
    "geocoded_column": {
      "latitude": "29.96452598652267",
      "longitude": "-90.04215030375644"
    }
  },
  {
    "service_request": "2025-1195546",
    "request_type": "Road Striping",
    "request_reason": "Lane Striping or other Pavement Markings",
    "date_created": "2025-05-27T16:33:58.000",
    "date_modified": "2025-05-27T16:33:59.000",
    "request_status": "Pending",
    "responsible_agency": "Department of Public Works",
    "final_address": "339 Audubon Blvd",
    "address_councildis": "A",
    "status": "Pending",
    "rowid": "1195546",
    "final_x": "3667405.92564",
    "final_y": "530178.264641",
    "longitude": "-90.11261962658106",
    "latitude": "29.952226753392242",
    "geocoded_column": {
      "latitude": "29.952226753392242",
      "longitude": "-90.11261962658106"
    }
  },
  {
    "service_request": "2025-1195545",
    "request_type": "Streetlights",
    "request_reason": "Streetlight Outage/Malfunction",
    "date_created": "2025-05-27T16:33:26.000",
    "date_modified": "2025-05-27T16:34:33.000",
    "request_status": "Pending",
    "responsible_agency": "Department of Public Works",
    "final_address": "BECK ST & PRANCER ST",
    "address_councildis": "C",
    "status": "Pending",
    "contractor": "Legacy Professional Services",
    "rowid": "1195545",
    "final_x": "3700436.7",
    "final_y": "522645.58",
    "longitude": "-90.0085994027225",
    "latitude": "29.930505589096494",
    "geocoded_column": {
      "latitude": "29.930505589096494",
      "longitude": "-90.0085994027225"
    }
  },
  {
    "service_request": "2025-1195544",
    "request_type": "Trash/Recycling",
    "request_reason": "Order Trash Cart",
    "date_created": "2025-05-27T16:32:00.000",
    "date_modified": "2025-05-27T16:32:03.000",
    "request_status": "Pending",
    "responsible_agency": "Department of Sanitation",
    "final_address": "1 Newcomb Pl",
    "address_councildis": "A",
    "status": "Assigned to Contractor",
    "contractor": "IV Waste",
    "rowid": "1195544",
    "final_x": "3664731.8658",
    "final_y": "525540.760573",
    "longitude": "-90.12121800508069",
    "latitude": "29.939553170616616",
    "geocoded_column": {
      "latitude": "29.939553170616616",
      "longitude": "-90.12121800508069"
    }
  },
  {
    "service_request": "2025-1195543",
    "request_type": "Trash/Recycling",
    "request_reason": "Request a Large Item Pick Up",
    "date_created": "2025-05-27T16:30:27.000",
    "date_modified": "2025-05-27T16:30:28.000",
    "request_status": "Pending",
    "responsible_agency": "Department of Sanitation",
    "final_address": "2450 Hudson Pl",
    "address_councildis": "C",
    "status": "Assigned to Contractor",
    "contractor": "Richards Disposal",
    "rowid": "1195543",
    "final_x": "3703501.68394",
    "final_y": "522008.565626",
    "longitude": "-89.99894720179628",
    "latitude": "29.928656231169903",
    "geocoded_column": {
      "latitude": "29.928656231169903",
      "longitude": "-89.99894720179628"
    }
  },
  {
    "service_request": "2025-1195542",
    "request_type": "Trash/Recycling",
    "request_reason": "Request a Large Item Pick Up",
    "date_created": "2025-05-27T16:25:22.000",
    "date_modified": "2025-05-27T16:25:52.000",
    "request_status": "Pending",
    "responsible_agency": "Department of Sanitation",
    "final_address": "5320 Eastern St",
    "address_councildis": "D",
    "status": "Assigned to Contractor",
    "contractor": "IV Waste",
    "rowid": "1195542",
    "final_x": "3687820.43273",
    "final_y": "552476.211222",
    "longitude": "-90.04737008310637",
    "latitude": "30.012924389633355",
    "geocoded_column": {
      "latitude": "30.012924389633355",
      "longitude": "-90.04737008310637"
    }
  },
  {
    "service_request": "2025-1195541",
    "request_type": "Trash/Recycling",
    "request_reason": "Request a Large Item Pick Up",
    "date_created": "2025-05-27T16:23:06.000",
    "date_modified": "2025-05-27T16:23:10.000",
    "request_status": "Pending",
    "responsible_agency": "Department of Sanitation",
    "final_address": "3519 Lancaster St",
    "address_councildis": "C",
    "status": "Assigned to Contractor",
    "contractor": "Richards Disposal",
    "rowid": "1195541",
    "final_x": "3709806.08408",
    "final_y": "517724.33407",
    "longitude": "-89.97920554760717",
    "latitude": "29.916672720337868",
    "geocoded_column": {
      "latitude": "29.916672720337868",
      "longitude": "-89.97920554760717"
    }
  },
  {
    "service_request": "2025-1195540",
    "request_type": "Trash/Recycling",
    "request_reason": "Order Trash Cart",
    "date_created": "2025-05-27T16:19:46.000",
    "date_modified": "2025-05-27T16:20:20.000",
    "request_status": "Pending",
    "responsible_agency": "Department of Sanitation",
    "final_address": "7003 St Charles Ave",
    "address_councildis": "A",
    "status": "Assigned to Contractor",
    "contractor": "IV Waste",
    "rowid": "1195540",
    "final_x": "3663449.21357",
    "final_y": "524441.038972",
    "longitude": "-90.12530413507456",
    "latitude": "29.93656653202403",
    "geocoded_column": {
      "latitude": "29.93656653202403",
      "longitude": "-90.12530413507456"
    }
  },
  {
    "service_request": "2025-1195539",
    "request_type": "Property Maintenance",
    "request_reason": "Property Maintenance",
    "date_created": "2025-05-27T16:17:54.000",
    "date_modified": "2025-05-27T16:17:56.000",
    "request_status": "Pending",
    "responsible_agency": "Department of Code Enforcement",
    "final_address": "6005 Burgundy St",
    "address_councildis": "E",
    "status": "Pending",
    "rowid": "1195539",
    "final_x": "3698921.37527",
    "final_y": "532728.686084",
    "longitude": "-90.01301624885964",
    "latitude": "29.958278688233108",
    "geocoded_column": {
      "latitude": "29.958278688233108",
      "longitude": "-90.01301624885964"
    }
  },
  {
    "service_request": "2025-1195538",
    "request_type": "Trash/Recycling",
    "request_reason": "Illegal Dumping",
    "date_created": "2025-05-27T16:17:50.000",
    "date_modified": "2025-05-27T16:17:52.000",
    "request_status": "Pending",
    "responsible_agency": "Department of Sanitation",
    "final_address": "8513 Chase St",
    "address_councildis": "E",
    "status": "Pending",
    "rowid": "1195538",
    "final_x": "3703397.03998",
    "final_y": "563365.880864",
    "longitude": "-89.99775579301365",
    "latitude": "30.042376885727606",
    "geocoded_column": {
      "latitude": "30.042376885727606",
      "longitude": "-89.99775579301365"
    }
  },
  {
    "service_request": "2025-1195537",
    "request_type": "Trash/Recycling",
    "request_reason": "Illegal Dumping",
    "date_created": "2025-05-27T16:15:18.000",
    "date_modified": "2025-05-27T16:15:20.000",
    "request_status": "Pending",
    "responsible_agency": "Department of Sanitation",
    "final_address": "8541 Chase St",
    "address_councildis": "E",
    "status": "Pending",
    "rowid": "1195537",
    "final_x": "3703532.12926",
    "final_y": "563429.679904",
    "longitude": "-89.99732651034506",
    "latitude": "30.042547977715444",
    "geocoded_column": {
      "latitude": "30.042547977715444",
      "longitude": "-89.99732651034506"
    }
  },
  {
    "service_request": "2025-1195536",
    "request_type": "Trash/Recycling",
    "request_reason": "Repair Trash Cart",
    "date_created": "2025-05-27T16:10:22.000",
    "date_modified": "2025-05-27T16:18:38.000",
    "request_status": "Pending",
    "responsible_agency": "Department of Sanitation",
    "final_address": "2639 Memorial Park Dr",
    "address_councildis": "C",
    "status": "Assigned to Contractor",
    "contractor": "Richards Disposal",
    "rowid": "1195536",
    "final_x": "3693043.79965",
    "final_y": "520814.972601",
    "longitude": "-90.03200320800748",
    "latitude": "29.925704985768885",
    "geocoded_column": {
      "latitude": "29.925704985768885",
      "longitude": "-90.03200320800748"
    }
  },
  {
    "service_request": "2025-1195535",
    "request_type": "Street and Traffic Signs",
    "request_reason": "Traffic or Parking Sign Damaged or Missing",
    "date_created": "2025-05-27T16:07:37.000",
    "date_modified": "2025-05-27T16:07:40.000",
    "request_status": "Pending",
    "responsible_agency": "Department of Public Works",
    "final_address": "MARCONI DR & ZACHARY TAYLOR DR",
    "address_councildis": "A",
    "status": "Pending",
    "rowid": "1195535",
    "final_x": "3671137.9",
    "final_y": "545817.08",
    "longitude": "-90.10030437782146",
    "latitude": "29.995118365041918",
    "geocoded_column": {
      "latitude": "29.995118365041918",
      "longitude": "-90.10030437782146"
    }
  },
  {
    "service_request": "2025-1195534",
    "request_type": "Trash/Recycling",
    "request_reason": "Request a Large Item Pick Up",
    "date_created": "2025-05-27T16:05:16.000",
    "date_modified": "2025-05-27T16:05:18.000",
    "request_status": "Pending",
    "responsible_agency": "Department of Sanitation",
    "final_address": "1813 Tennessee St",
    "address_councildis": "E",
    "status": "Assigned to Contractor",
    "contractor": "Waste Pro",
    "rowid": "1195534",
    "final_x": "3696499.43747",
    "final_y": "537056.373192",
    "longitude": "-90.02050745704705",
    "latitude": "29.970254803340918",
    "geocoded_column": {
      "latitude": "29.970254803340918",
      "longitude": "-90.02050745704705"
    }
  },
  {
    "service_request": "2025-1195533",
    "request_type": "Parks & Parkways",
    "request_reason": "Request Tree Service (Right of Way/Public Property)",
    "date_created": "2025-05-27T16:04:50.000",
    "date_modified": "2025-05-27T16:04:51.000",
    "request_status": "Pending",
    "responsible_agency": "Department of Parks & Parkway",
    "final_address": "6243 Carlisle Ct",
    "address_councildis": "C",
    "status": "Pending",
    "rowid": "1195533",
    "final_x": "3707260.73892",
    "final_y": "516408.310645",
    "longitude": "-89.98728843186906",
    "latitude": "29.91313657736821",
    "geocoded_column": {
      "latitude": "29.91313657736821",
      "longitude": "-89.98728843186906"
    }
  },
  {
    "service_request": "2025-1195532",
    "request_type": "Roads and Streets",
    "request_reason": "Street Subsidence (Sinking)",
    "date_created": "2025-05-27T16:04:10.000",
    "date_modified": "2025-05-27T16:04:58.000",
    "request_status": "Pending",
    "responsible_agency": "Department of Public Works",
    "final_address": "OCTAVIA ST & LAUREL ST",
    "address_councildis": "A",
    "status": "Pending",
    "rowid": "1195532",
    "final_x": "3666228.3",
    "final_y": "517884.48",
    "longitude": "-90.116750184029",
    "latitude": "29.9184572120163",
    "geocoded_column": {
      "latitude": "29.9184572120163",
      "longitude": "-90.116750184029"
    }
  },
  {
    "service_request": "2025-1195531",
    "request_type": "Trash/Recycling",
    "request_reason": "Order Trash Cart",
    "date_created": "2025-05-27T16:03:33.000",
    "date_modified": "2025-05-27T16:03:35.000",
    "request_status": "Pending",
    "responsible_agency": "Department of Sanitation",
    "final_address": "4232 Canal St",
    "address_councildis": "A",
    "status": "Assigned to Contractor",
    "contractor": "IV Waste",
    "rowid": "1195531",
    "final_x": "3670286.94842",
    "final_y": "538794.611401",
    "longitude": "-90.10323059656137",
    "latitude": "29.97583412718385",
    "geocoded_column": {
      "latitude": "29.97583412718385",
      "longitude": "-90.10323059656137"
    }
  },
  {
    "service_request": "2025-1195530",
    "request_type": "Trash/Recycling",
    "request_reason": "Repair Trash Cart",
    "date_created": "2025-05-27T16:02:00.000",
    "date_modified": "2025-05-27T16:02:03.000",
    "request_status": "Pending",
    "responsible_agency": "Department of Sanitation",
    "final_address": "1227 S Carrollton Ave",
    "address_councildis": "A",
    "status": "Assigned to Contractor",
    "contractor": "IV Waste",
    "rowid": "1195530",
    "final_x": "3662218.77888",
    "final_y": "528407.768704",
    "longitude": "-90.1290570693439",
    "latitude": "29.947509388128207",
    "geocoded_column": {
      "latitude": "29.947509388128207",
      "longitude": "-90.1290570693439"
    }
  },
  {
    "service_request": "2025-1195529",
    "request_type": "Mosquito, Termite & Rodent Control",
    "request_reason": "Rodent Complaint (Mice & Rats)",
    "date_created": "2025-05-27T16:01:06.000",
    "date_modified": "2025-05-27T16:01:08.000",
    "request_status": "Pending",
    "responsible_agency": "Mosquito, Termite & Rodent Control Board",
    "final_address": "11220 Morrison Rd",
    "address_councildis": "E",
    "status": "Pending",
    "rowid": "1195529",
    "final_x": "3711954.07294",
    "final_y": "565385.527586",
    "longitude": "-89.97063659123901",
    "latitude": "30.047653077193484",
    "geocoded_column": {
      "latitude": "30.047653077193484",
      "longitude": "-89.97063659123901"
    }
  },
  {
    "service_request": "2025-1195528",
    "request_type": "Trash/Recycling",
    "request_reason": "Order Trash Cart",
    "date_created": "2025-05-27T16:00:41.000",
    "date_modified": "2025-05-27T16:00:46.000",
    "request_status": "Pending",
    "responsible_agency": "Department of Sanitation",
    "final_address": "3305 Marais St",
    "address_councildis": "C",
    "status": "Assigned to Contractor",
    "contractor": "IV Waste",
    "rowid": "1195528",
    "final_x": "3689997.82928",
    "final_y": "536165.836295",
    "longitude": "-90.04107188125678",
    "latitude": "29.96800936265638",
    "geocoded_column": {
      "latitude": "29.96800936265638",
      "longitude": "-90.04107188125678"
    }
  },
  {
    "service_request": "2025-1195527",
    "request_type": "Roads and Streets",
    "request_reason": "Sidewalk Damaged or Missing",
    "date_created": "2025-05-27T15:58:24.000",
    "date_modified": "2025-05-27T15:58:26.000",
    "request_status": "Pending",
    "responsible_agency": "Department of Public Works",
    "final_address": "71 N Park Pl",
    "address_councildis": "A",
    "status": "Pending",
    "rowid": "1195527",
    "final_x": "3669926.71662",
    "final_y": "544918.355727",
    "longitude": "-90.10416084294206",
    "latitude": "29.992682965027477",
    "geocoded_column": {
      "latitude": "29.992682965027477",
      "longitude": "-90.10416084294206"
    }
  },
  {
    "service_request": "2025-1195526",
    "request_type": "Trash/Recycling",
    "request_reason": "Request a Large Item Pick Up",
    "date_created": "2025-05-27T15:57:37.000",
    "date_modified": "2025-05-27T15:57:40.000",
    "request_status": "Pending",
    "responsible_agency": "Department of Sanitation",
    "final_address": "2377 Rousseau St",
    "address_councildis": "B",
    "status": "Assigned to Contractor",
    "contractor": "IV Waste",
    "rowid": "1195526",
    "final_x": "3679361.64648",
    "final_y": "519686.39052",
    "longitude": "-90.07523274310176",
    "latitude": "29.923021928728236",
    "geocoded_column": {
      "latitude": "29.923021928728236",
      "longitude": "-90.07523274310176"
    }
  },
  {
    "service_request": "2025-1195525",
    "request_type": "Trash/Recycling",
    "request_reason": "Request a Large Item Pick Up",
    "date_created": "2025-05-27T15:56:03.000",
    "date_modified": "2025-05-27T15:56:04.000",
    "request_status": "Pending",
    "responsible_agency": "Department of Sanitation",
    "final_address": "2680 Lavender St",
    "address_councildis": "D",
    "status": "Assigned to Contractor",
    "contractor": "IV Waste",
    "rowid": "1195525",
    "final_x": "3687732.5119",
    "final_y": "546900.410065",
    "longitude": "-90.04784549932207",
    "latitude": "29.997595681479297",
    "geocoded_column": {
      "latitude": "29.997595681479297",
      "longitude": "-90.04784549932207"
    }
  },
  {
    "service_request": "2025-1195524",
    "request_type": "Safety & Permits",
    "request_reason": "Zoning Enforcement",
    "date_created": "2025-05-27T15:52:57.000",
    "date_modified": "2025-05-27T15:53:00.000",
    "request_status": "Pending",
    "responsible_agency": "Safety and Permits",
    "final_address": "7240 Crowder Blvd",
    "address_councildis": "E",
    "status": "Pending",
    "rowid": "1195524",
    "final_x": "3703716.62775",
    "final_y": "560583.926878",
    "longitude": "-89.99684832690215",
    "latitude": "30.03471735902151",
    "geocoded_column": {
      "latitude": "30.03471735902151",
      "longitude": "-89.99684832690215"
    }
  },
  {
    "service_request": "2025-1195523",
    "request_type": "Trash/Recycling",
    "request_reason": "Replace Trash Cart",
    "date_created": "2025-05-27T15:50:30.000",
    "date_modified": "2025-05-27T15:50:32.000",
    "request_status": "Pending",
    "responsible_agency": "Department of Sanitation",
    "final_address": "2044 Pace Blvd",
    "address_councildis": "C",
    "status": "Assigned to Contractor",
    "contractor": "Richards Disposal",
    "rowid": "1195523",
    "final_x": "3694502.36662",
    "final_y": "522869.025339",
    "longitude": "-90.02732507132431",
    "latitude": "29.931307303566868",
    "geocoded_column": {
      "latitude": "29.931307303566868",
      "longitude": "-90.02732507132431"
    }
  },
  {
    "service_request": "2025-1195522",
    "request_type": "Trash/Recycling",
    "request_reason": "Request a Large Item Pick Up",
    "date_created": "2025-05-27T15:46:48.000",
    "date_modified": "2025-05-27T15:46:50.000",
    "request_status": "Pending",
    "responsible_agency": "Department of Sanitation",
    "final_address": "5740 Dauphine St",
    "address_councildis": "E",
    "status": "Assigned to Contractor",
    "contractor": "Waste Pro",
    "rowid": "1195522",
    "final_x": "3698464.96624",
    "final_y": "532397.438339",
    "longitude": "-90.01446949515221",
    "latitude": "29.95738232707557",
    "geocoded_column": {
      "latitude": "29.95738232707557",
      "longitude": "-90.01446949515221"
    }
  },
  {
    "service_request": "2025-1195521",
    "request_type": "Property Maintenance",
    "request_reason": "Property Maintenance",
    "date_created": "2025-05-27T15:45:34.000",
    "date_modified": "2025-05-27T15:45:36.000",
    "request_status": "Pending",
    "responsible_agency": "Department of Code Enforcement",
    "final_address": "5411 Edenboro Rd",
    "address_councildis": "E",
    "status": "Pending",
    "rowid": "1195521",
    "final_x": "3708380.44875",
    "final_y": "557795.508443",
    "longitude": "-89.98221399886887",
    "latitude": "30.02689990750971",
    "geocoded_column": {
      "latitude": "30.02689990750971",
      "longitude": "-89.98221399886887"
    }
  },
  {
    "service_request": "2025-1195520",
    "request_type": "Trash/Recycling",
    "request_reason": "Request a Large Item Pick Up",
    "date_created": "2025-05-27T15:45:32.000",
    "date_modified": "2025-05-27T15:45:34.000",
    "request_status": "Pending",
    "responsible_agency": "Department of Sanitation",
    "final_address": "516 Thayer St",
    "address_councildis": "C",
    "status": "Assigned to Contractor",
    "contractor": "Richards Disposal",
    "rowid": "1195520",
    "final_x": "3689576.19913",
    "final_y": "529682.759553",
    "longitude": "-90.04263402111904",
    "latitude": "29.950196221345085",
    "geocoded_column": {
      "latitude": "29.950196221345085",
      "longitude": "-90.04263402111904"
    }
  },
  {
    "service_request": "2025-1195519",
    "request_type": "Property Maintenance",
    "request_reason": "Property Maintenance",
    "date_created": "2025-05-27T15:42:53.000",
    "date_modified": "2025-05-27T15:42:54.000",
    "request_status": "Pending",
    "responsible_agency": "Department of Code Enforcement",
    "final_address": "2633 Napoleon Ave",
    "address_councildis": "B",
    "status": "Pending",
    "rowid": "1195519",
    "final_x": "3670569.11079",
    "final_y": "524642.976764",
    "longitude": "-90.10281942250664",
    "latitude": "29.936913476249543",
    "geocoded_column": {
      "latitude": "29.936913476249543",
      "longitude": "-90.10281942250664"
    }
  },
  {
    "service_request": "2025-1195518",
    "request_type": "Trash/Recycling",
    "request_reason": "Illegal Dumping",
    "date_created": "2025-05-27T15:41:24.000",
    "date_modified": "2025-05-27T15:41:26.000",
    "request_status": "Pending",
    "responsible_agency": "Department of Sanitation",
    "final_address": "12240 Morrison Rd",
    "address_councildis": "E",
    "status": "Pending",
    "rowid": "1195518",
    "final_x": "3714611.48242",
    "final_y": "567328.414372",
    "longitude": "-89.96216430585736",
    "latitude": "30.052908058114443",
    "geocoded_column": {
      "latitude": "30.052908058114443",
      "longitude": "-89.96216430585736"
    }
  },
  {
    "service_request": "2025-1195517",
    "request_type": "Trash/Recycling",
    "request_reason": "Request a Large Item Pick Up",
    "date_created": "2025-05-27T15:40:58.000",
    "date_modified": "2025-05-27T15:40:59.000",
    "request_status": "Pending",
    "responsible_agency": "Department of Sanitation",
    "final_address": "11405 Tanner S Davis Dr",
    "address_councildis": "E",
    "status": "Assigned to Contractor",
    "contractor": "Waste Pro",
    "rowid": "1195517",
    "final_x": "3718015.27244",
    "final_y": "561064.436894",
    "longitude": "-89.95164473132934",
    "latitude": "30.035572243294098",
    "geocoded_column": {
      "latitude": "30.035572243294098",
      "longitude": "-89.95164473132934"
    }
  },
  {
    "service_request": "2025-1195516",
    "request_type": "Roads and Streets",
    "request_reason": "Road Shoulder Damage",
    "date_created": "2025-05-27T15:40:45.000",
    "date_modified": "2025-05-27T15:46:52.000",
    "request_status": "Pending",
    "responsible_agency": "Department of Public Works",
    "final_address": "4327 Hollygrove St",
    "address_councildis": "A",
    "status": "Pending",
    "rowid": "1195516",
    "final_x": "3667196.71578",
    "final_y": "538778.579401",
    "longitude": "-90.11299100173028",
    "latitude": "29.975880902048882",
    "geocoded_column": {
      "latitude": "29.975880902048882",
      "longitude": "-90.11299100173028"
    }
  },
  {
    "service_request": "2025-1195515",
    "request_type": "Parks & Parkways",
    "request_reason": "Request Tree Service (Right of Way/Public Property)",
    "date_created": "2025-05-27T15:38:55.000",
    "date_modified": "2025-05-27T15:38:57.000",
    "request_status": "Pending",
    "responsible_agency": "Department of Parks & Parkway",
    "final_address": "2900 BLK Carondelet St",
    "address_councildis": "B",
    "status": "Pending",
    "rowid": "1195515",
    "final_x": "3675153.57026",
    "final_y": "522487.787161",
    "longitude": "-90.08841995102678",
    "latitude": "29.930851237891318",
    "geocoded_column": {
      "latitude": "29.930851237891318",
      "longitude": "-90.08841995102678"
    }
  },
  {
    "service_request": "2025-1195514",
    "request_type": "Trash/Recycling",
    "request_reason": "Request a Large Item Pick Up",
    "date_created": "2025-05-27T15:38:14.000",
    "date_modified": "2025-05-27T15:38:16.000",
    "request_status": "Pending",
    "responsible_agency": "Department of Sanitation",
    "final_address": "5230 Chestnut St",
    "address_councildis": "B",
    "status": "Assigned to Contractor",
    "contractor": "IV Waste",
    "rowid": "1195514",
    "final_x": "3667816.88525",
    "final_y": "519316.857463",
    "longitude": "-90.11168764417242",
    "latitude": "29.922349325598304",
    "geocoded_column": {
      "latitude": "29.922349325598304",
      "longitude": "-90.11168764417242"
    }
  },
  {
    "service_request": "2025-1195513",
    "request_type": "Trash/Recycling",
    "request_reason": "Request a Large Item Pick Up",
    "date_created": "2025-05-27T15:38:10.000",
    "date_modified": "2025-05-27T15:38:13.000",
    "request_status": "Pending",
    "responsible_agency": "Department of Sanitation",
    "final_address": "1681 Paul Morphy St",
    "address_councildis": "D",
    "status": "Assigned to Contractor",
    "contractor": "IV Waste",
    "rowid": "1195513",
    "final_x": "3679183.57659",
    "final_y": "540944.214155",
    "longitude": "-90.07505796948634",
    "latitude": "29.981479175297075",
    "geocoded_column": {
      "latitude": "29.981479175297075",
      "longitude": "-90.07505796948634"
    }
  },
  {
    "service_request": "2025-1195512",
    "request_type": "Trash/Recycling",
    "request_reason": "Request a Large Item Pick Up",
    "date_created": "2025-05-27T15:36:57.000",
    "date_modified": "2025-05-27T15:36:59.000",
    "request_status": "Pending",
    "responsible_agency": "Department of Sanitation",
    "final_address": "933 Bordeaux St",
    "address_councildis": "B",
    "status": "Assigned to Contractor",
    "contractor": "IV Waste",
    "rowid": "1195512",
    "final_x": "3669593.77364",
    "final_y": "518920.512055",
    "longitude": "-90.10609211713619",
    "latitude": "29.92120729066794",
    "geocoded_column": {
      "latitude": "29.92120729066794",
      "longitude": "-90.10609211713619"
    }
  },
  {
    "service_request": "2025-1195511",
    "request_type": "Trash/Recycling",
    "request_reason": "Request a Large Item Pick Up",
    "date_created": "2025-05-27T15:36:30.000",
    "date_modified": "2025-05-27T15:36:32.000",
    "request_status": "Pending",
    "responsible_agency": "Department of Sanitation",
    "final_address": "5911 Pitt St",
    "address_councildis": "A",
    "status": "Assigned to Contractor",
    "contractor": "IV Waste",
    "rowid": "1195511",
    "final_x": "3665593.70816",
    "final_y": "521157.144249",
    "longitude": "-90.11864375351159",
    "latitude": "29.927474522277453",
    "geocoded_column": {
      "latitude": "29.927474522277453",
      "longitude": "-90.11864375351159"
    }
  },
  {
    "service_request": "2025-1195510",
    "request_type": "Trash/Recycling",
    "request_reason": "Return Recycling Cart",
    "date_created": "2025-05-27T15:36:16.000",
    "date_modified": "2025-05-27T15:36:19.000",
    "request_status": "Pending",
    "responsible_agency": "Department of Sanitation",
    "final_address": "923 Solomon Pl",
    "address_councildis": "A",
    "status": "Pending",
    "rowid": "1195510",
    "final_x": "3672465.52961",
    "final_y": "541319.121612",
    "longitude": "-90.09626392628059",
    "latitude": "29.982711181029284",
    "geocoded_column": {
      "latitude": "29.982711181029284",
      "longitude": "-90.09626392628059"
    }
  },
  {
    "service_request": "2025-1195509",
    "request_type": "Trash/Recycling",
    "request_reason": "Request a Large Item Pick Up",
    "date_created": "2025-05-27T15:32:41.000",
    "date_modified": "2025-05-27T15:32:44.000",
    "request_status": "Pending",
    "responsible_agency": "Department of Sanitation",
    "final_address": "4704 Perlita St",
    "address_councildis": "D",
    "status": "Assigned to Contractor",
    "contractor": "IV Waste",
    "rowid": "1195509",
    "final_x": "3678611.55573",
    "final_y": "549859.8813",
    "longitude": "-90.07655581452975",
    "latitude": "30.00601138144038",
    "geocoded_column": {
      "latitude": "30.00601138144038",
      "longitude": "-90.07655581452975"
    }
  },
  {
    "service_request": "2025-1195508",
    "request_type": "Trash/Recycling",
    "request_reason": "Request a Large Item Pick Up",
    "date_created": "2025-05-27T15:31:30.000",
    "date_modified": "2025-05-27T15:31:32.000",
    "request_status": "Pending",
    "responsible_agency": "Department of Sanitation",
    "final_address": "2220 Palmer Ave",
    "address_councildis": "A",
    "status": "Assigned to Contractor",
    "contractor": "IV Waste",
    "rowid": "1195508",
    "final_x": "3666069.24071",
    "final_y": "525106.214397",
    "longitude": "-90.11701027783295",
    "latitude": "29.93831933962598",
    "geocoded_column": {
      "latitude": "29.93831933962598",
      "longitude": "-90.11701027783295"
    }
  },
  {
    "service_request": "2025-1195507",
    "request_type": "Traffic Safety",
    "request_reason": "Request for Traffic Calming due to Speeding",
    "date_created": "2025-05-27T15:30:30.000",
    "date_modified": "2025-05-27T15:30:32.000",
    "request_status": "Pending",
    "responsible_agency": "Department of Public Works",
    "final_address": "400 BLK Warrington Dr",
    "address_councildis": "D",
    "status": "Pending",
    "rowid": "1195507",
    "final_x": "3681592.45043",
    "final_y": "548163.940533",
    "longitude": "-90.06719766598005",
    "latitude": "30.00125791615631",
    "geocoded_column": {
      "latitude": "30.00125791615631",
      "longitude": "-90.06719766598005"
    }
  },
  {
    "service_request": "2025-1195506",
    "request_type": "Streetlights",
    "request_reason": "Streetlight Outage/Malfunction",
    "date_created": "2025-05-27T15:30:02.000",
    "date_modified": "2025-05-27T15:30:05.000",
    "request_status": "Pending",
    "responsible_agency": "Department of Public Works",
    "final_address": "1129 Jackson Ave",
    "address_councildis": "B",
    "status": "Pending",
    "contractor": "Legacy Professional Services",
    "rowid": "1195506",
    "final_x": "3678763.81538",
    "final_y": "522280.215674",
    "longitude": "-90.07703009437071",
    "latitude": "29.930172137478078",
    "geocoded_column": {
      "latitude": "29.930172137478078",
      "longitude": "-90.07703009437071"
    }
  },
  {
    "service_request": "2025-1195505",
    "request_type": "Trash/Recycling",
    "request_reason": "Order Second Trash Cart",
    "date_created": "2025-05-27T15:26:20.000",
    "date_modified": "2025-05-27T15:26:22.000",
    "request_status": "Pending",
    "responsible_agency": "Department of Sanitation",
    "final_address": "7520 Dalewood Rd",
    "address_councildis": "E",
    "status": "Assigned to Contractor",
    "contractor": "Waste Pro",
    "rowid": "1195505",
    "final_x": "3699962.50384",
    "final_y": "560122.227869",
    "longitude": "-90.00872870627522",
    "latitude": "30.033567730063005",
    "geocoded_column": {
      "latitude": "30.033567730063005",
      "longitude": "-90.00872870627522"
    }
  },
  {
    "service_request": "2025-1195504",
    "request_type": "Trash/Recycling",
    "request_reason": "Request a Large Item Pick Up",
    "date_created": "2025-05-27T15:24:32.000",
    "date_modified": "2025-05-27T15:24:35.000",
    "request_status": "Pending",
    "responsible_agency": "Department of Sanitation",
    "final_address": "5314 Cameron Blvd",
    "address_councildis": "D",
    "status": "Assigned to Contractor",
    "contractor": "IV Waste",
    "rowid": "1195504",
    "final_x": "3682520.64207",
    "final_y": "552359.89743",
    "longitude": "-90.0641186031821",
    "latitude": "30.012767049714757",
    "geocoded_column": {
      "latitude": "30.012767049714757",
      "longitude": "-90.0641186031821"
    }
  },
  {
    "service_request": "2025-1195503",
    "request_type": "Streetlights",
    "request_reason": "Streetlight Outage/Malfunction",
    "date_created": "2025-05-27T15:23:07.000",
    "date_modified": "2025-05-27T15:23:09.000",
    "request_status": "Pending",
    "responsible_agency": "Department of Public Works",
    "final_address": "1500 BLK Jackson Ave",
    "address_councildis": "B",
    "status": "Pending",
    "contractor": "Legacy Professional Services",
    "rowid": "1195503",
    "final_x": "3677765.89902",
    "final_y": "523465.264209",
    "longitude": "-90.08013944183749",
    "latitude": "29.933460680235676",
    "geocoded_column": {
      "latitude": "29.933460680235676",
      "longitude": "-90.08013944183749"
    }
  },
  {
    "service_request": "2025-1195502",
    "request_type": "Trash/Recycling",
    "request_reason": "Repair Trash Cart",
    "date_created": "2025-05-27T15:22:01.000",
    "date_modified": "2025-05-27T15:22:03.000",
    "request_status": "Pending",
    "responsible_agency": "Department of Sanitation",
    "final_address": "2019 Pelopidas St",
    "address_councildis": "D",
    "status": "Assigned to Contractor",
    "contractor": "IV Waste",
    "rowid": "1195502",
    "final_x": "3682757.31637",
    "final_y": "548093.556882",
    "longitude": "-90.06352021936252",
    "latitude": "30.001028942643444",
    "geocoded_column": {
      "latitude": "30.001028942643444",
      "longitude": "-90.06352021936252"
    }
  },
  {
    "service_request": "2025-1195501",
    "request_type": "Abandoned Vehicles",
    "request_reason": "Abandoned/Junk Vehicles",
    "date_created": "2025-05-27T15:21:33.000",
    "date_modified": "2025-05-27T15:21:34.000",
    "request_status": "Pending",
    "responsible_agency": "Department of Public Works",
    "final_address": "2819 Carondelet St",
    "address_councildis": "B",
    "status": "Pending",
    "rowid": "1195501",
    "final_x": "3675491.23221",
    "final_y": "522875.464123",
    "longitude": "-90.08734069010193",
    "latitude": "29.93190713181196",
    "geocoded_column": {
      "latitude": "29.93190713181196",
      "longitude": "-90.08734069010193"
    }
  },
  {
    "service_request": "2025-1195500",
    "request_type": "Abandoned Vehicles",
    "request_reason": "Abandoned/Junk Vehicles",
    "date_created": "2025-05-27T15:21:25.000",
    "date_modified": "2025-05-27T15:28:59.000",
    "request_status": "Pending",
    "responsible_agency": "Department of Public Works",
    "final_address": "3729 Baudin St",
    "address_councildis": "B",
    "status": "Pending",
    "rowid": "1195500",
    "final_x": "3671180.62183",
    "final_y": "536310.323783",
    "longitude": "-90.10049253392934",
    "latitude": "29.96897676356218",
    "geocoded_column": {
      "latitude": "29.96897676356218",
      "longitude": "-90.10049253392934"
    }
  },
  {
    "service_request": "2025-1195499",
    "request_type": "Trash/Recycling",
    "request_reason": "Request a Large Item Pick Up",
    "date_created": "2025-05-27T15:20:38.000",
    "date_modified": "2025-05-27T15:20:40.000",
    "request_status": "Pending",
    "responsible_agency": "Department of Sanitation",
    "final_address": "538 Lowerline St",
    "address_councildis": "A",
    "status": "Assigned to Contractor",
    "contractor": "IV Waste",
    "rowid": "1195499",
    "final_x": "3662218.18874",
    "final_y": "524729.031804",
    "longitude": "-90.12918099580533",
    "latitude": "29.93739405007376",
    "geocoded_column": {
      "latitude": "29.93739405007376",
      "longitude": "-90.12918099580533"
    }
  },
  {
    "service_request": "2025-1195498",
    "request_type": "Property Maintenance",
    "request_reason": "Property Maintenance",
    "date_created": "2025-05-27T15:20:14.000",
    "date_modified": "2025-05-27T15:20:16.000",
    "request_status": "Pending",
    "responsible_agency": "Department of Code Enforcement",
    "final_address": "5636 Hempstead Rd",
    "address_councildis": "E",
    "status": "Pending",
    "rowid": "1195498",
    "final_x": "3707954.32715",
    "final_y": "557828.451291",
    "longitude": "-89.98355926249226",
    "latitude": "30.027004296377342",
    "geocoded_column": {
      "latitude": "30.027004296377342",
      "longitude": "-89.98355926249226"
    }
  },
  {
    "service_request": "2025-1195497",
    "request_type": "Trash/Recycling",
    "request_reason": "MIssed Recycling Pick-Up",
    "date_created": "2025-05-27T15:19:51.000",
    "date_modified": "2025-05-27T17:02:19.000",
    "case_close_date": "2025-05-27T12:02:16.000",
    "request_status": "Closed",
    "responsible_agency": "Department of Sanitation",
    "final_address": "119 Ringold St",
    "address_councildis": "A",
    "status": "Invalid Request",
    "contractor": "IV Waste",
    "contractor_action": "Invalid",
    "rowid": "1195497",
    "final_x": "3666792.43565",
    "final_y": "548581.657939",
    "longitude": "-90.11393835410577",
    "latitude": "30.002847863155292",
    "geocoded_column": {
      "latitude": "30.002847863155292",
      "longitude": "-90.11393835410577"
    }
  },
  {
    "service_request": "2025-1195496",
    "request_type": "Property Maintenance",
    "request_reason": "Property Maintenance",
    "date_created": "2025-05-27T15:19:14.000",
    "date_modified": "2025-05-27T15:19:17.000",
    "request_status": "Pending",
    "responsible_agency": "Department of Code Enforcement",
    "final_address": "2030 St Andrew St",
    "address_councildis": "B",
    "status": "Pending",
    "rowid": "1195496",
    "final_x": "3677041.24635",
    "final_y": "525595.622461",
    "longitude": "-90.08235370510992",
    "latitude": "29.939340238714504",
    "geocoded_column": {
      "latitude": "29.939340238714504",
      "longitude": "-90.08235370510992"
    }
  },
  {
    "service_request": "2025-1195495",
    "request_type": "Property Maintenance",
    "request_reason": "Property Maintenance",
    "date_created": "2025-05-27T15:16:40.000",
    "date_modified": "2025-05-27T15:16:43.000",
    "request_status": "Pending",
    "responsible_agency": "Department of Code Enforcement",
    "final_address": "2810 Bacchus Dr",
    "address_councildis": "C",
    "status": "Pending",
    "rowid": "1195495",
    "final_x": "3710299.46315",
    "final_y": "518978.273527",
    "longitude": "-89.97760142583095",
    "latitude": "29.920104572941355",
    "geocoded_column": {
      "latitude": "29.920104572941355",
      "longitude": "-89.97760142583095"
    }
  },
  {
    "service_request": "2025-1195494",
    "request_type": "Trash/Recycling",
    "request_reason": "Replace Trash Cart",
    "date_created": "2025-05-27T15:13:33.000",
    "date_modified": "2025-05-27T15:13:35.000",
    "request_status": "Pending",
    "responsible_agency": "Department of Sanitation",
    "final_address": "1422 Elysian Fields Ave",
    "address_councildis": "C",
    "status": "Assigned to Contractor",
    "contractor": "IV Waste",
    "rowid": "1195494",
    "final_x": "3684811.19202",
    "final_y": "537600.133256",
    "longitude": "-90.05740100172277",
    "latitude": "29.972113000110394",
    "geocoded_column": {
      "latitude": "29.972113000110394",
      "longitude": "-90.05740100172277"
    }
  },
  {
    "service_request": "2025-1195493",
    "request_type": "Trash/Recycling",
    "request_reason": "Request a Large Item Pick Up",
    "date_created": "2025-05-27T15:13:14.000",
    "date_modified": "2025-05-27T15:13:30.000",
    "request_status": "Pending",
    "responsible_agency": "Department of Sanitation",
    "final_address": "3624 Desaix Blvd",
    "address_councildis": "A",
    "status": "Assigned to Contractor",
    "contractor": "IV Waste",
    "rowid": "1195493",
    "final_x": "3675512.68072",
    "final_y": "543595.068494",
    "longitude": "-90.08656126707166",
    "latitude": "29.988878438461672",
    "geocoded_column": {
      "latitude": "29.988878438461672",
      "longitude": "-90.08656126707166"
    }
  },
  {
    "service_request": "2025-1195492",
    "request_type": "Abandoned Vehicles",
    "request_reason": "Abandoned/Junk Vehicles",
    "date_created": "2025-05-27T15:12:02.000",
    "date_modified": "2025-05-27T15:13:59.000",
    "request_status": "Pending",
    "responsible_agency": "Department of Public Works",
    "final_address": "600 BLK S Salcedo St",
    "address_councildis": "B",
    "status": "Inspected",
    "rowid": "1195492",
    "final_x": "3672705.7684",
    "final_y": "534270.305591",
    "longitude": "-90.09574559387232",
    "latitude": "29.96332219024371",
    "geocoded_column": {
      "latitude": "29.96332219024371",
      "longitude": "-90.09574559387232"
    }
  },
  {
    "service_request": "2025-1195491",
    "request_type": "Trash/Recycling",
    "request_reason": "Request a Large Item Pick Up",
    "date_created": "2025-05-27T15:10:49.000",
    "date_modified": "2025-05-27T15:10:51.000",
    "request_status": "Pending",
    "responsible_agency": "Department of Sanitation",
    "final_address": "3436 Magazine St",
    "address_councildis": "B",
    "status": "Assigned to Contractor",
    "contractor": "IV Waste",
    "rowid": "1195491",
    "final_x": "3674763.85345",
    "final_y": "519416.188087",
    "longitude": "-90.08975547132286",
    "latitude": "29.922416968636142",
    "geocoded_column": {
      "latitude": "29.922416968636142",
      "longitude": "-90.08975547132286"
    }
  },
  {
    "service_request": "2025-1195490",
    "request_type": "Abandoned Vehicles",
    "request_reason": "Abandoned/Junk Vehicles",
    "date_created": "2025-05-27T15:10:28.000",
    "date_modified": "2025-05-27T15:12:48.000",
    "request_status": "Pending",
    "responsible_agency": "Department of Public Works",
    "final_address": "N VILLERE ST & PORT ST",
    "address_councildis": "C",
    "status": "Pending",
    "rowid": "1195490",
    "final_x": "3687704.4",
    "final_y": "537504.38",
    "longitude": "-90.04826718651006",
    "latitude": "29.971760809832457",
    "geocoded_column": {
      "latitude": "29.971760809832457",
      "longitude": "-90.04826718651006"
    }
  },
  {
    "service_request": "2025-1195489",
    "request_type": "Parks & Parkways",
    "request_reason": "Request Tree Service (Right of Way/Public Property)",
    "date_created": "2025-05-27T15:09:58.000",
    "date_modified": "2025-05-27T15:09:59.000",
    "request_status": "Pending",
    "responsible_agency": "Department of Parks & Parkway",
    "final_address": "305 Nashville Ave",
    "address_councildis": "A",
    "status": "Pending",
    "rowid": "1195489",
    "final_x": "3665220.82298",
    "final_y": "517371.583797",
    "longitude": "-90.11994741039136",
    "latitude": "29.917076281687848",
    "geocoded_column": {
      "latitude": "29.917076281687848",
      "longitude": "-90.11994741039136"
    }
  },
  {
    "service_request": "2025-1195488",
    "request_type": "Trash/Recycling",
    "request_reason": "Request a Large Item Pick Up",
    "date_created": "2025-05-27T15:08:22.000",
    "date_modified": "2025-05-27T15:08:23.000",
    "request_status": "Pending",
    "responsible_agency": "Department of Sanitation",
    "final_address": "1966 Mirabeau Ave",
    "address_councildis": "D",
    "status": "Assigned to Contractor",
    "contractor": "IV Waste",
    "rowid": "1195488",
    "final_x": "3682230.04021",
    "final_y": "550492.187988",
    "longitude": "-90.06510205765039",
    "latitude": "30.00764037236326",
    "geocoded_column": {
      "latitude": "30.00764037236326",
      "longitude": "-90.06510205765039"
    }
  },
  {
    "service_request": "2025-1195487",
    "request_type": "Trash/Recycling",
    "request_reason": "Request a Large Item Pick Up",
    "date_created": "2025-05-27T15:08:11.000",
    "date_modified": "2025-05-27T15:08:13.000",
    "request_status": "Pending",
    "responsible_agency": "Department of Sanitation",
    "final_address": "2434 Laharpe St",
    "address_councildis": "D",
    "status": "Assigned to Contractor",
    "contractor": "IV Waste",
    "rowid": "1195487",
    "final_x": "3679459.48104",
    "final_y": "539367.403082",
    "longitude": "-90.07424126112235",
    "latitude": "29.97713515787963",
    "geocoded_column": {
      "latitude": "29.97713515787963",
      "longitude": "-90.07424126112235"
    }
  },
  {
    "service_request": "2025-1195486",
    "request_type": "Trash/Recycling",
    "request_reason": "Request a Large Item Pick Up",
    "date_created": "2025-05-27T15:07:36.000",
    "date_modified": "2025-05-27T15:07:38.000",
    "request_status": "Pending",
    "responsible_agency": "Department of Sanitation",
    "final_address": "5302 Wilton Dr",
    "address_councildis": "D",
    "status": "Assigned to Contractor",
    "contractor": "IV Waste",
    "rowid": "1195486",
    "final_x": "3681898.975",
    "final_y": "552197.835734",
    "longitude": "-90.06608839227944",
    "latitude": "30.012340358263998",
    "geocoded_column": {
      "latitude": "30.012340358263998",
      "longitude": "-90.06608839227944"
    }
  },
  {
    "service_request": "2025-1195485",
    "request_type": "Trash/Recycling",
    "request_reason": "Request a Large Item Pick Up",
    "date_created": "2025-05-27T15:05:03.000",
    "date_modified": "2025-05-27T15:05:05.000",
    "request_status": "Pending",
    "responsible_agency": "Department of Sanitation",
    "final_address": "2434 Laharpe St",
    "address_councildis": "D",
    "status": "Assigned to Contractor",
    "contractor": "IV Waste",
    "rowid": "1195485",
    "final_x": "3679459.48104",
    "final_y": "539367.403082",
    "longitude": "-90.07424126112235",
    "latitude": "29.97713515787963",
    "geocoded_column": {
      "latitude": "29.97713515787963",
      "longitude": "-90.07424126112235"
    }
  },
  {
    "service_request": "2025-1195484",
    "request_type": "Trash/Recycling",
    "request_reason": "Request a Large Item Pick Up",
    "date_created": "2025-05-27T15:04:52.000",
    "date_modified": "2025-05-27T15:04:54.000",
    "request_status": "Pending",
    "responsible_agency": "Department of Sanitation",
    "final_address": "1129 Jackson Ave",
    "address_councildis": "B",
    "status": "Assigned to Contractor",
    "contractor": "IV Waste",
    "rowid": "1195484",
    "final_x": "3678763.81538",
    "final_y": "522280.215674",
    "longitude": "-90.07703009437071",
    "latitude": "29.930172137478078",
    "geocoded_column": {
      "latitude": "29.930172137478078",
      "longitude": "-90.07703009437071"
    }
  },
  {
    "service_request": "2025-1195483",
    "request_type": "Roads and Streets",
    "request_reason": "Pothole",
    "date_created": "2025-05-27T15:04:44.000",
    "date_modified": "2025-05-27T15:04:45.000",
    "request_status": "Pending",
    "responsible_agency": "Department of Public Works",
    "final_address": "200 BLK N Saint Patrick St",
    "address_councildis": "A",
    "status": "Pending",
    "rowid": "1195483",
    "final_x": "3669483.60358",
    "final_y": "540324.496895",
    "longitude": "-90.10571602816766",
    "latitude": "29.98006448436108",
    "geocoded_column": {
      "latitude": "29.98006448436108",
      "longitude": "-90.10571602816766"
    }
  },
  {
    "service_request": "2025-1195482",
    "request_type": "Trash/Recycling",
    "request_reason": "Order Trash Cart",
    "date_created": "2025-05-27T15:04:04.000",
    "date_modified": "2025-05-27T15:04:06.000",
    "request_status": "Pending",
    "responsible_agency": "Department of Sanitation",
    "final_address": "8630 Belfast St",
    "address_councildis": "A",
    "status": "Assigned to Contractor",
    "contractor": "IV Waste",
    "rowid": "1195482",
    "final_x": "3664065.97952",
    "final_y": "533698.594693",
    "longitude": "-90.12304826803441",
    "latitude": "29.9620039311055",
    "geocoded_column": {
      "latitude": "29.9620039311055",
      "longitude": "-90.12304826803441"
    }
  },
  {
    "service_request": "2025-1195481",
    "request_type": "Trash/Recycling",
    "request_reason": "Request a Large Item Pick Up",
    "date_created": "2025-05-27T15:02:35.000",
    "date_modified": "2025-05-27T15:02:37.000",
    "request_status": "Pending",
    "responsible_agency": "Department of Sanitation",
    "final_address": "36 Marywood Ct",
    "address_councildis": "E",
    "status": "Assigned to Contractor",
    "contractor": "Waste Pro",
    "rowid": "1195481",
    "final_x": "3712278.69662",
    "final_y": "567054.857508",
    "longitude": "-89.96954781460067",
    "latitude": "30.052232437854506",
    "geocoded_column": {
      "latitude": "30.052232437854506",
      "longitude": "-89.96954781460067"
    }
  },
  {
    "service_request": "2025-1195480",
    "request_type": "Streetlights",
    "request_reason": "Streetlight Outage/Malfunction",
    "date_created": "2025-05-27T15:02:25.000",
    "date_modified": "2025-05-27T15:02:27.000",
    "request_status": "Pending",
    "responsible_agency": "Department of Public Works",
    "final_address": "OCTAVIA ST & HEWES ST",
    "address_councildis": "A",
    "status": "Pending",
    "contractor": "Legacy Professional Services",
    "rowid": "1195480",
    "final_x": "3668761.7",
    "final_y": "529344.38",
    "longitude": "-90.10836685470316",
    "latitude": "29.94989405834156",
    "geocoded_column": {
      "latitude": "29.94989405834156",
      "longitude": "-90.10836685470316"
    }
  },
  {
    "service_request": "2025-1195479",
    "request_type": "Abandoned Vehicles",
    "request_reason": "Abandoned/Junk Vehicles",
    "date_created": "2025-05-27T14:59:55.000",
    "date_modified": "2025-05-27T15:00:42.000",
    "request_status": "Pending",
    "responsible_agency": "Department of Public Works",
    "final_address": "3100 Pittari Pl",
    "address_councildis": "C",
    "status": "Pending",
    "rowid": "1195479",
    "final_x": "3709806.81483",
    "final_y": "519323.826039",
    "longitude": "-89.9791435746986",
    "latitude": "29.921070739499296",
    "geocoded_column": {
      "latitude": "29.921070739499296",
      "longitude": "-89.9791435746986"
    }
  },
  {
    "service_request": "2025-1195478",
    "request_type": "Trash/Recycling",
    "request_reason": "Missed Trash Pick-Up",
    "date_created": "2025-05-27T14:56:34.000",
    "date_modified": "2025-05-27T14:56:36.000",
    "request_status": "Pending",
    "responsible_agency": "Department of Sanitation",
    "final_address": "7060 Northgate Dr",
    "address_councildis": "E",
    "status": "Assigned to Contractor",
    "contractor": "Waste Pro",
    "rowid": "1195478",
    "final_x": "3713704.08805",
    "final_y": "564931.629346",
    "longitude": "-89.96512275599775",
    "latitude": "30.046347699688823",
    "geocoded_column": {
      "latitude": "30.046347699688823",
      "longitude": "-89.96512275599775"
    }
  },
  {
    "service_request": "2025-1195477",
    "request_type": "Trash/Recycling",
    "request_reason": "Illegal Dumping",
    "date_created": "2025-05-27T14:54:37.000",
    "date_modified": "2025-05-27T14:54:39.000",
    "request_status": "Pending",
    "responsible_agency": "Department of Sanitation",
    "final_address": "TOURO ST & N GALVEZ ST",
    "address_councildis": "D",
    "status": "Pending",
    "rowid": "1195477",
    "final_x": "3683936.8",
    "final_y": "539927.48",
    "longitude": "-90.0600807982313",
    "latitude": "29.978539135109536",
    "geocoded_column": {
      "latitude": "29.978539135109536",
      "longitude": "-90.0600807982313"
    }
  },
  {
    "service_request": "2025-1195476",
    "request_type": "Health Related Request",
    "request_reason": "Homeless Encampment Complaint",
    "date_created": "2025-05-27T14:52:57.000",
    "date_modified": "2025-05-27T14:52:59.000",
    "request_status": "Pending",
    "responsible_agency": "Health Department",
    "final_address": "520 Spain St",
    "address_councildis": "C",
    "status": "Pending",
    "rowid": "1195476",
    "final_x": "3686263.78543",
    "final_y": "534432.001285",
    "longitude": "-90.05292528599",
    "latitude": "29.963357183239463",
    "geocoded_column": {
      "latitude": "29.963357183239463",
      "longitude": "-90.05292528599"
    }
  },
  {
    "service_request": "2025-1195475",
    "request_type": "Property Maintenance",
    "request_reason": "Property Maintenance",
    "date_created": "2025-05-27T14:46:49.000",
    "date_modified": "2025-05-27T15:24:51.000",
    "case_close_date": "2025-05-27T10:24:50.000",
    "request_status": "Closed",
    "responsible_agency": "Department of Code Enforcement",
    "final_address": "4819 Camelia St",
    "address_councildis": "E",
    "status": "Referred to Code Enforcement",
    "rowid": "1195475",
    "final_x": "3701580.12119",
    "final_y": "554646.31772",
    "longitude": "-90.00381767267326",
    "latitude": "30.018459571058305",
    "geocoded_column": {
      "latitude": "30.018459571058305",
      "longitude": "-90.00381767267326"
    }
  },
  {
    "service_request": "2025-1195474",
    "request_type": "Trash/Recycling",
    "request_reason": "Dead Animal Pick Up",
    "date_created": "2025-05-27T14:46:39.000",
    "date_modified": "2025-05-27T14:46:41.000",
    "request_status": "Pending",
    "responsible_agency": "Department of Sanitation",
    "final_address": "5309 Wingate Dr",
    "address_councildis": "D",
    "status": "Assigned to Contractor",
    "contractor": "IV Waste",
    "rowid": "1195474",
    "final_x": "3681466.46927",
    "final_y": "552375.108374",
    "longitude": "-90.06744867946254",
    "latitude": "30.012840939074025",
    "geocoded_column": {
      "latitude": "30.012840939074025",
      "longitude": "-90.06744867946254"
    }
  },
  {
    "service_request": "2025-1195473",
    "request_type": "Parks & Parkways",
    "request_reason": "Request Tree Service (Right of Way/Public Property)",
    "date_created": "2025-05-27T14:46:01.000",
    "date_modified": "2025-05-27T14:46:03.000",
    "request_status": "Pending",
    "responsible_agency": "Department of Parks & Parkway",
    "final_address": "6052 Canal Blvd",
    "address_councildis": "A",
    "status": "Pending",
    "rowid": "1195473",
    "final_x": "3668390.52782",
    "final_y": "547782.911186",
    "longitude": "-90.10891670659126",
    "latitude": "30.00060472721618",
    "geocoded_column": {
      "latitude": "30.00060472721618",
      "longitude": "-90.10891670659126"
    }
  },
  {
    "service_request": "2025-1195472",
    "request_type": "Trash/Recycling",
    "request_reason": "Request a Large Item Pick Up",
    "date_created": "2025-05-27T14:40:13.000",
    "date_modified": "2025-05-27T16:15:20.000",
    "request_status": "Pending",
    "responsible_agency": "Department of Sanitation",
    "final_address": "2531 Chartres St",
    "address_councildis": "C",
    "status": "Assigned to Contractor",
    "contractor": "IV Waste",
    "rowid": "1195472",
    "final_x": "3686533.86082",
    "final_y": "534652.270214",
    "longitude": "-90.05206464192453",
    "latitude": "29.963954545436522",
    "geocoded_column": {
      "latitude": "29.963954545436522",
      "longitude": "-90.05206464192453"
    }
  },
  {
    "service_request": "2025-1195471",
    "request_type": "Property Maintenance",
    "request_reason": "Property Maintenance",
    "date_created": "2025-05-27T14:40:10.000",
    "date_modified": "2025-05-27T14:40:12.000",
    "request_status": "Pending",
    "responsible_agency": "Department of Code Enforcement",
    "final_address": "2074 Florida Ave",
    "address_councildis": "D",
    "status": "Pending",
    "rowid": "1195471",
    "final_x": "3683636.32745",
    "final_y": "542659.627149",
    "longitude": "-90.06093397800102",
    "latitude": "29.986060756766904",
    "geocoded_column": {
      "latitude": "29.986060756766904",
      "longitude": "-90.06093397800102"
    }
  },
  {
    "service_request": "2025-1195470",
    "request_type": "Property Maintenance",
    "request_reason": "Property Maintenance",
    "date_created": "2025-05-27T14:40:09.000",
    "date_modified": "2025-05-27T14:40:12.000",
    "request_status": "Pending",
    "responsible_agency": "Department of Code Enforcement",
    "final_address": "2074 Florida Ave",
    "address_councildis": "D",
    "status": "Pending",
    "rowid": "1195470",
    "final_x": "3683636.32745",
    "final_y": "542659.627149",
    "longitude": "-90.06093397800102",
    "latitude": "29.986060756766904",
    "geocoded_column": {
      "latitude": "29.986060756766904",
      "longitude": "-90.06093397800102"
    }
  },
  {
    "service_request": "2025-1195469",
    "request_type": "Trash/Recycling",
    "request_reason": "Replace Trash Cart",
    "date_created": "2025-05-27T14:37:43.000",
    "date_modified": "2025-05-27T14:37:44.000",
    "request_status": "Pending",
    "responsible_agency": "Department of Sanitation",
    "final_address": "5228 St Claude Ave",
    "address_councildis": "E",
    "status": "Assigned to Contractor",
    "contractor": "Waste Pro",
    "rowid": "1195469",
    "final_x": "3696741.69296",
    "final_y": "534020.491653",
    "longitude": "-90.0198522956865",
    "latitude": "29.961899576287284",
    "geocoded_column": {
      "latitude": "29.961899576287284",
      "longitude": "-90.0198522956865"
    }
  },