[
  {
    "service_request": "2024-1154348",
    "request_type": "Trash/Recycling",
    "request_reason": "Request a Large Item Pick Up",
    "date_created": "2024-12-10T23:54:31.000",
    "date_modified": "2024-12-10T23:54:32.000",
    "request_status": "Pending",
    "responsible_agency": "Department of Sanitation",
    "final_address": "6976 Queensway Dr",
    "address_councildis": "E",
    "status": "Assigned to Contractor",
    "contractor": "Waste Pro",
    "rowid": "1154348",
    "final_x": "3719385.12825",
    "final_y": "569112.702886",
    "longitude": "-89.94700808399703",
    "latitude": "30.05765617913999",
    "geocoded_column": {
      "latitude": "30.05765617913999",
      "longitude": "-89.94700808399703"
    }
  },
  {
    "service_request": "2024-1154347",
    "request_type": "Trash/Recycling",
    "request_reason": "Order Second Trash Cart",
    "date_created": "2024-12-10T23:03:04.000",
    "date_modified": "2024-12-10T23:03:05.000",
    "request_status": "Pending",
    "responsible_agency": "Department of Sanitation",
    "final_address": "111 Oakmont Dr",
    "address_councildis": "E",
    "status": "Assigned to Contractor",
    "contractor": "Waste Pro",
    "rowid": "1154347",
    "final_x": "3719610.51122",
    "final_y": "563317.754208",
    "longitude": "-89.94651737751344",
    "latitude": "30.041714960342556",
    "geocoded_column": {
      "latitude": "30.041714960342556",
      "longitude": "-89.94651737751344"
    }
  },
  {
    "service_request": "2024-1154346",
    "request_type": "Trash/Recycling",
    "request_reason": "Request a Large Item Pick Up",
    "date_created": "2024-12-10T22:32:47.000",
    "date_modified": "2024-12-10T22:32:48.000",
    "request_status": "Pending",
    "responsible_agency": "Department of Sanitation",
    "final_address": "4700 Cardenas Dr",
    "address_councildis": "E",
    "status": "Assigned to Contractor",
    "contractor": "Waste Pro",
    "rowid": "1154346",
    "final_x": "3713644.22271",
    "final_y": "556044.230809",
    "longitude": "-89.965647228498",
    "latitude": "30.021912872819005",
    "geocoded_column": {
      "latitude": "30.021912872819005",
      "longitude": "-89.965647228498"
    }
  },
  {
    "service_request": "2024-1154345",
    "request_type": "Trash/Recycling",
    "request_reason": "Order Recycling Cart",
    "date_created": "2024-12-10T22:24:10.000",
    "date_modified": "2024-12-10T22:24:10.000",
    "request_status": "Pending",
    "responsible_agency": "Department of Sanitation",
    "final_address": "2835 General Pershing St",
    "address_councildis": "B",
    "status": "Pending",
    "rowid": "1154345",
    "final_x": "3670853.54836",
    "final_y": "525399.865789",
    "longitude": "-90.10189575560553",
    "latitude": "29.938986273948863",
    "geocoded_column": {
      "latitude": "29.938986273948863",
      "longitude": "-90.10189575560553"
    }
  },
  {
    "service_request": "2024-1154344",
    "request_type": "Trash/Recycling",
    "request_reason": "Replace Recycling Cart",
    "date_created": "2024-12-10T22:18:08.000",
    "date_modified": "2024-12-10T22:18:08.000",
    "request_status": "Pending",
    "responsible_agency": "Department of Sanitation",
    "final_address": "921 Desire St",
    "address_councildis": "C",
    "status": "Pending",
    "rowid": "1154344",
    "final_x": "3690057.44809",
    "final_y": "535079.251014",
    "longitude": "-90.0409223076342",
    "latitude": "29.965019785158553",
    "geocoded_column": {
      "latitude": "29.965019785158553",
      "longitude": "-90.0409223076342"
    }
  },
  {
    "service_request": "2024-1154343",
    "request_type": "Alley Ways",
    "request_reason": "Alley Way Regrading",
    "date_created": "2024-12-10T22:04:25.000",
    "date_modified": "2024-12-10T22:04:25.000",
    "request_status": "Pending",
    "responsible_agency": "Department of Public Works",
    "final_address": "4308 Perlita St",
    "address_councildis": "D",
    "status": "Pending",
    "rowid": "1154343",
    "final_x": "3678747.16443",
    "final_y": "548177.430162",
    "longitude": "-90.07618571007973",
    "latitude": "30.001381149697163",
    "geocoded_column": {
      "latitude": "30.001381149697163",
      "longitude": "-90.07618571007973"
    }
  },
  {
    "service_request": "2024-1154342",
    "request_type": "Property Maintenance",
    "request_reason": "Property Maintenance",
    "date_created": "2024-12-10T21:54:35.000",
    "date_modified": "2024-12-10T21:54:35.000",
    "request_status": "Pending",
    "responsible_agency": "Department of Code Enforcement",
    "final_address": "4327 Perlita St",
    "address_councildis": "D",
    "status": "Pending",
    "rowid": "1154342",
    "final_x": "3678902.14446",
    "final_y": "548313.873042",
    "longitude": "-90.0756913828683",
    "latitude": "30.001751642853478",
    "geocoded_column": {
      "latitude": "30.001751642853478",
      "longitude": "-90.0756913828683"
    }
  },
  {
    "service_request": "2024-1154341",
    "request_type": "Roads and Streets",
    "request_reason": "Pothole",
    "date_created": "2024-12-10T21:21:03.000",
    "date_modified": "2024-12-10T21:21:03.000",
    "request_status": "Pending",
    "responsible_agency": "Department of Public Works",
    "final_address": "2421 Governor Nicholls St",
    "address_councildis": "D",
    "status": "Pending",
    "rowid": "1154341",
    "final_x": "3678785.25256",
    "final_y": "537725.29812",
    "longitude": "-90.07642758394398",
    "latitude": "29.972640288857633",
    "geocoded_column": {
      "latitude": "29.972640288857633",
      "longitude": "-90.07642758394398"
    }
  },
  {
    "service_request": "2024-1154340",
    "request_type": "Trash/Recycling",
    "request_reason": "Order Trash Cart",
    "date_created": "2024-12-10T21:17:51.000",
    "date_modified": "2024-12-10T21:17:53.000",
    "request_status": "Pending",
    "responsible_agency": "Department of Sanitation",
    "final_address": "1206 N Tonti St",
    "address_councildis": "D",
    "status": "Assigned to Contractor",
    "contractor": "IV Waste",
    "rowid": "1154340",
    "final_x": "3678997.23125",
    "final_y": "537619.582216",
    "longitude": "-90.07576178077747",
    "latitude": "29.972343211091182",
    "geocoded_column": {
      "latitude": "29.972343211091182",
      "longitude": "-90.07576178077747"
    }
  },
  {
    "service_request": "2024-1154339",
    "request_type": "Trash/Recycling",
    "request_reason": "Replace Trash Cart",
    "date_created": "2024-12-10T20:49:30.000",
    "date_modified": "2024-12-10T20:49:31.000",
    "request_status": "Pending",
    "responsible_agency": "Department of Sanitation",
    "final_address": "4118 S Johnson St",
    "address_councildis": "B",
    "status": "Assigned to Contractor",
    "contractor": "IV Waste",
    "rowid": "1154339",
    "final_x": "3671084.71425",
    "final_y": "527249.438079",
    "longitude": "-90.10110314020402",
    "latitude": "29.944065163089938",
    "geocoded_column": {
      "latitude": "29.944065163089938",
      "longitude": "-90.10110314020402"
    }
  },
  {
    "service_request": "2024-1154338",
    "request_type": "Trash/Recycling",
    "request_reason": "Replace Trash Cart",
    "date_created": "2024-12-10T20:41:30.000",
    "date_modified": "2024-12-10T20:41:31.000",
    "request_status": "Pending",
    "responsible_agency": "Department of Sanitation",
    "final_address": "2670 Acacia St NO, La 70122",
    "status": "Assigned to Contractor",
    "rowid": "1154338",
    "longitude": "0.0",
    "latitude": "0.0",
    "geocoded_column": {
      "latitude": "0.0",
      "longitude": "0.0"
    }
  },
  {
    "service_request": "2024-1154337",
    "request_type": "Streetlights",
    "request_reason": "Streetlight Outage/Malfunction",
    "date_created": "2024-12-10T20:25:36.000",
    "date_modified": "2024-12-10T20:25:37.000",
    "request_status": "Pending",
    "responsible_agency": "Department of Public Works",
    "final_address": "1145 Allen Toussaint Blvd",
    "address_councildis": "D",
    "status": "Pending",
    "contractor": "Legacy Professional Services",
    "rowid": "1154337",
    "final_x": "3675216.48584",
    "final_y": "555046.002393",
    "longitude": "-90.08710346819636",
    "latitude": "30.020373314416688",
    "geocoded_column": {
      "latitude": "30.020373314416688",
      "longitude": "-90.08710346819636"
    }
  },
  {
    "service_request": "2024-1154336",
    "request_type": "Trash/Recycling",
    "request_reason": "Request a Large Item Pick Up",
    "date_created": "2024-12-10T20:02:42.000",
    "date_modified": "2024-12-10T20:02:43.000",
    "request_status": "Pending",
    "responsible_agency": "Department of Sanitation",
    "final_address": "4603 Arts St",
    "address_councildis": "D",
    "status": "Assigned to Contractor",
    "contractor": "IV Waste",
    "rowid": "1154336",
    "final_x": "3686075.61398",
    "final_y": "549639.599188",
    "longitude": "-90.05298289541811",
    "latitude": "30.00517846870325",
    "geocoded_column": {
      "latitude": "30.00517846870325",
      "longitude": "-90.05298289541811"
    }
  },
  {
    "service_request": "2024-1154335",
    "request_type": "Trash/Recycling",
    "request_reason": "Replace Trash Cart",
    "date_created": "2024-12-10T19:36:33.000",
    "date_modified": "2024-12-10T19:36:34.000",
    "request_status": "Pending",
    "responsible_agency": "Department of Sanitation",
    "final_address": "5001 N Villere St",
    "address_councildis": "E",
    "status": "Assigned to Contractor",
    "contractor": "Waste Pro",
    "rowid": "1154335",
    "final_x": "3696343.40099",
    "final_y": "535440.888646",
    "longitude": "-90.02105866347011",
    "latitude": "29.96581771173045",
    "geocoded_column": {
      "latitude": "29.96581771173045",
      "longitude": "-90.02105866347011"
    }
  },
  {
    "service_request": "2024-1154334",
    "request_type": "Street and Traffic Signs",
    "request_reason": "Street Name Sign Damaged or Missing",
    "date_created": "2024-12-10T19:33:11.000",
    "date_modified": "2024-12-10T19:33:11.000",
    "request_status": "Pending",
    "responsible_agency": "Department of Public Works",
    "final_address": "2301 Jackson Ave",
    "address_councildis": "B",
    "status": "Pending",
    "rowid": "1154334",
    "final_x": "3675823.36411",
    "final_y": "526111.03891",
    "longitude": "-90.08618100900414",
    "latitude": "29.94079396889815",
    "geocoded_column": {
      "latitude": "29.94079396889815",
      "longitude": "-90.08618100900414"
    }
  },
  {
    "service_request": "2024-1154333",
    "request_type": "Trash/Recycling",
    "request_reason": "Replace Trash Cart",
    "date_created": "2024-12-10T19:32:55.000",
    "date_modified": "2024-12-10T19:32:56.000",
    "request_status": "Pending",
    "responsible_agency": "Department of Sanitation",
    "final_address": "5001 N Villere St",
    "address_councildis": "E",
    "status": "Assigned to Contractor",
    "contractor": "Waste Pro",
    "rowid": "1154333",
    "final_x": "3696343.40099",
    "final_y": "535440.888646",
    "longitude": "-90.02105866347011",
    "latitude": "29.96581771173045",
    "geocoded_column": {
      "latitude": "29.96581771173045",
      "longitude": "-90.02105866347011"
    }
  },
  {
    "service_request": "2024-1154332",
    "request_type": "Trash/Recycling",
    "request_reason": "Order Trash Cart",
    "date_created": "2024-12-10T18:55:54.000",
    "date_modified": "2024-12-10T18:55:55.000",
    "request_status": "Pending",
    "responsible_agency": "Department of Sanitation",
    "final_address": "2403 Felicity St",
    "address_councildis": "B",
    "status": "Assigned to Contractor",
    "contractor": "IV Waste",
    "rowid": "1154332",
    "final_x": "3676138.93998",
    "final_y": "526972.010238",
    "longitude": "-90.0851550698029",
    "latitude": "29.94315190805746",
    "geocoded_column": {
      "latitude": "29.94315190805746",
      "longitude": "-90.0851550698029"
    }
  },
  {
    "service_request": "2024-1154331",
    "request_type": "Trash/Recycling",
    "request_reason": "Repair Trash Cart",
    "date_created": "2024-12-10T18:50:30.000",
    "date_modified": "2024-12-10T18:50:31.000",
    "request_status": "Pending",
    "responsible_agency": "Department of Sanitation",
    "final_address": "4128 Burgundy St",
    "address_councildis": "C",
    "status": "Assigned to Contractor",
    "contractor": "IV Waste",
    "rowid": "1154331",
    "final_x": "3692155.4472",
    "final_y": "534348.193541",
    "longitude": "-90.03432314838962",
    "latitude": "29.962944400312367",
    "geocoded_column": {
      "latitude": "29.962944400312367",
      "longitude": "-90.03432314838962"
    }
  },
  {
    "service_request": "2024-1154330",
    "request_type": "Trash/Recycling",
    "request_reason": "Order Trash Cart",
    "date_created": "2024-12-10T18:47:20.000",
    "date_modified": "2024-12-10T18:47:21.000",
    "request_status": "Pending",
    "responsible_agency": "Department of Sanitation",
    "final_address": "4651 St Roch Ave",
    "address_councildis": "D",
    "status": "Assigned to Contractor",
    "contractor": "IV Waste",
    "rowid": "1154330",
    "final_x": "3685464.43983",
    "final_y": "549984.31266",
    "longitude": "-90.05490157047741",
    "latitude": "30.006145069403953",
    "geocoded_column": {
      "latitude": "30.006145069403953",
      "longitude": "-90.05490157047741"
    }
  },
  {
    "service_request": "2024-1154329",
    "request_type": "Trash/Recycling",
    "request_reason": "Replace Recycling Cart",
    "date_created": "2024-12-10T18:41:52.000",
    "date_modified": "2024-12-10T18:41:52.000",
    "request_status": "Pending",
    "responsible_agency": "Department of Sanitation",
    "final_address": "3028 Dryades St",
    "address_councildis": "B",
    "status": "Pending",
    "rowid": "1154329",
    "final_x": "3674477.77915",
    "final_y": "522845.646011",
    "longitude": "-90.09054107921492",
    "latitude": "29.931855405100535",
    "geocoded_column": {
      "latitude": "29.931855405100535",
      "longitude": "-90.09054107921492"
    }
  },
  {
    "service_request": "2024-1154328",
    "request_type": "Traffic Signals",
    "request_reason": "Traffic Signal Malfunctioning or Damaged",
    "date_created": "2024-12-10T18:23:21.000",
    "date_modified": "2024-12-10T18:23:21.000",
    "request_status": "Pending",
    "responsible_agency": "Department of Public Works",
    "final_address": "FRANKLIN AVE & LEON C SIMON DR",
    "address_councildis": "D",
    "status": "Pending",
    "rowid": "1154328",
    "final_x": "3686215.6",
    "final_y": "557350.08",
    "longitude": "-90.05226831351399",
    "latitude": "30.026375154078544",
    "geocoded_column": {
      "latitude": "30.026375154078544",
      "longitude": "-90.05226831351399"
    }
  },
  {
    "service_request": "2024-1154327",
    "request_type": "Streetlights",
    "request_reason": "Streetlight Outage/Malfunction",
    "date_created": "2024-12-10T18:00:33.000",
    "date_modified": "2024-12-10T18:00:34.000",
    "request_status": "Pending",
    "responsible_agency": "Department of Public Works",
    "final_address": "5629 Tullis Dr",
    "address_councildis": "C",
    "status": "Pending",
    "contractor": "Legacy Professional Services",
    "rowid": "1154327",
    "final_x": "3704944.87723",
    "final_y": "512294.506609",
    "longitude": "-89.9947496127629",
    "latitude": "29.901899624139023",
    "geocoded_column": {
      "latitude": "29.901899624139023",
      "longitude": "-89.9947496127629"
    }
  },
  {
    "service_request": "2024-1154326",
    "request_type": "Traffic Signals",
    "request_reason": "Traffic Signal Malfunctioning or Damaged",
    "date_created": "2024-12-10T17:49:40.000",
    "date_modified": "2024-12-10T17:49:40.000",
    "request_status": "Pending",
    "responsible_agency": "Department of Public Works",
    "final_address": "CANAL ST & DAUPHINE ST & BARONNE ST",
    "address_councildis": "B",
    "status": "Pending",
    "rowid": "1154326",
    "final_x": "3680578.5",
    "final_y": "531065.88",
    "longitude": "-90.07099588286549",
    "latitude": "29.954274953103273",
    "geocoded_column": {
      "latitude": "29.954274953103273",
      "longitude": "-90.07099588286549"
    }
  },
  {
    "service_request": "2024-1154325",
    "request_type": "Trash/Recycling",
    "request_reason": "Missed Trash Pick-Up",
    "date_created": "2024-12-10T17:18:19.000",
    "date_modified": "2024-12-10T17:18:20.000",
    "request_status": "Pending",
    "responsible_agency": "Department of Sanitation",
    "final_address": "8502 Hayne Blvd",
    "address_councildis": "E",
    "status": "Assigned to Contractor",
    "contractor": "Waste Pro",
    "rowid": "1154325",
    "final_x": "3703262.60836",
    "final_y": "563464.379168",
    "longitude": "-89.99817701910673",
    "latitude": "30.042652024964585",
    "geocoded_column": {
      "latitude": "30.042652024964585",
      "longitude": "-89.99817701910673"
    }
  },
  {
    "service_request": "2024-1154324",
    "request_type": "Property Maintenance",
    "request_reason": "Property Maintenance",
    "date_created": "2024-12-10T17:12:08.000",
    "date_modified": "2024-12-10T17:12:08.000",
    "request_status": "Pending",
    "responsible_agency": "Department of Code Enforcement",
    "final_address": "3019 Martin Luther King, Jr. Blvd",
    "address_councildis": "B",
    "status": "Pending",
    "rowid": "1154324",
    "final_x": "3674941.87841",
    "final_y": "528308.661248",
    "longitude": "-90.08888866350759",
    "latitude": "29.946863058356012",
    "geocoded_column": {
      "latitude": "29.946863058356012",
      "longitude": "-90.08888866350759"
    }
  },
  {
    "service_request": "2024-1154323",
    "request_type": "Roads and Streets",
    "request_reason": "Sidewalk Damaged or Missing",
    "date_created": "2024-12-10T16:57:50.000",
    "date_modified": "2024-12-10T16:57:50.000",
    "request_status": "Pending",
    "responsible_agency": "Department of Public Works",
    "final_address": "1499 Pressburg St",
    "address_councildis": "D",
    "status": "Pending",
    "rowid": "1154323",
    "final_x": "3678302.82235",
    "final_y": "554108.0134",
    "longitude": "-90.0773840719837",
    "latitude": "30.017701525458456",
    "geocoded_column": {
      "latitude": "30.017701525458456",
      "longitude": "-90.0773840719837"
    }
  },
  {
    "service_request": "2024-1154322",
    "request_type": "Roads and Streets",
    "request_reason": "Sidewalk Damaged or Missing",
    "date_created": "2024-12-10T16:55:04.000",
    "date_modified": "2024-12-10T16:55:04.000",
    "request_status": "Pending",
    "responsible_agency": "Department of Public Works",
    "final_address": "1499 Pressburg St",
    "address_councildis": "D",
    "status": "Pending",
    "rowid": "1154322",
    "final_x": "3678302.82235",
    "final_y": "554108.0134",
    "longitude": "-90.0773840719837",
    "latitude": "30.017701525458456",
    "geocoded_column": {
      "latitude": "30.017701525458456",
      "longitude": "-90.0773840719837"
    }
  },
  {
    "service_request": "2024-1154321",
    "request_type": "Trash/Recycling",
    "request_reason": "Order Second Trash Cart",
    "date_created": "2024-12-10T16:50:22.000",
    "date_modified": "2024-12-10T16:50:24.000",
    "request_status": "Pending",
    "responsible_agency": "Department of Sanitation",
    "final_address": "7034 Read Ln",
    "address_councildis": "E",
    "status": "Assigned to Contractor",
    "contractor": "Waste Pro",
    "rowid": "1154321",
    "final_x": "3710099.90769",
    "final_y": "562417.383647",
    "longitude": "-89.97660780691567",
    "latitude": "30.039552372190695",
    "geocoded_column": {
      "latitude": "30.039552372190695",
      "longitude": "-89.97660780691567"
    }
  },
  {
    "service_request": "2024-1154320",
    "request_type": "Trash/Recycling",
    "request_reason": "Request a Large Item Pick Up",
    "date_created": "2024-12-10T16:48:45.000",
    "date_modified": "2024-12-10T16:48:47.000",
    "request_status": "Pending",
    "responsible_agency": "Department of Sanitation",
    "final_address": "7001 Lake Barrington Dr",
    "address_councildis": "E",
    "status": "Assigned to Contractor",
    "contractor": "Waste Pro",
    "rowid": "1154320",
    "final_x": "3712743.78283",
    "final_y": "563885.840353",
    "longitude": "-89.96819716291857",
    "latitude": "30.043503696406454",
    "geocoded_column": {
      "latitude": "30.043503696406454",
      "longitude": "-89.96819716291857"
    }
  },
  {
    "service_request": "2024-1154319",
    "request_type": "Trash/Recycling",
    "request_reason": "Request a Large Item Pick Up",
    "date_created": "2024-12-10T16:32:48.000",
    "date_modified": "2024-12-10T16:32:49.000",
    "request_status": "Pending",
    "responsible_agency": "Department of Sanitation",
    "final_address": "710 General Pershing St",
    "address_councildis": "B",
    "status": "Assigned to Contractor",
    "contractor": "IV Waste",
    "rowid": "1154319",
    "final_x": "3671460.42913",
    "final_y": "518209.762934",
    "longitude": "-90.10022404597879",
    "latitude": "29.91919785118563",
    "geocoded_column": {
      "latitude": "29.91919785118563",
      "longitude": "-90.10022404597879"
    }
  },
  {
    "service_request": "2024-1154318",
    "request_type": "Abandoned Vehicles",
    "request_reason": "Abandoned/Junk Vehicles",
    "date_created": "2024-12-10T16:30:57.000",
    "date_modified": "2024-12-10T16:30:57.000",
    "request_status": "Pending",
    "responsible_agency": "Department of Public Works",
    "final_address": "4700 BLK Conti St",
    "address_councildis": "A",
    "status": "Pending",
    "rowid": "1154318",
    "final_x": "3669675.47295",
    "final_y": "540888.272998",
    "longitude": "-90.10509093591918",
    "latitude": "29.981609023685827",
    "geocoded_column": {
      "latitude": "29.981609023685827",
      "longitude": "-90.10509093591918"
    }
  },
  {
    "service_request": "2024-1154317",
    "request_type": "Trash/Recycling",
    "request_reason": "Request a Large Item Pick Up",
    "date_created": "2024-12-10T16:26:57.000",
    "date_modified": "2024-12-10T16:26:58.000",
    "request_status": "Pending",
    "responsible_agency": "Department of Sanitation",
    "final_address": "4934 Arthur Dr",
    "address_councildis": "E",
    "status": "Assigned to Contractor",
    "contractor": "Waste Pro",
    "rowid": "1154317",
    "final_x": "3707498.89912",
    "final_y": "556724.41481",
    "longitude": "-89.98503940895823",
    "latitude": "30.023983370575436",
    "geocoded_column": {
      "latitude": "30.023983370575436",
      "longitude": "-89.98503940895823"
    }
  },
  {
    "service_request": "2024-1154316",
    "request_type": "Streetlights",
    "request_reason": "Streetlight Outage/Malfunction",
    "date_created": "2024-12-10T16:26:05.000",
    "date_modified": "2024-12-10T16:26:06.000",
    "request_status": "Pending",
    "responsible_agency": "Department of Public Works",
    "final_address": "PLUM ST & BURDETTE ST",
    "address_councildis": "A",
    "status": "Pending",
    "contractor": "Legacy Professional Services",
    "rowid": "1154316",
    "final_x": "3663030.8",
    "final_y": "527875.38",
    "longitude": "-90.12651089614832",
    "latitude": "29.946021998345326",
    "geocoded_column": {
      "latitude": "29.946021998345326",
      "longitude": "-90.12651089614832"
    }
  },
  {
    "service_request": "2024-1154315",
    "request_type": "Trash/Recycling",
    "request_reason": "Repair Recycling Cart",
    "date_created": "2024-12-10T16:22:13.000",
    "date_modified": "2024-12-10T16:22:15.000",
    "request_status": "Pending",
    "responsible_agency": "Department of Sanitation",
    "final_address": "2228 Halsey Ave",
    "address_councildis": "C",
    "status": "Pending",
    "rowid": "1154315",
    "final_x": "3697783.31408",
    "final_y": "522771.625082",
    "longitude": "-90.01697112307852",
    "latitude": "29.930936253041043",
    "geocoded_column": {
      "latitude": "29.930936253041043",
      "longitude": "-90.01697112307852"
    }
  },
  {
    "service_request": "2024-1154314",
    "request_type": "Roads and Streets",
    "request_reason": "Street Subsidence (Sinking)",
    "date_created": "2024-12-10T16:19:43.000",
    "date_modified": "2024-12-10T16:19:44.000",
    "request_status": "Pending",
    "responsible_agency": "Department of Public Works",
    "final_address": "2500 S Miro St",
    "address_councildis": "B",
    "status": "Pending",
    "rowid": "1154314",
    "final_x": "3672798.63348",
    "final_y": "528883.825408",
    "longitude": "-90.09563607098806",
    "latitude": "29.948508400047967",
    "geocoded_column": {
      "latitude": "29.948508400047967",
      "longitude": "-90.09563607098806"
    }
  },
  {
    "service_request": "2024-1154313",
    "request_type": "Trash/Recycling",
    "request_reason": "Repair Trash Cart",
    "date_created": "2024-12-10T16:13:16.000",
    "date_modified": "2024-12-10T16:13:44.000",
    "request_status": "Pending",
    "responsible_agency": "Department of Sanitation",
    "final_address": "2680 Hyman Pl",
    "address_councildis": "C",
    "status": "Assigned to Contractor",
    "contractor": "Richards Disposal",
    "rowid": "1154313",
    "final_x": "3701095.7873",
    "final_y": "521007.919225",
    "longitude": "-90.00657863843114",
    "latitude": "29.92598161961801",
    "geocoded_column": {
      "latitude": "29.92598161961801",
      "longitude": "-90.00657863843114"
    }
  },
  {
    "service_request": "2024-1154312",
    "request_type": "Streetlights",
    "request_reason": "Streetlight Outage/Malfunction",
    "date_created": "2024-12-10T16:13:12.000",
    "date_modified": "2024-12-10T16:13:13.000",
    "request_status": "Pending",
    "responsible_agency": "Department of Public Works",
    "final_address": "862 Tchoupitoulas St",
    "address_councildis": "B",
    "status": "Pending",
    "contractor": "Legacy Professional Services",
    "rowid": "1154312",
    "final_x": "3681747.78236",
    "final_y": "527183.379007",
    "longitude": "-90.0674391966466",
    "latitude": "29.943563911008287",
    "geocoded_column": {
      "latitude": "29.943563911008287",
      "longitude": "-90.0674391966466"
    }
  },
  {
    "service_request": "2024-1154311",
    "request_type": "Property Maintenance",
    "request_reason": "Property Maintenance",
    "date_created": "2024-12-10T16:12:20.000",
    "date_modified": "2024-12-10T16:12:20.000",
    "request_status": "Pending",
    "responsible_agency": "Department of Code Enforcement",
    "final_address": "1643 Josephine St",
    "address_councildis": "B",
    "status": "Pending",
    "rowid": "1154311",
    "final_x": "3677727.88078",
    "final_y": "524249.059196",
    "longitude": "-90.08023240309207",
    "latitude": "29.93561700255386",
    "geocoded_column": {
      "latitude": "29.93561700255386",
      "longitude": "-90.08023240309207"
    }
  },
  {
    "service_request": "2024-1154310",
    "request_type": "Trash/Recycling",
    "request_reason": "Request a Large Item Pick Up",
    "date_created": "2024-12-10T16:11:48.000",
    "date_modified": "2024-12-10T16:12:43.000",
    "request_status": "Pending",
    "responsible_agency": "Department of Sanitation",
    "final_address": "2680 Hyman Pl",
    "address_councildis": "C",
    "status": "Assigned to Contractor",
    "contractor": "Richards Disposal",
    "rowid": "1154310",
    "final_x": "3701095.7873",
    "final_y": "521007.919225",
    "longitude": "-90.00657863843114",
    "latitude": "29.92598161961801",
    "geocoded_column": {
      "latitude": "29.92598161961801",
      "longitude": "-90.00657863843114"
    }
  },
  {
    "service_request": "2024-1154309",
    "request_type": "Traffic Signals",
    "request_reason": "Traffic Signal Malfunctioning or Damaged",
    "date_created": "2024-12-10T16:05:07.000",
    "date_modified": "2024-12-10T16:05:08.000",
    "request_status": "Pending",
    "responsible_agency": "Department of Public Works",
    "final_address": "FRANKLIN AVE & LEON C SIMON DR",
    "address_councildis": "D",
    "status": "Pending",
    "rowid": "1154309",
    "final_x": "3686215.6",
    "final_y": "557350.08",
    "longitude": "-90.05226831351399",
    "latitude": "30.026375154078544",
    "geocoded_column": {
      "latitude": "30.026375154078544",
      "longitude": "-90.05226831351399"
    }
  },
  {
    "service_request": "2024-1154308",
    "request_type": "Safety & Permits",
    "request_reason": "Zoning Enforcement",
    "date_created": "2024-12-10T16:01:15.000",
    "date_modified": "2024-12-10T16:01:16.000",
    "request_status": "Pending",
    "responsible_agency": "Safety and Permits",
    "final_address": "2812 Bruxelles St",
    "address_councildis": "D",
    "status": "Pending",
    "rowid": "1154308",
    "final_x": "3680272.96898",
    "final_y": "542748.525197",
    "longitude": "-90.07155441117847",
    "latitude": "29.986407461682838",
    "geocoded_column": {
      "latitude": "29.986407461682838",
      "longitude": "-90.07155441117847"
    }
  },
  {
    "service_request": "2024-1154307",
    "request_type": "Streetlights",
    "request_reason": "Streetlight Outage/Malfunction",
    "date_created": "2024-12-10T15:55:55.000",
    "date_modified": "2024-12-10T15:55:57.000",
    "request_status": "Pending",
    "responsible_agency": "Department of Public Works",
    "final_address": "420 Bellaire Dr",
    "address_councildis": "A",
    "status": "Pending",
    "contractor": "Legacy Professional Services",
    "rowid": "1154307",
    "final_x": "3663916.24877",
    "final_y": "542395.838541",
    "longitude": "-90.1232310479418",
    "latitude": "29.985922812633323",
    "geocoded_column": {
      "latitude": "29.985922812633323",
      "longitude": "-90.1232310479418"
    }
  },
  {
    "service_request": "2024-1154306",
    "request_type": "Trash/Recycling",
    "request_reason": "Request a Large Item Pick Up",
    "date_created": "2024-12-10T15:54:06.000",
    "date_modified": "2024-12-10T15:54:07.000",
    "request_status": "Pending",
    "responsible_agency": "Department of Sanitation",
    "final_address": "5807 Alfred St",
    "address_councildis": "D",
    "status": "Assigned to Contractor",
    "contractor": "IV Waste",
    "rowid": "1154306",
    "final_x": "3677281.35458",
    "final_y": "553843.401431",
    "longitude": "-90.0806206535387",
    "latitude": "30.017004684118472",
    "geocoded_column": {
      "latitude": "30.017004684118472",
      "longitude": "-90.0806206535387"
    }
  },
  {
    "service_request": "2024-1154305",
    "request_type": "Trash/Recycling",
    "request_reason": "Return Recycling Cart",
    "date_created": "2024-12-10T15:47:21.000",
    "date_modified": "2024-12-10T15:47:21.000",
    "request_status": "Pending",
    "responsible_agency": "Department of Sanitation",
    "final_address": "818 Toledano St",
    "address_councildis": "B",
    "status": "Pending",
    "rowid": "1154305",
    "final_x": "3675744.71265",
    "final_y": "518889.313655",
    "longitude": "-90.08667738879039",
    "latitude": "29.920938926103634",
    "geocoded_column": {
      "latitude": "29.920938926103634",
      "longitude": "-90.08667738879039"
    }
  },
  {
    "service_request": "2024-1154304",
    "request_type": "Roads and Streets",
    "request_reason": "Sidewalk Damaged or Missing",
    "date_created": "2024-12-10T15:41:54.000",
    "date_modified": "2024-12-10T15:41:54.000",
    "request_status": "Pending",
    "responsible_agency": "Department of Public Works",
    "final_address": "225 Decatur St",
    "address_councildis": "C",
    "status": "Pending",
    "rowid": "1154304",
    "final_x": "3682151.08552",
    "final_y": "530732.09709",
    "longitude": "-90.06604194590034",
    "latitude": "29.953309432481966",
    "geocoded_column": {
      "latitude": "29.953309432481966",
      "longitude": "-90.06604194590034"
    }
  },
  {
    "service_request": "2024-1154303",
    "request_type": "Trash/Recycling",
    "request_reason": "Replace Trash Cart",
    "date_created": "2024-12-10T15:41:22.000",
    "date_modified": "2024-12-10T15:41:23.000",
    "request_status": "Pending",
    "responsible_agency": "Department of Sanitation",
    "final_address": "230 S Telemachus St",
    "address_councildis": "B",
    "status": "Assigned to Contractor",
    "contractor": "IV Waste",
    "rowid": "1154303",
    "final_x": "3672022.10164",
    "final_y": "536831.011784",
    "longitude": "-90.09781734839905",
    "latitude": "29.970383558768784",
    "geocoded_column": {
      "latitude": "29.970383558768784",
      "longitude": "-90.09781734839905"
    }
  },
  {
    "service_request": "2024-1154302",
    "request_type": "Abandoned Vehicles",
    "request_reason": "Abandoned/Junk Vehicles",
    "date_created": "2024-12-10T15:40:04.000",
    "date_modified": "2024-12-10T15:40:04.000",
    "request_status": "Pending",
    "responsible_agency": "Department of Public Works",
    "final_address": "5744 Press Dr",
    "address_councildis": "D",
    "status": "Pending",
    "rowid": "1154302",
    "final_x": "3688915.76291",
    "final_y": "554743.286872",
    "longitude": "-90.0438288358989",
    "latitude": "30.019124162549232",
    "geocoded_column": {
      "latitude": "30.019124162549232",
      "longitude": "-90.0438288358989"
    }
  },
  {
    "service_request": "2024-1154301",
    "request_type": "Trash/Recycling",
    "request_reason": "Request a Large Item Pick Up",
    "date_created": "2024-12-10T15:39:00.000",
    "date_modified": "2024-12-10T15:39:01.000",
    "request_status": "Pending",
    "responsible_agency": "Department of Sanitation",
    "final_address": "1020 Nunez St",
    "address_councildis": "C",
    "status": "Assigned to Contractor",
    "contractor": "Richards Disposal",
    "rowid": "1154301",
    "final_x": "3687009.60162",
    "final_y": "527748.141567",
    "longitude": "-90.05080633398104",
    "latitude": "29.944955926179464",
    "geocoded_column": {
      "latitude": "29.944955926179464",
      "longitude": "-90.05080633398104"
    }
  },
  {
    "service_request": "2024-1154300",
    "request_type": "Trash/Recycling",
    "request_reason": "Request a Large Item Pick Up",
    "date_created": "2024-12-10T15:38:09.000",
    "date_modified": "2024-12-10T15:38:11.000",
    "request_status": "Pending",
    "responsible_agency": "Department of Sanitation",
    "final_address": "5300 Toulon St",
    "address_councildis": "E",
    "status": "Assigned to Contractor",
    "contractor": "Waste Pro",
    "rowid": "1154300",
    "final_x": "3723472.08236",
    "final_y": "562757.60688",
    "longitude": "-89.93433516916612",
    "latitude": "30.040045712362687",
    "geocoded_column": {
      "latitude": "30.040045712362687",
      "longitude": "-89.93433516916612"
    }
  },
  {
    "service_request": "2024-1154299",
    "request_type": "Trash/Recycling",
    "request_reason": "Repair Trash Cart",
    "date_created": "2024-12-10T15:34:33.000",
    "date_modified": "2024-12-10T15:34:34.000",
    "request_status": "Pending",
    "responsible_agency": "Department of Sanitation",
    "final_address": "3314 St Ann St",
    "address_councildis": "A",
    "status": "Assigned to Contractor",
    "contractor": "IV Waste",
    "rowid": "1154299",
    "final_x": "3674769.14446",
    "final_y": "538813.143497",
    "longitude": "-90.0890738959663",
    "latitude": "29.97575201467788",
    "geocoded_column": {
      "latitude": "29.97575201467788",
      "longitude": "-90.0890738959663"
    }
  },
  {
    "service_request": "2024-1154298",
    "request_type": "Trash/Recycling",
    "request_reason": "Request a Large Item Pick Up",
    "date_created": "2024-12-10T15:33:42.000",
    "date_modified": "2024-12-10T15:33:43.000",
    "request_status": "Pending",
    "responsible_agency": "Department of Sanitation",
    "final_address": "2014 Orleans Ave",
    "address_councildis": "D",
    "status": "Assigned to Contractor",
    "contractor": "IV Waste",
    "rowid": "1154298",
    "final_x": "3678767.50402",
    "final_y": "535444.44999",
    "longitude": "-90.07656264406667",
    "latitude": "29.96636927244723",
    "geocoded_column": {
      "latitude": "29.96636927244723",
      "longitude": "-90.07656264406667"
    }
  },
  {
    "service_request": "2024-1154297",
    "request_type": "Drainage",
    "request_reason": "Catch Basin Clogged",
    "date_created": "2024-12-10T15:27:09.000",
    "date_modified": "2024-12-10T15:27:10.000",
    "request_status": "Pending",
    "responsible_agency": "Department of Public Works",
    "final_address": "5314 St Bernard Ave",
    "address_councildis": "D",
    "status": "Pending",
    "rowid": "1154297",
    "final_x": "3676618.26574",
    "final_y": "551514.786517",
    "longitude": "-90.0827960395332",
    "latitude": "30.010621745040865",
    "geocoded_column": {
      "latitude": "30.010621745040865",
      "longitude": "-90.0827960395332"
    }
  },
  {
    "service_request": "2024-1154296",
    "request_type": "Safety & Permits",
    "request_reason": "Licenses & Permits",
    "date_created": "2024-12-10T15:26:00.000",
    "date_modified": "2024-12-10T15:26:01.000",
    "request_status": "Pending",
    "responsible_agency": "Safety and Permits",
    "final_address": "5865 Louis Xiv St",
    "address_councildis": "A",
    "status": "Pending",
    "rowid": "1154296",
    "final_x": "3668066.80858",
    "final_y": "546493.167761",
    "longitude": "-90.10998286106641",
    "latitude": "29.997067885867374",
    "geocoded_column": {
      "latitude": "29.997067885867374",
      "longitude": "-90.10998286106641"
    }
  },
  {
    "service_request": "2024-1154295",
    "request_type": "Trash/Recycling",
    "request_reason": "Request a Large Item Pick Up",
    "date_created": "2024-12-10T15:23:34.000",
    "date_modified": "2024-12-10T15:23:36.000",
    "request_status": "Pending",
    "responsible_agency": "Department of Sanitation",
    "final_address": "2339 Flood St",
    "address_councildis": "E",
    "status": "Assigned to Contractor",
    "contractor": "Waste Pro",
    "rowid": "1154295",
    "final_x": "3699039.28733",
    "final_y": "538617.286921",
    "longitude": "-90.01242956227438",
    "latitude": "29.974466494208357",
    "geocoded_column": {
      "latitude": "29.974466494208357",
      "longitude": "-90.01242956227438"
    }
  },
  {
    "service_request": "2024-1154294",
    "request_type": "Trash/Recycling",
    "request_reason": "Request a Large Item Pick Up",
    "date_created": "2024-12-10T15:22:52.000",
    "date_modified": "2024-12-10T15:22:53.000",
    "request_status": "Pending",
    "responsible_agency": "Department of Sanitation",
    "final_address": "2227 Lamanche St",
    "address_councildis": "E",
    "status": "Assigned to Contractor",
    "contractor": "Waste Pro",
    "rowid": "1154294",
    "final_x": "3699562.7946",
    "final_y": "538015.507401",
    "longitude": "-90.01079814734425",
    "latitude": "29.972795213914964",
    "geocoded_column": {
      "latitude": "29.972795213914964",
      "longitude": "-90.01079814734425"
    }
  },
  {
    "service_request": "2024-1154293",
    "request_type": "Trash/Recycling",
    "request_reason": "Order Trash Cart",
    "date_created": "2024-12-10T15:22:25.000",
    "date_modified": "2024-12-10T15:22:26.000",
    "request_status": "Pending",
    "responsible_agency": "Department of Sanitation",
    "final_address": "5226 E Lemans St",
    "address_councildis": "E",
    "status": "Assigned to Contractor",
    "contractor": "Waste Pro",
    "rowid": "1154293",
    "final_x": "3727086.36326",
    "final_y": "563466.452704",
    "longitude": "-89.92288549508037",
    "latitude": "30.041872913548467",
    "geocoded_column": {
      "latitude": "30.041872913548467",
      "longitude": "-89.92288549508037"
    }
  },
  {
    "service_request": "2024-1154292",
    "request_type": "Trash/Recycling",
    "request_reason": "Replace Trash Cart",
    "date_created": "2024-12-10T15:19:49.000",
    "date_modified": "2024-12-10T15:19:50.000",
    "request_status": "Pending",
    "responsible_agency": "Department of Sanitation",
    "final_address": "2734 Ursulines Ave",
    "address_councildis": "A",
    "status": "Assigned to Contractor",
    "contractor": "IV Waste",
    "rowid": "1154292",
    "final_x": "3677322.91067",
    "final_y": "538310.808329",
    "longitude": "-90.08102571943971",
    "latitude": "29.97429426712068",
    "geocoded_column": {
      "latitude": "29.97429426712068",
      "longitude": "-90.08102571943971"
    }
  },
  {
    "service_request": "2024-1154291",
    "request_type": "Trash/Recycling",
    "request_reason": "Illegal Dumping",
    "date_created": "2024-12-10T15:18:37.000",
    "date_modified": "2024-12-10T15:18:38.000",
    "request_status": "Pending",
    "responsible_agency": "Department of Sanitation",
    "final_address": "7906 W Laverne St",
    "address_councildis": "D",
    "status": "Pending",
    "rowid": "1154291",
    "final_x": "3694834.35126",
    "final_y": "559435.375837",
    "longitude": "-90.02495894939261",
    "latitude": "30.03184115600653",
    "geocoded_column": {
      "latitude": "30.03184115600653",
      "longitude": "-90.02495894939261"
    }
  },
  {
    "service_request": "2024-1154290",
    "request_type": "Streetlights",
    "request_reason": "New Streetlight Request",
    "date_created": "2024-12-10T15:18:14.000",
    "date_modified": "2024-12-10T15:18:15.000",
    "request_status": "Pending",
    "responsible_agency": "Department of Public Works",
    "final_address": "600 Decatur St",
    "address_councildis": "C",
    "status": "Pending",
    "contractor": "Legacy Professional Services",
    "rowid": "1154290",
    "final_x": "3683022.87522",
    "final_y": "531734.204291",
    "longitude": "-90.06325413839996",
    "latitude": "29.956038345674937",
    "geocoded_column": {
      "latitude": "29.956038345674937",
      "longitude": "-90.06325413839996"
    }
  },
  {
    "service_request": "2024-1154289",
    "request_type": "Trash/Recycling",
    "request_reason": "Request a Large Item Pick Up",
    "date_created": "2024-12-10T15:17:19.000",
    "date_modified": "2024-12-10T15:17:20.000",
    "request_status": "Pending",
    "responsible_agency": "Department of Sanitation",
    "final_address": "2243 Humanity St",
    "address_councildis": "D",
    "status": "Assigned to Contractor",
    "contractor": "IV Waste",
    "rowid": "1154289",
    "final_x": "3684820.42434",
    "final_y": "544858.368463",
    "longitude": "-90.05711653564087",
    "latitude": "29.992070306612998",
    "geocoded_column": {
      "latitude": "29.992070306612998",
      "longitude": "-90.05711653564087"
    }
  },
  {
    "service_request": "2024-1154288",
    "request_type": "Trash/Recycling",
    "request_reason": "Request a Large Item Pick Up",
    "date_created": "2024-12-10T15:13:48.000",
    "date_modified": "2024-12-10T15:13:49.000",
    "request_status": "Pending",
    "responsible_agency": "Department of Sanitation",
    "final_address": "6331 Marigny St",
    "address_councildis": "D",
    "status": "Assigned to Contractor",
    "contractor": "IV Waste",
    "rowid": "1154288",
    "final_x": "3683877.93788",
    "final_y": "556445.790426",
    "longitude": "-90.05968680631388",
    "latitude": "30.0239603476776",
    "geocoded_column": {
      "latitude": "30.0239603476776",
      "longitude": "-90.05968680631388"
    }
  },
  {
    "service_request": "2024-1154287",
    "request_type": "Streetlights",
    "request_reason": "Streetlight Outage/Malfunction",
    "date_created": "2024-12-10T15:11:46.000",
    "date_modified": "2024-12-10T15:11:47.000",
    "request_status": "Pending",
    "responsible_agency": "Department of Public Works",
    "final_address": "11 Spanish Fort Blvd",
    "address_councildis": "D",
    "status": "Pending",
    "contractor": "Legacy Professional Services",
    "rowid": "1154287",
    "final_x": "3674154.56168",
    "final_y": "554744.355224",
    "longitude": "-90.09046916692729",
    "latitude": "30.019575607632405",
    "geocoded_column": {
      "latitude": "30.019575607632405",
      "longitude": "-90.09046916692729"
    }
  },
  {
    "service_request": "2024-1154286",
    "request_type": "Streetlights",
    "request_reason": "New Streetlight Request",
    "date_created": "2024-12-10T15:10:08.000",
    "date_modified": "2024-12-10T15:10:08.000",
    "request_status": "Pending",
    "responsible_agency": "Department of Public Works",
    "final_address": "4811 Flake Ave",
    "address_councildis": "E",
    "status": "Pending",
    "contractor": "Legacy Professional Services",
    "rowid": "1154286",
    "final_x": "3706111.32721",
    "final_y": "555912.513113",
    "longitude": "-89.98945392183998",
    "latitude": "30.02179577714447",
    "geocoded_column": {
      "latitude": "30.02179577714447",
      "longitude": "-89.98945392183998"
    }
  },
  {
    "service_request": "2024-1154285",
    "request_type": "Trash/Recycling",
    "request_reason": "Order Recycling Cart",
    "date_created": "2024-12-10T15:09:56.000",
    "date_modified": "2024-12-10T15:09:56.000",
    "request_status": "Pending",
    "responsible_agency": "Department of Sanitation",
    "final_address": "900 BLK Belleville St",
    "address_councildis": "C",
    "status": "Pending",
    "rowid": "1154285",
    "final_x": "3687783.22742",
    "final_y": "528154.691838",
    "longitude": "-90.04834937191384",
    "latitude": "29.94604996863618",
    "geocoded_column": {
      "latitude": "29.94604996863618",
      "longitude": "-90.04834937191384"
    }
  },
  {
    "service_request": "2024-1154284",
    "request_type": "Trash/Recycling",
    "request_reason": "Order Second Trash Cart",
    "date_created": "2024-12-10T15:08:39.000",
    "date_modified": "2024-12-10T15:08:40.000",
    "request_status": "Pending",
    "responsible_agency": "Department of Sanitation",
    "final_address": "4807 Flake Ave",
    "address_councildis": "E",
    "status": "Assigned to Contractor",
    "contractor": "Waste Pro",
    "rowid": "1154284",
    "final_x": "3706098.96241",
    "final_y": "555862.182681",
    "longitude": "-89.98949485615947",
    "latitude": "30.02165778670318",
    "geocoded_column": {
      "latitude": "30.02165778670318",
      "longitude": "-89.98949485615947"
    }
  },
  {
    "service_request": "2024-1154283",
    "request_type": "Roads and Streets",
    "request_reason": "Sidewalk Damaged or Missing",
    "date_created": "2024-12-10T15:04:27.000",
    "date_modified": "2024-12-10T15:04:28.000",
    "request_status": "Pending",
    "responsible_agency": "Department of Public Works",
    "final_address": "3525 Silver Maple Ct",
    "address_councildis": "C",
    "status": "Pending",
    "rowid": "1154283",
    "final_x": "3703311.50346",
    "final_y": "512431.923825",
    "longitude": "-89.99989936500494",
    "latitude": "29.902329841186162",
    "geocoded_column": {
      "latitude": "29.902329841186162",
      "longitude": "-89.99989936500494"
    }
  },
  {
    "service_request": "2024-1154282",
    "request_type": "Trash/Recycling",
    "request_reason": "Request a Large Item Pick Up",
    "date_created": "2024-12-10T15:03:29.000",
    "date_modified": "2024-12-10T15:03:30.000",
    "request_status": "Pending",
    "responsible_agency": "Department of Sanitation",
    "final_address": "122 Winthrop Pl",
    "address_councildis": "D",
    "status": "Assigned to Contractor",
    "contractor": "IV Waste",
    "rowid": "1154282",
    "final_x": "3677580.45947",
    "final_y": "543931.827406",
    "longitude": "-90.08001814340106",
    "latitude": "29.989742380892928",
    "geocoded_column": {
      "latitude": "29.989742380892928",
      "longitude": "-90.08001814340106"
    }
  },
  {
    "service_request": "2024-1154281",
    "request_type": "Trash/Recycling",
    "request_reason": "Order Trash Cart",
    "date_created": "2024-12-10T14:52:02.000",
    "date_modified": "2024-12-10T14:52:03.000",
    "request_status": "Pending",
    "responsible_agency": "Department of Sanitation",
    "final_address": "6219 N Robertson St Apt B",
    "address_councildis": "E",
    "status": "Assigned to Contractor",
    "contractor": "Waste Pro",
    "rowid": "1154281",
    "final_x": "3700605.63396",
    "final_y": "534589.700677",
    "longitude": "-90.00762986338665",
    "latitude": "29.96334234246918",
    "geocoded_column": {
      "latitude": "29.96334234246918",
      "longitude": "-90.00762986338665"
    }
  },
  {
    "service_request": "2024-1154280",
    "request_type": "Abandoned Vehicles",
    "request_reason": "Abandoned/Junk Vehicles",
    "date_created": "2024-12-10T14:49:58.000",
    "date_modified": "2024-12-10T14:54:13.000",
    "request_status": "Pending",
    "responsible_agency": "Department of Public Works",
    "final_address": "2317 Terpsichore St",
    "address_councildis": "B",
    "status": "Pending",
    "rowid": "1154280",
    "final_x": "3676369.23841",
    "final_y": "526989.611006",
    "longitude": "-90.08442735392208",
    "latitude": "29.94319340434056",
    "geocoded_column": {
      "latitude": "29.94319340434056",
      "longitude": "-90.08442735392208"
    }
  },
  {
    "service_request": "2024-1154279",
    "request_type": "Trash/Recycling",
    "request_reason": "Request a Large Item Pick Up",
    "date_created": "2024-12-10T14:46:28.000",
    "date_modified": "2024-12-10T14:46:29.000",
    "request_status": "Pending",
    "responsible_agency": "Department of Sanitation",
    "final_address": "6954 Foch Rd",
    "address_councildis": "D",
    "status": "Assigned to Contractor",
    "contractor": "Waste Pro",
    "rowid": "1154279",
    "final_x": "3696456.46999",
    "final_y": "556667.512026",
    "longitude": "-90.01993324472464",
    "latitude": "30.024179558756934",
    "geocoded_column": {
      "latitude": "30.024179558756934",
      "longitude": "-90.01993324472464"
    }
  },
  {
    "service_request": "2024-1154277",
    "request_type": "Trash/Recycling",
    "request_reason": "Illegal Dumping",
    "date_created": "2024-12-10T14:45:16.000",
    "date_modified": "2024-12-10T14:45:17.000",
    "request_status": "Pending",
    "responsible_agency": "Department of Sanitation",
    "final_address": "6000 BLK Old Gentilly Rd",
    "address_councildis": "E",
    "status": "Pending",
    "rowid": "1154277",
    "final_x": "3697146.03579",
    "final_y": "550678.309192",
    "longitude": "-90.0179716022294",
    "latitude": "30.007689758607874",
    "geocoded_column": {
      "latitude": "30.007689758607874",
      "longitude": "-90.0179716022294"
    }
  },
  {
    "service_request": "2024-1154278",
    "request_type": "Trash/Recycling",
    "request_reason": "Repair Trash Cart",
    "date_created": "2024-12-10T14:45:16.000",
    "date_modified": "2024-12-10T14:45:17.000",
    "request_status": "Pending",
    "responsible_agency": "Department of Sanitation",
    "final_address": "2375 Jay St",
    "address_councildis": "D",
    "status": "Assigned to Contractor",
    "contractor": "IV Waste",
    "rowid": "1154278",
    "final_x": "3684684.12028",
    "final_y": "557434.985499",
    "longitude": "-90.05710461580331",
    "latitude": "30.02665560337595",
    "geocoded_column": {
      "latitude": "30.02665560337595",
      "longitude": "-90.05710461580331"
    }
  },
  {
    "service_request": "2024-1154276",
    "request_type": "Trash/Recycling",
    "request_reason": "Repair Trash Cart",
    "date_created": "2024-12-10T14:44:47.000",
    "date_modified": "2024-12-10T14:44:48.000",
    "request_status": "Pending",
    "responsible_agency": "Department of Sanitation",
    "final_address": "2375 Jay St",
    "address_councildis": "D",
    "status": "Assigned to Contractor",
    "contractor": "IV Waste",
    "rowid": "1154276",
    "final_x": "3684684.12028",
    "final_y": "557434.985499",
    "longitude": "-90.05710461580331",
    "latitude": "30.02665560337595",
    "geocoded_column": {
      "latitude": "30.02665560337595",
      "longitude": "-90.05710461580331"
    }
  },
  {
    "service_request": "2024-1154275",
    "request_type": "Trash/Recycling",
    "request_reason": "Replace Trash Cart",
    "date_created": "2024-12-10T14:40:55.000",
    "date_modified": "2024-12-10T14:40:56.000",
    "request_status": "Pending",
    "responsible_agency": "Department of Sanitation",
    "final_address": "5941 Tchoupitoulas St",
    "address_councildis": "A",
    "status": "Assigned to Contractor",
    "contractor": "IV Waste",
    "rowid": "1154275",
    "final_x": "3664479.86624",
    "final_y": "517461.866422",
    "longitude": "-90.12228318291211",
    "latitude": "29.91734608498302",
    "geocoded_column": {
      "latitude": "29.91734608498302",
      "longitude": "-90.12228318291211"
    }
  },
  {
    "service_request": "2024-1154274",
    "request_type": "Trash/Recycling",
    "request_reason": "Replace Trash Cart",
    "date_created": "2024-12-10T14:29:17.000",
    "date_modified": "2024-12-10T14:29:18.000",
    "request_status": "Pending",
    "responsible_agency": "Department of Sanitation",
    "final_address": "6932 Orleans Ave",
    "address_councildis": "A",
    "status": "Assigned to Contractor",
    "contractor": "IV Waste",
    "rowid": "1154274",
    "final_x": "3671364.8802",
    "final_y": "553376.538839",
    "longitude": "-90.09933020096534",
    "latitude": "30.01589750597947",
    "geocoded_column": {
      "latitude": "30.01589750597947",
      "longitude": "-90.09933020096534"
    }
  },
  {
    "service_request": "2024-1154273",
    "request_type": "Roads and Streets",
    "request_reason": "Push-up/Pavement Expansion",
    "date_created": "2024-12-10T14:25:14.000",
    "date_modified": "2024-12-10T14:25:14.000",
    "request_status": "Pending",
    "responsible_agency": "Department of Public Works",
    "final_address": "932 Upperline St",
    "address_councildis": "B",
    "status": "Pending",
    "rowid": "1154273",
    "final_x": "3668974.57902",
    "final_y": "518858.372151",
    "longitude": "-90.10804874267484",
    "latitude": "29.921054646432946",
    "geocoded_column": {
      "latitude": "29.921054646432946",
      "longitude": "-90.10804874267484"
    }
  },
  {
    "service_request": "2024-1154272",
    "request_type": "Trash/Recycling",
    "request_reason": "Replace Trash Cart",
    "date_created": "2024-12-10T14:21:42.000",
    "date_modified": "2024-12-10T14:21:45.000",
    "request_status": "Pending",
    "responsible_agency": "Department of Sanitation",
    "final_address": "5878 Argonne Blvd",
    "address_councildis": "A",
    "status": "Assigned to Contractor",
    "contractor": "IV Waste",
    "rowid": "1154272",
    "final_x": "3670018.67521",
    "final_y": "546412.726289",
    "longitude": "-90.10381971028173",
    "latitude": "29.996789255330327",
    "geocoded_column": {
      "latitude": "29.996789255330327",
      "longitude": "-90.10381971028173"
    }
  },
  {
    "service_request": "2024-1154271",
    "request_type": "Streetlights",
    "request_reason": "Streetlight Outage/Malfunction",
    "date_created": "2024-12-10T14:21:15.000",
    "date_modified": "2024-12-10T14:21:16.000",
    "request_status": "Pending",
    "responsible_agency": "Department of Public Works",
    "final_address": "5911 N Roman St",
    "address_councildis": "E",
    "status": "Pending",
    "contractor": "Legacy Professional Services",
    "rowid": "1154271",
    "final_x": "3699991.93264",
    "final_y": "536040.810183",
    "longitude": "-90.00951490903182",
    "latitude": "29.967351882258978",
    "geocoded_column": {
      "latitude": "29.967351882258978",
      "longitude": "-90.00951490903182"
    }
  },
  {
    "service_request": "2024-1154270",
    "request_type": "Roads and Streets",
    "request_reason": "Sidewalk Damaged or Missing",
    "date_created": "2024-12-10T14:21:08.000",
    "date_modified": "2024-12-10T14:21:59.000",
    "request_status": "Pending",
    "responsible_agency": "Department of Public Works",
    "final_address": "7741 Sandpiper Dr",
    "address_councildis": "E",
    "status": "Pending",
    "rowid": "1154270",
    "final_x": "3715660.49164",
    "final_y": "570144.469159",
    "longitude": "-89.95874193787441",
    "latitude": "30.060616490890748",
    "geocoded_column": {
      "latitude": "30.060616490890748",
      "longitude": "-89.95874193787441"
    }
  },
  {
    "service_request": "2024-1154269",
    "request_type": "Drainage",
    "request_reason": "Catch Basin Clogged",
    "date_created": "2024-12-10T14:21:03.000",
    "date_modified": "2024-12-10T14:21:43.000",
    "case_close_date": "2024-12-10T08:21:43.000",
    "request_status": "Closed",
    "responsible_agency": "Department of Public Works",
    "final_address": "6100 BLK Canal Blvd",
    "address_councildis": "A",
    "status": "Resolved",
    "rowid": "1154269",
    "final_x": "3668628.69191",
    "final_y": "548257.751697",
    "longitude": "-90.10814828841973",
    "latitude": "30.001903374004232",
    "geocoded_column": {
      "latitude": "30.001903374004232",
      "longitude": "-90.10814828841973"
    }
  },
  {
    "service_request": "2024-1154268",
    "request_type": "Roads and Streets",
    "request_reason": "Pothole",
    "date_created": "2024-12-10T14:20:55.000",
    "date_modified": "2024-12-10T14:20:56.000",
    "request_status": "Pending",
    "responsible_agency": "Department of Public Works",
    "final_address": "SAGE ST & PEOPLES AVE",
    "address_councildis": "D",
    "status": "Pending",
    "rowid": "1154268",
    "final_x": "3688595.4",
    "final_y": "545595.58",
    "longitude": "-90.04516600641615",
    "latitude": "29.993981223923438",
    "geocoded_column": {
      "latitude": "29.993981223923438",
      "longitude": "-90.04516600641615"
    }
  },
  {
    "service_request": "2024-1154267",
    "request_type": "Roads and Streets",
    "request_reason": "Pothole",
    "date_created": "2024-12-10T14:20:44.000",
    "date_modified": "2024-12-10T14:23:34.000",
    "request_status": "Pending",
    "responsible_agency": "Department of Public Works",
    "final_address": "5620 Read Blvd",
    "address_councildis": "E",
    "status": "Pending",
    "rowid": "1154267",
    "final_x": "3710490.60779",
    "final_y": "558508.852252",
    "longitude": "-89.97551946044383",
    "latitude": "30.028792736910013",
    "geocoded_column": {
      "latitude": "30.028792736910013",
      "longitude": "-89.97551946044383"
    }
  },
  {
    "service_request": "2024-1154266",
    "request_type": "Roads and Streets",
    "request_reason": "Road Shoulder Damage",
    "date_created": "2024-12-10T14:19:43.000",
    "date_modified": "2024-12-10T14:19:45.000",
    "request_status": "Pending",
    "responsible_agency": "Department of Public Works",
    "final_address": "GENERAL DIAZ ST & HARRISON AVE",
    "address_councildis": "A",
    "status": "Pending",
    "rowid": "1154266",
    "final_x": "3669687.6",
    "final_y": "549231.58",
    "longitude": "-90.10477008751882",
    "latitude": "30.004549887470606",
    "geocoded_column": {
      "latitude": "30.004549887470606",
      "longitude": "-90.10477008751882"
    }
  },
  {
    "service_request": "2024-1154265",
    "request_type": "Drainage",
    "request_reason": "Catch Basin Clogged",
    "date_created": "2024-12-10T14:19:28.000",
    "date_modified": "2024-12-10T14:19:56.000",
    "case_close_date": "2024-12-10T08:19:56.000",
    "request_status": "Closed",
    "responsible_agency": "Department of Public Works",
    "final_address": "5700 BLK Canal Blvd",
    "address_councildis": "A",
    "status": "Resolved",
    "rowid": "1154265",
    "final_x": "3668382.50441",
    "final_y": "545535.486801",
    "longitude": "-90.10901791331867",
    "latitude": "29.994425321538223",
    "geocoded_column": {
      "latitude": "29.994425321538223",
      "longitude": "-90.10901791331867"
    }
  },
  {
    "service_request": "2024-1154264",
    "request_type": "Drainage",
    "request_reason": "Catch Basin Clogged",
    "date_created": "2024-12-10T14:17:38.000",
    "date_modified": "2024-12-10T14:18:40.000",
    "case_close_date": "2024-12-10T08:18:40.000",
    "request_status": "Closed",
    "responsible_agency": "Department of Public Works",
    "final_address": "5400 BLK Canal Blvd",
    "address_councildis": "A",
    "status": "Resolved",
    "rowid": "1154264",
    "final_x": "3668087.90788",
    "final_y": "543722.144299",
    "longitude": "-90.1100096638582",
    "latitude": "29.989447902700036",
    "geocoded_column": {
      "latitude": "29.989447902700036",
      "longitude": "-90.1100096638582"
    }
  },
  {
    "service_request": "2024-1154263",
    "request_type": "Abandoned Vehicles",
    "request_reason": "Abandoned/Junk Vehicles",
    "date_created": "2024-12-10T14:16:04.000",
    "date_modified": "2024-12-10T14:18:54.000",
    "request_status": "Pending",
    "responsible_agency": "Department of Public Works",
    "final_address": "2722 Mendez St",
    "address_councildis": "D",
    "status": "Pending",
    "rowid": "1154263",
    "final_x": "3687446.32354",
    "final_y": "553660.574551",
    "longitude": "-90.04851010425824",
    "latitude": "30.016192491973666",
    "geocoded_column": {
      "latitude": "30.016192491973666",
      "longitude": "-90.04851010425824"
    }
  },
  {
    "service_request": "2024-1154262",
    "request_type": "Drainage",
    "request_reason": "Catch Basin Clogged",
    "date_created": "2024-12-10T14:13:49.000",
    "date_modified": "2024-12-10T14:16:16.000",
    "case_close_date": "2024-12-10T08:16:16.000",
    "request_status": "Closed",
    "responsible_agency": "Department of Public Works",
    "final_address": "5100 BLK Canal Blvd",
    "address_councildis": "A",
    "status": "Resolved",
    "rowid": "1154262",
    "final_x": "3667898.10019",
    "final_y": "541845.150021",
    "longitude": "-90.11067247805775",
    "latitude": "29.98429237783102",
    "geocoded_column": {
      "latitude": "29.98429237783102",
      "longitude": "-90.11067247805775"
    }
  },
  {
    "service_request": "2024-1154261",
    "request_type": "Abandoned Vehicles",
    "request_reason": "Abandoned/Junk Vehicles",
    "date_created": "2024-12-10T14:08:21.000",
    "date_modified": "2024-12-10T14:08:21.000",
    "request_status": "Pending",
    "responsible_agency": "Department of Public Works",
    "final_address": "7609 Plum St",
    "address_councildis": "A",
    "status": "Pending",
    "rowid": "1154261",
    "final_x": "3663483.41754",
    "final_y": "527528.723135",
    "longitude": "-90.12509336314046",
    "latitude": "29.94505568748894",
    "geocoded_column": {
      "latitude": "29.94505568748894",
      "longitude": "-90.12509336314046"
    }
  },
  {
    "service_request": "2024-1154260",
    "request_type": "Abandoned Vehicles",
    "request_reason": "Abandoned/Junk Vehicles",
    "date_created": "2024-12-10T14:07:22.000",
    "date_modified": "2024-12-10T14:07:22.000",
    "request_status": "Pending",
    "responsible_agency": "Department of Public Works",
    "final_address": "7609 Plum St",
    "address_councildis": "A",
    "status": "Pending",
    "rowid": "1154260",
    "final_x": "3663483.41754",
    "final_y": "527528.723135",
    "longitude": "-90.12509336314046",
    "latitude": "29.94505568748894",
    "geocoded_column": {
      "latitude": "29.94505568748894",
      "longitude": "-90.12509336314046"
    }
  },
  {
    "service_request": "2024-1154259",
    "request_type": "Trash/Recycling",
    "request_reason": "Missed Trash Pick-Up",
    "date_created": "2024-12-10T14:06:21.000",
    "date_modified": "2024-12-10T14:06:22.000",
    "request_status": "Pending",
    "responsible_agency": "Department of Sanitation",
    "final_address": "1 Assumption Pl",
    "address_councildis": "E",
    "status": "Assigned to Contractor",
    "contractor": "Waste Pro",
    "rowid": "1154259",
    "final_x": "3726234.18931",
    "final_y": "564181.036641",
    "longitude": "-89.92555089791963",
    "latitude": "30.04386653750122",
    "geocoded_column": {
      "latitude": "30.04386653750122",
      "longitude": "-89.92555089791963"
    }
  },
  {
    "service_request": "2024-1154258",
    "request_type": "Streetlights",
    "request_reason": "Streetlight Outage/Malfunction",
    "date_created": "2024-12-10T14:03:51.000",
    "date_modified": "2024-12-10T14:03:52.000",
    "request_status": "Pending",
    "responsible_agency": "Department of Public Works",
    "final_address": "3338 Desaix Blvd",
    "address_councildis": "A",
    "status": "Pending",
    "contractor": "Legacy Professional Services",
    "rowid": "1154258",
    "final_x": "3677284.71182",
    "final_y": "543552.943694",
    "longitude": "-90.08096540964254",
    "latitude": "29.988709474364136",
    "geocoded_column": {
      "latitude": "29.988709474364136",
      "longitude": "-90.08096540964254"
    }
  },
  {
    "service_request": "2024-1154257",
    "request_type": "Abandoned Vehicles",
    "request_reason": "Abandoned/Junk Vehicles",
    "date_created": "2024-12-10T14:03:28.000",
    "date_modified": "2024-12-10T14:03:28.000",
    "request_status": "Pending",
    "responsible_agency": "Department of Public Works",
    "final_address": "7609 Plum St",
    "address_councildis": "A",
    "status": "Pending",
    "rowid": "1154257",
    "final_x": "3663483.41754",
    "final_y": "527528.723135",
    "longitude": "-90.12509336314046",
    "latitude": "29.94505568748894",
    "geocoded_column": {
      "latitude": "29.94505568748894",
      "longitude": "-90.12509336314046"
    }
  },
  {
    "service_request": "2024-1154256",
    "request_type": "Trash/Recycling",
    "request_reason": "Request a Large Item Pick Up",
    "date_created": "2024-12-10T14:01:55.000",
    "date_modified": "2024-12-10T14:01:56.000",
    "request_status": "Pending",
    "responsible_agency": "Department of Sanitation",
    "final_address": "2654 Vienna St",
    "address_councildis": "D",
    "status": "Assigned to Contractor",
    "contractor": "IV Waste",
    "rowid": "1154256",
    "final_x": "3686938.53993",
    "final_y": "555188.438105",
    "longitude": "-90.05006041032351",
    "latitude": "30.02040919829778",
    "geocoded_column": {
      "latitude": "30.02040919829778",
      "longitude": "-90.05006041032351"
    }
  },
  {
    "service_request": "2024-1154255",
    "request_type": "Abandoned Vehicles",
    "request_reason": "Abandoned/Junk Vehicles",
    "date_created": "2024-12-10T14:01:50.000",
    "date_modified": "2024-12-10T14:01:50.000",
    "request_status": "Pending",
    "responsible_agency": "Department of Public Works",
    "final_address": "3812 Prytania St",
    "address_councildis": "B",
    "status": "Pending",
    "rowid": "1154255",
    "final_x": "3672893.3522",
    "final_y": "520491.488632",
    "longitude": "-90.0956232304491",
    "latitude": "29.92542938803004",
    "geocoded_column": {
      "latitude": "29.92542938803004",
      "longitude": "-90.0956232304491"
    }
  },
  {
    "service_request": "2024-1154254",
    "request_type": "Trash/Recycling",
    "request_reason": "Request a Large Item Pick Up",
    "date_created": "2024-12-10T14:01:32.000",
    "date_modified": "2024-12-10T14:01:33.000",
    "request_status": "Pending",
    "responsible_agency": "Department of Sanitation",
    "final_address": "4549 Chantilly Dr",
    "address_councildis": "E",
    "status": "Assigned to Contractor",
    "contractor": "Waste Pro",
    "rowid": "1154254",
    "final_x": "3701052.60708",
    "final_y": "553239.790039",
    "longitude": "-90.00553591071336",
    "latitude": "30.014608974783897",
    "geocoded_column": {
      "latitude": "30.014608974783897",
      "longitude": "-90.00553591071336"
    }
  },
  {
    "service_request": "2024-1154253",
    "request_type": "Trash/Recycling",
    "request_reason": "Request a Large Item Pick Up",
    "date_created": "2024-12-10T14:01:15.000",
    "date_modified": "2024-12-10T14:01:16.000",
    "request_status": "Pending",
    "responsible_agency": "Department of Sanitation",
    "final_address": "7608 Willow St",
    "address_councildis": "A",
    "status": "Assigned to Contractor",
    "contractor": "IV Waste",
    "rowid": "1154253",
    "final_x": "3663654.35341",
    "final_y": "527718.742847",
    "longitude": "-90.12454733409055",
    "latitude": "29.945573223531618",
    "geocoded_column": {
      "latitude": "29.945573223531618",
      "longitude": "-90.12454733409055"
    }
  },
  {
    "service_request": "2024-1154252",
    "request_type": "Trash/Recycling",
    "request_reason": "Request a Large Item Pick Up",
    "date_created": "2024-12-10T13:58:52.000",
    "date_modified": "2024-12-10T13:58:53.000",
    "request_status": "Pending",
    "responsible_agency": "Department of Sanitation",
    "final_address": "2415 Marengo St",
    "address_councildis": "B",
    "status": "Assigned to Contractor",
    "contractor": "IV Waste",
    "rowid": "1154252",
    "final_x": "3671708.08724",
    "final_y": "523942.499516",
    "longitude": "-90.0992474240481",
    "latitude": "29.93495370897462",
    "geocoded_column": {
      "latitude": "29.93495370897462",
      "longitude": "-90.0992474240481"
    }
  },
  {
    "service_request": "2024-1154251",
    "request_type": "Trash/Recycling",
    "request_reason": "Request a Large Item Pick Up",
    "date_created": "2024-12-10T13:58:43.000",
    "date_modified": "2024-12-10T13:58:44.000",
    "request_status": "Pending",
    "responsible_agency": "Department of Sanitation",
    "final_address": "404 Olivier St",
    "address_councildis": "C",
    "status": "Assigned to Contractor",
    "contractor": "Richards Disposal",
    "rowid": "1154251",
    "final_x": "3687284.65558",
    "final_y": "530271.761025",
    "longitude": "-90.04984865679002",
    "latitude": "29.951886550343776",
    "geocoded_column": {
      "latitude": "29.951886550343776",
      "longitude": "-90.04984865679002"
    }
  },
  {
    "service_request": "2024-1154250",
    "request_type": "Trash/Recycling",
    "request_reason": "Request a Large Item Pick Up",
    "date_created": "2024-12-10T13:58:21.000",
    "date_modified": "2024-12-10T13:58:22.000",
    "request_status": "Pending",
    "responsible_agency": "Department of Sanitation",
    "final_address": "2419 Marengo St",
    "address_councildis": "B",
    "status": "Assigned to Contractor",
    "contractor": "IV Waste",
    "rowid": "1154250",
    "final_x": "3671700.67847",
    "final_y": "523973.572924",
    "longitude": "-90.09926975699865",
    "latitude": "29.935039370204233",
    "geocoded_column": {
      "latitude": "29.935039370204233",
      "longitude": "-90.09926975699865"
    }
  },
  {
    "service_request": "2024-1154249",
    "request_type": "Streetlights",
    "request_reason": "Streetlight Outage/Malfunction",
    "date_created": "2024-12-10T13:56:51.000",
    "date_modified": "2024-12-10T14:19:49.000",
    "request_status": "Pending",
    "responsible_agency": "Department of Public Works",
    "final_address": "249 Downs St, New Orleans, Louisiana, 70124",
    "address_councildis": "A",
    "status": "Pending",
    "contractor": "Legacy Professional Services",
    "rowid": "1154249",
    "final_x": "3667373.52577",
    "final_y": "553186.278359",
    "longitude": "-90.11194754610709",
    "latitude": "30.015491944795087",
    "geocoded_column": {
      "latitude": "30.015491944795087",
      "longitude": "-90.11194754610709"
    }
  },
  {
    "service_request": "2024-1154248",
    "request_type": "Streetlights",
    "request_reason": "Streetlight Outage/Malfunction",
    "date_created": "2024-12-10T13:55:37.000",
    "date_modified": "2024-12-10T13:55:58.000",
    "request_status": "Pending",
    "responsible_agency": "Department of Public Works",
    "final_address": "3300 BLK Desaix Blvd",
    "address_councildis": "A",
    "status": "Pending",
    "contractor": "Legacy Professional Services",
    "rowid": "1154248",
    "final_x": "3677467.93276",
    "final_y": "543582.635063",
    "longitude": "-90.08038564544756",
    "latitude": "29.988785607690488",
    "geocoded_column": {
      "latitude": "29.988785607690488",
      "longitude": "-90.08038564544756"
    }
  },
  {
    "service_request": "2024-1154247",
    "request_type": "Roads and Streets",
    "request_reason": "Debris in Driving Lanes",
    "date_created": "2024-12-10T13:53:46.000",
    "date_modified": "2024-12-10T14:48:09.000",
    "request_status": "Pending",
    "responsible_agency": "Department of Public Works",
    "final_address": "2601 Carondelet St",
    "address_councildis": "B",
    "rowid": "1154247",
    "final_x": "3676144.16731",
    "final_y": "523200.014779",
    "longitude": "-90.08526828171212",
    "latitude": "29.93278000136112",
    "geocoded_column": {
      "latitude": "29.93278000136112",
      "longitude": "-90.08526828171212"
    }
  },
  {
    "service_request": "2024-1154246",
    "request_type": "Abandoned Vehicles",
    "request_reason": "Abandoned/Junk Vehicles",
    "date_created": "2024-12-10T13:52:09.000",
    "date_modified": "2024-12-10T13:52:10.000",
    "request_status": "Pending",
    "responsible_agency": "Department of Public Works",
    "final_address": "3812 Prytania St",
    "address_councildis": "B",
    "status": "Pending",
    "rowid": "1154246",
    "final_x": "3672893.3522",
    "final_y": "520491.488632",
    "longitude": "-90.0956232304491",
    "latitude": "29.92542938803004",
    "geocoded_column": {
      "latitude": "29.92542938803004",
      "longitude": "-90.0956232304491"
    }
  },
  {
    "service_request": "2024-1154245",
    "request_type": "Trash/Recycling",
    "request_reason": "Request a Large Item Pick Up",
    "date_created": "2024-12-10T13:49:40.000",
    "date_modified": "2024-12-10T13:49:41.000",
    "request_status": "Pending",
    "responsible_agency": "Department of Sanitation",
    "final_address": "4769 Eastview Dr",
    "address_councildis": "E",
    "status": "Assigned to Contractor",
    "contractor": "Waste Pro",
    "rowid": "1154245",
    "final_x": "3705129.08913",
    "final_y": "555551.132697",
    "longitude": "-89.99257087386064",
    "latitude": "30.02083375985174",
    "geocoded_column": {
      "latitude": "30.02083375985174",
      "longitude": "-89.99257087386064"
    }
  },
  {
    "service_request": "2024-1154244",
    "request_type": "Trash/Recycling",
    "request_reason": "Request a Large Item Pick Up",
    "date_created": "2024-12-10T13:49:09.000",
    "date_modified": "2024-12-10T13:49:11.000",
    "request_status": "Pending",
    "responsible_agency": "Department of Sanitation",
    "final_address": "8421 Edinburgh St",
    "address_councildis": "A",
    "status": "Assigned to Contractor",
    "contractor": "IV Waste",
    "rowid": "1154244",
    "final_x": "3666597.733",
    "final_y": "535297.870534",
    "longitude": "-90.11499965298962",
    "latitude": "29.966327638750986",
    "geocoded_column": {
      "latitude": "29.966327638750986",
      "longitude": "-90.11499965298962"
    }
  },
  {
    "service_request": "2024-1154243",
    "request_type": "Trash/Recycling",
    "request_reason": "Start Trash Service",
    "date_created": "2024-12-10T13:47:55.000",
    "date_modified": "2024-12-10T13:47:57.000",
    "request_status": "Pending",
    "responsible_agency": "Department of Sanitation",
    "final_address": "5647 Pauline Dr",
    "address_councildis": "D",
    "status": "Assigned to Contractor",
    "contractor": "IV Waste",
    "rowid": "1154243",
    "final_x": "3691964.32553",
    "final_y": "554933.643672",
    "longitude": "-90.03418964990033",
    "latitude": "30.019552886110638",
    "geocoded_column": {
      "latitude": "30.019552886110638",
      "longitude": "-90.03418964990033"
    }
  },
  {
    "service_request": "2024-1154242",
    "request_type": "Trash/Recycling",
    "request_reason": "Request a Large Item Pick Up",
    "date_created": "2024-12-10T13:46:59.000",
    "date_modified": "2024-12-10T13:47:00.000",
    "request_status": "Pending",
    "responsible_agency": "Department of Sanitation",
    "final_address": "7040 Lake Barrington Dr",
    "address_councildis": "E",
    "status": "Assigned to Contractor",
    "contractor": "Waste Pro",
    "rowid": "1154242",
    "final_x": "3712507.37707",
    "final_y": "563837.295905",
    "longitude": "-89.96894612504661",
    "latitude": "30.04337796091714",
    "geocoded_column": {
      "latitude": "30.04337796091714",
      "longitude": "-89.96894612504661"
    }
  },
  {
    "service_request": "2024-1154241",
    "request_type": "Trash/Recycling",
    "request_reason": "Request a Large Item Pick Up",
    "date_created": "2024-12-10T13:43:59.000",
    "date_modified": "2024-12-10T13:44:00.000",
    "request_status": "Pending",
    "responsible_agency": "Department of Sanitation",
    "final_address": "1442 St Maurice Ave",
    "address_councildis": "E",
    "status": "Assigned to Contractor",
    "contractor": "Waste Pro",
    "rowid": "1154241",
    "final_x": "3700338.47268",
    "final_y": "534532.696069",
    "longitude": "-90.00847560467865",
    "latitude": "29.96319409662935",
    "geocoded_column": {
      "latitude": "29.96319409662935",
      "longitude": "-90.00847560467865"
    }
  },
  {
    "service_request": "2024-1154240",
    "request_type": "Trash/Recycling",
    "request_reason": "Missed Trash Pick-Up",
    "date_created": "2024-12-10T13:41:43.000",
    "date_modified": "2024-12-10T13:41:44.000",
    "request_status": "Pending",
    "responsible_agency": "Department of Sanitation",
    "final_address": "7268 Endston Ct",
    "address_councildis": "E",
    "status": "Assigned to Contractor",
    "contractor": "Waste Pro",
    "rowid": "1154240",
    "final_x": "3711926.09304",
    "final_y": "564708.58397",
    "longitude": "-89.97075046457952",
    "latitude": "30.045792670660223",
    "geocoded_column": {
      "latitude": "30.045792670660223",
      "longitude": "-89.97075046457952"
    }
  },
  {
    "service_request": "2024-1154239",
    "request_type": "Drainage",
    "request_reason": "Catch Basin Clogged",
    "date_created": "2024-12-10T13:40:37.000",
    "date_modified": "2024-12-10T13:40:37.000",
    "request_status": "Pending",
    "responsible_agency": "Department of Public Works",
    "final_address": "6620 Marigny St",
    "address_councildis": "D",
    "status": "Pending",
    "rowid": "1154239",
    "final_x": "3683533.72642",
    "final_y": "558015.433819",
    "longitude": "-90.06071936181145",
    "latitude": "30.02828680203352",
    "geocoded_column": {
      "latitude": "30.02828680203352",
      "longitude": "-90.06071936181145"
    }
  },
  {
    "service_request": "2024-1154238",
    "request_type": "Trash/Recycling",
    "request_reason": "Order Recycling Cart",
    "date_created": "2024-12-10T13:40:31.000",
    "date_modified": "2024-12-10T13:40:32.000",
    "request_status": "Pending",
    "responsible_agency": "Department of Sanitation",
    "final_address": "7820 Venice Blvd",
    "address_councildis": "E",
    "status": "Pending",
    "rowid": "1154238",
    "final_x": "3720812.03398",
    "final_y": "574658.749803",
    "longitude": "-89.94228505491205",
    "latitude": "30.072857928514264",
    "geocoded_column": {
      "latitude": "30.072857928514264",
      "longitude": "-89.94228505491205"
    }
  },
  {
    "service_request": "2024-1154237",
    "request_type": "Trash/Recycling",
    "request_reason": "Illegal Dumping",
    "date_created": "2024-12-10T13:37:50.000",
    "date_modified": "2024-12-10T14:19:01.000",
    "request_status": "Pending",
    "responsible_agency": "Department of Sanitation",
    "final_address": "1427 Jackson Ave",
    "address_councildis": "B",
    "rowid": "1154237",
    "final_x": "3678134.5332",
    "final_y": "523136.318011",
    "longitude": "-90.07898705244553",
    "latitude": "29.932545095006574",
    "geocoded_column": {
      "latitude": "29.932545095006574",
      "longitude": "-90.07898705244553"
    }
  },
  {
    "service_request": "2024-1154236",
    "request_type": "Drainage",
    "request_reason": "Catch Basin Clogged",
    "date_created": "2024-12-10T13:37:47.000",
    "date_modified": "2024-12-10T14:10:05.000",
    "case_close_date": "2024-12-10T08:10:05.000",
    "request_status": "Closed",
    "responsible_agency": "Department of Public Works",
    "final_address": "4200 BLK Banks St",
    "address_councildis": "A",
    "status": "Resolved",
    "rowid": "1154236",
    "final_x": "3669696.17009",
    "final_y": "537861.644537",
    "longitude": "-90.10512803117705",
    "latitude": "29.973286208265172",
    "geocoded_column": {
      "latitude": "29.973286208265172",
      "longitude": "-90.10512803117705"
    }
  },
  {
    "service_request": "2024-1154235",
    "request_type": "Drainage",
    "request_reason": "Catch Basin Clogged",
    "date_created": "2024-12-10T13:35:57.000",
    "date_modified": "2024-12-10T13:36:38.000",
    "case_close_date": "2024-12-10T07:36:38.000",
    "request_status": "Closed",
    "responsible_agency": "Department of Public Works",
    "final_address": "4148 Banks St",
    "address_councildis": "A",
    "status": "Resolved",
    "rowid": "1154235",
    "final_x": "3669919.48282",
    "final_y": "537575.121992",
    "longitude": "-90.1044324672219",
    "latitude": "29.9724917840252",
    "geocoded_column": {
      "latitude": "29.9724917840252",
      "longitude": "-90.1044324672219"
    }
  },
  {
    "service_request": "2024-1154234",
    "request_type": "Trash/Recycling",
    "request_reason": "Repair Trash Cart",
    "date_created": "2024-12-10T13:33:14.000",
    "date_modified": "2024-12-10T13:33:15.000",
    "request_status": "Pending",
    "responsible_agency": "Department of Sanitation",
    "final_address": "3501 Rue Nichole",
    "address_councildis": "C",
    "status": "Assigned to Contractor",
    "contractor": "Richards Disposal",
    "rowid": "1154234",
    "final_x": "3703951.28279",
    "final_y": "517811.457014",
    "longitude": "-89.9976823645651",
    "latitude": "29.91710123173778",
    "geocoded_column": {
      "latitude": "29.91710123173778",
      "longitude": "-89.9976823645651"
    }
  },
  {
    "service_request": "2024-1154233",
    "request_type": "Drainage",
    "request_reason": "Catch Basin Clogged",
    "date_created": "2024-12-10T13:31:31.000",
    "date_modified": "2024-12-10T13:31:31.000",
    "request_status": "Pending",
    "responsible_agency": "Department of Public Works",
    "final_address": "1452 Jackson Ave",
    "address_councildis": "B",
    "status": "Pending",
    "rowid": "1154233",
    "final_x": "3677918.64168",
    "final_y": "523203.155131",
    "longitude": "-90.0796662951016",
    "latitude": "29.932735371876863",
    "geocoded_column": {
      "latitude": "29.932735371876863",
      "longitude": "-90.0796662951016"
    }
  },
  {
    "service_request": "2024-1154232",
    "request_type": "Trash/Recycling",
    "request_reason": "Repair Trash Cart",
    "date_created": "2024-12-10T13:28:20.000",
    "date_modified": "2024-12-10T13:28:21.000",
    "request_status": "Pending",
    "responsible_agency": "Department of Sanitation",
    "final_address": "4701 Conti St",
    "address_councildis": "A",
    "status": "Assigned to Contractor",
    "contractor": "IV Waste",
    "rowid": "1154232",
    "final_x": "3669810.16052",
    "final_y": "540850.274955",
    "longitude": "-90.10466681547135",
    "latitude": "29.981500571515316",
    "geocoded_column": {
      "latitude": "29.981500571515316",
      "longitude": "-90.10466681547135"
    }
  },
  {
    "service_request": "2024-1154231",
    "request_type": "Trash/Recycling",
    "request_reason": "Illegal Dumping",
    "date_created": "2024-12-10T13:25:41.000",
    "date_modified": "2024-12-10T13:27:30.000",
    "request_status": "Pending",
    "responsible_agency": "Department of Sanitation",
    "final_address": "I 10 W & DWYER RD",
    "address_councildis": "D",
    "contractor": "Waste Pro",
    "rowid": "1154231",
    "final_x": "3698330.3",
    "final_y": "555353.88",
    "longitude": "-90.01406011520962",
    "latitude": "30.020508380217617",
    "geocoded_column": {
      "latitude": "30.020508380217617",
      "longitude": "-90.01406011520962"
    }
  },
  {
    "service_request": "2024-1154230",
    "request_type": "Roads and Streets",
    "request_reason": "Pothole",
    "date_created": "2024-12-10T13:25:07.000",
    "date_modified": "2024-12-10T13:25:29.000",
    "case_close_date": "2024-12-10T07:25:29.000",
    "request_status": "Closed",
    "responsible_agency": "Department of Public Works",
    "final_address": "3931 Coliseum St",
    "address_councildis": "B",
    "status": "Resolved",
    "rowid": "1154230",
    "final_x": "3672561.38292",
    "final_y": "520024.79436",
    "longitude": "-90.09668705585376",
    "latitude": "29.924155984037398",
    "geocoded_column": {
      "latitude": "29.924155984037398",
      "longitude": "-90.09668705585376"
    }
  },
  {
    "service_request": "2024-1154229",
    "request_type": "Roads and Streets",
    "request_reason": "Pothole",
    "date_created": "2024-12-10T13:24:09.000",
    "date_modified": "2024-12-10T13:24:31.000",
    "case_close_date": "2024-12-10T07:24:31.000",
    "request_status": "Closed",
    "responsible_agency": "Department of Public Works",
    "final_address": "4016 Coliseum St",
    "address_councildis": "B",
    "status": "Resolved",
    "rowid": "1154229",
    "final_x": "3672288.03201",
    "final_y": "519897.395256",
    "longitude": "-90.09755426760962",
    "latitude": "29.92381378633026",
    "geocoded_column": {
      "latitude": "29.92381378633026",
      "longitude": "-90.09755426760962"
    }
  },
  {
    "service_request": "2024-1154228",
    "request_type": "Roads and Streets",
    "request_reason": "Pothole",
    "date_created": "2024-12-10T13:23:14.000",
    "date_modified": "2024-12-10T13:23:34.000",
    "case_close_date": "2024-12-10T07:23:34.000",
    "request_status": "Closed",
    "responsible_agency": "Department of Public Works",
    "final_address": "4100 BLK Coliseum St",
    "address_councildis": "B",
    "status": "Resolved",
    "rowid": "1154228",
    "final_x": "3671879.4692",
    "final_y": "519914.326429",
    "longitude": "-90.09884337943298",
    "latitude": "29.923872451265154",
    "geocoded_column": {
      "latitude": "29.923872451265154",
      "longitude": "-90.09884337943298"
    }
  },
  {
    "service_request": "2024-1154227",
    "request_type": "Trash/Recycling",
    "request_reason": "Request a Large Item Pick Up",
    "date_created": "2024-12-10T13:19:40.000",
    "date_modified": "2024-12-10T13:19:41.000",
    "request_status": "Pending",
    "responsible_agency": "Department of Sanitation",
    "final_address": "10131 Brookfield Dr",
    "address_councildis": "E",
    "status": "Assigned to Contractor",
    "contractor": "Waste Pro",
    "rowid": "1154227",
    "final_x": "3710024.50206",
    "final_y": "562913.559072",
    "longitude": "-89.97682754564906",
    "latitude": "30.040919111209387",
    "geocoded_column": {
      "latitude": "30.040919111209387",
      "longitude": "-89.97682754564906"
    }
  },
  {
    "service_request": "2024-1154226",
    "request_type": "Drainage",
    "request_reason": "Street Flooding",
    "date_created": "2024-12-10T13:16:30.000",
    "date_modified": "2024-12-10T13:16:30.000",
    "request_status": "Pending",
    "responsible_agency": "Department of Public Works",
    "final_address": "1450 Jackson Ave",
    "address_councildis": "B",
    "status": "Pending",
    "rowid": "1154226",
    "final_x": "3677937.57986",
    "final_y": "523185.087995",
    "longitude": "-90.07960713282867",
    "latitude": "29.932685123417535",
    "geocoded_column": {
      "latitude": "29.932685123417535",
      "longitude": "-90.07960713282867"
    }
  },
  {
    "service_request": "2024-1154225",
    "request_type": "Abandoned Vehicles",
    "request_reason": "Abandoned/Junk Vehicles",
    "date_created": "2024-12-10T13:14:09.000",
    "date_modified": "2024-12-10T13:14:09.000",
    "request_status": "Pending",
    "responsible_agency": "Department of Public Works",
    "final_address": "2712 Jonquil St",
    "address_councildis": "D",
    "status": "Pending",
    "rowid": "1154225",
    "final_x": "3687911.58057",
    "final_y": "547204.645073",
    "longitude": "-90.04726904100175",
    "latitude": "29.998426692716645",
    "geocoded_column": {
      "latitude": "29.998426692716645",
      "longitude": "-90.04726904100175"
    }
  },
  {
    "service_request": "2024-1154224",
    "request_type": "Roads and Streets",
    "request_reason": "Pothole",
    "date_created": "2024-12-10T13:14:06.000",
    "date_modified": "2024-12-10T13:14:30.000",
    "case_close_date": "2024-12-10T07:14:30.000",
    "request_status": "Closed",
    "responsible_agency": "Department of Public Works",
    "final_address": "2200 BLK Pressburg St",
    "address_councildis": "D",
    "status": "Resolved",
    "rowid": "1154224",
    "final_x": "3683774.38602",
    "final_y": "554607.6409",
    "longitude": "-90.06007855034636",
    "latitude": "30.018909277568714",
    "geocoded_column": {
      "latitude": "30.018909277568714",
      "longitude": "-90.06007855034636"
    }
  },
  {
    "service_request": "2024-1154223",
    "request_type": "Abandoned Vehicles",
    "request_reason": "Abandoned/Junk Vehicles",
    "date_created": "2024-12-10T13:13:53.000",
    "date_modified": "2024-12-10T13:13:54.000",
    "request_status": "Pending",
    "responsible_agency": "Department of Public Works",
    "final_address": "2317 Harmony St",
    "address_councildis": "B",
    "status": "Pending",
    "rowid": "1154223",
    "final_x": "3673676.7682",
    "final_y": "524218.074812",
    "longitude": "-90.09302289033769",
    "latitude": "29.93565300345886",
    "geocoded_column": {
      "latitude": "29.93565300345886",
      "longitude": "-90.09302289033769"
    }
  },
  {
    "service_request": "2024-1154222",
    "request_type": "Streetlights",
    "request_reason": "Streetlight Outage/Malfunction",
    "date_created": "2024-12-10T13:12:01.000",
    "date_modified": "2024-12-10T13:12:27.000",
    "request_status": "Pending",
    "responsible_agency": "Department of Public Works",
    "final_address": "500 BLK Bermuda St",
    "address_councildis": "C",
    "status": "Pending",
    "contractor": "Legacy Professional Services",
    "rowid": "1154222",
    "final_x": "3686828.5141",
    "final_y": "530029.721552",
    "longitude": "-90.05129748272707",
    "latitude": "29.95123506570491",
    "geocoded_column": {
      "latitude": "29.95123506570491",
      "longitude": "-90.05129748272707"
    }
  },
  {
    "service_request": "2024-1154221",
    "request_type": "Roads and Streets",
    "request_reason": "Abandoned Service Cut",
    "date_created": "2024-12-10T13:07:37.000",
    "date_modified": "2024-12-10T13:07:38.000",
    "request_status": "Pending",
    "responsible_agency": "Department of Public Works",
    "final_address": "CLEVELAND AVE & S NORMAN C FRANCIS PKWY",
    "address_councildis": "B",
    "status": "Pending",
    "rowid": "1154221",
    "final_x": "3672881.2",
    "final_y": "536449.38",
    "longitude": "-90.09511723923079",
    "latitude": "29.969308701210917",
    "geocoded_column": {
      "latitude": "29.969308701210917",
      "longitude": "-90.09511723923079"
    }
  },
  {
    "service_request": "2024-1154220",
    "request_type": "Trash/Recycling",
    "request_reason": "Request a Large Item Pick Up",
    "date_created": "2024-12-10T13:06:03.000",
    "date_modified": "2024-12-10T13:06:04.000",
    "request_status": "Pending",
    "responsible_agency": "Department of Sanitation",
    "final_address": "5314 St Bernard Ave",
    "address_councildis": "D",
    "status": "Assigned to Contractor",
    "contractor": "IV Waste",
    "rowid": "1154220",
    "final_x": "3676618.26574",
    "final_y": "551514.786517",
    "longitude": "-90.0827960395332",
    "latitude": "30.010621745040865",
    "geocoded_column": {
      "latitude": "30.010621745040865",
      "longitude": "-90.0827960395332"
    }
  },
  {
    "service_request": "2024-1154219",
    "request_type": "Roads and Streets",
    "request_reason": "Pothole",
    "date_created": "2024-12-10T13:04:51.000",
    "date_modified": "2024-12-10T13:05:10.000",
    "case_close_date": "2024-12-10T07:05:10.000",
    "request_status": "Closed",
    "responsible_agency": "Department of Public Works",
    "final_address": "2700 BLK George Nick Connor Dr",
    "address_councildis": "D",
    "status": "Resolved",
    "rowid": "1154219",
    "final_x": "3681075.64273",
    "final_y": "542475.303617",
    "longitude": "-90.06902859487984",
    "latitude": "29.985631869888874",
    "geocoded_column": {
      "latitude": "29.985631869888874",
      "longitude": "-90.06902859487984"
    }
  },
  {
    "service_request": "2024-1154218",
    "request_type": "Streetlights",
    "request_reason": "Streetlight Outage/Malfunction",
    "date_created": "2024-12-10T13:03:03.000",
    "date_modified": "2024-12-10T13:03:04.000",
    "request_status": "Pending",
    "responsible_agency": "Department of Public Works",
    "final_address": "1258 Moss St",
    "address_councildis": "A",
    "status": "Pending",
    "contractor": "Legacy Professional Services",
    "rowid": "1154218",
    "final_x": "3675385.62952",
    "final_y": "540215.972107",
    "longitude": "-90.08707867278348",
    "latitude": "29.97959089099872",
    "geocoded_column": {
      "latitude": "29.97959089099872",
      "longitude": "-90.08707867278348"
    }
  },
  {
    "service_request": "2024-1154217",
    "request_type": "Trash/Recycling",
    "request_reason": "Request a Large Item Pick Up",
    "date_created": "2024-12-10T13:01:45.000",
    "date_modified": "2024-12-10T13:01:46.000",
    "request_status": "Pending",
    "responsible_agency": "Department of Sanitation",
    "final_address": "2410 Palmer Ave",
    "address_councildis": "A",
    "status": "Assigned to Contractor",
    "contractor": "IV Waste",
    "rowid": "1154217",
    "final_x": "3666315.65345",
    "final_y": "525685.750333",
    "longitude": "-90.11621289133215",
    "latitude": "29.939905683116457",
    "geocoded_column": {
      "latitude": "29.939905683116457",
      "longitude": "-90.11621289133215"
    }
  },
  {
    "service_request": "2024-1154216",
    "request_type": "Parks & Parkways",
    "request_reason": "Tree Stump (removal, grind)",
    "date_created": "2024-12-10T13:01:41.000",
    "date_modified": "2024-12-10T13:01:41.000",
    "request_status": "Pending",
    "responsible_agency": "Department of Parks & Parkway",
    "final_address": "4711 Gawain Dr",
    "address_councildis": "E",
    "status": "Pending",
    "rowid": "1154216",
    "final_x": "3707067.90385",
    "final_y": "555214.793881",
    "longitude": "-89.98645732959478",
    "latitude": "30.01984643708927",
    "geocoded_column": {
      "latitude": "30.01984643708927",
      "longitude": "-89.98645732959478"
    }
  },
  {
    "service_request": "2024-1154215",
    "request_type": "Trash/Recycling",
    "request_reason": "Order Second Trash Cart",
    "date_created": "2024-12-10T13:00:27.000",
    "date_modified": "2024-12-10T13:00:28.000",
    "request_status": "Pending",
    "responsible_agency": "Department of Sanitation",
    "final_address": "4643 Gawain Dr",
    "address_councildis": "E",
    "status": "Assigned to Contractor",
    "contractor": "Waste Pro",
    "rowid": "1154215",
    "final_x": "3707117.04907",
    "final_y": "554728.821272",
    "longitude": "-89.98632009890346",
    "latitude": "30.0185086121648",
    "geocoded_column": {
      "latitude": "30.0185086121648",
      "longitude": "-89.98632009890346"
    }
  },
  {
    "service_request": "2024-1154214",
    "request_type": "Roads and Streets",
    "request_reason": "Pothole",
    "date_created": "2024-12-10T12:53:37.000",
    "date_modified": "2024-12-10T12:54:24.000",
    "case_close_date": "2024-12-10T06:54:24.000",
    "request_status": "Closed",
    "responsible_agency": "Department of Public Works",
    "final_address": "3800 BLK Iberville St",
    "address_councildis": "A",
    "status": "Resolved",
    "rowid": "1154214",
    "final_x": "3672188.60047",
    "final_y": "538057.129054",
    "longitude": "-90.0972497536812",
    "latitude": "29.973750029530876",
    "geocoded_column": {
      "latitude": "29.973750029530876",
      "longitude": "-90.0972497536812"
    }
  },
  {
    "service_request": "2024-1154213",
    "request_type": "Trash/Recycling",
    "request_reason": "Request a Large Item Pick Up",
    "date_created": "2024-12-10T12:52:41.000",
    "date_modified": "2024-12-10T12:52:51.000",
    "request_status": "Pending",
    "responsible_agency": "Department of Sanitation",
    "final_address": "2231 Constance St",
    "address_councildis": "B",
    "status": "Assigned to Contractor",
    "contractor": "IV Waste",
    "rowid": "1154213",
    "final_x": "3678842.43906",
    "final_y": "521638.939961",
    "longitude": "-90.07680409168192",
    "latitude": "29.92840646849455",
    "geocoded_column": {
      "latitude": "29.92840646849455",
      "longitude": "-90.07680409168192"
    }
  },
  {
    "service_request": "2024-1154212",
    "request_type": "Street and Traffic Signs",
    "request_reason": "Stop Sign Missing or Damaged",
    "date_created": "2024-12-10T12:51:55.000",
    "date_modified": "2024-12-10T12:51:57.000",
    "request_status": "Pending",
    "responsible_agency": "Department of Public Works",
    "final_address": "CINDY PL & LAKE FOREST BLVD & GLOUSTER RD",
    "address_councildis": "E",
    "status": "Pending",
    "rowid": "1154212",
    "final_x": "3707382.5",
    "final_y": "558383.38",
    "longitude": "-89.98534553680834",
    "latitude": "30.028548642204164",
    "geocoded_column": {
      "latitude": "30.028548642204164",
      "longitude": "-89.98534553680834"
    }
  },
  {
    "service_request": "2024-1154211",
    "request_type": "Parks & Parkways",
    "request_reason": "Request Tree Service (Right of Way/Public Property)",
    "date_created": "2024-12-10T12:50:39.000",
    "date_modified": "2024-12-10T12:50:40.000",
    "request_status": "Pending",
    "responsible_agency": "Department of Parks & Parkway",
    "final_address": "5501 Bancroft Dr",
    "address_councildis": "D",
    "status": "Pending",
    "rowid": "1154211",
    "final_x": "3676653.65397",
    "final_y": "552428.147158",
    "longitude": "-90.08265273754103",
    "latitude": "30.01313209782283",
    "geocoded_column": {
      "latitude": "30.01313209782283",
      "longitude": "-90.08265273754103"
    }
  },
  {
    "service_request": "2024-1154210",
    "request_type": "Parks & Parkways",
    "request_reason": "Request Tree Service (Right of Way/Public Property)",
    "date_created": "2024-12-10T12:45:06.000",
    "date_modified": "2024-12-10T12:45:06.000",
    "request_status": "Pending",
    "responsible_agency": "Department of Parks & Parkway",
    "final_address": "4711 Gawain Dr",
    "address_councildis": "E",
    "status": "Pending",
    "rowid": "1154210",
    "final_x": "3707067.90385",
    "final_y": "555214.793881",
    "longitude": "-89.98645732959478",
    "latitude": "30.01984643708927",
    "geocoded_column": {
      "latitude": "30.01984643708927",
      "longitude": "-89.98645732959478"
    }
  },