[
  {
    "service_request": "2026-1273808",
    "request_type": "Abandoned Vehicles",
    "request_reason": "Abandoned/Junk Vehicles",
    "date_created": "2026-04-14T23:55:55.000",
    "date_modified": "2026-04-14T23:55:58.000",
    "request_status": "Pending",
    "responsible_agency": "Department of Public Works",
    "final_address": "6 Christopher Ct",
    "address_councildis": "E",
    "status": "Pending",
    "rowid": "1273808",
    "final_x": "3716436.7692",
    "final_y": "570326.928999",
    "longitude": "-89.95628124586425",
    "latitude": "30.061092551199216",
    "geocoded_column": {
      "latitude": "30.061092551199216",
      "longitude": "-89.95628124586425"
    }
  },
  {
    "service_request": "2026-1273807",
    "request_type": "Trash/Recycling",
    "request_reason": "Replace Trash Cart",
    "date_created": "2026-04-14T23:26:22.000",
    "date_modified": "2026-04-14T23:26:25.000",
    "request_status": "Pending",
    "responsible_agency": "Department of Sanitation",
    "final_address": "722 Cadiz St",
    "address_councildis": "B",
    "status": "Assigned to Contractor",
    "contractor": "IV Waste",
    "rowid": "1273807",
    "final_x": "3670324.20858",
    "final_y": "518172.54623",
    "longitude": "-90.10381178690709",
    "latitude": "29.91912909001116",
    "geocoded_column": {
      "latitude": "29.91912909001116",
      "longitude": "-90.10381178690709"
    }
  },
  {
    "service_request": "2026-1273806",
    "request_type": "Trash/Recycling",
    "request_reason": "Order Recycling Cart",
    "date_created": "2026-04-14T23:22:23.000",
    "date_modified": "2026-04-14T23:22:25.000",
    "request_status": "Pending",
    "responsible_agency": "Department of Sanitation",
    "final_address": "722 Cadiz St",
    "address_councildis": "B",
    "status": "Pending",
    "rowid": "1273806",
    "final_x": "3670324.20858",
    "final_y": "518172.54623",
    "longitude": "-90.10381178690709",
    "latitude": "29.91912909001116",
    "geocoded_column": {
      "latitude": "29.91912909001116",
      "longitude": "-90.10381178690709"
    }
  },
  {
    "service_request": "2026-1273805",
    "request_type": "Road Striping",
    "request_reason": "Lane Striping or other Pavement Markings",
    "date_created": "2026-04-14T23:18:53.000",
    "date_modified": "2026-04-14T23:18:54.000",
    "request_status": "Pending",
    "responsible_agency": "Department of Public Works",
    "final_address": "5600 BLK Bullard Ave",
    "address_councildis": "E",
    "status": "Pending",
    "rowid": "1273805",
    "final_x": "3717027.19813",
    "final_y": "562030.761553",
    "longitude": "-89.95473044149917",
    "latitude": "30.038261968834444",
    "geocoded_column": {
      "latitude": "30.038261968834444",
      "longitude": "-89.95473044149917"
    }
  },
  {
    "service_request": "2026-1273804",
    "request_type": "Streetlights",
    "request_reason": "Streetlight Outage/Malfunction",
    "date_created": "2026-04-14T23:12:35.000",
    "date_modified": "2026-04-14T23:12:36.000",
    "request_status": "Pending",
    "responsible_agency": "Department of Public Works",
    "final_address": "5700 Louis Prima Ct",
    "address_councildis": "E",
    "status": "Pending",
    "rowid": "1273804",
    "final_x": "3716112.88613",
    "final_y": "561730.484191",
    "longitude": "-89.95763126531321",
    "latitude": "30.037466542596274",
    "geocoded_column": {
      "latitude": "30.037466542596274",
      "longitude": "-89.95763126531321"
    }
  },
  {
    "service_request": "2026-1273803",
    "request_type": "Health Related Request",
    "request_reason": "Noise Ordinance Complaint",
    "date_created": "2026-04-14T22:47:58.000",
    "date_modified": "2026-04-14T22:48:00.000",
    "request_status": "Pending",
    "responsible_agency": "Health Department",
    "final_address": "800 Bourbon St, New Orleans, Louisiana, 70116",
    "address_councildis": "C",
    "status": "Pending",
    "rowid": "1273803",
    "final_x": "3682553.51528",
    "final_y": "533013.631428",
    "longitude": "-90.06469148499534",
    "latitude": "29.95957063099051",
    "geocoded_column": {
      "latitude": "29.95957063099051",
      "longitude": "-90.06469148499534"
    }
  },
  {
    "service_request": "2026-1273802",
    "request_type": "Health Related Request",
    "request_reason": "Noise Ordinance Complaint",
    "date_created": "2026-04-14T22:46:33.000",
    "date_modified": "2026-04-14T22:46:34.000",
    "request_status": "Pending",
    "responsible_agency": "Health Department",
    "final_address": "801 Bourbon St, New Orleans, Louisiana, 70116",
    "address_councildis": "C",
    "status": "Pending",
    "rowid": "1273802",
    "final_x": "3682490.98735",
    "final_y": "533018.672772",
    "longitude": "-90.06488875731978",
    "latitude": "29.959586396383013",
    "geocoded_column": {
      "latitude": "29.959586396383013",
      "longitude": "-90.06488875731978"
    }
  },
  {
    "service_request": "2026-1273801",
    "request_type": "Trash/Recycling",
    "request_reason": "Replace Trash Cart",
    "date_created": "2026-04-14T22:20:31.000",
    "date_modified": "2026-04-14T22:20:45.000",
    "request_status": "Pending",
    "responsible_agency": "Department of Sanitation",
    "final_address": "4840 Chantilly Dr",
    "address_councildis": "E",
    "status": "Assigned to Contractor",
    "contractor": "Waste Pro",
    "rowid": "1273801",
    "final_x": "3700751.98673",
    "final_y": "554706.82044",
    "longitude": "-90.00643204271047",
    "latitude": "30.01865232517532",
    "geocoded_column": {
      "latitude": "30.01865232517532",
      "longitude": "-90.00643204271047"
    }
  },
  {
    "service_request": "2026-1273800",
    "request_type": "Abandoned Vehicles",
    "request_reason": "Abandoned/Junk Vehicles",
    "date_created": "2026-04-14T22:15:55.000",
    "date_modified": "2026-04-14T22:15:57.000",
    "request_status": "Pending",
    "responsible_agency": "Department of Public Works",
    "final_address": "341 N Murat St",
    "address_councildis": "A",
    "status": "Pending",
    "rowid": "1273800",
    "final_x": "3670362.38855",
    "final_y": "540321.197835",
    "longitude": "-90.10294056289774",
    "latitude": "29.980029495723407",
    "geocoded_column": {
      "latitude": "29.980029495723407",
      "longitude": "-90.10294056289774"
    }
  },
  {
    "service_request": "2026-1273799",
    "request_type": "Trash/Recycling",
    "request_reason": "Request a Large Item Pick Up",
    "date_created": "2026-04-14T22:02:34.000",
    "date_modified": "2026-04-14T22:02:36.000",
    "request_status": "Pending",
    "responsible_agency": "Department of Sanitation",
    "final_address": "1924 Wildair Dr",
    "address_councildis": "D",
    "status": "Assigned to Contractor",
    "contractor": "IV Waste",
    "rowid": "1273799",
    "final_x": "3681320.7789",
    "final_y": "551122.970069",
    "longitude": "-90.06795266933082",
    "latitude": "30.00940243628917",
    "geocoded_column": {
      "latitude": "30.00940243628917",
      "longitude": "-90.06795266933082"
    }
  },
  {
    "service_request": "2026-1273798",
    "request_type": "Traffic Signals",
    "request_reason": "Traffic Signal Malfunctioning or Damaged",
    "date_created": "2026-04-14T21:52:04.000",
    "date_modified": "2026-04-14T21:52:06.000",
    "request_status": "Pending",
    "responsible_agency": "Department of Public Works",
    "final_address": "2800 BLK Earhart Blvd",
    "address_councildis": "B",
    "status": "Pending",
    "rowid": "1273798",
    "final_x": "3675955.22023",
    "final_y": "529116.912026",
    "longitude": "-90.08566138120672",
    "latitude": "29.949055179778753",
    "geocoded_column": {
      "latitude": "29.949055179778753",
      "longitude": "-90.08566138120672"
    }
  },
  {
    "service_request": "2026-1273797",
    "request_type": "Trash/Recycling",
    "request_reason": "Request a Large Item Pick Up",
    "date_created": "2026-04-14T21:34:15.000",
    "date_modified": "2026-04-14T21:34:16.000",
    "request_status": "Pending",
    "responsible_agency": "Department of Sanitation",
    "final_address": "4727 Sierra Madre Dr",
    "address_councildis": "E",
    "status": "Assigned to Contractor",
    "contractor": "Waste Pro",
    "rowid": "1273797",
    "final_x": "3713978.59787",
    "final_y": "556358.518618",
    "longitude": "-89.96457883802518",
    "latitude": "30.022766061821127",
    "geocoded_column": {
      "latitude": "30.022766061821127",
      "longitude": "-89.96457883802518"
    }
  },
  {
    "service_request": "2026-1273796",
    "request_type": "General Services",
    "request_reason": "General Service Request",
    "date_created": "2026-04-14T21:32:35.000",
    "date_modified": "2026-04-14T21:32:36.000",
    "request_status": "Pending",
    "responsible_agency": "Orleans Parish Communication District",
    "final_address": "0 BLK Acadiana Pl",
    "address_councildis": "E",
    "status": "Pending",
    "rowid": "1273796",
    "final_x": "3725131.4083",
    "final_y": "564393.680055",
    "longitude": "-89.92902788187175",
    "latitude": "30.04448842646984",
    "geocoded_column": {
      "latitude": "30.04448842646984",
      "longitude": "-89.92902788187175"
    }
  },
  {
    "service_request": "2026-1273795",
    "request_type": "Trash/Recycling",
    "request_reason": "Order Second Trash Cart",
    "date_created": "2026-04-14T21:30:58.000",
    "date_modified": "2026-04-14T21:31:02.000",
    "request_status": "Pending",
    "responsible_agency": "Department of Sanitation",
    "final_address": "1337 Mithra St",
    "address_councildis": "D",
    "status": "Assigned to Contractor",
    "contractor": "IV Waste",
    "rowid": "1273795",
    "final_x": "3677359.34325",
    "final_y": "552167.475094",
    "longitude": "-90.08043214131915",
    "latitude": "30.01239414503649",
    "geocoded_column": {
      "latitude": "30.01239414503649",
      "longitude": "-90.08043214131915"
    }
  },
  {
    "service_request": "2026-1273794",
    "request_type": "Trash/Recycling",
    "request_reason": "Missed Trash Pick-Up",
    "date_created": "2026-04-14T21:29:00.000",
    "date_modified": "2026-04-14T21:29:01.000",
    "request_status": "Pending",
    "responsible_agency": "Department of Sanitation",
    "final_address": "10220 Morrison Rd",
    "address_councildis": "E",
    "status": "Assigned to Contractor",
    "contractor": "Waste Pro",
    "rowid": "1273794",
    "final_x": "3709684.78059",
    "final_y": "563915.023393",
    "longitude": "-89.97786373257524",
    "latitude": "30.043683791566636",
    "geocoded_column": {
      "latitude": "30.043683791566636",
      "longitude": "-89.97786373257524"
    }
  },
  {
    "service_request": "2026-1273793",
    "request_type": "Trash/Recycling",
    "request_reason": "Missed Trash Pick-Up",
    "date_created": "2026-04-14T21:24:24.000",
    "date_modified": "2026-04-14T21:24:33.000",
    "request_status": "Pending",
    "responsible_agency": "Department of Sanitation",
    "final_address": "5318 General Diaz St",
    "address_councildis": "A",
    "status": "Assigned to Contractor",
    "contractor": "IV Waste",
    "rowid": "1273793",
    "final_x": "3668940.6233",
    "final_y": "542682.180429",
    "longitude": "-90.10735131803906",
    "latitude": "29.98656329757556",
    "geocoded_column": {
      "latitude": "29.98656329757556",
      "longitude": "-90.10735131803906"
    }
  },
  {
    "service_request": "2026-1273792",
    "request_type": "Streetlights",
    "request_reason": "Streetlight Outage/Malfunction",
    "date_created": "2026-04-14T21:20:03.000",
    "date_modified": "2026-04-14T21:20:04.000",
    "request_status": "Pending",
    "responsible_agency": "Department of Public Works",
    "final_address": "624 Spain St",
    "address_councildis": "C",
    "status": "Pending",
    "rowid": "1273792",
    "final_x": "3686228.7286",
    "final_y": "534837.076166",
    "longitude": "-90.05302169831994",
    "latitude": "29.964472075978964",
    "geocoded_column": {
      "latitude": "29.964472075978964",
      "longitude": "-90.05302169831994"
    }
  },
  {
    "service_request": "2026-1273791",
    "request_type": "Roads and Streets",
    "request_reason": "Sidewalk Damaged or Missing",
    "date_created": "2026-04-14T21:18:10.000",
    "date_modified": "2026-04-14T21:18:12.000",
    "request_status": "Pending",
    "responsible_agency": "Department of Public Works",
    "final_address": "2214 Alvar St",
    "address_councildis": "D",
    "status": "Pending",
    "rowid": "1273791",
    "final_x": "3692502.30019",
    "final_y": "539662.220938",
    "longitude": "-90.03303740390415",
    "latitude": "29.97754527689163",
    "geocoded_column": {
      "latitude": "29.97754527689163",
      "longitude": "-90.03303740390415"
    }
  },
  {
    "service_request": "2026-1273790",
    "request_type": "Healthy Homes",
    "request_reason": "Healthy Homes",
    "date_created": "2026-04-14T21:16:24.000",
    "date_modified": "2026-04-14T21:16:30.000",
    "request_status": "Pending",
    "responsible_agency": "Department of Code Enforcement",
    "final_address": "1418 St Ferdinand St",
    "address_councildis": "C",
    "status": "Pending",
    "rowid": "1273790",
    "final_x": "3688008.38787",
    "final_y": "537609.5058",
    "longitude": "-90.04730342217044",
    "latitude": "29.972040491153816",
    "geocoded_column": {
      "latitude": "29.972040491153816",
      "longitude": "-90.04730342217044"
    }
  },
  {
    "service_request": "2026-1273789",
    "request_type": "Abandoned Vehicles",
    "request_reason": "Abandoned/Junk Vehicles",
    "date_created": "2026-04-14T21:12:46.000",
    "date_modified": "2026-04-14T21:12:48.000",
    "request_status": "Pending",
    "responsible_agency": "Department of Public Works",
    "final_address": "2205 Alvar St",
    "address_councildis": "D",
    "status": "Pending",
    "rowid": "1273789",
    "final_x": "3692587.93251",
    "final_y": "539593.512586",
    "longitude": "-90.0327694122913",
    "latitude": "29.977353681201784",
    "geocoded_column": {
      "latitude": "29.977353681201784",
      "longitude": "-90.0327694122913"
    }
  },
  {
    "service_request": "2026-1273788",
    "request_type": "Property Maintenance",
    "request_reason": "Property Maintenance",
    "date_created": "2026-04-14T21:09:18.000",
    "date_modified": "2026-04-14T21:09:20.000",
    "request_status": "Pending",
    "responsible_agency": "Department of Code Enforcement",
    "final_address": "1420 St Ferdinand St",
    "address_councildis": "C",
    "status": "Pending",
    "rowid": "1273788",
    "final_x": "3688010.11151",
    "final_y": "537618.987016",
    "longitude": "-90.04729764258023",
    "latitude": "29.972066507976827",
    "geocoded_column": {
      "latitude": "29.972066507976827",
      "longitude": "-90.04729764258023"
    }
  },
  {
    "service_request": "2026-1273787",
    "request_type": "Property Maintenance",
    "request_reason": "Property Maintenance",
    "date_created": "2026-04-14T21:06:22.000",
    "date_modified": "2026-04-14T21:06:24.000",
    "request_status": "Pending",
    "responsible_agency": "Department of Code Enforcement",
    "final_address": "1418 St Ferdinand St",
    "address_councildis": "C",
    "status": "Pending",
    "rowid": "1273787",
    "final_x": "3688008.38787",
    "final_y": "537609.5058",
    "longitude": "-90.04730342217044",
    "latitude": "29.972040491153816",
    "geocoded_column": {
      "latitude": "29.972040491153816",
      "longitude": "-90.04730342217044"
    }
  },
  {
    "service_request": "2026-1273786",
    "request_type": "Property Maintenance",
    "request_reason": "Property Maintenance",
    "date_created": "2026-04-14T20:55:50.000",
    "date_modified": "2026-04-14T20:56:01.000",
    "request_status": "Pending",
    "responsible_agency": "Department of Code Enforcement",
    "final_address": "1818 Clio St",
    "address_councildis": "B",
    "status": "Pending",
    "rowid": "1273786",
    "final_x": "3678794.79355",
    "final_y": "526906.18867",
    "longitude": "-90.07677215567685",
    "latitude": "29.942891104012993",
    "geocoded_column": {
      "latitude": "29.942891104012993",
      "longitude": "-90.07677215567685"
    }
  },
  {
    "service_request": "2026-1273785",
    "request_type": "Trash/Recycling",
    "request_reason": "Request a Large Item Pick Up",
    "date_created": "2026-04-14T20:49:13.000",
    "date_modified": "2026-04-14T20:49:15.000",
    "request_status": "Pending",
    "responsible_agency": "Department of Sanitation",
    "final_address": "915 Louisiana Ave",
    "address_councildis": "B",
    "status": "Assigned to Contractor",
    "contractor": "IV Waste",
    "rowid": "1273785",
    "final_x": "3675388.89077",
    "final_y": "519119.493303",
    "longitude": "-90.087792660594",
    "latitude": "29.921582486144608",
    "geocoded_column": {
      "latitude": "29.921582486144608",
      "longitude": "-90.087792660594"
    }
  },
  {
    "service_request": "2026-1273784",
    "request_type": "Trash/Recycling",
    "request_reason": "Replace Trash Cart",
    "date_created": "2026-04-14T20:39:21.000",
    "date_modified": "2026-04-14T20:39:23.000",
    "request_status": "Pending",
    "responsible_agency": "Department of Sanitation",
    "final_address": "2316 Cambronne St",
    "address_councildis": "A",
    "status": "Assigned to Contractor",
    "contractor": "IV Waste",
    "rowid": "1273784",
    "final_x": "3663823.10227",
    "final_y": "532080.351171",
    "longitude": "-90.12386917963",
    "latitude": "29.957561341077536",
    "geocoded_column": {
      "latitude": "29.957561341077536",
      "longitude": "-90.12386917963"
    }
  },
  {
    "service_request": "2026-1273783",
    "request_type": "Trash/Recycling",
    "request_reason": "Missed Trash Pick-Up",
    "date_created": "2026-04-14T20:18:53.000",
    "date_modified": "2026-04-14T20:18:59.000",
    "request_status": "Pending",
    "responsible_agency": "Department of Sanitation",
    "final_address": "11600 Morrison Rd",
    "address_councildis": "E",
    "status": "Assigned to Contractor",
    "contractor": "Waste Pro",
    "rowid": "1273783",
    "final_x": "3712842.9731",
    "final_y": "566029.157283",
    "longitude": "-89.96780295767543",
    "latitude": "30.049393700817774",
    "geocoded_column": {
      "latitude": "30.049393700817774",
      "longitude": "-89.96780295767543"
    }
  },
  {
    "service_request": "2026-1273782",
    "request_type": "Abandoned Vehicles",
    "request_reason": "Abandoned/Junk Vehicles",
    "date_created": "2026-04-14T20:17:40.000",
    "date_modified": "2026-04-14T20:17:41.000",
    "request_status": "Pending",
    "responsible_agency": "Department of Public Works",
    "final_address": "1410 Port St",
    "address_councildis": "C",
    "status": "Pending",
    "rowid": "1273782",
    "final_x": "3687706.21507",
    "final_y": "537608.321224",
    "longitude": "-90.04825777274858",
    "latitude": "29.97204655577204",
    "geocoded_column": {
      "latitude": "29.97204655577204",
      "longitude": "-90.04825777274858"
    }
  },
  {
    "service_request": "2026-1273781",
    "request_type": "Abandoned Vehicles",
    "request_reason": "Abandoned/Junk Vehicles",
    "date_created": "2026-04-14T20:14:20.000",
    "date_modified": "2026-04-14T20:14:22.000",
    "request_status": "Pending",
    "responsible_agency": "Department of Public Works",
    "final_address": "1822 Clio St",
    "address_councildis": "B",
    "status": "Pending",
    "rowid": "1273781",
    "final_x": "3678761.73832",
    "final_y": "526923.29299",
    "longitude": "-90.07687592686507",
    "latitude": "29.94293913190759",
    "geocoded_column": {
      "latitude": "29.94293913190759",
      "longitude": "-90.07687592686507"
    }
  },
  {
    "service_request": "2026-1273780",
    "request_type": "General Services",
    "request_reason": "General Service Request",
    "date_created": "2026-04-14T20:10:21.000",
    "date_modified": "2026-04-14T20:10:22.000",
    "request_status": "Pending",
    "responsible_agency": "Orleans Parish Communication District",
    "final_address": "1040 N Rampart St",
    "address_councildis": "C",
    "status": "Pending",
    "rowid": "1273780",
    "final_x": "3682295.679",
    "final_y": "534468.570181",
    "longitude": "-90.06545483477667",
    "latitude": "29.96357906174183",
    "geocoded_column": {
      "latitude": "29.96357906174183",
      "longitude": "-90.06545483477667"
    }
  },
  {
    "service_request": "2026-1273779",
    "request_type": "Streetlights",
    "request_reason": "Streetlight Outage/Malfunction",
    "date_created": "2026-04-14T20:08:19.000",
    "date_modified": "2026-04-14T20:08:20.000",
    "request_status": "Pending",
    "responsible_agency": "Department of Public Works",
    "final_address": "1037 N Rampart St",
    "address_councildis": "C",
    "status": "Pending",
    "rowid": "1273779",
    "final_x": "3682180.23055",
    "final_y": "534523.385093",
    "longitude": "-90.06581749380007",
    "latitude": "29.963733295986817",
    "geocoded_column": {
      "latitude": "29.963733295986817",
      "longitude": "-90.06581749380007"
    }
  },
  {
    "service_request": "2026-1273778",
    "request_type": "General Services",
    "request_reason": "General Service Request",
    "date_created": "2026-04-14T20:07:45.000",
    "date_modified": "2026-04-14T20:07:48.000",
    "request_status": "Pending",
    "responsible_agency": "Orleans Parish Communication District",
    "final_address": "3131 Mansfield Ave",
    "address_councildis": "C",
    "status": "Pending",
    "rowid": "1273778",
    "final_x": "3709061.38737",
    "final_y": "518702.694583",
    "longitude": "-89.98151966312746",
    "latitude": "29.919387048023438",
    "geocoded_column": {
      "latitude": "29.919387048023438",
      "longitude": "-89.98151966312746"
    }
  },
  {
    "service_request": "2026-1273777",
    "request_type": "Healthy Homes",
    "request_reason": "Healthy Homes",
    "date_created": "2026-04-14T20:05:31.000",
    "date_modified": "2026-04-14T20:05:33.000",
    "request_status": "Pending",
    "responsible_agency": "Department of Code Enforcement",
    "final_address": "3230 Bienville Ave",
    "address_councildis": "B",
    "status": "Pending",
    "rowid": "1273777",
    "final_x": "3674099.01691",
    "final_y": "536966.575944",
    "longitude": "-90.09125356842695",
    "latitude": "29.970694573365616",
    "geocoded_column": {
      "latitude": "29.970694573365616",
      "longitude": "-90.09125356842695"
    }
  },
  {
    "service_request": "2026-1273776",
    "request_type": "Property Maintenance",
    "request_reason": "Property Maintenance",
    "date_created": "2026-04-14T20:03:08.000",
    "date_modified": "2026-04-14T20:03:09.000",
    "request_status": "Pending",
    "responsible_agency": "Department of Code Enforcement",
    "final_address": "3131 Mansfield Ave",
    "address_councildis": "C",
    "status": "Pending",
    "rowid": "1273776",
    "final_x": "3709061.38737",
    "final_y": "518702.694583",
    "longitude": "-89.98151966312746",
    "latitude": "29.919387048023438",
    "geocoded_column": {
      "latitude": "29.919387048023438",
      "longitude": "-89.98151966312746"
    }
  },
  {
    "service_request": "2026-1273775",
    "request_type": "Trash/Recycling",
    "request_reason": "Replace Trash Cart",
    "date_created": "2026-04-14T19:59:18.000",
    "date_modified": "2026-04-14T19:59:20.000",
    "request_status": "Pending",
    "responsible_agency": "Department of Sanitation",
    "final_address": "6980 Louisville St",
    "address_councildis": "A",
    "status": "Assigned to Contractor",
    "contractor": "IV Waste",
    "rowid": "1273775",
    "final_x": "3668304.60692",
    "final_y": "554007.912856",
    "longitude": "-90.10897801024527",
    "latitude": "30.017723827304938",
    "geocoded_column": {
      "latitude": "30.017723827304938",
      "longitude": "-90.10897801024527"
    }
  },
  {
    "service_request": "2026-1273774",
    "request_type": "Safety & Permits",
    "request_reason": "Zoning Enforcement",
    "date_created": "2026-04-14T19:58:25.000",
    "date_modified": "2026-04-14T19:58:27.000",
    "request_status": "Pending",
    "responsible_agency": "Safety and Permits",
    "final_address": "3131 Mansfield Ave",
    "address_councildis": "C",
    "status": "Pending",
    "rowid": "1273774",
    "final_x": "3709061.38737",
    "final_y": "518702.694583",
    "longitude": "-89.98151966312746",
    "latitude": "29.919387048023438",
    "geocoded_column": {
      "latitude": "29.919387048023438",
      "longitude": "-89.98151966312746"
    }
  },
  {
    "service_request": "2026-1273773",
    "request_type": "Abandoned Vehicles",
    "request_reason": "Abandoned/Junk Vehicles",
    "date_created": "2026-04-14T19:52:28.000",
    "date_modified": "2026-04-14T19:52:30.000",
    "request_status": "Pending",
    "responsible_agency": "Department of Public Works",
    "final_address": "2200 BLK General Taylor St",
    "address_councildis": "B",
    "status": "Pending",
    "rowid": "1273773",
    "final_x": "3672097.13477",
    "final_y": "523314.821596",
    "longitude": "-90.09804056494009",
    "latitude": "29.93321627049628",
    "geocoded_column": {
      "latitude": "29.93321627049628",
      "longitude": "-90.09804056494009"
    }
  },
  {
    "service_request": "2026-1273772",
    "request_type": "Trash/Recycling",
    "request_reason": "Replace Trash Cart",
    "date_created": "2026-04-14T19:50:20.000",
    "date_modified": "2026-04-14T19:50:21.000",
    "request_status": "Pending",
    "responsible_agency": "Department of Sanitation",
    "final_address": "5251 Beaucaire St",
    "address_councildis": "E",
    "status": "Assigned to Contractor",
    "contractor": "Waste Pro",
    "rowid": "1273772",
    "final_x": "3724511.99244",
    "final_y": "562744.99664",
    "longitude": "-89.93104925860835",
    "latitude": "30.03997608753647",
    "geocoded_column": {
      "latitude": "30.03997608753647",
      "longitude": "-89.93104925860835"
    }
  },
  {
    "service_request": "2026-1273771",
    "request_type": "Roads and Streets",
    "request_reason": "Debris in Driving Lanes",
    "date_created": "2026-04-14T19:49:56.000",
    "date_modified": "2026-04-14T19:49:59.000",
    "request_status": "Pending",
    "responsible_agency": "Department of Public Works",
    "final_address": "6800 Colbert St",
    "address_councildis": "A",
    "status": "Pending",
    "rowid": "1273771",
    "final_x": "3667814.05805",
    "final_y": "552840.919063",
    "longitude": "-90.11056730660913",
    "latitude": "30.01452940930427",
    "geocoded_column": {
      "latitude": "30.01452940930427",
      "longitude": "-90.11056730660913"
    }
  },
  {
    "service_request": "2026-1273770",
    "request_type": "Abandoned Vehicles",
    "request_reason": "Abandoned/Junk Vehicles",
    "date_created": "2026-04-14T19:42:34.000",
    "date_modified": "2026-04-14T19:42:36.000",
    "request_status": "Pending",
    "responsible_agency": "Department of Public Works",
    "final_address": "0 BLK Acadiana Pl",
    "address_councildis": "E",
    "status": "Pending",
    "rowid": "1273770",
    "final_x": "3725131.4083",
    "final_y": "564393.680055",
    "longitude": "-89.92902788187175",
    "latitude": "30.04448842646984",
    "geocoded_column": {
      "latitude": "30.04448842646984",
      "longitude": "-89.92902788187175"
    }
  },
  {
    "service_request": "2026-1273769",
    "request_type": "Trash/Recycling",
    "request_reason": "Request a Large Item Pick Up",
    "date_created": "2026-04-14T19:40:29.000",
    "date_modified": "2026-04-14T19:40:30.000",
    "request_status": "Pending",
    "responsible_agency": "Department of Sanitation",
    "final_address": "4942 Redwood St",
    "address_councildis": "E",
    "status": "Assigned to Contractor",
    "contractor": "Waste Pro",
    "rowid": "1273769",
    "final_x": "3712289.2853",
    "final_y": "557395.708187",
    "longitude": "-89.96987762441385",
    "latitude": "30.025673302271347",
    "geocoded_column": {
      "latitude": "30.025673302271347",
      "longitude": "-89.96987762441385"
    }
  },
  {
    "service_request": "2026-1273768",
    "request_type": "Street and Traffic Signs",
    "request_reason": "Disabled Parking Sign Missing or Damaged",
    "date_created": "2026-04-14T19:01:19.000",
    "date_modified": "2026-04-14T19:01:22.000",
    "request_status": "Pending",
    "responsible_agency": "Department of Public Works",
    "final_address": "4732 Laurel St",
    "address_councildis": "B",
    "status": "Pending",
    "rowid": "1273768",
    "final_x": "3669742.61217",
    "final_y": "517866.29279",
    "longitude": "-90.10565795240986",
    "latitude": "29.918304136912237",
    "geocoded_column": {
      "latitude": "29.918304136912237",
      "longitude": "-90.10565795240986"
    }
  },
  {
    "service_request": "2026-1273767",
    "request_type": "Property Maintenance",
    "request_reason": "Property Maintenance",
    "date_created": "2026-04-14T18:57:05.000",
    "date_modified": "2026-04-14T18:57:07.000",
    "request_status": "Pending",
    "responsible_agency": "Department of Code Enforcement",
    "final_address": "4734 Laurel St",
    "address_councildis": "B",
    "status": "Pending",
    "rowid": "1273767",
    "final_x": "3669729.38798",
    "final_y": "517865.614646",
    "longitude": "-90.10569971713525",
    "latitude": "29.91830266181609",
    "geocoded_column": {
      "latitude": "29.91830266181609",
      "longitude": "-90.10569971713525"
    }
  },
  {
    "service_request": "2026-1273766",
    "request_type": "General Services",
    "request_reason": "General Service Request",
    "date_created": "2026-04-14T18:52:50.000",
    "date_modified": "2026-04-14T18:52:52.000",
    "request_status": "Pending",
    "responsible_agency": "Orleans Parish Communication District",
    "final_address": "516 Abalon Ct",
    "address_councildis": "C",
    "status": "Pending",
    "rowid": "1273766",
    "final_x": "3688943.00777",
    "final_y": "530249.815937",
    "longitude": "-90.044613162054",
    "latitude": "29.951775028041464",
    "geocoded_column": {
      "latitude": "29.951775028041464",
      "longitude": "-90.044613162054"
    }
  },
  {
    "service_request": "2026-1273765",
    "request_type": "Property Maintenance",
    "request_reason": "Property Maintenance",
    "date_created": "2026-04-14T18:52:48.000",
    "date_modified": "2026-04-14T18:52:51.000",
    "request_status": "Pending",
    "responsible_agency": "Department of Code Enforcement",
    "final_address": "2115 S Saratoga St",
    "address_councildis": "B",
    "status": "Pending",
    "rowid": "1273765",
    "final_x": "3676635.04232",
    "final_y": "525380.872637",
    "longitude": "-90.08364353895576",
    "latitude": "29.938761935198333",
    "geocoded_column": {
      "latitude": "29.938761935198333",
      "longitude": "-90.08364353895576"
    }
  },
  {
    "service_request": "2026-1273764",
    "request_type": "Trash/Recycling",
    "request_reason": "Replace Trash Cart",
    "date_created": "2026-04-14T18:52:28.000",
    "date_modified": "2026-04-14T18:52:31.000",
    "request_status": "Pending",
    "responsible_agency": "Department of Sanitation",
    "final_address": "3316 Laurel St",
    "address_councildis": "B",
    "status": "Assigned to Contractor",
    "contractor": "IV Waste",
    "rowid": "1273764",
    "final_x": "3675566.24731",
    "final_y": "519022.047351",
    "longitude": "-90.08723616722258",
    "latitude": "29.921309238865515",
    "geocoded_column": {
      "latitude": "29.921309238865515",
      "longitude": "-90.08723616722258"
    }
  },
  {
    "service_request": "2026-1273763",
    "request_type": "Tree Service",
    "request_reason": "Tree Trim",
    "date_created": "2026-04-14T18:50:35.000",
    "date_modified": "2026-04-14T18:50:37.000",
    "request_status": "Pending",
    "responsible_agency": "Department of Parks & Parkways",
    "final_address": "1700 BLK Old Saint Bernard St",
    "address_councildis": "D",
    "status": "Pending",
    "rowid": "1273763",
    "final_x": "3682454.66622",
    "final_y": "538821.090124",
    "longitude": "-90.06480060481778",
    "latitude": "29.975542150240713",
    "geocoded_column": {
      "latitude": "29.975542150240713",
      "longitude": "-90.06480060481778"
    }
  },
  {
    "service_request": "2026-1273762",
    "request_type": "Trash/Recycling",
    "request_reason": "Repair Trash Cart",
    "date_created": "2026-04-14T18:47:17.000",
    "date_modified": "2026-04-14T18:47:19.000",
    "request_status": "Pending",
    "responsible_agency": "Department of Sanitation",
    "final_address": "4536 Orleans Ave",
    "address_councildis": "A",
    "status": "Assigned to Contractor",
    "contractor": "IV Waste",
    "rowid": "1273762",
    "final_x": "3670823.69646",
    "final_y": "541401.924556",
    "longitude": "-90.10144685965375",
    "latitude": "29.982987497772378",
    "geocoded_column": {
      "latitude": "29.982987497772378",
      "longitude": "-90.10144685965375"
    }
  },
  {
    "service_request": "2026-1273761",
    "request_type": "Trash/Recycling",
    "request_reason": "Repair Recycling Cart",
    "date_created": "2026-04-14T18:42:46.000",
    "date_modified": "2026-04-14T18:42:47.000",
    "request_status": "Pending",
    "responsible_agency": "Department of Sanitation",
    "final_address": "339 Audubon Blvd",
    "address_councildis": "A",
    "status": "Pending",
    "rowid": "1273761",
    "final_x": "3667405.92564",
    "final_y": "530178.264641",
    "longitude": "-90.11261962658106",
    "latitude": "29.952226753392242",
    "geocoded_column": {
      "latitude": "29.952226753392242",
      "longitude": "-90.11261962658106"
    }
  },
  {
    "service_request": "2026-1273760",
    "request_type": "Trash/Recycling",
    "request_reason": "Replace Trash Cart",
    "date_created": "2026-04-14T18:40:22.000",
    "date_modified": "2026-04-14T18:40:24.000",
    "request_status": "Pending",
    "responsible_agency": "Department of Sanitation",
    "final_address": "2012 Josephine St",
    "address_councildis": "B",
    "status": "Assigned to Contractor",
    "contractor": "IV Waste",
    "rowid": "1273760",
    "final_x": "3676836.64833",
    "final_y": "525280.831677",
    "longitude": "-90.08301049244704",
    "latitude": "29.938480808002033",
    "geocoded_column": {
      "latitude": "29.938480808002033",
      "longitude": "-90.08301049244704"
    }
  },
  {
    "service_request": "2026-1273759",
    "request_type": "Tree Service",
    "request_reason": "Tree Trim",
    "date_created": "2026-04-14T18:33:24.000",
    "date_modified": "2026-04-14T18:33:25.000",
    "request_status": "Pending",
    "responsible_agency": "Department of Parks & Parkways",
    "final_address": "5720 Albany Ct",
    "address_councildis": "C",
    "status": "Pending",
    "rowid": "1273759",
    "final_x": "3704803.7667",
    "final_y": "521461.973049",
    "longitude": "-89.99485698718277",
    "latitude": "29.927111533837603",
    "geocoded_column": {
      "latitude": "29.927111533837603",
      "longitude": "-89.99485698718277"
    }
  },
  {
    "service_request": "2026-1273758",
    "request_type": "Trash/Recycling",
    "request_reason": "Request a Large Item Pick Up",
    "date_created": "2026-04-14T18:22:04.000",
    "date_modified": "2026-04-14T18:22:06.000",
    "request_status": "Pending",
    "responsible_agency": "Department of Sanitation",
    "final_address": "1927 Kerlerec St",
    "address_councildis": "D",
    "status": "Assigned to Contractor",
    "contractor": "IV Waste",
    "rowid": "1273758",
    "final_x": "3680450.30536",
    "final_y": "537751.001032",
    "longitude": "-90.07116815121077",
    "latitude": "29.972660636993773",
    "geocoded_column": {
      "latitude": "29.972660636993773",
      "longitude": "-90.07116815121077"
    }
  },
  {
    "service_request": "2026-1273757",
    "request_type": "Trash/Recycling",
    "request_reason": "Replace Recycling Cart",
    "date_created": "2026-04-14T18:21:56.000",
    "date_modified": "2026-04-14T18:21:58.000",
    "request_status": "Pending",
    "responsible_agency": "Department of Sanitation",
    "final_address": "6016 St Charles Ave",
    "address_councildis": "A",
    "status": "Pending",
    "rowid": "1273757",
    "final_x": "3665536.5257",
    "final_y": "522450.08089",
    "longitude": "-90.11878100278054",
    "latitude": "29.931031355859783",
    "geocoded_column": {
      "latitude": "29.931031355859783",
      "longitude": "-90.11878100278054"
    }
  },
  {
    "service_request": "2026-1273755",
    "request_type": "Trash/Recycling",
    "request_reason": "Missed Trash Pick-Up",
    "date_created": "2026-04-14T18:18:19.000",
    "date_modified": "2026-04-14T18:18:21.000",
    "request_status": "Pending",
    "responsible_agency": "Department of Sanitation",
    "final_address": "11408 Campbell Ln",
    "address_councildis": "E",
    "status": "Assigned to Contractor",
    "contractor": "Waste Pro",
    "rowid": "1273755",
    "final_x": "3717950.55065",
    "final_y": "561277.37283",
    "longitude": "-89.9518411480133",
    "latitude": "30.03615987671531",
    "geocoded_column": {
      "latitude": "30.03615987671531",
      "longitude": "-89.9518411480133"
    }
  },
  {
    "service_request": "2026-1273756",
    "request_type": "Trash/Recycling",
    "request_reason": "Missed Trash Pick-Up",
    "date_created": "2026-04-14T18:18:19.000",
    "date_modified": "2026-04-14T18:18:22.000",
    "request_status": "Pending",
    "responsible_agency": "Department of Sanitation",
    "final_address": "11408 Campbell Ln",
    "address_councildis": "E",
    "status": "Assigned to Contractor",
    "contractor": "Waste Pro",
    "rowid": "1273756",
    "final_x": "3717950.55065",
    "final_y": "561277.37283",
    "longitude": "-89.9518411480133",
    "latitude": "30.03615987671531",
    "geocoded_column": {
      "latitude": "30.03615987671531",
      "longitude": "-89.9518411480133"
    }
  },
  {
    "service_request": "2026-1273753",
    "request_type": "Trash/Recycling",
    "request_reason": "Missed Trash Pick-Up",
    "date_created": "2026-04-14T18:18:18.000",
    "date_modified": "2026-04-14T18:18:20.000",
    "request_status": "Pending",
    "responsible_agency": "Department of Sanitation",
    "final_address": "11408 Campbell Ln",
    "address_councildis": "E",
    "status": "Assigned to Contractor",
    "contractor": "Waste Pro",
    "rowid": "1273753",
    "final_x": "3717950.55065",
    "final_y": "561277.37283",
    "longitude": "-89.9518411480133",
    "latitude": "30.03615987671531",
    "geocoded_column": {
      "latitude": "30.03615987671531",
      "longitude": "-89.9518411480133"
    }
  },
  {
    "service_request": "2026-1273754",
    "request_type": "Trash/Recycling",
    "request_reason": "Missed Trash Pick-Up",
    "date_created": "2026-04-14T18:18:18.000",
    "date_modified": "2026-04-14T18:18:20.000",
    "request_status": "Pending",
    "responsible_agency": "Department of Sanitation",
    "final_address": "11408 Campbell Ln",
    "address_councildis": "E",
    "status": "Assigned to Contractor",
    "contractor": "Waste Pro",
    "rowid": "1273754",
    "final_x": "3717950.55065",
    "final_y": "561277.37283",
    "longitude": "-89.9518411480133",
    "latitude": "30.03615987671531",
    "geocoded_column": {
      "latitude": "30.03615987671531",
      "longitude": "-89.9518411480133"
    }
  },
  {
    "service_request": "2026-1273752",
    "request_type": "Trash/Recycling",
    "request_reason": "Replace Recycling Cart",
    "date_created": "2026-04-14T18:16:01.000",
    "date_modified": "2026-04-14T18:16:03.000",
    "request_status": "Pending",
    "responsible_agency": "Department of Sanitation",
    "final_address": "1413 Burdette St",
    "address_councildis": "A",
    "status": "Pending",
    "rowid": "1273752",
    "final_x": "3663377.55155",
    "final_y": "528197.706368",
    "longitude": "-90.12540535001745",
    "latitude": "29.946898245933433",
    "geocoded_column": {
      "latitude": "29.946898245933433",
      "longitude": "-90.12540535001745"
    }
  },
  {
    "service_request": "2026-1273751",
    "request_type": "Trash/Recycling",
    "request_reason": "Request a Large Item Pick Up",
    "date_created": "2026-04-14T18:10:55.000",
    "date_modified": "2026-04-14T18:10:57.000",
    "request_status": "Pending",
    "responsible_agency": "Department of Sanitation",
    "final_address": "1817 Elysian Fields Ave",
    "address_councildis": "D",
    "status": "Assigned to Contractor",
    "contractor": "IV Waste",
    "rowid": "1273751",
    "final_x": "3684905.72162",
    "final_y": "539054.992778",
    "longitude": "-90.05705128469243",
    "latitude": "29.976110461045057",
    "geocoded_column": {
      "latitude": "29.976110461045057",
      "longitude": "-90.05705128469243"
    }
  },
  {
    "service_request": "2026-1273750",
    "request_type": "Abandoned Vehicles",
    "request_reason": "Abandoned/Junk Vehicles",
    "date_created": "2026-04-14T18:04:20.000",
    "date_modified": "2026-04-14T18:04:21.000",
    "request_status": "Pending",
    "responsible_agency": "Department of Public Works",
    "final_address": "7733 Hampson St",
    "address_councildis": "A",
    "status": "Pending",
    "rowid": "1273750",
    "final_x": "3661717.76115",
    "final_y": "526303.118206",
    "longitude": "-90.13070872974983",
    "latitude": "29.94173673967355",
    "geocoded_column": {
      "latitude": "29.94173673967355",
      "longitude": "-90.13070872974983"
    }
  },
  {
    "service_request": "2026-1273749",
    "request_type": "Trash/Recycling",
    "request_reason": "Request a Large Item Pick Up",
    "date_created": "2026-04-14T18:02:11.000",
    "date_modified": "2026-04-14T18:02:14.000",
    "request_status": "Pending",
    "responsible_agency": "Department of Sanitation",
    "final_address": "2709 Dante St",
    "address_councildis": "A",
    "status": "Assigned to Contractor",
    "contractor": "IV Waste",
    "rowid": "1273749",
    "final_x": "3665146.54861",
    "final_y": "532893.549188",
    "longitude": "-90.11966291019277",
    "latitude": "29.959758892483418",
    "geocoded_column": {
      "latitude": "29.959758892483418",
      "longitude": "-90.11966291019277"
    }
  },
  {
    "service_request": "2026-1273748",
    "request_type": "Trash/Recycling",
    "request_reason": "Replace Trash Cart",
    "date_created": "2026-04-14T18:00:23.000",
    "date_modified": "2026-04-14T18:00:25.000",
    "request_status": "Pending",
    "responsible_agency": "Department of Sanitation",
    "final_address": "6031 Chestnut St",
    "address_councildis": "A",
    "status": "Assigned to Contractor",
    "contractor": "IV Waste",
    "rowid": "1273748",
    "final_x": "3664668.49063",
    "final_y": "520050.215288",
    "longitude": "-90.12160140229847",
    "latitude": "29.92445775229554",
    "geocoded_column": {
      "latitude": "29.92445775229554",
      "longitude": "-90.12160140229847"
    }
  },
  {
    "service_request": "2026-1273747",
    "request_type": "Graffiti Removal",
    "request_reason": "Graffiti Removal",
    "date_created": "2026-04-14T17:55:22.000",
    "date_modified": "2026-04-14T17:55:24.000",
    "request_status": "Pending",
    "responsible_agency": "Department of Code Enforcement",
    "final_address": "856 Carondelet St Unit 5",
    "address_councildis": "B",
    "status": "Pending",
    "rowid": "1273747",
    "final_x": "3679954.58088",
    "final_y": "527596.281087",
    "longitude": "-90.07308646496632",
    "latitude": "29.944753605346307",
    "geocoded_column": {
      "latitude": "29.944753605346307",
      "longitude": "-90.07308646496632"
    }
  },
  {
    "service_request": "2026-1273746",
    "request_type": "Trash/Recycling",
    "request_reason": "Order Trash Cart",
    "date_created": "2026-04-14T17:55:19.000",
    "date_modified": "2026-04-14T17:55:20.000",
    "request_status": "Pending",
    "responsible_agency": "Department of Sanitation",
    "final_address": "2010 Palmer Ave",
    "address_councildis": "A",
    "status": "Assigned to Contractor",
    "contractor": "IV Waste",
    "rowid": "1273746",
    "final_x": "3665783.60954",
    "final_y": "524427.199292",
    "longitude": "-90.11793478513788",
    "latitude": "29.93646059890064",
    "geocoded_column": {
      "latitude": "29.93646059890064",
      "longitude": "-90.11793478513788"
    }
  },
  {
    "service_request": "2026-1273745",
    "request_type": "General Services",
    "request_reason": "General Service Request",
    "date_created": "2026-04-14T17:51:44.000",
    "date_modified": "2026-04-14T17:51:47.000",
    "request_status": "Pending",
    "responsible_agency": "Orleans Parish Communication District",
    "final_address": "856 Carondelet St Unit 5",
    "address_councildis": "B",
    "status": "Pending",
    "rowid": "1273745",
    "final_x": "3679954.58088",
    "final_y": "527596.281087",
    "longitude": "-90.07308646496632",
    "latitude": "29.944753605346307",
    "geocoded_column": {
      "latitude": "29.944753605346307",
      "longitude": "-90.07308646496632"
    }
  },
  {
    "service_request": "2026-1273744",
    "request_type": "Trash/Recycling",
    "request_reason": "Request a Large Item Pick Up",
    "date_created": "2026-04-14T17:28:04.000",
    "date_modified": "2026-04-14T17:28:06.000",
    "request_status": "Pending",
    "responsible_agency": "Department of Sanitation",
    "final_address": "617 Gallier St",
    "address_councildis": "C",
    "status": "Assigned to Contractor",
    "contractor": "IV Waste",
    "rowid": "1273744",
    "final_x": "3690068.71107",
    "final_y": "533925.933061",
    "longitude": "-90.04092781962366",
    "latitude": "29.96184821444265",
    "geocoded_column": {
      "latitude": "29.96184821444265",
      "longitude": "-90.04092781962366"
    }
  },
  {
    "service_request": "2026-1273743",
    "request_type": "Trash/Recycling",
    "request_reason": "Request a Large Item Pick Up",
    "date_created": "2026-04-14T17:24:08.000",
    "date_modified": "2026-04-14T17:24:10.000",
    "request_status": "Pending",
    "responsible_agency": "Department of Sanitation",
    "final_address": "28 Swallow St",
    "address_councildis": "D",
    "status": "Assigned to Contractor",
    "contractor": "IV Waste",
    "rowid": "1273743",
    "final_x": "3673236.40244",
    "final_y": "557124.09737",
    "longitude": "-90.09328887734668",
    "latitude": "30.026146393714356",
    "geocoded_column": {
      "latitude": "30.026146393714356",
      "longitude": "-90.09328887734668"
    }
  },
  {
    "service_request": "2026-1273742",
    "request_type": "Trash/Recycling",
    "request_reason": "Order Recycling Cart",
    "date_created": "2026-04-14T17:22:59.000",
    "date_modified": "2026-04-14T17:23:01.000",
    "request_status": "Pending",
    "responsible_agency": "Department of Sanitation",
    "final_address": "3646 Republic St, New Orleans, Louisiana, 70122",
    "address_councildis": "D",
    "status": "Pending",
    "rowid": "1273742",
    "final_x": "3680382.51189",
    "final_y": "545897.559504",
    "longitude": "-90.07109883738919",
    "latitude": "29.99506287974409",
    "geocoded_column": {
      "latitude": "29.99506287974409",
      "longitude": "-90.07109883738919"
    }
  },
  {
    "service_request": "2026-1273741",
    "request_type": "Abandoned Vehicles",
    "request_reason": "Abandoned/Junk Vehicles",
    "date_created": "2026-04-14T17:11:40.000",
    "date_modified": "2026-04-14T17:11:41.000",
    "request_status": "Pending",
    "responsible_agency": "Department of Public Works",
    "final_address": "7300 Spring Lake Dr",
    "address_councildis": "E",
    "status": "Pending",
    "rowid": "1273741",
    "final_x": "3700550.08221",
    "final_y": "558887.444828",
    "longitude": "-90.00691707483311",
    "latitude": "30.030153864897148",
    "geocoded_column": {
      "latitude": "30.030153864897148",
      "longitude": "-90.00691707483311"
    }
  },
  {
    "service_request": "2026-1273740",
    "request_type": "Property Maintenance",
    "request_reason": "Property Maintenance",
    "date_created": "2026-04-14T17:04:52.000",
    "date_modified": "2026-04-14T17:04:54.000",
    "request_status": "Pending",
    "responsible_agency": "Department of Code Enforcement",
    "final_address": "8916 Cohn St",
    "address_councildis": "A",
    "status": "Pending",
    "rowid": "1273740",
    "final_x": "3661373.40493",
    "final_y": "532185.631043",
    "longitude": "-90.13160115602561",
    "latitude": "29.95792169793959",
    "geocoded_column": {
      "latitude": "29.95792169793959",
      "longitude": "-90.13160115602561"
    }
  },
  {
    "service_request": "2026-1273739",
    "request_type": "Abandoned Vehicles",
    "request_reason": "Abandoned/Junk Vehicles",
    "date_created": "2026-04-14T17:03:20.000",
    "date_modified": "2026-04-14T17:03:21.000",
    "request_status": "Pending",
    "responsible_agency": "Department of Public Works",
    "final_address": "7300 Spring Lake Dr",
    "address_councildis": "E",
    "status": "Pending",
    "rowid": "1273739",
    "final_x": "3700550.08221",
    "final_y": "558887.444828",
    "longitude": "-90.00691707483311",
    "latitude": "30.030153864897148",
    "geocoded_column": {
      "latitude": "30.030153864897148",
      "longitude": "-90.00691707483311"
    }
  },
  {
    "service_request": "2026-1273738",
    "request_type": "Roads and Streets",
    "request_reason": "Pothole",
    "date_created": "2026-04-14T16:57:10.000",
    "date_modified": "2026-04-14T16:57:12.000",
    "request_status": "Pending",
    "responsible_agency": "Department of Public Works",
    "final_address": "8916 Cohn St",
    "address_councildis": "A",
    "status": "Pending",
    "rowid": "1273738",
    "final_x": "3661373.40493",
    "final_y": "532185.631043",
    "longitude": "-90.13160115602561",
    "latitude": "29.95792169793959",
    "geocoded_column": {
      "latitude": "29.95792169793959",
      "longitude": "-90.13160115602561"
    }
  },
  {
    "service_request": "2026-1273737",
    "request_type": "Trash/Recycling",
    "request_reason": "Replace Trash Cart",
    "date_created": "2026-04-14T16:54:31.000",
    "date_modified": "2026-04-14T16:57:13.000",
    "request_status": "Pending",
    "responsible_agency": "Department of Sanitation",
    "final_address": "4555 Dodt Ave",
    "address_councildis": "E",
    "status": "Assigned to Contractor",
    "contractor": "Waste Pro",
    "rowid": "1273737",
    "final_x": "3705625.43172",
    "final_y": "554205.221592",
    "longitude": "-89.99105240630585",
    "latitude": "30.01711704518879",
    "geocoded_column": {
      "latitude": "30.01711704518879",
      "longitude": "-89.99105240630585"
    }
  },
  {
    "service_request": "2026-1273736",
    "request_type": "Trash/Recycling",
    "request_reason": "Request a Large Item Pick Up",
    "date_created": "2026-04-14T16:54:15.000",
    "date_modified": "2026-04-14T16:54:17.000",
    "request_status": "Pending",
    "responsible_agency": "Department of Sanitation",
    "final_address": "5805 St Claude Ave",
    "address_councildis": "E",
    "status": "Assigned to Contractor",
    "contractor": "Waste Pro",
    "rowid": "1273736",
    "final_x": "3698705.7704",
    "final_y": "533696.150469",
    "longitude": "-90.0136618818406",
    "latitude": "29.96094570082394",
    "geocoded_column": {
      "latitude": "29.96094570082394",
      "longitude": "-90.0136618818406"
    }
  },
  {
    "service_request": "2026-1273735",
    "request_type": "Abandoned Vehicles",
    "request_reason": "Abandoned/Junk Vehicles",
    "date_created": "2026-04-14T16:53:55.000",
    "date_modified": "2026-04-14T16:53:57.000",
    "request_status": "Pending",
    "responsible_agency": "Department of Public Works",
    "final_address": "8916 Cohn St",
    "address_councildis": "A",
    "status": "Pending",
    "rowid": "1273735",
    "final_x": "3661373.40493",
    "final_y": "532185.631043",
    "longitude": "-90.13160115602561",
    "latitude": "29.95792169793959",
    "geocoded_column": {
      "latitude": "29.95792169793959",
      "longitude": "-90.13160115602561"
    }
  },
  {
    "service_request": "2026-1273734",
    "request_type": "Safety & Permits",
    "request_reason": "Zoning Enforcement",
    "date_created": "2026-04-14T16:51:57.000",
    "date_modified": "2026-04-14T16:51:59.000",
    "request_status": "Pending",
    "responsible_agency": "Safety and Permits",
    "final_address": "700 N Broad St",
    "address_councildis": "C",
    "status": "Pending",
    "rowid": "1273734",
    "final_x": "3676735.06811",
    "final_y": "536871.58996",
    "longitude": "-90.0829318673733",
    "latitude": "29.970354560790547",
    "geocoded_column": {
      "latitude": "29.970354560790547",
      "longitude": "-90.0829318673733"
    }
  },
  {
    "service_request": "2026-1273733",
    "request_type": "Trash/Recycling",
    "request_reason": "Request a Large Item Pick Up",
    "date_created": "2026-04-14T16:47:50.000",
    "date_modified": "2026-04-14T16:47:52.000",
    "request_status": "Pending",
    "responsible_agency": "Department of Sanitation",
    "final_address": "4724 Crowder Blvd",
    "address_councildis": "E",
    "status": "Assigned to Contractor",
    "contractor": "Waste Pro",
    "rowid": "1273733",
    "final_x": "3706335.09406",
    "final_y": "555549.775961",
    "longitude": "-89.98876033236083",
    "latitude": "30.02079117251032",
    "geocoded_column": {
      "latitude": "30.02079117251032",
      "longitude": "-89.98876033236083"
    }
  },
  {
    "service_request": "2026-1273732",
    "request_type": "Streetlights",
    "request_reason": "New Streetlight Request",
    "date_created": "2026-04-14T16:42:52.000",
    "date_modified": "2026-04-14T16:43:39.000",
    "request_status": "Pending",
    "responsible_agency": "Department of Public Works",
    "final_address": "5200 BLK N Prieur St",
    "address_councildis": "E",
    "status": "Pending",
    "rowid": "1273732",
    "final_x": "3697502.64269",
    "final_y": "537078.574909",
    "longitude": "-90.01733844032988",
    "latitude": "29.970284207353615",
    "geocoded_column": {
      "latitude": "29.970284207353615",
      "longitude": "-90.01733844032988"
    }
  },
  {
    "service_request": "2026-1273731",
    "request_type": "Trash/Recycling",
    "request_reason": "Order Trash Cart",
    "date_created": "2026-04-14T16:34:06.000",
    "date_modified": "2026-04-14T16:34:07.000",
    "request_status": "Pending",
    "responsible_agency": "Department of Sanitation",
    "final_address": "7007 Magazine St",
    "address_councildis": "A",
    "status": "Assigned to Contractor",
    "contractor": "IV Waste",
    "rowid": "1273731",
    "final_x": "3661287.37363",
    "final_y": "520959.082233",
    "longitude": "-90.1322444160922",
    "latitude": "29.927054736279786",
    "geocoded_column": {
      "latitude": "29.927054736279786",
      "longitude": "-90.1322444160922"
    }
  },
  {
    "service_request": "2026-1273729",
    "request_type": "Trash/Recycling",
    "request_reason": "Request a Large Item Pick Up",
    "date_created": "2026-04-14T16:32:21.000",
    "date_modified": "2026-04-14T16:32:23.000",
    "request_status": "Pending",
    "responsible_agency": "Department of Sanitation",
    "final_address": "1738 Philip St",
    "address_councildis": "B",
    "status": "Assigned to Contractor",
    "contractor": "IV Waste",
    "rowid": "1273729",
    "final_x": "3676751.5796",
    "final_y": "523878.61766",
    "longitude": "-90.0833273570193",
    "latitude": "29.934627731542204",
    "geocoded_column": {
      "latitude": "29.934627731542204",
      "longitude": "-90.0833273570193"
    }
  },
  {
    "service_request": "2026-1273730",
    "request_type": "Trash/Recycling",
    "request_reason": "Request a Large Item Pick Up",
    "date_created": "2026-04-14T16:32:21.000",
    "date_modified": "2026-04-14T16:32:25.000",
    "request_status": "Pending",
    "responsible_agency": "Department of Sanitation",
    "final_address": "1738 Philip St",
    "address_councildis": "B",
    "status": "Assigned to Contractor",
    "contractor": "IV Waste",
    "rowid": "1273730",
    "final_x": "3676751.5796",
    "final_y": "523878.61766",
    "longitude": "-90.0833273570193",
    "latitude": "29.934627731542204",
    "geocoded_column": {
      "latitude": "29.934627731542204",
      "longitude": "-90.0833273570193"
    }
  },
  {
    "service_request": "2026-1273728",
    "request_type": "Utility Poles",
    "request_reason": "Utility Pole Leaning",
    "date_created": "2026-04-14T16:30:21.000",
    "date_modified": "2026-04-14T16:37:24.000",
    "request_status": "Pending",
    "responsible_agency": "Utility Company Collective",
    "final_address": "Sapphire St, New Orleans, Louisiana, 70124",
    "address_councildis": "D",
    "status": "Pending",
    "rowid": "1273728",
    "final_x": "3667376.49044",
    "final_y": "555310.415833",
    "longitude": "-90.11186663653493",
    "latitude": "30.021332485633835",
    "geocoded_column": {
      "latitude": "30.021332485633835",
      "longitude": "-90.11186663653493"
    }
  },
  {
    "service_request": "2026-1273727",
    "request_type": "Trash/Recycling",
    "request_reason": "Request a Large Item Pick Up",
    "date_created": "2026-04-14T16:29:47.000",
    "date_modified": "2026-04-14T16:29:48.000",
    "request_status": "Pending",
    "responsible_agency": "Department of Sanitation",
    "final_address": "7126 E Hermes St",
    "address_councildis": "D",
    "status": "Assigned to Contractor",
    "contractor": "Waste Pro",
    "rowid": "1273727",
    "final_x": "3697250.34679",
    "final_y": "557268.283035",
    "longitude": "-90.01740295411135",
    "latitude": "30.025806405381054",
    "geocoded_column": {
      "latitude": "30.025806405381054",
      "longitude": "-90.01740295411135"
    }
  },
  {
    "service_request": "2026-1273726",
    "request_type": "Trash/Recycling",
    "request_reason": "Order Second Trash Cart",
    "date_created": "2026-04-14T16:29:04.000",
    "date_modified": "2026-04-14T16:29:06.000",
    "request_status": "Pending",
    "responsible_agency": "Department of Sanitation",
    "final_address": "3008 Baudin St",
    "address_councildis": "B",
    "status": "Assigned to Contractor",
    "contractor": "IV Waste",
    "rowid": "1273726",
    "final_x": "3673281.3515",
    "final_y": "534613.402822",
    "longitude": "-90.09391624447242",
    "latitude": "29.964248486155807",
    "geocoded_column": {
      "latitude": "29.964248486155807",
      "longitude": "-90.09391624447242"
    }
  },
  {
    "service_request": "2026-1273725",
    "request_type": "New Orleans Recreation Development Commission (NORDC)",
    "request_reason": "Facilities and Parks Maintenance/Clean Up",
    "date_created": "2026-04-14T16:28:13.000",
    "date_modified": "2026-04-14T16:28:15.000",
    "request_status": "Pending",
    "responsible_agency": "New Orleans Recreation Development Commission",
    "final_address": "2100 Robert St",
    "address_councildis": "B",
    "status": "Pending",
    "rowid": "1273725",
    "final_x": "3668754.141",
    "final_y": "523245.536571",
    "longitude": "-90.10859655018596",
    "latitude": "29.933124432990965",
    "geocoded_column": {
      "latitude": "29.933124432990965",
      "longitude": "-90.10859655018596"
    }
  },
  {
    "service_request": "2026-1273724",
    "request_type": "Trash/Recycling",
    "request_reason": "Request a Large Item Pick Up",
    "date_created": "2026-04-14T16:25:59.000",
    "date_modified": "2026-04-14T16:30:14.000",
    "request_status": "Pending",
    "responsible_agency": "Department of Sanitation",
    "final_address": "317 Audubon Blvd",
    "address_councildis": "A",
    "status": "Assigned to Contractor",
    "contractor": "IV Waste",
    "rowid": "1273724",
    "final_x": "3667255.19271",
    "final_y": "529937.200065",
    "longitude": "-90.11310367887174",
    "latitude": "29.951568319015244",
    "geocoded_column": {
      "latitude": "29.951568319015244",
      "longitude": "-90.11310367887174"
    }
  },
  {
    "service_request": "2026-1273723",
    "request_type": "Street and Traffic Signs",
    "request_reason": "Street Name Sign Damaged or Missing",
    "date_created": "2026-04-14T16:24:23.000",
    "date_modified": "2026-04-14T16:24:26.000",
    "request_status": "Pending",
    "responsible_agency": "Department of Public Works",
    "final_address": "0 BLK Acadiana Pl",
    "address_councildis": "E",
    "status": "Pending",
    "rowid": "1273723",
    "final_x": "3725131.4083",
    "final_y": "564393.680055",
    "longitude": "-89.92902788187175",
    "latitude": "30.04448842646984",
    "geocoded_column": {
      "latitude": "30.04448842646984",
      "longitude": "-89.92902788187175"
    }
  },
  {
    "service_request": "2026-1273722",
    "request_type": "Trash/Recycling",
    "request_reason": "Repair Trash Cart",
    "date_created": "2026-04-14T16:23:58.000",
    "date_modified": "2026-04-14T16:23:59.000",
    "request_status": "Pending",
    "responsible_agency": "Department of Sanitation",
    "final_address": "2669 Hudson Pl",
    "address_councildis": "C",
    "status": "Assigned to Contractor",
    "contractor": "Richards Disposal",
    "rowid": "1273722",
    "final_x": "3703330.21982",
    "final_y": "520966.711545",
    "longitude": "-89.99952675836856",
    "latitude": "29.925796983693047",
    "geocoded_column": {
      "latitude": "29.925796983693047",
      "longitude": "-89.99952675836856"
    }
  },
  {
    "service_request": "2026-1273721",
    "request_type": "Abandoned Vehicles",
    "request_reason": "Abandoned/Junk Vehicles",
    "date_created": "2026-04-14T16:23:04.000",
    "date_modified": "2026-04-14T16:23:05.000",
    "request_status": "Pending",
    "responsible_agency": "Department of Public Works",
    "final_address": "918 Brooklyn Ave",
    "address_councildis": "C",
    "status": "Pending",
    "rowid": "1273721",
    "final_x": "3686217.34396",
    "final_y": "528103.065919",
    "longitude": "-90.05329521038117",
    "latitude": "29.945956207040368",
    "geocoded_column": {
      "latitude": "29.945956207040368",
      "longitude": "-90.05329521038117"
    }
  },
  {
    "service_request": "2026-1273720",
    "request_type": "Safety & Permits",
    "request_reason": "Licenses & Permits",
    "date_created": "2026-04-14T16:20:28.000",
    "date_modified": "2026-04-14T16:20:31.000",
    "request_status": "Pending",
    "responsible_agency": "Safety and Permits",
    "final_address": "2474 Killdeer St",
    "address_councildis": "D",
    "status": "Pending",
    "rowid": "1273720",
    "final_x": "3685262.47253",
    "final_y": "557629.717723",
    "longitude": "-90.0552702245196",
    "latitude": "30.02717331976314",
    "geocoded_column": {
      "latitude": "30.02717331976314",
      "longitude": "-90.0552702245196"
    }
  },
  {
    "service_request": "2026-1273719",
    "request_type": "Parks & Grass Service",
    "request_reason": "Park Maintenance/Clean Up",
    "date_created": "2026-04-14T16:08:58.000",
    "date_modified": "2026-04-14T16:09:00.000",
    "request_status": "Pending",
    "responsible_agency": "Department of Parks & Parkways",
    "final_address": "4877 Laurel St",
    "address_councildis": "B",
    "status": "Pending",
    "rowid": "1273719",
    "final_x": "3669019.95425",
    "final_y": "517892.334326",
    "longitude": "-90.10793812367308",
    "latitude": "29.91839701307734",
    "geocoded_column": {
      "latitude": "29.91839701307734",
      "longitude": "-90.10793812367308"
    }
  },
  {
    "service_request": "2026-1273718",
    "request_type": "Property Maintenance",
    "request_reason": "Property Maintenance",
    "date_created": "2026-04-14T16:07:34.000",
    "date_modified": "2026-04-14T16:07:36.000",
    "request_status": "Pending",
    "responsible_agency": "Department of Code Enforcement",
    "final_address": "2474 Killdeer St",
    "address_councildis": "D",
    "status": "Pending",
    "rowid": "1273718",
    "final_x": "3685262.47253",
    "final_y": "557629.717723",
    "longitude": "-90.0552702245196",
    "latitude": "30.02717331976314",
    "geocoded_column": {
      "latitude": "30.02717331976314",
      "longitude": "-90.0552702245196"
    }
  },
  {
    "service_request": "2026-1273717",
    "request_type": "Trash/Recycling",
    "request_reason": "Illegal Dumping",
    "date_created": "2026-04-14T16:05:08.000",
    "date_modified": "2026-04-14T16:05:09.000",
    "request_status": "Pending",
    "responsible_agency": "Department of Sanitation",
    "final_address": "4800 BLK Redwood St",
    "address_councildis": "E",
    "status": "Pending",
    "rowid": "1273717",
    "final_x": "3712400.6621",
    "final_y": "557027.919524",
    "longitude": "-89.96953952493014",
    "latitude": "30.02465838409401",
    "geocoded_column": {
      "latitude": "30.02465838409401",
      "longitude": "-89.96953952493014"
    }
  },
  {
    "service_request": "2026-1273716",
    "request_type": "Trash/Recycling",
    "request_reason": "Request a Large Item Pick Up",
    "date_created": "2026-04-14T16:02:43.000",
    "date_modified": "2026-04-14T16:02:45.000",
    "request_status": "Pending",
    "responsible_agency": "Department of Sanitation",
    "final_address": "5707 W Louis Prima Dr",
    "address_councildis": "E",
    "status": "Assigned to Contractor",
    "contractor": "Waste Pro",
    "rowid": "1273716",
    "final_x": "3715986.22751",
    "final_y": "561710.069215",
    "longitude": "-89.95803230609305",
    "latitude": "30.037414590302394",
    "geocoded_column": {
      "latitude": "30.037414590302394",
      "longitude": "-89.95803230609305"
    }
  },
  {
    "service_request": "2026-1273715",
    "request_type": "Property Maintenance",
    "request_reason": "Property Maintenance",
    "date_created": "2026-04-14T16:00:24.000",
    "date_modified": "2026-04-14T16:00:26.000",
    "request_status": "Pending",
    "responsible_agency": "Department of Code Enforcement",
    "final_address": "2823 St Philip St",
    "address_councildis": "A",
    "status": "Pending",
    "rowid": "1273715",
    "final_x": "3676826.2196",
    "final_y": "538337.575305",
    "longitude": "-90.08259346484347",
    "latitude": "29.974382784067203",
    "geocoded_column": {
      "latitude": "29.974382784067203",
      "longitude": "-90.08259346484347"
    }
  },
  {
    "service_request": "2026-1273714",
    "request_type": "Safety & Permits",
    "request_reason": "Zoning Enforcement",
    "date_created": "2026-04-14T15:59:52.000",
    "date_modified": "2026-04-14T16:00:44.000",
    "request_status": "Pending",
    "responsible_agency": "Safety and Permits",
    "final_address": "4946 Montegut Dr",
    "address_councildis": "D",
    "status": "Pending",
    "rowid": "1273714",
    "final_x": "3689678.35075",
    "final_y": "551695.005141",
    "longitude": "-90.04152791388123",
    "latitude": "30.010718897038355",
    "geocoded_column": {
      "latitude": "30.010718897038355",
      "longitude": "-90.04152791388123"
    }
  },
  {
    "service_request": "2026-1273713",
    "request_type": "Trash/Recycling",
    "request_reason": "Request a Large Item Pick Up",
    "date_created": "2026-04-14T15:51:30.000",
    "date_modified": "2026-04-14T15:51:32.000",
    "request_status": "Pending",
    "responsible_agency": "Department of Sanitation",
    "final_address": "4844 Lonely Oak Dr",
    "address_councildis": "E",
    "status": "Assigned to Contractor",
    "contractor": "Waste Pro",
    "rowid": "1273713",
    "final_x": "3702211.98794",
    "final_y": "554933.188056",
    "longitude": "-90.00181068684934",
    "latitude": "30.019228180510947",
    "geocoded_column": {
      "latitude": "30.019228180510947",
      "longitude": "-90.00181068684934"
    }
  },
  {
    "service_request": "2026-1273712",
    "request_type": "Trash/Recycling",
    "request_reason": "Request a Large Item Pick Up",
    "date_created": "2026-04-14T15:49:06.000",
    "date_modified": "2026-04-14T15:52:59.000",
    "request_status": "Pending",
    "responsible_agency": "Department of Sanitation",
    "final_address": "7140 Queensway Dr",
    "address_councildis": "E",
    "status": "Assigned to Contractor",
    "contractor": "Waste Pro",
    "rowid": "1273712",
    "final_x": "3718845.75231",
    "final_y": "569843.809126",
    "longitude": "-89.94868503725804",
    "latitude": "30.059684349554647",
    "geocoded_column": {
      "latitude": "30.059684349554647",
      "longitude": "-89.94868503725804"
    }
  },
  {
    "service_request": "2026-1273711",
    "request_type": "Trash/Recycling",
    "request_reason": "Request a Large Item Pick Up",
    "date_created": "2026-04-14T15:46:04.000",
    "date_modified": "2026-04-14T15:46:07.000",
    "request_status": "Pending",
    "responsible_agency": "Department of Sanitation",
    "final_address": "11300 N Parkwood Ct",
    "address_councildis": "E",
    "status": "Assigned to Contractor",
    "contractor": "Waste Pro",
    "rowid": "1273711",
    "final_x": "3716795.17727",
    "final_y": "559307.044957",
    "longitude": "-89.95556717782245",
    "latitude": "30.030780519128502",
    "geocoded_column": {
      "latitude": "30.030780519128502",
      "longitude": "-89.95556717782245"
    }
  },
  {
    "service_request": "2026-1273710",
    "request_type": "Abandoned Vehicles",
    "request_reason": "Abandoned/Junk Vehicles",
    "date_created": "2026-04-14T15:44:52.000",
    "date_modified": "2026-04-14T15:46:46.000",
    "request_status": "Pending",
    "responsible_agency": "Department of Public Works",
    "final_address": "5353 Annunciation St",
    "address_councildis": "B",
    "status": "Pending",
    "rowid": "1273710",
    "final_x": "3666858.16359",
    "final_y": "517620.37759",
    "longitude": "-90.1147708975941",
    "latitude": "29.91771260961093",
    "geocoded_column": {
      "latitude": "29.91771260961093",
      "longitude": "-90.1147708975941"
    }
  },
  {
    "service_request": "2026-1273709",
    "request_type": "Trash/Recycling",
    "request_reason": "Request a Large Item Pick Up",
    "date_created": "2026-04-14T15:44:27.000",
    "date_modified": "2026-04-14T15:44:29.000",
    "request_status": "Pending",
    "responsible_agency": "Department of Sanitation",
    "final_address": "12531 Carmel Pl",
    "address_councildis": "E",
    "status": "Assigned to Contractor",
    "contractor": "Waste Pro",
    "rowid": "1273709",
    "final_x": "3716359.7381",
    "final_y": "566925.797348",
    "longitude": "-89.9566539044965",
    "latitude": "30.051743387510015",
    "geocoded_column": {
      "latitude": "30.051743387510015",
      "longitude": "-89.9566539044965"
    }
  },
  {
    "service_request": "2026-1273708",
    "request_type": "Trash/Recycling",
    "request_reason": "Missed Trash Pick-Up",
    "date_created": "2026-04-14T15:38:37.000",
    "date_modified": "2026-04-14T15:38:39.000",
    "request_status": "Pending",
    "responsible_agency": "Department of Sanitation",
    "final_address": "7911 Unity Dr",
    "address_councildis": "E",
    "status": "Assigned to Contractor",
    "contractor": "Waste Pro",
    "rowid": "1273708",
    "final_x": "3711604.71032",
    "final_y": "567806.83114",
    "longitude": "-89.97164981914547",
    "latitude": "30.054322099134065",
    "geocoded_column": {
      "latitude": "30.054322099134065",
      "longitude": "-89.97164981914547"
    }
  },
  {
    "service_request": "2026-1273707",
    "request_type": "Trash/Recycling",
    "request_reason": "Request a Large Item Pick Up",
    "date_created": "2026-04-14T15:36:46.000",
    "date_modified": "2026-04-14T15:37:39.000",
    "request_status": "Pending",
    "responsible_agency": "Department of Sanitation",
    "final_address": "8321 Grant St",
    "address_councildis": "E",
    "status": "Assigned to Contractor",
    "contractor": "Waste Pro",
    "rowid": "1273707",
    "final_x": "3706046.929",
    "final_y": "554487.875224",
    "longitude": "-89.98971018634757",
    "latitude": "30.017880650419887",
    "geocoded_column": {
      "latitude": "30.017880650419887",
      "longitude": "-89.98971018634757"
    }
  },
  {
    "service_request": "2026-1273706",
    "request_type": "Trash/Recycling",
    "request_reason": "Order Second Trash Cart",
    "date_created": "2026-04-14T15:33:09.000",
    "date_modified": "2026-04-14T15:33:11.000",
    "request_status": "Pending",
    "responsible_agency": "Department of Sanitation",
    "final_address": "6030 Winchester Park Dr",
    "address_councildis": "E",
    "status": "Assigned to Contractor",
    "contractor": "Waste Pro",
    "rowid": "1273706",
    "final_x": "3714125.70091",
    "final_y": "563455.78864",
    "longitude": "-89.96384600410092",
    "latitude": "30.042275886075107",
    "geocoded_column": {
      "latitude": "30.042275886075107",
      "longitude": "-89.96384600410092"
    }
  },
  {
    "service_request": "2026-1273705",
    "request_type": "Trash/Recycling",
    "request_reason": "Request a Large Item Pick Up",
    "date_created": "2026-04-14T15:31:10.000",
    "date_modified": "2026-04-14T16:29:47.000",
    "request_status": "Pending",
    "responsible_agency": "Department of Sanitation",
    "final_address": "5320 Baccich St",
    "address_councildis": "D",
    "status": "Assigned to Contractor",
    "contractor": "IV Waste",
    "rowid": "1273705",
    "final_x": "3687526.97295",
    "final_y": "552494.939158",
    "longitude": "-90.04829659103243",
    "latitude": "30.012984937141223",
    "geocoded_column": {
      "latitude": "30.012984937141223",
      "longitude": "-90.04829659103243"
    }
  },
  {
    "service_request": "2026-1273704",
    "request_type": "Safety & Permits",
    "request_reason": "Licenses & Permits",
    "date_created": "2026-04-14T15:24:58.000",
    "date_modified": "2026-04-14T15:25:00.000",
    "request_status": "Pending",
    "responsible_agency": "Safety and Permits",
    "final_address": "5902 Hurst St",
    "address_councildis": "A",
    "status": "Pending",
    "rowid": "1273704",
    "final_x": "3665757.45908",
    "final_y": "521688.420601",
    "longitude": "-90.11810904350683",
    "latitude": "29.92893059016598",
    "geocoded_column": {
      "latitude": "29.92893059016598",
      "longitude": "-90.11810904350683"
    }
  },
  {
    "service_request": "2026-1273703",
    "request_type": "Trash/Recycling",
    "request_reason": "Request a Large Item Pick Up",
    "date_created": "2026-04-14T15:23:11.000",
    "date_modified": "2026-04-14T15:23:13.000",
    "request_status": "Pending",
    "responsible_agency": "Department of Sanitation",
    "final_address": "2119 Josephine St",
    "address_councildis": "B",
    "status": "Assigned to Contractor",
    "contractor": "IV Waste",
    "rowid": "1273703",
    "final_x": "3676685.17384",
    "final_y": "525595.245565",
    "longitude": "-90.08347788572254",
    "latitude": "29.93934988676734",
    "geocoded_column": {
      "latitude": "29.93934988676734",
      "longitude": "-90.08347788572254"
    }
  },
  {
    "service_request": "2026-1273702",
    "request_type": "Trash/Recycling",
    "request_reason": "MIssed Recycling Pick-Up",
    "date_created": "2026-04-14T15:21:59.000",
    "date_modified": "2026-04-14T15:45:58.000",
    "case_close_date": "2026-04-14T10:45:57.000",
    "request_status": "Closed",
    "responsible_agency": "Department of Sanitation",
    "final_address": "7014 Zimple St",
    "address_councildis": "A",
    "status": "Invalid Request",
    "contractor": "IV Waste",
    "contractor_action": "Invalid Request",
    "rowid": "1273702",
    "final_x": "3664358.97549",
    "final_y": "525874.276157",
    "longitude": "-90.12238414765667",
    "latitude": "29.94048107304766",
    "geocoded_column": {
      "latitude": "29.94048107304766",
      "longitude": "-90.12238414765667"
    }
  },
  {
    "service_request": "2026-1273701",
    "request_type": "Street and Traffic Signs",
    "request_reason": "Street Name Sign Damaged or Missing",
    "date_created": "2026-04-14T15:17:29.000",
    "date_modified": "2026-04-14T15:17:32.000",
    "request_status": "Pending",
    "responsible_agency": "Department of Public Works",
    "final_address": "6825 General Diaz St",
    "address_councildis": "A",
    "status": "Pending",
    "rowid": "1273701",
    "final_x": "3670106.43617",
    "final_y": "552806.765974",
    "longitude": "-90.10332565611077",
    "latitude": "30.014368037352064",
    "geocoded_column": {
      "latitude": "30.014368037352064",
      "longitude": "-90.10332565611077"
    }
  },
  {
    "service_request": "2026-1273700",
    "request_type": "Trash/Recycling",
    "request_reason": "Request a Large Item Pick Up",
    "date_created": "2026-04-14T15:14:10.000",
    "date_modified": "2026-04-14T15:14:11.000",
    "request_status": "Pending",
    "responsible_agency": "Department of Sanitation",
    "final_address": "2006 Marengo St",
    "address_councildis": "B",
    "status": "Assigned to Contractor",
    "contractor": "IV Waste",
    "rowid": "1273700",
    "final_x": "3671656.2834",
    "final_y": "522539.900282",
    "longitude": "-90.09945865057924",
    "latitude": "29.931098547526496",
    "geocoded_column": {
      "latitude": "29.931098547526496",
      "longitude": "-90.09945865057924"
    }
  },
  {
    "service_request": "2026-1273699",
    "request_type": "Trash/Recycling",
    "request_reason": "Request a Large Item Pick Up",
    "date_created": "2026-04-14T15:13:46.000",
    "date_modified": "2026-04-14T15:15:07.000",
    "request_status": "Pending",
    "responsible_agency": "Department of Sanitation",
    "final_address": "234 S Pierce St",
    "address_councildis": "A",
    "status": "Assigned to Contractor",
    "contractor": "IV Waste",
    "rowid": "1273699",
    "final_x": "3671078.47995",
    "final_y": "537453.73236",
    "longitude": "-90.10077626317361",
    "latitude": "29.972123773981966",
    "geocoded_column": {
      "latitude": "29.972123773981966",
      "longitude": "-90.10077626317361"
    }
  },
  {
    "service_request": "2026-1273698",
    "request_type": "Trash/Recycling",
    "request_reason": "Damaged Caused By Contractor",
    "date_created": "2026-04-14T15:13:19.000",
    "date_modified": "2026-04-14T15:13:22.000",
    "request_status": "Pending",
    "responsible_agency": "Department of Sanitation",
    "final_address": "6031 Chestnut St",
    "address_councildis": "A",
    "status": "Assigned to Contractor",
    "contractor": "IV Waste",
    "rowid": "1273698",
    "final_x": "3664668.49063",
    "final_y": "520050.215288",
    "longitude": "-90.12160140229847",
    "latitude": "29.92445775229554",
    "geocoded_column": {
      "latitude": "29.92445775229554",
      "longitude": "-90.12160140229847"
    }
  },
  {
    "service_request": "2026-1273697",
    "request_type": "Trash/Recycling",
    "request_reason": "Request a Large Item Pick Up",
    "date_created": "2026-04-14T15:11:18.000",
    "date_modified": "2026-04-14T15:11:49.000",
    "request_status": "Pending",
    "responsible_agency": "Department of Sanitation",
    "final_address": "7620 Dalewood Rd",
    "address_councildis": "E",
    "status": "Assigned to Contractor",
    "contractor": "Waste Pro",
    "rowid": "1273697",
    "final_x": "3699898.61124",
    "final_y": "560425.575966",
    "longitude": "-90.0089195326891",
    "latitude": "30.0344038505073",
    "geocoded_column": {
      "latitude": "30.0344038505073",
      "longitude": "-90.0089195326891"
    }
  },
  {
    "service_request": "2026-1273696",
    "request_type": "Trash/Recycling",
    "request_reason": "Repair Trash Cart",
    "date_created": "2026-04-14T15:11:14.000",
    "date_modified": "2026-04-14T15:11:15.000",
    "request_status": "Pending",
    "responsible_agency": "Department of Sanitation",
    "final_address": "1217 Jackson Ave",
    "address_councildis": "B",
    "status": "Assigned to Contractor",
    "contractor": "IV Waste",
    "rowid": "1273696",
    "final_x": "3678580.02978",
    "final_y": "522534.201466",
    "longitude": "-90.07760148912215",
    "latitude": "29.93087605466259",
    "geocoded_column": {
      "latitude": "29.93087605466259",
      "longitude": "-90.07760148912215"
    }
  },
  {
    "service_request": "2026-1273695",
    "request_type": "Property Maintenance",
    "request_reason": "Property Maintenance",
    "date_created": "2026-04-14T15:09:04.000",
    "date_modified": "2026-04-14T15:09:05.000",
    "request_status": "Pending",
    "responsible_agency": "Department of Code Enforcement",
    "final_address": "3233 Milan St",
    "address_councildis": "B",
    "status": "Pending",
    "rowid": "1273695",
    "final_x": "3671039.35572",
    "final_y": "526931.497854",
    "longitude": "-90.10125714379889",
    "latitude": "29.94319227226975",
    "geocoded_column": {
      "latitude": "29.94319227226975",
      "longitude": "-90.10125714379889"
    }
  },
  {
    "service_request": "2026-1273694",
    "request_type": "Streetlights",
    "request_reason": "Streetlight Outage/Malfunction",
    "date_created": "2026-04-14T15:08:19.000",
    "date_modified": "2026-04-14T15:08:20.000",
    "request_status": "Pending",
    "responsible_agency": "Department of Public Works",
    "final_address": "6000 BLK Burgundy St",
    "address_councildis": "E",
    "status": "Pending",
    "rowid": "1273694",
    "final_x": "3699019.65901",
    "final_y": "532620.302985",
    "longitude": "-90.01270984193712",
    "latitude": "29.957977558860872",
    "geocoded_column": {
      "latitude": "29.957977558860872",
      "longitude": "-90.01270984193712"
    }
  },
  {
    "service_request": "2026-1273693",
    "request_type": "Roads and Streets",
    "request_reason": "Street Subsidence (Sinking)",
    "date_created": "2026-04-14T15:07:57.000",
    "date_modified": "2026-04-14T15:07:58.000",
    "request_status": "Pending",
    "responsible_agency": "Sewerage & Water Board",
    "final_address": "2000 BLK Calhoun St",
    "address_councildis": "A",
    "status": "Pending",
    "rowid": "1273693",
    "final_x": "3665561.27153",
    "final_y": "524585.360066",
    "longitude": "-90.11863142419219",
    "latitude": "29.936901973403486",
    "geocoded_column": {
      "latitude": "29.936901973403486",
      "longitude": "-90.11863142419219"
    }
  },
  {
    "service_request": "2026-1273692",
    "request_type": "Trash/Recycling",
    "request_reason": "Request a Large Item Pick Up",
    "date_created": "2026-04-14T15:07:46.000",
    "date_modified": "2026-04-14T15:07:48.000",
    "request_status": "Pending",
    "responsible_agency": "Department of Sanitation",
    "final_address": "2668 Hudson Pl",
    "address_councildis": "C",
    "status": "Assigned to Contractor",
    "contractor": "Richards Disposal",
    "rowid": "1273692",
    "final_x": "3703445.19575",
    "final_y": "520970.550137",
    "longitude": "-89.99916367544786",
    "latitude": "29.925803857921778",
    "geocoded_column": {
      "latitude": "29.925803857921778",
      "longitude": "-89.99916367544786"
    }
  },
  {
    "service_request": "2026-1273691",
    "request_type": "Trash/Recycling",
    "request_reason": "Request a Large Item Pick Up",
    "date_created": "2026-04-14T15:05:14.000",
    "date_modified": "2026-04-14T15:05:15.000",
    "request_status": "Pending",
    "responsible_agency": "Department of Sanitation",
    "final_address": "5810 Winchester Park Dr",
    "address_councildis": "E",
    "status": "Assigned to Contractor",
    "contractor": "Waste Pro",
    "rowid": "1273691",
    "final_x": "3715112.51333",
    "final_y": "562127.235167",
    "longitude": "-89.96077762416469",
    "latitude": "30.03859043433516",
    "geocoded_column": {
      "latitude": "30.03859043433516",
      "longitude": "-89.96077762416469"
    }
  },
  {
    "service_request": "2026-1273690",
    "request_type": "Trash/Recycling",
    "request_reason": "Order Recycling Cart",
    "date_created": "2026-04-14T15:05:11.000",
    "date_modified": "2026-04-14T15:05:58.000",
    "request_status": "Pending",
    "responsible_agency": "Department of Sanitation",
    "final_address": "8130 Belfast St",
    "address_councildis": "A",
    "status": "Pending",
    "rowid": "1273690",
    "final_x": "3665404.71994",
    "final_y": "532481.452868",
    "longitude": "-90.1188614524517",
    "latitude": "29.95861824088328",
    "geocoded_column": {
      "latitude": "29.95861824088328",
      "longitude": "-90.1188614524517"
    }
  },
  {
    "service_request": "2026-1273689",
    "request_type": "Trash/Recycling",
    "request_reason": "Dead Animal Pick Up",
    "date_created": "2026-04-14T15:04:12.000",
    "date_modified": "2026-04-14T15:04:14.000",
    "request_status": "Pending",
    "responsible_agency": "Department of Sanitation",
    "final_address": "2625 St Philip St",
    "address_councildis": "C",
    "status": "Assigned to Contractor",
    "contractor": "IV Waste",
    "rowid": "1273689",
    "final_x": "3677677.10696",
    "final_y": "537683.737096",
    "longitude": "-90.07992874735733",
    "latitude": "29.972559387392714",
    "geocoded_column": {
      "latitude": "29.972559387392714",
      "longitude": "-90.07992874735733"
    }
  },
  {
    "service_request": "2026-1273688",
    "request_type": "Trash/Recycling",
    "request_reason": "Repair Recycling Cart",
    "date_created": "2026-04-14T15:03:32.000",
    "date_modified": "2026-04-14T15:14:24.000",
    "request_status": "Pending",
    "responsible_agency": "Department of Sanitation",
    "final_address": "4520 S Johnson St",
    "address_councildis": "B",
    "status": "Pending",
    "rowid": "1273688",
    "final_x": "3669613.22407",
    "final_y": "527120.917695",
    "longitude": "-90.10575340470605",
    "latitude": "29.943755203415613",
    "geocoded_column": {
      "latitude": "29.943755203415613",
      "longitude": "-90.10575340470605"
    }
  },
  {
    "service_request": "2026-1273687",
    "request_type": "Abandoned Vehicles",
    "request_reason": "Abandoned/Junk Vehicles",
    "date_created": "2026-04-14T15:03:05.000",
    "date_modified": "2026-04-14T15:03:08.000",
    "request_status": "Pending",
    "responsible_agency": "Department of Public Works",
    "final_address": "826 Harmony St",
    "address_councildis": "B",
    "status": "Pending",
    "rowid": "1273687",
    "final_x": "3676172.80693",
    "final_y": "519208.275895",
    "longitude": "-90.08531512189474",
    "latitude": "29.921803155712084",
    "geocoded_column": {
      "latitude": "29.921803155712084",
      "longitude": "-90.08531512189474"
    }
  },
  {
    "service_request": "2026-1273686",
    "request_type": "Streetlights",
    "request_reason": "Streetlight Outage/Malfunction",
    "date_created": "2026-04-14T15:02:40.000",
    "date_modified": "2026-04-14T15:02:42.000",
    "request_status": "Pending",
    "responsible_agency": "Department of Public Works",
    "final_address": "6000 BLK Burgundy St",
    "address_councildis": "E",
    "status": "Pending",
    "rowid": "1273686",
    "final_x": "3699019.65901",
    "final_y": "532620.302985",
    "longitude": "-90.01270984193712",
    "latitude": "29.957977558860872",
    "geocoded_column": {
      "latitude": "29.957977558860872",
      "longitude": "-90.01270984193712"
    }
  },
  {
    "service_request": "2026-1273685",
    "request_type": "Trash/Recycling",
    "request_reason": "Replace Trash Cart",
    "date_created": "2026-04-14T14:59:04.000",
    "date_modified": "2026-04-14T14:59:07.000",
    "request_status": "Pending",
    "responsible_agency": "Department of Sanitation",
    "final_address": "2225 Rev. John Raphael, Jr. Way",
    "address_councildis": "B",
    "status": "Assigned to Contractor",
    "contractor": "IV Waste",
    "rowid": "1273685",
    "final_x": "3675610.15669",
    "final_y": "525938.406013",
    "longitude": "-90.08686007182088",
    "latitude": "29.940325664273892",
    "geocoded_column": {
      "latitude": "29.940325664273892",
      "longitude": "-90.08686007182088"
    }
  },
  {
    "service_request": "2026-1273684",
    "request_type": "Trash/Recycling",
    "request_reason": "Request a Large Item Pick Up",
    "date_created": "2026-04-14T14:59:00.000",
    "date_modified": "2026-04-14T14:59:03.000",
    "request_status": "Pending",
    "responsible_agency": "Department of Sanitation",
    "final_address": "2818 General Ogden St",
    "address_councildis": "A",
    "status": "Assigned to Contractor",
    "contractor": "IV Waste",
    "rowid": "1273684",
    "final_x": "3663809.82016",
    "final_y": "534659.044806",
    "longitude": "-90.12382516867922",
    "latitude": "29.96465229142167",
    "geocoded_column": {
      "latitude": "29.96465229142167",
      "longitude": "-90.12382516867922"
    }
  },
  {
    "service_request": "2026-1273683",
    "request_type": "Road Striping",
    "request_reason": "Parking Lane",
    "date_created": "2026-04-14T14:57:21.000",
    "date_modified": "2026-04-14T14:57:22.000",
    "request_status": "Pending",
    "responsible_agency": "Department of Public Works",
    "final_address": "1025 Ursulines Ave",
    "address_councildis": "C",
    "status": "Pending",
    "rowid": "1273683",
    "final_x": "3682437.06792",
    "final_y": "534441.302725",
    "longitude": "-90.06500929687574",
    "latitude": "29.963499783057653",
    "geocoded_column": {
      "latitude": "29.963499783057653",
      "longitude": "-90.06500929687574"
    }
  },
  {
    "service_request": "2026-1273682",
    "request_type": "Street and Traffic Signs",
    "request_reason": "Stop Sign Missing or Damaged",
    "date_created": "2026-04-14T14:57:11.000",
    "date_modified": "2026-04-14T14:57:13.000",
    "request_status": "Pending",
    "responsible_agency": "Department of Public Works",
    "final_address": "800 Harrison Ave",
    "address_councildis": "A",
    "status": "Pending",
    "rowid": "1273682",
    "final_x": "3669440.34254",
    "final_y": "549079.068371",
    "longitude": "-90.10555638646417",
    "latitude": "30.004137820908213",
    "geocoded_column": {
      "latitude": "30.004137820908213",
      "longitude": "-90.10555638646417"
    }
  },
  {
    "service_request": "2026-1273681",
    "request_type": "Trash/Recycling",
    "request_reason": "Order Trash Cart",
    "date_created": "2026-04-14T14:56:04.000",
    "date_modified": "2026-04-14T14:56:06.000",
    "request_status": "Pending",
    "responsible_agency": "Department of Sanitation",
    "final_address": "5623 Woodlawn Pl",
    "address_councildis": "A",
    "status": "Assigned to Contractor",
    "contractor": "IV Waste",
    "rowid": "1273681",
    "final_x": "3667591.90593",
    "final_y": "544926.973839",
    "longitude": "-90.11153581790323",
    "latitude": "29.992775323342922",
    "geocoded_column": {
      "latitude": "29.992775323342922",
      "longitude": "-90.11153581790323"
    }
  },
  {
    "service_request": "2026-1273680",
    "request_type": "General Services",
    "request_reason": "General Service Request",
    "date_created": "2026-04-14T14:55:17.000",
    "date_modified": "2026-04-14T14:57:46.000",
    "case_close_date": "2026-04-14T09:57:39.000",
    "request_status": "Closed",
    "responsible_agency": "Orleans Parish Communication District",
    "final_address": "3519 Republic St",
    "address_councildis": "D",
    "status": "Referred to External Agency",
    "rowid": "1273680",
    "final_x": "3680519.45103",
    "final_y": "545372.028944",
    "longitude": "-90.07068455482127",
    "latitude": "29.99361370809165",
    "geocoded_column": {
      "latitude": "29.99361370809165",
      "longitude": "-90.07068455482127"
    }
  },
  {
    "service_request": "2026-1273679",
    "request_type": "Trash/Recycling",
    "request_reason": "Request a Large Item Pick Up",
    "date_created": "2026-04-14T14:54:46.000",
    "date_modified": "2026-04-14T14:54:47.000",
    "request_status": "Pending",
    "responsible_agency": "Department of Sanitation",
    "final_address": "1501 Burbank Dr",
    "address_councildis": "D",
    "status": "Assigned to Contractor",
    "contractor": "IV Waste",
    "rowid": "1273679",
    "final_x": "3678382.22722",
    "final_y": "554369.49372",
    "longitude": "-90.07712412600742",
    "latitude": "30.018418108263035",
    "geocoded_column": {
      "latitude": "30.018418108263035",
      "longitude": "-90.07712412600742"
    }
  },
  {
    "service_request": "2026-1273678",
    "request_type": "Trash/Recycling",
    "request_reason": "Request a Large Item Pick Up",
    "date_created": "2026-04-14T14:54:30.000",
    "date_modified": "2026-04-14T14:54:32.000",
    "request_status": "Pending",
    "responsible_agency": "Department of Sanitation",
    "final_address": "3637 Delachaise St",
    "address_councildis": "B",
    "status": "Assigned to Contractor",
    "contractor": "IV Waste",
    "rowid": "1273678",
    "final_x": "3671248.70094",
    "final_y": "528311.311744",
    "longitude": "-90.10054931713128",
    "latitude": "29.946980118542594",
    "geocoded_column": {
      "latitude": "29.946980118542594",
      "longitude": "-90.10054931713128"
    }
  },
  {
    "service_request": "2026-1273677",
    "request_type": "Traffic Safety",
    "request_reason": "Request for Traffic Calming due to Speeding",
    "date_created": "2026-04-14T14:51:20.000",
    "date_modified": "2026-04-14T14:54:27.000",
    "request_status": "Pending",
    "responsible_agency": "Department of Public Works",
    "final_address": "3500 BLK Republic St",
    "address_councildis": "D",
    "status": "Pending",
    "rowid": "1273677",
    "final_x": "3680472.21612",
    "final_y": "545389.606187",
    "longitude": "-90.0708331508246",
    "latitude": "29.99366347040658",
    "geocoded_column": {
      "latitude": "29.99366347040658",
      "longitude": "-90.0708331508246"
    }
  },
  {
    "service_request": "2026-1273676",
    "request_type": "Trash/Recycling",
    "request_reason": "Request a Large Item Pick Up",
    "date_created": "2026-04-14T14:50:48.000",
    "date_modified": "2026-04-14T14:50:50.000",
    "request_status": "Pending",
    "responsible_agency": "Department of Sanitation",
    "final_address": "4941 St Charles Ave",
    "address_councildis": "B",
    "status": "Assigned to Contractor",
    "contractor": "IV Waste",
    "rowid": "1273676",
    "final_x": "3668782.91809",
    "final_y": "520968.017721",
    "longitude": "-90.10858255388546",
    "latitude": "29.92686113715404",
    "geocoded_column": {
      "latitude": "29.92686113715404",
      "longitude": "-90.10858255388546"
    }
  },
  {
    "service_request": "2026-1273675",
    "request_type": "Street and Traffic Signs",
    "request_reason": "Additional Signage Request",
    "date_created": "2026-04-14T14:50:19.000",
    "date_modified": "2026-04-14T14:50:20.000",
    "request_status": "Pending",
    "responsible_agency": "Department of Public Works",
    "final_address": "49 Eugenie Ct",
    "address_councildis": "C",
    "status": "Pending",
    "rowid": "1273675",
    "final_x": "3700539.96657",
    "final_y": "511267.36824",
    "longitude": "-90.0086886507033",
    "latitude": "29.899216098226827",
    "geocoded_column": {
      "latitude": "29.899216098226827",
      "longitude": "-90.0086886507033"
    }
  },
  {
    "service_request": "2026-1273674",
    "request_type": "Abandoned Vehicles",
    "request_reason": "Abandoned/Junk Vehicles",
    "date_created": "2026-04-14T14:49:17.000",
    "date_modified": "2026-04-14T14:50:52.000",
    "request_status": "Pending",
    "responsible_agency": "Department of Public Works",
    "final_address": "2321 Magnolia St",
    "address_councildis": "B",
    "status": "Pending",
    "rowid": "1273674",
    "final_x": "3674793.15259",
    "final_y": "526562.42579",
    "longitude": "-90.08941810030042",
    "latitude": "29.942065926498497",
    "geocoded_column": {
      "latitude": "29.942065926498497",
      "longitude": "-90.08941810030042"
    }
  },
  {
    "service_request": "2026-1273673",
    "request_type": "Trash/Recycling",
    "request_reason": "Request a Large Item Pick Up",
    "date_created": "2026-04-14T14:44:40.000",
    "date_modified": "2026-04-14T14:44:42.000",
    "request_status": "Pending",
    "responsible_agency": "Department of Sanitation",
    "final_address": "4706 W Adams Ct",
    "address_councildis": "E",
    "status": "Assigned to Contractor",
    "contractor": "Waste Pro",
    "rowid": "1273673",
    "final_x": "3718486.30373",
    "final_y": "556767.886682",
    "longitude": "-89.95032009037851",
    "latitude": "30.02374283268497",
    "geocoded_column": {
      "latitude": "30.02374283268497",
      "longitude": "-89.95032009037851"
    }
  },
  {
    "service_request": "2026-1273672",
    "request_type": "Trash/Recycling",
    "request_reason": "Request a Large Item Pick Up",
    "date_created": "2026-04-14T14:44:28.000",
    "date_modified": "2026-04-14T14:44:30.000",
    "request_status": "Pending",
    "responsible_agency": "Department of Sanitation",
    "final_address": "913 Touro St",
    "address_councildis": "C",
    "status": "Assigned to Contractor",
    "contractor": "IV Waste",
    "rowid": "1273672",
    "final_x": "3684307.73916",
    "final_y": "535652.574662",
    "longitude": "-90.05905938808195",
    "latitude": "29.966773294815567",
    "geocoded_column": {
      "latitude": "29.966773294815567",
      "longitude": "-90.05905938808195"
    }
  },
  {
    "service_request": "2026-1273671",
    "request_type": "Abandoned Vehicles",
    "request_reason": "Abandoned/Junk Vehicles",
    "date_created": "2026-04-14T14:34:00.000",
    "date_modified": "2026-04-14T14:35:45.000",
    "request_status": "Pending",
    "responsible_agency": "Department of Public Works",
    "final_address": "3233 General Taylor St",
    "address_councildis": "B",
    "status": "Pending",
    "rowid": "1273671",
    "final_x": "3671309.60839",
    "final_y": "526965.14195",
    "longitude": "-90.10040274339711",
    "latitude": "29.943276789482663",
    "geocoded_column": {
      "latitude": "29.943276789482663",
      "longitude": "-90.10040274339711"
    }
  },
  {
    "service_request": "2026-1273670",
    "request_type": "Trash/Recycling",
    "request_reason": "Repair Trash Cart",
    "date_created": "2026-04-14T14:33:44.000",
    "date_modified": "2026-04-14T14:35:35.000",
    "request_status": "Pending",
    "responsible_agency": "Department of Sanitation",
    "final_address": "5641 Chartres St Apt B",
    "address_councildis": "E",
    "status": "Assigned to Contractor",
    "contractor": "Waste Pro",
    "rowid": "1273670",
    "final_x": "3697838.91242",
    "final_y": "531905.297539",
    "longitude": "-90.01646423349408",
    "latitude": "29.956048912716746",
    "geocoded_column": {
      "latitude": "29.956048912716746",
      "longitude": "-90.01646423349408"
    }
  },