[
  {
    "service_request": "2023-1043168",
    "request_type": "Roads/Drainage",
    "request_reason": "Pothole",
    "date_created": "2023-10-14T01:11:50.000",
    "date_modified": "2023-10-14T01:11:50.000",
    "request_status": "Pending",
    "responsible_agency": "Department of Public Works",
    "final_address": "1224 Constantinople St",
    "address_councildis": "B",
    "status": "Pending",
    "rowid": "1043168",
    "final_x": "3672326.33211",
    "final_y": "520156.27724",
    "longitude": "-90.09742455349182",
    "latitude": "29.924524493122814",
    "geocoded_column": {
      "latitude": "29.924524493122814",
      "longitude": "-90.09742455349182"
    }
  },
  {
    "service_request": "2023-1043167",
    "request_type": "Roads/Drainage",
    "request_reason": "Pothole",
    "date_created": "2023-10-14T00:24:48.000",
    "date_modified": "2023-10-14T00:24:48.000",
    "request_status": "Pending",
    "responsible_agency": "Department of Public Works",
    "final_address": "1931 Bordeaux St",
    "address_councildis": "B",
    "status": "Pending",
    "rowid": "1043167",
    "final_x": "3669286.95687",
    "final_y": "522038.187706",
    "longitude": "-90.1069552758382",
    "latitude": "29.9297889398049",
    "geocoded_column": {
      "latitude": "29.9297889398049",
      "longitude": "-90.1069552758382"
    }
  },
  {
    "service_request": "2023-1043166",
    "request_type": "Roads/Drainage",
    "request_reason": "Pothole",
    "date_created": "2023-10-13T23:59:35.000",
    "date_modified": "2023-10-13T23:59:35.000",
    "request_status": "Pending",
    "responsible_agency": "Department of Public Works",
    "final_address": "1315 Peniston St",
    "address_councildis": "B",
    "status": "Pending",
    "rowid": "1043166",
    "final_x": "3673101.31451",
    "final_y": "520423.11276",
    "longitude": "-90.09496908964098",
    "latitude": "29.925235197927364",
    "geocoded_column": {
      "latitude": "29.925235197927364",
      "longitude": "-90.09496908964098"
    }
  },
  {
    "service_request": "2023-1043165",
    "request_type": "Roads/Drainage",
    "request_reason": "Pothole",
    "date_created": "2023-10-13T23:55:01.000",
    "date_modified": "2023-10-13T23:55:01.000",
    "request_status": "Pending",
    "responsible_agency": "Department of Public Works",
    "final_address": "1421 Constantinople St",
    "address_councildis": "B",
    "status": "Pending",
    "rowid": "1043165",
    "final_x": "3672433.24257",
    "final_y": "520667.657465",
    "longitude": "-90.09706965638372",
    "latitude": "29.925927453713577",
    "geocoded_column": {
      "latitude": "29.925927453713577",
      "longitude": "-90.09706965638372"
    }
  },
  {
    "service_request": "2023-1043164",
    "request_type": "Roads/Drainage",
    "request_reason": "Pothole",
    "date_created": "2023-10-13T23:49:23.000",
    "date_modified": "2023-10-13T23:49:23.000",
    "request_status": "Pending",
    "responsible_agency": "Department of Public Works",
    "final_address": "1312 Milan St",
    "address_councildis": "B",
    "status": "Pending",
    "rowid": "1043164",
    "final_x": "3671625.82823",
    "final_y": "520286.919608",
    "longitude": "-90.09963137110304",
    "latitude": "29.92490447494246",
    "geocoded_column": {
      "latitude": "29.92490447494246",
      "longitude": "-90.09963137110304"
    }
  },
  {
    "service_request": "2023-1043163",
    "request_type": "Roads/Drainage",
    "request_reason": "Pothole",
    "date_created": "2023-10-13T23:33:15.000",
    "date_modified": "2023-10-13T23:33:15.000",
    "request_status": "Pending",
    "responsible_agency": "Department of Public Works",
    "final_address": "4216 Chestnut St",
    "address_councildis": "B",
    "status": "Pending",
    "rowid": "1043163",
    "final_x": "3671574.31393",
    "final_y": "519539.203703",
    "longitude": "-90.09981939416457",
    "latitude": "29.922850019854593",
    "geocoded_column": {
      "latitude": "29.922850019854593",
      "longitude": "-90.09981939416457"
    }
  },
  {
    "service_request": "2023-1043162",
    "request_type": "Abandoned Vehicles",
    "request_reason": "Abandoned/Junk Vehicles",
    "date_created": "2023-10-13T23:31:21.000",
    "date_modified": "2023-10-13T23:31:21.000",
    "request_status": "Pending",
    "responsible_agency": "Department of Public Works",
    "final_address": "1812 Columbus St",
    "address_councildis": "D",
    "status": "Pending",
    "rowid": "1043162",
    "final_x": "3680978.52853",
    "final_y": "537630.217032",
    "longitude": "-90.06950413398324",
    "latitude": "29.97231251330972",
    "geocoded_column": {
      "latitude": "29.97231251330972",
      "longitude": "-90.06950413398324"
    }
  },
  {
    "service_request": "2023-1043161",
    "request_type": "Trash/Recycling",
    "request_reason": "MIssed Recycling Pick-Up",
    "date_created": "2023-10-13T23:31:20.000",
    "date_modified": "2023-10-13T23:31:21.000",
    "request_status": "Pending",
    "responsible_agency": "Department of Sanitation",
    "final_address": "3056 Royal St",
    "address_councildis": "C",
    "status": "Assigned to Contractor",
    "contractor": "IV Waste",
    "rowid": "1043161",
    "final_x": "3688492.65417",
    "final_y": "534511.168837",
    "longitude": "-90.04588397767795",
    "latitude": "29.963506194504788",
    "geocoded_column": {
      "latitude": "29.963506194504788",
      "longitude": "-90.04588397767795"
    }
  },
  {
    "service_request": "2023-1043160",
    "request_type": "Abandoned Vehicles",
    "request_reason": "Abandoned/Junk Vehicles",
    "date_created": "2023-10-13T23:28:46.000",
    "date_modified": "2023-10-13T23:28:46.000",
    "request_status": "Pending",
    "responsible_agency": "Department of Public Works",
    "final_address": "1812 Columbus St",
    "address_councildis": "D",
    "status": "Pending",
    "rowid": "1043160",
    "final_x": "3680978.52853",
    "final_y": "537630.217032",
    "longitude": "-90.06950413398324",
    "latitude": "29.97231251330972",
    "geocoded_column": {
      "latitude": "29.97231251330972",
      "longitude": "-90.06950413398324"
    }
  },
  {
    "service_request": "2023-1043158",
    "request_type": "Trash/Recycling",
    "request_reason": "Request a Large Item Pick Up",
    "date_created": "2023-10-13T22:39:56.000",
    "date_modified": "2023-10-13T22:39:57.000",
    "request_status": "Pending",
    "responsible_agency": "Department of Sanitation",
    "final_address": "1016 Merrill St",
    "address_councildis": "C",
    "status": "Assigned to Contractor",
    "contractor": "Richards Disposal",
    "rowid": "1043158",
    "final_x": "3695043.29123",
    "final_y": "528224.957376",
    "longitude": "-90.02542445392221",
    "latitude": "29.946017308984523",
    "geocoded_column": {
      "latitude": "29.946017308984523",
      "longitude": "-90.02542445392221"
    }
  },
  {
    "service_request": "2023-1043157",
    "request_type": "Traffic Signals/Signs/Striping/Streetlights",
    "request_reason": "Street Light Outage/Malfunction",
    "date_created": "2023-10-13T22:33:15.000",
    "date_modified": "2023-10-13T22:33:15.000",
    "request_status": "Pending",
    "responsible_agency": "Department of Public Works",
    "final_address": "1864 Industry St",
    "address_councildis": "D",
    "status": "Assigned to Contractor",
    "contractor": "Legacy Professional Services",
    "rowid": "1043157",
    "final_x": "3682117.78229",
    "final_y": "542662.017997",
    "longitude": "-90.0657303780618",
    "latitude": "29.986113609871925",
    "geocoded_column": {
      "latitude": "29.986113609871925",
      "longitude": "-90.0657303780618"
    }
  },
  {
    "service_request": "2023-1043156",
    "request_type": "Traffic Signals/Signs/Striping/Streetlights",
    "request_reason": "Street Light Outage/Malfunction",
    "date_created": "2023-10-13T22:07:58.000",
    "date_modified": "2023-10-13T22:07:58.000",
    "request_status": "Pending",
    "responsible_agency": "Department of Public Works",
    "final_address": "1655 N Dupre St",
    "address_councildis": "D",
    "status": "Assigned to Contractor",
    "contractor": "Legacy Professional Services",
    "rowid": "1043156",
    "final_x": "3678796.54766",
    "final_y": "541035.862348",
    "longitude": "-90.0762772102757",
    "latitude": "29.98174285652443",
    "geocoded_column": {
      "latitude": "29.98174285652443",
      "longitude": "-90.0762772102757"
    }
  },
  {
    "service_request": "2023-1043155",
    "request_type": "Roads/Drainage",
    "request_reason": "Pothole",
    "date_created": "2023-10-13T21:57:40.000",
    "date_modified": "2023-10-13T21:57:40.000",
    "request_status": "Pending",
    "responsible_agency": "Department of Public Works",
    "final_address": "6019 Chestnut St",
    "address_councildis": "A",
    "status": "Pending",
    "rowid": "1043155",
    "final_x": "3664762.62535",
    "final_y": "519948.884408",
    "longitude": "-90.12130763332809",
    "latitude": "29.92417638659354",
    "geocoded_column": {
      "latitude": "29.92417638659354",
      "longitude": "-90.12130763332809"
    }
  },
  {
    "service_request": "2023-1043154",
    "request_type": "Roads/Drainage",
    "request_reason": "Pothole",
    "date_created": "2023-10-13T21:55:11.000",
    "date_modified": "2023-10-13T21:55:11.000",
    "request_status": "Pending",
    "responsible_agency": "Department of Public Works",
    "final_address": "6071 Camp St",
    "address_councildis": "A",
    "status": "Pending",
    "rowid": "1043154",
    "final_x": "3664336.8768",
    "final_y": "519782.875128",
    "longitude": "-90.12265711494908",
    "latitude": "29.92373228914103",
    "geocoded_column": {
      "latitude": "29.92373228914103",
      "longitude": "-90.12265711494908"
    }
  },
  {
    "service_request": "2023-1043153",
    "request_type": "Roads/Drainage",
    "request_reason": "Pothole",
    "date_created": "2023-10-13T21:51:53.000",
    "date_modified": "2023-10-13T21:51:53.000",
    "request_status": "Pending",
    "responsible_agency": "Department of Public Works",
    "final_address": "6031 Pitt St",
    "address_councildis": "A",
    "status": "Pending",
    "rowid": "1043153",
    "final_x": "3665074.90548",
    "final_y": "521345.766329",
    "longitude": "-90.12027518893876",
    "latitude": "29.928008285877205",
    "geocoded_column": {
      "latitude": "29.928008285877205",
      "longitude": "-90.12027518893876"
    }
  },
  {
    "service_request": "2023-1043152",
    "request_type": "Trash/Recycling",
    "request_reason": "Request a Large Item Pick Up",
    "date_created": "2023-10-13T21:46:39.000",
    "date_modified": "2023-10-13T21:46:40.000",
    "request_status": "Pending",
    "responsible_agency": "Department of Sanitation",
    "final_address": "2301 Royal St",
    "address_councildis": "C",
    "status": "Assigned to Contractor",
    "contractor": "IV Waste",
    "rowid": "1043152",
    "final_x": "3685560.74306",
    "final_y": "534931.392134",
    "longitude": "-90.05512781927891",
    "latitude": "29.96475191817577",
    "geocoded_column": {
      "latitude": "29.96475191817577",
      "longitude": "-90.05512781927891"
    }
  },
  {
    "service_request": "2023-1043151",
    "request_type": "Traffic Signals/Signs/Striping/Streetlights",
    "request_reason": "Street Light Outage/Malfunction",
    "date_created": "2023-10-13T20:47:36.000",
    "date_modified": "2023-10-13T20:47:37.000",
    "request_status": "Pending",
    "responsible_agency": "Department of Public Works",
    "final_address": "7800 Mackenzie St",
    "address_councildis": "E",
    "status": "Assigned to Contractor",
    "contractor": "Legacy Professional Services",
    "rowid": "1043151",
    "final_x": "3710589.21387",
    "final_y": "566647.958947",
    "longitude": "-89.9749029631766",
    "latitude": "30.051168813493895",
    "geocoded_column": {
      "latitude": "30.051168813493895",
      "longitude": "-89.9749029631766"
    }
  },
  {
    "service_request": "2023-1043150",
    "request_type": "Traffic Signals/Signs/Striping/Streetlights",
    "request_reason": "Road Surface Marking Maintenance-Parking Lane",
    "date_created": "2023-10-13T20:08:35.000",
    "date_modified": "2023-10-13T20:08:35.000",
    "request_status": "Pending",
    "responsible_agency": "Department of Public Works",
    "final_address": "2222 St Claude Ave",
    "address_councildis": "C",
    "status": "Pending",
    "rowid": "1043150",
    "final_x": "3685254.38537",
    "final_y": "536237.784071",
    "longitude": "-90.0560492870277",
    "latitude": "29.968353436628156",
    "geocoded_column": {
      "latitude": "29.968353436628156",
      "longitude": "-90.0560492870277"
    }
  },
  {
    "service_request": "2023-1043149",
    "request_type": "Traffic Signals/Signs/Striping/Streetlights",
    "request_reason": "Street Light Outage/Malfunction",
    "date_created": "2023-10-13T20:07:26.000",
    "date_modified": "2023-10-13T20:07:28.000",
    "request_status": "Pending",
    "responsible_agency": "Department of Public Works",
    "final_address": "115 N Wren St",
    "address_councildis": "D",
    "status": "Assigned to Contractor",
    "contractor": "Legacy Professional Services",
    "rowid": "1043149",
    "final_x": "3672913.02587",
    "final_y": "556176.33065",
    "longitude": "-90.09434309235053",
    "latitude": "30.023549995700623",
    "geocoded_column": {
      "latitude": "30.023549995700623",
      "longitude": "-90.09434309235053"
    }
  },
  {
    "service_request": "2023-1043148",
    "request_type": "Abandoned Vehicles",
    "request_reason": "Abandoned/Junk Vehicles",
    "date_created": "2023-10-13T19:38:04.000",
    "date_modified": "2023-10-13T19:38:04.000",
    "request_status": "Pending",
    "responsible_agency": "Department of Public Works",
    "final_address": "6631 Avenue B",
    "address_councildis": "A",
    "status": "Pending",
    "rowid": "1043148",
    "final_x": "3665793.00487",
    "final_y": "552242.401942",
    "longitude": "-90.1169729417012",
    "latitude": "30.012942844340674",
    "geocoded_column": {
      "latitude": "30.012942844340674",
      "longitude": "-90.1169729417012"
    }
  },
  {
    "service_request": "2023-1043147",
    "request_type": "Trash/Recycling",
    "request_reason": "Illegal Dumping",
    "date_created": "2023-10-13T18:59:36.000",
    "date_modified": "2023-10-13T18:59:36.000",
    "request_status": "Pending",
    "responsible_agency": "Department of Sanitation",
    "final_address": "2123 Rev. John Raphael, Jr. Way",
    "address_councildis": "B",
    "status": "Pending",
    "rowid": "1043147",
    "final_x": "3675928.25153",
    "final_y": "526193.70611",
    "longitude": "-90.08584701928534",
    "latitude": "29.941018137030994",
    "geocoded_column": {
      "latitude": "29.941018137030994",
      "longitude": "-90.08584701928534"
    }
  },
  {
    "service_request": "2023-1043146",
    "request_type": "Property Maintenance",
    "request_reason": "Property Maintenance",
    "date_created": "2023-10-13T18:58:23.000",
    "date_modified": "2023-10-13T18:58:23.000",
    "request_status": "Pending",
    "responsible_agency": "Department of Code Enforcement",
    "final_address": "2123 Rev. John Raphael, Jr. Way",
    "address_councildis": "B",
    "status": "Pending",
    "rowid": "1043146",
    "final_x": "3675928.25153",
    "final_y": "526193.70611",
    "longitude": "-90.08584701928534",
    "latitude": "29.941018137030994",
    "geocoded_column": {
      "latitude": "29.941018137030994",
      "longitude": "-90.08584701928534"
    }
  },
  {
    "service_request": "2023-1043145",
    "request_type": "Property Maintenance",
    "request_reason": "Property Maintenance",
    "date_created": "2023-10-13T18:56:45.000",
    "date_modified": "2023-10-13T18:56:45.000",
    "request_status": "Pending",
    "responsible_agency": "Department of Code Enforcement",
    "final_address": "2215 Rev. John Raphael, Jr. Way",
    "address_councildis": "B",
    "status": "Pending",
    "rowid": "1043145",
    "final_x": "3675677.05947",
    "final_y": "525995.730365",
    "longitude": "-90.08664687971158",
    "latitude": "29.940481286070387",
    "geocoded_column": {
      "latitude": "29.940481286070387",
      "longitude": "-90.08664687971158"
    }
  },
  {
    "service_request": "2023-1043144",
    "request_type": "Trash/Recycling",
    "request_reason": "Illegal Dumping",
    "date_created": "2023-10-13T18:55:15.000",
    "date_modified": "2023-10-13T18:55:15.000",
    "request_status": "Pending",
    "responsible_agency": "Department of Sanitation",
    "final_address": "2401 First St",
    "address_councildis": "B",
    "status": "Pending",
    "rowid": "1043144",
    "final_x": "3675359.20289",
    "final_y": "525687.369725",
    "longitude": "-90.08766099017603",
    "latitude": "29.939642900895667",
    "geocoded_column": {
      "latitude": "29.939642900895667",
      "longitude": "-90.08766099017603"
    }
  },
  {
    "service_request": "2023-1043143",
    "request_type": "Trash/Recycling",
    "request_reason": "Illegal Dumping",
    "date_created": "2023-10-13T18:53:32.000",
    "date_modified": "2023-10-13T18:53:32.000",
    "request_status": "Pending",
    "responsible_agency": "Department of Sanitation",
    "final_address": "2401 Rev. John Raphael, Jr. Way",
    "address_councildis": "B",
    "status": "Pending",
    "rowid": "1043143",
    "final_x": "3675304.63816",
    "final_y": "525635.511293",
    "longitude": "-90.08783503842164",
    "latitude": "29.939501938170093",
    "geocoded_column": {
      "latitude": "29.939501938170093",
      "longitude": "-90.08783503842164"
    }
  },
  {
    "service_request": "2023-1043141",
    "request_type": "Abandoned Vehicles",
    "request_reason": "Abandoned/Junk Vehicles",
    "date_created": "2023-10-13T18:50:39.000",
    "date_modified": "2023-10-13T18:50:39.000",
    "request_status": "Pending",
    "responsible_agency": "Department of Public Works",
    "final_address": "6929 Virgilian St",
    "address_councildis": "D",
    "status": "Pending",
    "rowid": "1043141",
    "final_x": "3696992.31946",
    "final_y": "556647.003546",
    "longitude": "-90.01824081280056",
    "latitude": "30.02410626890233",
    "geocoded_column": {
      "latitude": "30.02410626890233",
      "longitude": "-90.01824081280056"
    }
  },
  {
    "service_request": "2023-1043140",
    "request_type": "Roads/Drainage",
    "request_reason": "Catch Basin - Broken/Damage",
    "date_created": "2023-10-13T18:48:49.000",
    "date_modified": "2023-10-13T18:48:49.000",
    "request_status": "Pending",
    "responsible_agency": "Department of Public Works",
    "final_address": "2726 LaSalle St",
    "address_councildis": "B",
    "status": "Pending",
    "rowid": "1043140",
    "final_x": "3674434.31835",
    "final_y": "524912.361468",
    "longitude": "-90.09060751982086",
    "latitude": "29.937539496095525",
    "geocoded_column": {
      "latitude": "29.937539496095525",
      "longitude": "-90.09060751982086"
    }
  },
  {
    "service_request": "2023-1043139",
    "request_type": "Property Maintenance",
    "request_reason": "Property Maintenance",
    "date_created": "2023-10-13T18:43:32.000",
    "date_modified": "2023-10-13T18:43:32.000",
    "request_status": "Pending",
    "responsible_agency": "Department of Code Enforcement",
    "final_address": "2301 Peniston St",
    "address_councildis": "B",
    "status": "Pending",
    "rowid": "1043139",
    "final_x": "3672327.84782",
    "final_y": "523603.363515",
    "longitude": "-90.09730239123564",
    "latitude": "29.934002826368733",
    "geocoded_column": {
      "latitude": "29.934002826368733",
      "longitude": "-90.09730239123564"
    }
  },
  {
    "service_request": "2023-1043138",
    "request_type": "Property Maintenance",
    "request_reason": "Property Maintenance",
    "date_created": "2023-10-13T18:41:28.000",
    "date_modified": "2023-10-13T18:41:28.000",
    "request_status": "Pending",
    "responsible_agency": "Department of Code Enforcement",
    "final_address": "2221 Amelia St",
    "address_councildis": "B",
    "status": "Pending",
    "rowid": "1043138",
    "final_x": "3672598.92545",
    "final_y": "523450.996667",
    "longitude": "-90.09645180065516",
    "latitude": "29.933575823617826",
    "geocoded_column": {
      "latitude": "29.933575823617826",
      "longitude": "-90.09645180065516"
    }
  },
  {
    "service_request": "2023-1043137",
    "request_type": "Utility Poles",
    "request_reason": "Utility Pole Leaning",
    "date_created": "2023-10-13T18:38:10.000",
    "date_modified": "2023-10-13T18:38:14.000",
    "request_status": "Pending",
    "responsible_agency": "Utility Company Collective",
    "final_address": "2201 Amelia St",
    "address_councildis": "B",
    "status": "Pending",
    "rowid": "1043137",
    "final_x": "3672637.48552",
    "final_y": "523303.634747",
    "longitude": "-90.09633509058048",
    "latitude": "29.93316948143145",
    "geocoded_column": {
      "latitude": "29.93316948143145",
      "longitude": "-90.09633509058048"
    }
  },
  {
    "service_request": "2023-1043136",
    "request_type": "Property Maintenance",
    "request_reason": "Property Maintenance",
    "date_created": "2023-10-13T18:35:44.000",
    "date_modified": "2023-10-13T18:35:44.000",
    "request_status": "Pending",
    "responsible_agency": "Department of Code Enforcement",
    "final_address": "3432 Loyola Ave",
    "address_councildis": "B",
    "status": "Pending",
    "rowid": "1043136",
    "final_x": "3673079.6475",
    "final_y": "523364.324027",
    "longitude": "-90.09493714130727",
    "latitude": "29.933323224652277",
    "geocoded_column": {
      "latitude": "29.933323224652277",
      "longitude": "-90.09493714130727"
    }
  },
  {
    "service_request": "2023-1043135",
    "request_type": "Trash/Recycling",
    "request_reason": "Illegal Dumping",
    "date_created": "2023-10-13T18:33:57.000",
    "date_modified": "2023-10-13T18:33:57.000",
    "request_status": "Pending",
    "responsible_agency": "Department of Sanitation",
    "final_address": "1739 Louisiana Ave",
    "address_councildis": "B",
    "status": "Pending",
    "rowid": "1043135",
    "final_x": "3673989.57185",
    "final_y": "522221.194234",
    "longitude": "-90.09210365376391",
    "latitude": "29.930152915781637",
    "geocoded_column": {
      "latitude": "29.930152915781637",
      "longitude": "-90.09210365376391"
    }
  },
  {
    "service_request": "2023-1043134",
    "request_type": "Property Maintenance",
    "request_reason": "Property Maintenance",
    "date_created": "2023-10-13T18:25:05.000",
    "date_modified": "2023-10-13T18:25:05.000",
    "request_status": "Pending",
    "responsible_agency": "Department of Code Enforcement",
    "final_address": "1930 Felicity St",
    "address_councildis": "B",
    "status": "Pending",
    "rowid": "1043134",
    "final_x": "3677333.95458",
    "final_y": "525680.862717",
    "longitude": "-90.08142664674847",
    "latitude": "29.939565831062406",
    "geocoded_column": {
      "latitude": "29.939565831062406",
      "longitude": "-90.08142664674847"
    }
  },
  {
    "service_request": "2023-1043133",
    "request_type": "Property Maintenance",
    "request_reason": "Property Maintenance",
    "date_created": "2023-10-13T18:23:50.000",
    "date_modified": "2023-10-13T18:23:50.000",
    "request_status": "Pending",
    "responsible_agency": "Department of Code Enforcement",
    "final_address": "2014 St Andrew St",
    "address_councildis": "B",
    "status": "Pending",
    "rowid": "1043133",
    "final_x": "3677120.64379",
    "final_y": "525502.464445",
    "longitude": "-90.08210624863035",
    "latitude": "29.939081701120838",
    "geocoded_column": {
      "latitude": "29.939081701120838",
      "longitude": "-90.08210624863035"
    }
  },
  {
    "service_request": "2023-1043132",
    "request_type": "Trash/Recycling",
    "request_reason": "Missed Trash Pick-Up",
    "date_created": "2023-10-13T18:17:16.000",
    "date_modified": "2023-10-13T18:17:16.000",
    "request_status": "Pending",
    "responsible_agency": "Department of Sanitation",
    "final_address": "7000 Manchester St",
    "address_councildis": "E",
    "status": "Assigned to Contractor",
    "contractor": "Waste Pro",
    "rowid": "1043132",
    "final_x": "3698950.00874",
    "final_y": "560018.787293",
    "longitude": "-90.01193205437833",
    "latitude": "30.033315452729585",
    "geocoded_column": {
      "latitude": "30.033315452729585",
      "longitude": "-90.01193205437833"
    }
  },
  {
    "service_request": "2023-1043131",
    "request_type": "Trash/Recycling",
    "request_reason": "Missed Trash Pick-Up",
    "date_created": "2023-10-13T18:05:51.000",
    "date_modified": "2023-10-13T18:05:51.000",
    "request_status": "Pending",
    "responsible_agency": "Department of Sanitation",
    "final_address": "633 Whitney Ave",
    "address_councildis": "C",
    "status": "Assigned to Contractor",
    "contractor": "Richards Disposal",
    "rowid": "1043131",
    "final_x": "3690138.10172",
    "final_y": "529099.51392",
    "longitude": "-90.04088060737199",
    "latitude": "29.94857508087663",
    "geocoded_column": {
      "latitude": "29.94857508087663",
      "longitude": "-90.04088060737199"
    }
  },
  {
    "service_request": "2023-1043130",
    "request_type": "Traffic Signals/Signs/Striping/Streetlights",
    "request_reason": "Traffic Signal Malfunctioning/Damaged",
    "date_created": "2023-10-13T18:01:07.000",
    "date_modified": "2023-10-13T18:01:07.000",
    "request_status": "Pending",
    "responsible_agency": "Department of Public Works",
    "final_address": "100 Lelong Dr",
    "address_councildis": "A",
    "status": "Pending",
    "rowid": "1043130",
    "final_x": "3674376.482",
    "final_y": "541910.052172",
    "longitude": "-90.09020792274487",
    "latitude": "29.98427917022839",
    "geocoded_column": {
      "latitude": "29.98427917022839",
      "longitude": "-90.09020792274487"
    }
  },
  {
    "service_request": "2023-1043128",
    "request_type": "Trash/Recycling",
    "request_reason": "Request a Large Item Pick Up",
    "date_created": "2023-10-13T17:47:12.000",
    "date_modified": "2023-10-13T17:47:13.000",
    "request_status": "Pending",
    "responsible_agency": "Department of Sanitation",
    "final_address": "2301 Royal St",
    "address_councildis": "C",
    "status": "Assigned to Contractor",
    "contractor": "IV Waste",
    "rowid": "1043128",
    "final_x": "3685560.74306",
    "final_y": "534931.392134",
    "longitude": "-90.05512781927891",
    "latitude": "29.96475191817577",
    "geocoded_column": {
      "latitude": "29.96475191817577",
      "longitude": "-90.05512781927891"
    }
  },
  {
    "service_request": "2023-1043127",
    "request_type": "Property Maintenance",
    "request_reason": "Property Maintenance",
    "date_created": "2023-10-13T17:36:10.000",
    "date_modified": "2023-10-13T17:36:10.000",
    "request_status": "Pending",
    "responsible_agency": "Department of Code Enforcement",
    "final_address": "1499 athis ",
    "address_councildis": "D",
    "status": "Pending",
    "rowid": "1043127",
    "final_x": "3678333.34075",
    "final_y": "553765.839191",
    "longitude": "-90.07729949681413",
    "latitude": "30.016759750330863",
    "geocoded_column": {
      "latitude": "30.016759750330863",
      "longitude": "-90.07729949681413"
    }
  },
  {
    "service_request": "2023-1043126",
    "request_type": "Trash/Recycling",
    "request_reason": "Replace Trash Cart",
    "date_created": "2023-10-13T17:22:33.000",
    "date_modified": "2023-10-13T17:22:33.000",
    "request_status": "Pending",
    "responsible_agency": "Department of Sanitation",
    "final_address": "3731 Red Cypress Dr",
    "address_councildis": "C",
    "status": "Assigned to Contractor",
    "contractor": "Richards Disposal",
    "rowid": "1043126",
    "final_x": "3703294.45092",
    "final_y": "512170.390577",
    "longitude": "-89.999962786411",
    "latitude": "29.901611258923314",
    "geocoded_column": {
      "latitude": "29.901611258923314",
      "longitude": "-89.999962786411"
    }
  },
  {
    "service_request": "2023-1043125",
    "request_type": "Trash/Recycling",
    "request_reason": "Dead Animal Pick Up",
    "date_created": "2023-10-13T17:21:53.000",
    "date_modified": "2023-10-13T17:21:53.000",
    "request_status": "Pending",
    "responsible_agency": "Department of Sanitation",
    "status": "Assigned to Contractor",
    "rowid": "1043125",
    "longitude": "0.0",
    "latitude": "0.0",
    "geocoded_column": {
      "latitude": "0.0",
      "longitude": "0.0"
    }
  },
  {
    "service_request": "2023-1043124",
    "request_type": "Property Maintenance",
    "request_reason": "Property Maintenance",
    "date_created": "2023-10-13T17:17:02.000",
    "date_modified": "2023-10-13T17:17:02.000",
    "request_status": "Pending",
    "responsible_agency": "Department of Code Enforcement",
    "final_address": "4105 St Claude Ave",
    "address_councildis": "C",
    "status": "Pending",
    "rowid": "1043124",
    "final_x": "3692190.5871",
    "final_y": "535317.331654",
    "longitude": "-90.03417748238002",
    "latitude": "29.96560809399387",
    "geocoded_column": {
      "latitude": "29.96560809399387",
      "longitude": "-90.03417748238002"
    }
  },
  {
    "service_request": "2023-1043123",
    "request_type": "Abandoned Vehicles",
    "request_reason": "Abandoned/Junk Vehicles",
    "date_created": "2023-10-13T17:06:32.000",
    "date_modified": "2023-10-13T17:06:32.000",
    "request_status": "Pending",
    "responsible_agency": "Department of Public Works",
    "final_address": "1110 Amelia St",
    "address_councildis": "B",
    "status": "Pending",
    "rowid": "1043123",
    "final_x": "3673589.90228",
    "final_y": "519223.249335",
    "longitude": "-90.09346775437838",
    "latitude": "29.921921429907112",
    "geocoded_column": {
      "latitude": "29.921921429907112",
      "longitude": "-90.09346775437838"
    }
  },
  {
    "service_request": "2023-1043122",
    "request_type": "Trash/Recycling",
    "request_reason": "Order Recycling Cart",
    "date_created": "2023-10-13T17:03:08.000",
    "date_modified": "2023-10-13T17:03:08.000",
    "request_status": "Pending",
    "responsible_agency": "Department of Sanitation",
    "final_address": "8519 Sycamore St",
    "address_councildis": "A",
    "status": "Pending",
    "rowid": "1043122",
    "final_x": "3663196.17888",
    "final_y": "532053.528707",
    "longitude": "-90.12584972085565",
    "latitude": "29.95750576859633",
    "geocoded_column": {
      "latitude": "29.95750576859633",
      "longitude": "-90.12584972085565"
    }
  },
  {
    "service_request": "2023-1043121",
    "request_type": "Trash/Recycling",
    "request_reason": "Order Trash Cart",
    "date_created": "2023-10-13T17:02:38.000",
    "date_modified": "2023-10-13T17:02:39.000",
    "request_status": "Pending",
    "responsible_agency": "Department of Sanitation",
    "final_address": "8519 Sycamore St",
    "address_councildis": "A",
    "status": "Assigned to Contractor",
    "contractor": "Richards Disposal",
    "rowid": "1043121",
    "final_x": "3663196.17888",
    "final_y": "532053.528707",
    "longitude": "-90.12584972085565",
    "latitude": "29.95750576859633",
    "geocoded_column": {
      "latitude": "29.95750576859633",
      "longitude": "-90.12584972085565"
    }
  },
  {
    "service_request": "2023-1043120",
    "request_type": "Trash/Recycling",
    "request_reason": "Missed Trash Pick-Up",
    "date_created": "2023-10-13T16:38:18.000",
    "date_modified": "2023-10-13T16:38:18.000",
    "request_status": "Pending",
    "responsible_agency": "Department of Sanitation",
    "final_address": "7301 Beaconfield Dr",
    "address_councildis": "E",
    "status": "Assigned to Contractor",
    "contractor": "Waste Pro",
    "rowid": "1043120",
    "final_x": "3713636.2428",
    "final_y": "565725.624163",
    "longitude": "-89.9653072195555",
    "latitude": "30.048533090492494",
    "geocoded_column": {
      "latitude": "30.048533090492494",
      "longitude": "-89.9653072195555"
    }
  },
  {
    "service_request": "2023-1043119",
    "request_type": "Trash/Recycling",
    "request_reason": "Replace Trash Cart",
    "date_created": "2023-10-13T16:33:14.000",
    "date_modified": "2023-10-13T16:33:15.000",
    "request_status": "Pending",
    "responsible_agency": "Department of Sanitation",
    "final_address": "3352 Seine St",
    "address_councildis": "C",
    "status": "Assigned to Contractor",
    "contractor": "Richards Disposal",
    "rowid": "1043119",
    "final_x": "3696495.36675",
    "final_y": "519585.29868",
    "longitude": "-90.02115216470578",
    "latitude": "29.922215564114186",
    "geocoded_column": {
      "latitude": "29.922215564114186",
      "longitude": "-90.02115216470578"
    }
  },
  {
    "service_request": "2023-1043118",
    "request_type": "Trash/Recycling",
    "request_reason": "Missed Trash Pick-Up",
    "date_created": "2023-10-13T16:27:19.000",
    "date_modified": "2023-10-13T16:27:19.000",
    "request_status": "Pending",
    "responsible_agency": "Department of Sanitation",
    "final_address": "5315 Camp St",
    "address_councildis": "B",
    "status": "Assigned to Contractor",
    "contractor": "Richards Disposal",
    "rowid": "1043118",
    "final_x": "3667411.6322",
    "final_y": "519074.142071",
    "longitude": "-90.11297502678391",
    "latitude": "29.921693808893334",
    "geocoded_column": {
      "latitude": "29.921693808893334",
      "longitude": "-90.11297502678391"
    }
  },
  {
    "service_request": "2023-1043116",
    "request_type": "Traffic Signals/Signs/Striping/Streetlights",
    "request_reason": "Street Name Sign Damaged or Missing",
    "date_created": "2023-10-13T16:13:07.000",
    "date_modified": "2023-10-13T16:13:08.000",
    "request_status": "Pending",
    "responsible_agency": "Department of Public Works",
    "final_address": "PRENTISS AVE & LYNHUBER ST",
    "address_councildis": "D",
    "status": "Pending",
    "rowid": "1043116",
    "final_x": "3698003.2",
    "final_y": "554558.38",
    "longitude": "-90.01512256300707",
    "latitude": "30.018331408352836",
    "geocoded_column": {
      "latitude": "30.018331408352836",
      "longitude": "-90.01512256300707"
    }
  },
  {
    "service_request": "2023-1043115",
    "request_type": "Parks & Parkways",
    "request_reason": "Request Grass Cutting Service (City Owned Property)",
    "date_created": "2023-10-13T16:10:32.000",
    "date_modified": "2023-10-13T16:10:33.000",
    "request_status": "Pending",
    "responsible_agency": "Department of Parks & Parkway",
    "final_address": "13100 Curran Rd",
    "address_councildis": "E",
    "status": "Pending",
    "rowid": "1043115",
    "final_x": "3715728.06623",
    "final_y": "569707.607846",
    "longitude": "-89.95854490727325",
    "latitude": "30.05941307385292",
    "geocoded_column": {
      "latitude": "30.05941307385292",
      "longitude": "-89.95854490727325"
    }
  },
  {
    "service_request": "2023-1043114",
    "request_type": "Roads/Drainage",
    "request_reason": "Street Subsidence (Sinking)",
    "date_created": "2023-10-13T16:10:25.000",
    "date_modified": "2023-10-13T16:10:26.000",
    "request_status": "Pending",
    "responsible_agency": "Department of Public Works",
    "final_address": "PRENTISS AVE & LYNHUBER ST",
    "address_councildis": "D",
    "status": "Pending",
    "rowid": "1043114",
    "final_x": "3698003.2",
    "final_y": "554558.38",
    "longitude": "-90.01512256300707",
    "latitude": "30.018331408352836",
    "geocoded_column": {
      "latitude": "30.018331408352836",
      "longitude": "-90.01512256300707"
    }
  },
  {
    "service_request": "2023-1043113",
    "request_type": "Abandoned Vehicles",
    "request_reason": "Abandoned/Junk Vehicles",
    "date_created": "2023-10-13T16:05:02.000",
    "date_modified": "2023-10-13T16:05:03.000",
    "request_status": "Pending",
    "responsible_agency": "Department of Public Works",
    "final_address": "2246 Baronne St",
    "address_councildis": "B",
    "status": "Pending",
    "rowid": "1043113",
    "final_x": "3676731.86504",
    "final_y": "524203.110076",
    "longitude": "-90.08337842055542",
    "latitude": "29.935520570776468",
    "geocoded_column": {
      "latitude": "29.935520570776468",
      "longitude": "-90.08337842055542"
    }
  },
  {
    "service_request": "2023-1043112",
    "request_type": "Trash/Recycling",
    "request_reason": "Illegal Dumping",
    "date_created": "2023-10-13T16:02:56.000",
    "date_modified": "2023-10-13T16:03:24.000",
    "request_status": "Pending",
    "responsible_agency": "Department of Sanitation",
    "final_address": "13100 Curran Rd",
    "address_councildis": "E",
    "status": "Pending",
    "rowid": "1043112",
    "final_x": "3715728.06623",
    "final_y": "569707.607846",
    "longitude": "-89.95854490727325",
    "latitude": "30.05941307385292",
    "geocoded_column": {
      "latitude": "30.05941307385292",
      "longitude": "-89.95854490727325"
    }
  },
  {
    "service_request": "2023-1043111",
    "request_type": "Roads/Drainage",
    "request_reason": "Debris in Roadway",
    "date_created": "2023-10-13T16:00:42.000",
    "date_modified": "2023-10-13T16:00:42.000",
    "request_status": "Pending",
    "responsible_agency": "Department of Public Works",
    "final_address": "SUMNER ST & LAMARQUE ST",
    "address_councildis": "C",
    "status": "Pending",
    "rowid": "1043111",
    "final_x": "3691054.7",
    "final_y": "526634.88",
    "longitude": "-90.03807449766504",
    "latitude": "29.941769723596437",
    "geocoded_column": {
      "latitude": "29.941769723596437",
      "longitude": "-90.03807449766504"
    }
  },
  {
    "service_request": "2023-1043110",
    "request_type": "Roads/Drainage",
    "request_reason": "Damaged Sidewalk",
    "date_created": "2023-10-13T15:55:24.000",
    "date_modified": "2023-10-13T15:55:24.000",
    "request_status": "Pending",
    "responsible_agency": "Department of Public Works",
    "final_address": "4425 S Galvez St",
    "address_councildis": "B",
    "status": "Pending",
    "rowid": "1043110",
    "final_x": "3669932.05236",
    "final_y": "527567.155007",
    "longitude": "-90.1047316688808",
    "latitude": "29.9449728148927",
    "geocoded_column": {
      "latitude": "29.9449728148927",
      "longitude": "-90.1047316688808"
    }
  },
  {
    "service_request": "2023-1043108",
    "request_type": "Trash/Recycling",
    "request_reason": "Replace Trash Cart",
    "date_created": "2023-10-13T15:47:44.000",
    "date_modified": "2023-10-13T15:47:45.000",
    "request_status": "Pending",
    "responsible_agency": "Department of Sanitation",
    "final_address": "3037 Louisiana Avenue Prkwy",
    "address_councildis": "B",
    "status": "Assigned to Contractor",
    "contractor": "Richards Disposal",
    "rowid": "1043108",
    "final_x": "3672182.933",
    "final_y": "526597.60787",
    "longitude": "-90.09765794430845",
    "latitude": "29.942240323191616",
    "geocoded_column": {
      "latitude": "29.942240323191616",
      "longitude": "-90.09765794430845"
    }
  },
  {
    "service_request": "2023-1043107",
    "request_type": "Roads/Drainage",
    "request_reason": "Pothole",
    "date_created": "2023-10-13T15:46:35.000",
    "date_modified": "2023-10-13T15:46:36.000",
    "request_status": "Pending",
    "responsible_agency": "Department of Public Works",
    "final_address": "LAKE FOREST BLVD & READ BLVD",
    "address_councildis": "E",
    "status": "Pending",
    "rowid": "1043107",
    "final_x": "3711213.6",
    "final_y": "559998.28",
    "longitude": "-89.97317898837136",
    "latitude": "30.03286449618675",
    "geocoded_column": {
      "latitude": "30.03286449618675",
      "longitude": "-89.97317898837136"
    }
  },
  {
    "service_request": "2023-1043106",
    "request_type": "Trash/Recycling",
    "request_reason": "Replace Trash Cart",
    "date_created": "2023-10-13T15:44:07.000",
    "date_modified": "2023-10-13T15:44:08.000",
    "request_status": "Pending",
    "responsible_agency": "Department of Sanitation",
    "final_address": "2608 Cadiz St",
    "address_councildis": "B",
    "status": "Assigned to Contractor",
    "contractor": "Richards Disposal",
    "rowid": "1043106",
    "final_x": "3669706.48865",
    "final_y": "524411.969596",
    "longitude": "-90.10555058780292",
    "latitude": "29.936303724849143",
    "geocoded_column": {
      "latitude": "29.936303724849143",
      "longitude": "-90.10555058780292"
    }
  },
  {
    "service_request": "2023-1043105",
    "request_type": "Property Maintenance",
    "request_reason": "Property Maintenance",
    "date_created": "2023-10-13T15:43:19.000",
    "date_modified": "2023-10-13T15:43:19.000",
    "request_status": "Pending",
    "responsible_agency": "Department of Code Enforcement",
    "final_address": "2970 Toledano St",
    "address_councildis": "B",
    "status": "Pending",
    "rowid": "1043105",
    "final_x": "3672421.74734",
    "final_y": "526610.962494",
    "longitude": "-90.09690349826487",
    "latitude": "29.942269960452577",
    "geocoded_column": {
      "latitude": "29.942269960452577",
      "longitude": "-90.09690349826487"
    }
  },
  {
    "service_request": "2023-1043104",
    "request_type": "Utility Poles",
    "request_reason": "Utility Pole Leaning",
    "date_created": "2023-10-13T15:43:13.000",
    "date_modified": "2023-10-13T15:43:16.000",
    "request_status": "Pending",
    "responsible_agency": "Utility Company Collective",
    "final_address": "4827 Camp St",
    "address_councildis": "B",
    "status": "Pending",
    "rowid": "1043104",
    "final_x": "3669329.1778",
    "final_y": "519024.320695",
    "longitude": "-90.10692382382933",
    "latitude": "29.921500521313675",
    "geocoded_column": {
      "latitude": "29.921500521313675",
      "longitude": "-90.10692382382933"
    }
  },
  {
    "service_request": "2023-1043103",
    "request_type": "Trash/Recycling",
    "request_reason": "Replace Trash Cart",
    "date_created": "2023-10-13T15:43:09.000",
    "date_modified": "2023-10-13T15:43:10.000",
    "request_status": "Pending",
    "responsible_agency": "Department of Sanitation",
    "final_address": "4437 Plum Orchard St",
    "address_councildis": "E",
    "status": "Assigned to Contractor",
    "contractor": "Waste Pro",
    "rowid": "1043103",
    "final_x": "3701916.58743",
    "final_y": "552966.349783",
    "longitude": "-90.00281620600977",
    "latitude": "30.01382956111603",
    "geocoded_column": {
      "latitude": "30.01382956111603",
      "longitude": "-90.00281620600977"
    }
  },
  {
    "service_request": "2023-1043102",
    "request_type": "Abandoned Vehicles",
    "request_reason": "Abandoned/Junk Vehicles",
    "date_created": "2023-10-13T15:35:09.000",
    "date_modified": "2023-10-13T16:51:53.000",
    "request_status": "Pending",
    "responsible_agency": "Department of Public Works",
    "final_address": "10200 Almonaster Ave",
    "address_councildis": "E",
    "status": "Inspected",
    "rowid": "1043102",
    "final_x": "3713684.56383",
    "final_y": "551626.395989",
    "longitude": "-89.96568637555853",
    "latitude": "30.00976423388402",
    "geocoded_column": {
      "latitude": "30.00976423388402",
      "longitude": "-89.96568637555853"
    }
  },
  {
    "service_request": "2023-1043101",
    "request_type": "Trash/Recycling",
    "request_reason": "Request a Large Item Pick Up",
    "date_created": "2023-10-13T15:34:30.000",
    "date_modified": "2023-10-13T15:34:31.000",
    "request_status": "Pending",
    "responsible_agency": "Department of Sanitation",
    "final_address": "4606 Camelia St",
    "address_councildis": "E",
    "status": "Assigned to Contractor",
    "contractor": "Waste Pro",
    "rowid": "1043101",
    "final_x": "3701544.3146",
    "final_y": "553442.479511",
    "longitude": "-90.00397493634883",
    "latitude": "30.01515061741637",
    "geocoded_column": {
      "latitude": "30.01515061741637",
      "longitude": "-90.00397493634883"
    }
  },
  {
    "service_request": "2023-1043100",
    "request_type": "Trash/Recycling",
    "request_reason": "Request a Large Item Pick Up",
    "date_created": "2023-10-13T15:31:44.000",
    "date_modified": "2023-10-13T15:31:45.000",
    "request_status": "Pending",
    "responsible_agency": "Department of Sanitation",
    "final_address": "4732 Lynhuber Dr",
    "address_councildis": "D",
    "status": "Assigned to Contractor",
    "contractor": "Waste Pro",
    "rowid": "1043100",
    "final_x": "3697973.52176",
    "final_y": "554270.612312",
    "longitude": "-90.01522679402586",
    "latitude": "30.017541094966617",
    "geocoded_column": {
      "latitude": "30.017541094966617",
      "longitude": "-90.01522679402586"
    }
  },
  {
    "service_request": "2023-1043099",
    "request_type": "Traffic Signals/Signs/Striping/Streetlights",
    "request_reason": "Street Name Sign Damaged or Missing",
    "date_created": "2023-10-13T15:30:17.000",
    "date_modified": "2023-10-13T15:30:17.000",
    "request_status": "Pending",
    "responsible_agency": "Department of Public Works",
    "final_address": "PAULA ST & PARIS AVE",
    "address_councildis": "D",
    "status": "Pending",
    "rowid": "1043099",
    "final_x": "3679340.4",
    "final_y": "549314.68",
    "longitude": "-90.07427214745245",
    "latitude": "30.004490271686795",
    "geocoded_column": {
      "latitude": "30.004490271686795",
      "longitude": "-90.07427214745245"
    }
  },
  {
    "service_request": "2023-1043098",
    "request_type": "Traffic Signals/Signs/Striping/Streetlights",
    "request_reason": "Street Name Sign Damaged or Missing",
    "date_created": "2023-10-13T15:28:49.000",
    "date_modified": "2023-10-13T15:28:50.000",
    "request_status": "Pending",
    "responsible_agency": "Department of Public Works",
    "final_address": "ALFRED ST & HARRISON AVE",
    "address_councildis": "D",
    "status": "Pending",
    "rowid": "1043098",
    "final_x": "3677624.6",
    "final_y": "547573.88",
    "longitude": "-90.07975285608516",
    "latitude": "29.99975541755041",
    "geocoded_column": {
      "latitude": "29.99975541755041",
      "longitude": "-90.07975285608516"
    }
  },
  {
    "service_request": "2023-1043096",
    "request_type": "Traffic Signals/Signs/Striping/Streetlights",
    "request_reason": "Street Name Sign Damaged or Missing",
    "date_created": "2023-10-13T15:26:52.000",
    "date_modified": "2023-10-13T15:26:53.000",
    "request_status": "Pending",
    "responsible_agency": "Department of Public Works",
    "final_address": "HURST ST & AUDUBON ST",
    "address_councildis": "A",
    "status": "Pending",
    "rowid": "1043096",
    "final_x": "3662481.8",
    "final_y": "523440.38",
    "longitude": "-90.12839153529956",
    "latitude": "29.933843044996973",
    "geocoded_column": {
      "latitude": "29.933843044996973",
      "longitude": "-90.12839153529956"
    }
  },
  {
    "service_request": "2023-1043095",
    "request_type": "Trash/Recycling",
    "request_reason": "Replace Trash Cart",
    "date_created": "2023-10-13T15:19:52.000",
    "date_modified": "2023-10-13T15:19:53.000",
    "request_status": "Pending",
    "responsible_agency": "Department of Sanitation",
    "final_address": "922 Aline St",
    "address_councildis": "B",
    "status": "Assigned to Contractor",
    "contractor": "Richards Disposal",
    "rowid": "1043095",
    "final_x": "3674590.80392",
    "final_y": "518888.637495",
    "longitude": "-90.09031978398433",
    "latitude": "29.920971536828286",
    "geocoded_column": {
      "latitude": "29.920971536828286",
      "longitude": "-90.09031978398433"
    }
  },
  {
    "service_request": "2023-1043094",
    "request_type": "Traffic Signals/Signs/Striping/Streetlights",
    "request_reason": "Traffic Signal Malfunctioning/Damaged",
    "date_created": "2023-10-13T15:19:48.000",
    "date_modified": "2023-10-13T15:19:49.000",
    "request_status": "Pending",
    "responsible_agency": "Department of Public Works",
    "final_address": "TOLEDANO ST & S CLAIBORNE AVE",
    "address_councildis": "B",
    "status": "Pending",
    "rowid": "1043094",
    "final_x": "3672631.4",
    "final_y": "526283.48",
    "longitude": "-90.09625273972583",
    "latitude": "29.94136326836494",
    "geocoded_column": {
      "latitude": "29.94136326836494",
      "longitude": "-90.09625273972583"
    }
  },
  {
    "service_request": "2023-1043093",
    "request_type": "Trash/Recycling",
    "request_reason": "Request a Large Item Pick Up",
    "date_created": "2023-10-13T15:19:45.000",
    "date_modified": "2023-10-13T15:19:46.000",
    "request_status": "Pending",
    "responsible_agency": "Department of Sanitation",
    "final_address": "4600 Baronne St",
    "address_councildis": "B",
    "status": "Assigned to Contractor",
    "contractor": "Richards Disposal",
    "rowid": "1043093",
    "final_x": "3669946.5417",
    "final_y": "521485.633337",
    "longitude": "-90.10489177569625",
    "latitude": "29.928250164271446",
    "geocoded_column": {
      "latitude": "29.928250164271446",
      "longitude": "-90.10489177569625"
    }
  },
  {
    "service_request": "2023-1043092",
    "request_type": "Property Maintenance",
    "request_reason": "Property Maintenance",
    "date_created": "2023-10-13T15:17:11.000",
    "date_modified": "2023-10-13T15:17:11.000",
    "request_status": "Pending",
    "responsible_agency": "Department of Code Enforcement",
    "final_address": "2722 Iberville St",
    "address_councildis": "B",
    "status": "Pending",
    "rowid": "1043092",
    "final_x": "3675403.88904",
    "final_y": "535562.239622",
    "longitude": "-90.08718085307382",
    "latitude": "29.966794167208885",
    "geocoded_column": {
      "latitude": "29.966794167208885",
      "longitude": "-90.08718085307382"
    }
  },
  {
    "service_request": "2023-1043091",
    "request_type": "Property Maintenance",
    "request_reason": "Property Maintenance",
    "date_created": "2023-10-13T15:14:23.000",
    "date_modified": "2023-10-13T15:14:23.000",
    "request_status": "Pending",
    "responsible_agency": "Department of Code Enforcement",
    "final_address": "2722 Iberville St",
    "address_councildis": "B",
    "status": "Pending",
    "rowid": "1043091",
    "final_x": "3675403.88904",
    "final_y": "535562.239622",
    "longitude": "-90.08718085307382",
    "latitude": "29.966794167208885",
    "geocoded_column": {
      "latitude": "29.966794167208885",
      "longitude": "-90.08718085307382"
    }
  },
  {
    "service_request": "2023-1043090",
    "request_type": "Trash/Recycling",
    "request_reason": "Order Trash Cart",
    "date_created": "2023-10-13T15:04:45.000",
    "date_modified": "2023-10-13T15:04:45.000",
    "request_status": "Pending",
    "responsible_agency": "Department of Sanitation",
    "final_address": "124 S Bernadotte St",
    "address_councildis": "A",
    "status": "Assigned to Contractor",
    "contractor": "Richards Disposal",
    "rowid": "1043090",
    "final_x": "3668710.91892",
    "final_y": "539837.182346",
    "longitude": "-90.10817295346287",
    "latitude": "29.978747273891457",
    "geocoded_column": {
      "latitude": "29.978747273891457",
      "longitude": "-90.10817295346287"
    }
  },
  {
    "service_request": "2023-1043089",
    "request_type": "Trash/Recycling",
    "request_reason": "Order Recycling Cart",
    "date_created": "2023-10-13T15:01:37.000",
    "date_modified": "2023-10-13T15:01:38.000",
    "request_status": "Pending",
    "responsible_agency": "Department of Sanitation",
    "final_address": "3906 Clematis St",
    "address_councildis": "D",
    "status": "Pending",
    "rowid": "1043089",
    "final_x": "3685687.8447",
    "final_y": "547163.956049",
    "longitude": "-90.05429524099691",
    "latitude": "29.998383252604356",
    "geocoded_column": {
      "latitude": "29.998383252604356",
      "longitude": "-90.05429524099691"
    }
  },
  {
    "service_request": "2023-1043088",
    "request_type": "Trash/Recycling",
    "request_reason": "Missed Trash Pick-Up",
    "date_created": "2023-10-13T14:57:59.000",
    "date_modified": "2023-10-13T14:58:00.000",
    "request_status": "Pending",
    "responsible_agency": "Department of Sanitation",
    "final_address": "5801 Albany Ct",
    "address_councildis": "C",
    "status": "Assigned to Contractor",
    "contractor": "Richards Disposal",
    "rowid": "1043088",
    "final_x": "3704890.4291",
    "final_y": "521281.753593",
    "longitude": "-89.99459006533559",
    "latitude": "29.926613209332647",
    "geocoded_column": {
      "latitude": "29.926613209332647",
      "longitude": "-89.99459006533559"
    }
  },
  {
    "service_request": "2023-1043087",
    "request_type": "Trash/Recycling",
    "request_reason": "Request a Large Item Pick Up",
    "date_created": "2023-10-13T14:57:40.000",
    "date_modified": "2023-10-13T14:57:41.000",
    "request_status": "Pending",
    "responsible_agency": "Department of Sanitation",
    "final_address": "7114 W Laverne St",
    "address_councildis": "D",
    "status": "Assigned to Contractor",
    "contractor": "Waste Pro",
    "rowid": "1043087",
    "final_x": "3695778.64861",
    "final_y": "556717.199002",
    "longitude": "-90.02207322699805",
    "latitude": "30.02433752466813",
    "geocoded_column": {
      "latitude": "30.02433752466813",
      "longitude": "-90.02207322699805"
    }
  },
  {
    "service_request": "2023-1043086",
    "request_type": "Trash/Recycling",
    "request_reason": "Request a Large Item Pick Up",
    "date_created": "2023-10-13T14:56:31.000",
    "date_modified": "2023-10-13T14:56:32.000",
    "request_status": "Pending",
    "responsible_agency": "Department of Sanitation",
    "final_address": "7114 W Laverne St",
    "address_councildis": "D",
    "status": "Assigned to Contractor",
    "contractor": "Waste Pro",
    "rowid": "1043086",
    "final_x": "3695778.64861",
    "final_y": "556717.199002",
    "longitude": "-90.02207322699805",
    "latitude": "30.02433752466813",
    "geocoded_column": {
      "latitude": "30.02433752466813",
      "longitude": "-90.02207322699805"
    }
  },
  {
    "service_request": "2023-1043085",
    "request_type": "Traffic Signals/Signs/Striping/Streetlights",
    "request_reason": "Street Light Outage/Malfunction",
    "date_created": "2023-10-13T14:51:20.000",
    "date_modified": "2023-10-13T14:51:21.000",
    "request_status": "Pending",
    "responsible_agency": "Department of Public Works",
    "final_address": "13 Park Island Dr",
    "address_councildis": "A",
    "status": "Assigned to Contractor",
    "contractor": "Legacy Professional Services",
    "rowid": "1043085",
    "final_x": "3676201.60686",
    "final_y": "547864.215186",
    "longitude": "-90.08423815545609",
    "latitude": "30.000596466468323",
    "geocoded_column": {
      "latitude": "30.000596466468323",
      "longitude": "-90.08423815545609"
    }
  },
  {
    "service_request": "2023-1043084",
    "request_type": "Trash/Recycling",
    "request_reason": "Missed Trash Pick-Up",
    "date_created": "2023-10-13T14:48:22.000",
    "date_modified": "2023-10-13T14:48:22.000",
    "request_status": "Pending",
    "responsible_agency": "Department of Sanitation",
    "final_address": "1239 Baronne St",
    "address_councildis": "B",
    "status": "Assigned to Contractor",
    "contractor": "Richards Disposal",
    "rowid": "1043084",
    "final_x": "3678750.10453",
    "final_y": "526614.716158",
    "longitude": "-90.07692334020624",
    "latitude": "29.94209099879861",
    "geocoded_column": {
      "latitude": "29.94209099879861",
      "longitude": "-90.07692334020624"
    }
  },
  {
    "service_request": "2023-1043083",
    "request_type": "Abandoned Vehicles",
    "request_reason": "Abandoned/Junk Vehicles",
    "date_created": "2023-10-13T14:46:20.000",
    "date_modified": "2023-10-13T14:46:20.000",
    "request_status": "Pending",
    "responsible_agency": "Department of Public Works",
    "final_address": "12000 Levy Dr",
    "address_councildis": "E",
    "status": "Pending",
    "rowid": "1043083",
    "final_x": "3716386.73554",
    "final_y": "563689.263649",
    "longitude": "-89.95669147644061",
    "latitude": "30.042843349513262",
    "geocoded_column": {
      "latitude": "30.042843349513262",
      "longitude": "-89.95669147644061"
    }
  },
  {
    "service_request": "2023-1043082",
    "request_type": "Trash/Recycling",
    "request_reason": "Request a Large Item Pick Up",
    "date_created": "2023-10-13T14:44:50.000",
    "date_modified": "2023-10-13T14:44:51.000",
    "request_status": "Pending",
    "responsible_agency": "Department of Sanitation",
    "final_address": "23 Rail St",
    "address_councildis": "D",
    "status": "Assigned to Contractor",
    "contractor": "IV Waste",
    "rowid": "1043082",
    "final_x": "3674043.84712",
    "final_y": "557245.442715",
    "longitude": "-90.0907332893834",
    "latitude": "30.026455997672745",
    "geocoded_column": {
      "latitude": "30.026455997672745",
      "longitude": "-90.0907332893834"
    }
  },
  {
    "service_request": "2023-1043081",
    "request_type": "Property Maintenance",
    "request_reason": "Property Maintenance",
    "date_created": "2023-10-13T14:43:54.000",
    "date_modified": "2023-10-13T14:44:43.000",
    "request_status": "Pending",
    "responsible_agency": "Department of Code Enforcement",
    "final_address": "2339 Wisteria St",
    "address_councildis": "D",
    "status": "Pending",
    "rowid": "1043081",
    "final_x": "3685514.40201",
    "final_y": "548299.07157",
    "longitude": "-90.05480313428542",
    "latitude": "30.001509733565157",
    "geocoded_column": {
      "latitude": "30.001509733565157",
      "longitude": "-90.05480313428542"
    }
  },
  {
    "service_request": "2023-1043080",
    "request_type": "Trash/Recycling",
    "request_reason": "Request a Large Item Pick Up",
    "date_created": "2023-10-13T14:42:38.000",
    "date_modified": "2023-10-13T14:42:39.000",
    "request_status": "Pending",
    "responsible_agency": "Department of Sanitation",
    "final_address": "815 N Robertson St",
    "address_councildis": "C",
    "status": "Assigned to Contractor",
    "contractor": "Richards Disposal",
    "rowid": "1043080",
    "final_x": "3680338.48917",
    "final_y": "534768.225094",
    "longitude": "-90.07162501430808",
    "latitude": "29.964462413044657",
    "geocoded_column": {
      "latitude": "29.964462413044657",
      "longitude": "-90.07162501430808"
    }
  },
  {
    "service_request": "2023-1043079",
    "request_type": "Roads/Drainage",
    "request_reason": "Pothole",
    "date_created": "2023-10-13T14:41:34.000",
    "date_modified": "2023-10-13T14:41:34.000",
    "request_status": "Pending",
    "responsible_agency": "Department of Public Works",
    "final_address": "1407 Valence St",
    "address_councildis": "B",
    "status": "Pending",
    "rowid": "1043079",
    "final_x": "3669839.25287",
    "final_y": "520292.863992",
    "longitude": "-90.10527081865904",
    "latitude": "29.924973591096933",
    "geocoded_column": {
      "latitude": "29.924973591096933",
      "longitude": "-90.10527081865904"
    }
  },
  {
    "service_request": "2023-1043078",
    "request_type": "Trash/Recycling",
    "request_reason": "Missed Trash Pick-Up",
    "date_created": "2023-10-13T14:38:55.000",
    "date_modified": "2023-10-13T14:38:56.000",
    "request_status": "Pending",
    "responsible_agency": "Department of Sanitation",
    "final_address": "808 Washington Ave",
    "address_councildis": "B",
    "status": "Assigned to Contractor",
    "contractor": "Richards Disposal",
    "rowid": "1043078",
    "final_x": "3677561.1149",
    "final_y": "519936.376504",
    "longitude": "-90.08090770171505",
    "latitude": "29.923763545648217",
    "geocoded_column": {
      "latitude": "29.923763545648217",
      "longitude": "-90.08090770171505"
    }
  },
  {
    "service_request": "2023-1043077",
    "request_type": "Traffic Signals/Signs/Striping/Streetlights",
    "request_reason": "Street Light Knocked Down/Leaning",
    "date_created": "2023-10-13T14:29:02.000",
    "date_modified": "2023-10-13T14:29:03.000",
    "request_status": "Pending",
    "responsible_agency": "Department of Public Works",
    "final_address": "5829 Milne Blvd",
    "address_councildis": "A",
    "status": "Pending",
    "contractor": "Legacy Professional Services",
    "rowid": "1043077",
    "final_x": "3667050.50068",
    "final_y": "546340.41",
    "longitude": "-90.11319848292256",
    "latitude": "29.99667765061968",
    "geocoded_column": {
      "latitude": "29.99667765061968",
      "longitude": "-90.11319848292256"
    }
  },
  {
    "service_request": "2023-1043075",
    "request_type": "Utility Poles",
    "request_reason": "Utility Pole Leaning",
    "date_created": "2023-10-13T14:21:20.000",
    "date_modified": "2023-10-13T14:21:24.000",
    "request_status": "Pending",
    "responsible_agency": "Utility Company Collective",
    "final_address": "2240 St Claude Ave",
    "address_councildis": "C",
    "status": "Pending",
    "rowid": "1043075",
    "final_x": "3685380.17858",
    "final_y": "536300.819271",
    "longitude": "-90.0556498072011",
    "latitude": "29.96852290527007",
    "geocoded_column": {
      "latitude": "29.96852290527007",
      "longitude": "-90.0556498072011"
    }
  },
  {
    "service_request": "2023-1043074",
    "request_type": "Trash/Recycling",
    "request_reason": "Request a Large Item Pick Up",
    "date_created": "2023-10-13T14:16:43.000",
    "date_modified": "2023-10-13T14:16:44.000",
    "request_status": "Pending",
    "responsible_agency": "Department of Sanitation",
    "final_address": "2616 Josephine St",
    "address_councildis": "B",
    "status": "Assigned to Contractor",
    "contractor": "Richards Disposal",
    "rowid": "1043074",
    "final_x": "3675598.08078",
    "final_y": "526894.905918",
    "longitude": "-90.08686534719466",
    "latitude": "29.942956085574266",
    "geocoded_column": {
      "latitude": "29.942956085574266",
      "longitude": "-90.08686534719466"
    }
  },
  {
    "service_request": "2023-1043073",
    "request_type": "Trash/Recycling",
    "request_reason": "MIssed Recycling Pick-Up",
    "date_created": "2023-10-13T14:16:25.000",
    "date_modified": "2023-10-13T15:27:40.000",
    "case_close_date": "2023-10-13T10:27:40.000",
    "request_status": "Closed",
    "responsible_agency": "Department of Sanitation",
    "final_address": "3143 Dauphine St",
    "address_councildis": "C",
    "status": "Invalid Request",
    "contractor": "IV Waste",
    "contractor_action": "Invalid Pick-Up",
    "rowid": "1043073",
    "final_x": "3689062.53142",
    "final_y": "534796.694854",
    "longitude": "-90.04407422636046",
    "latitude": "29.964273672970837",
    "geocoded_column": {
      "latitude": "29.964273672970837",
      "longitude": "-90.04407422636046"
    }
  },
  {
    "service_request": "2023-1043072",
    "request_type": "Property Maintenance",
    "request_reason": "Property Maintenance",
    "date_created": "2023-10-13T14:15:18.000",
    "date_modified": "2023-10-13T14:15:19.000",
    "request_status": "Pending",
    "responsible_agency": "Department of Code Enforcement",
    "final_address": "2722 Josephine St",
    "address_councildis": "B",
    "status": "Pending",
    "rowid": "1043072",
    "final_x": "3675368.58081",
    "final_y": "527194.988991",
    "longitude": "-90.08757963476081",
    "latitude": "29.943788077854546",
    "geocoded_column": {
      "latitude": "29.943788077854546",
      "longitude": "-90.08757963476081"
    }
  },
  {
    "service_request": "2023-1043071",
    "request_type": "Trash/Recycling",
    "request_reason": "Request a Large Item Pick Up",
    "date_created": "2023-10-13T14:15:01.000",
    "date_modified": "2023-10-13T14:15:01.000",
    "request_status": "Pending",
    "responsible_agency": "Department of Sanitation",
    "final_address": "4751 Citrus Dr",
    "address_councildis": "E",
    "status": "Assigned to Contractor",
    "contractor": "Waste Pro",
    "rowid": "1043071",
    "final_x": "3710848.8604",
    "final_y": "555854.039257",
    "longitude": "-89.97448689315709",
    "latitude": "30.021481367559613",
    "geocoded_column": {
      "latitude": "30.021481367559613",
      "longitude": "-89.97448689315709"
    }
  },
  {
    "service_request": "2023-1043070",
    "request_type": "Trash/Recycling",
    "request_reason": "Request a Large Item Pick Up",
    "date_created": "2023-10-13T14:14:34.000",
    "date_modified": "2023-10-13T14:14:35.000",
    "request_status": "Pending",
    "responsible_agency": "Department of Sanitation",
    "final_address": "8716 Plum St",
    "address_councildis": "A",
    "status": "Assigned to Contractor",
    "contractor": "Richards Disposal",
    "rowid": "1043070",
    "final_x": "3660482.24378",
    "final_y": "530141.408705",
    "longitude": "-90.134482743217",
    "latitude": "29.952326413505688",
    "geocoded_column": {
      "latitude": "29.952326413505688",
      "longitude": "-90.134482743217"
    }
  },
  {
    "service_request": "2023-1043069",
    "request_type": "Trash/Recycling",
    "request_reason": "Missed Trash Pick-Up",
    "date_created": "2023-10-13T14:13:15.000",
    "date_modified": "2023-10-13T14:13:16.000",
    "request_status": "Pending",
    "responsible_agency": "Department of Sanitation",
    "final_address": "4802 Shalimar Dr",
    "address_councildis": "D",
    "status": "Assigned to Contractor",
    "contractor": "Waste Pro",
    "rowid": "1043069",
    "final_x": "3697097.35677",
    "final_y": "554488.442776",
    "longitude": "-90.0179872126508",
    "latitude": "30.018167730526052",
    "geocoded_column": {
      "latitude": "30.018167730526052",
      "longitude": "-90.0179872126508"
    }
  },
  {
    "service_request": "2023-1043068",
    "request_type": "Trash/Recycling",
    "request_reason": "Order Trash Cart",
    "date_created": "2023-10-13T14:12:48.000",
    "date_modified": "2023-10-13T14:12:50.000",
    "request_status": "Pending",
    "responsible_agency": "Department of Sanitation",
    "final_address": "2616 Josephine St",
    "address_councildis": "B",
    "status": "Assigned to Contractor",
    "contractor": "Richards Disposal",
    "rowid": "1043068",
    "final_x": "3675598.08078",
    "final_y": "526894.905918",
    "longitude": "-90.08686534719466",
    "latitude": "29.942956085574266",
    "geocoded_column": {
      "latitude": "29.942956085574266",
      "longitude": "-90.08686534719466"
    }
  },
  {
    "service_request": "2023-1043067",
    "request_type": "Trash/Recycling",
    "request_reason": "Request a Large Item Pick Up",
    "date_created": "2023-10-13T14:12:15.000",
    "date_modified": "2023-10-13T15:07:13.000",
    "request_status": "Pending",
    "responsible_agency": "Department of Sanitation",
    "final_address": "3042 Saint Philip St, New Orleans, Louisiana, 70119",
    "address_councildis": "A",
    "status": "Assigned to Contractor",
    "contractor": "Richards Disposal",
    "rowid": "1043067",
    "final_x": "3676060.86843",
    "final_y": "538834.388553",
    "longitude": "-90.08499353387093",
    "latitude": "29.975771799388617",
    "geocoded_column": {
      "latitude": "29.975771799388617",
      "longitude": "-90.08499353387093"
    }
  },
  {
    "service_request": "2023-1043066",
    "request_type": "Utility Poles",
    "request_reason": "Utility Pole Leaning",
    "date_created": "2023-10-13T14:11:18.000",
    "date_modified": "2023-10-13T14:11:28.000",
    "request_status": "Pending",
    "responsible_agency": "Utility Company Collective",
    "final_address": "2240 St Claude Ave",
    "address_councildis": "C",
    "status": "Pending",
    "rowid": "1043066",
    "final_x": "3685380.17858",
    "final_y": "536300.819271",
    "longitude": "-90.0556498072011",
    "latitude": "29.96852290527007",
    "geocoded_column": {
      "latitude": "29.96852290527007",
      "longitude": "-90.0556498072011"
    }
  },
  {
    "service_request": "2023-1043065",
    "request_type": "Abandoned Vehicles",
    "request_reason": "Abandoned/Junk Vehicles",
    "date_created": "2023-10-13T14:09:28.000",
    "date_modified": "2023-10-13T14:09:28.000",
    "request_status": "Pending",
    "responsible_agency": "Department of Public Works",
    "final_address": "5200 Revel St",
    "address_councildis": "E",
    "status": "Inspected",
    "rowid": "1043065",
    "final_x": "3725050.2871",
    "final_y": "562421.227551",
    "longitude": "-89.92936063992049",
    "latitude": "30.039067731631736",
    "geocoded_column": {
      "latitude": "30.039067731631736",
      "longitude": "-89.92936063992049"
    }
  },
  {
    "service_request": "2023-1043064",
    "request_type": "Trash/Recycling",
    "request_reason": "Replace Recycling Cart",
    "date_created": "2023-10-13T14:06:06.000",
    "date_modified": "2023-10-13T14:06:06.000",
    "request_status": "Pending",
    "responsible_agency": "Department of Sanitation",
    "final_address": "85 Allard Blvd",
    "address_councildis": "A",
    "status": "Pending",
    "rowid": "1043064",
    "final_x": "3672766.23892",
    "final_y": "540290.684107",
    "longitude": "-90.09534922910164",
    "latitude": "29.97987439942383",
    "geocoded_column": {
      "latitude": "29.97987439942383",
      "longitude": "-90.09534922910164"
    }
  },
  {
    "service_request": "2023-1043063",
    "request_type": "Trash/Recycling",
    "request_reason": "Request a Large Item Pick Up",
    "date_created": "2023-10-13T13:58:17.000",
    "date_modified": "2023-10-13T13:58:19.000",
    "request_status": "Pending",
    "responsible_agency": "Department of Sanitation",
    "final_address": "2324 Jasmine St",
    "address_councildis": "D",
    "status": "Assigned to Contractor",
    "contractor": "IV Waste",
    "rowid": "1043063",
    "final_x": "3685521.21718",
    "final_y": "547929.239058",
    "longitude": "-90.05479464093989",
    "latitude": "30.000492618489357",
    "geocoded_column": {
      "latitude": "30.000492618489357",
      "longitude": "-90.05479464093989"
    }
  },
  {
    "service_request": "2023-1043062",
    "request_type": "Abandoned Vehicles",
    "request_reason": "Abandoned/Junk Vehicles",
    "date_created": "2023-10-13T13:52:51.000",
    "date_modified": "2023-10-13T13:52:51.000",
    "request_status": "Pending",
    "responsible_agency": "Department of Public Works",
    "final_address": "4313 St Anthony Ave",
    "address_councildis": "D",
    "status": "Pending",
    "rowid": "1043062",
    "final_x": "3682605.82172",
    "final_y": "548498.092882",
    "longitude": "-90.06398464567017",
    "latitude": "30.00214588697028",
    "geocoded_column": {
      "latitude": "30.00214588697028",
      "longitude": "-90.06398464567017"
    }
  },
  {
    "service_request": "2023-1043061",
    "request_type": "Trash/Recycling",
    "request_reason": "Missed Trash Pick-Up",
    "date_created": "2023-10-13T13:52:32.000",
    "date_modified": "2023-10-13T13:52:33.000",
    "request_status": "Pending",
    "responsible_agency": "Department of Sanitation",
    "final_address": "1137 Baronne St",
    "address_councildis": "B",
    "status": "Assigned to Contractor",
    "contractor": "Richards Disposal",
    "rowid": "1043061",
    "final_x": "3678926.30741",
    "final_y": "526902.102398",
    "longitude": "-90.07635707620054",
    "latitude": "29.942875901846065",
    "geocoded_column": {
      "latitude": "29.942875901846065",
      "longitude": "-90.07635707620054"
    }
  },
  {
    "service_request": "2023-1043060",
    "request_type": "Parks & Parkways",
    "request_reason": "Request Tree Service (Right of Way/Public Property)",
    "date_created": "2023-10-13T13:50:48.000",
    "date_modified": "2023-10-13T13:50:48.000",
    "request_status": "Pending",
    "responsible_agency": "Department of Parks & Parkway",
    "final_address": "7718 Reindeer St",
    "address_councildis": "E",
    "status": "Pending",
    "rowid": "1043060",
    "final_x": "3716633.71724",
    "final_y": "570966.848615",
    "longitude": "-89.95563438281518",
    "latitude": "30.06284555482885",
    "geocoded_column": {
      "latitude": "30.06284555482885",
      "longitude": "-89.95563438281518"
    }
  },
  {
    "service_request": "2023-1043059",
    "request_type": "Parks & Parkways",
    "request_reason": "Request Tree Service (Right of Way/Public Property)",
    "date_created": "2023-10-13T13:50:47.000",
    "date_modified": "2023-10-13T14:39:38.000",
    "request_status": "Pending",
    "responsible_agency": "Department of Parks & Parkway",
    "final_address": "6338 Colbert St",
    "address_councildis": "A",
    "status": "Pending",
    "rowid": "1043059",
    "final_x": "3667535.90861",
    "final_y": "549742.999572",
    "longitude": "-90.1115504915677",
    "latitude": "30.006019373139583",
    "geocoded_column": {
      "latitude": "30.006019373139583",
      "longitude": "-90.1115504915677"
    }
  },
  {
    "service_request": "2023-1043058",
    "request_type": "Abandoned Vehicles",
    "request_reason": "Abandoned/Junk Vehicles",
    "date_created": "2023-10-13T13:50:14.000",
    "date_modified": "2023-10-13T13:50:14.000",
    "request_status": "Pending",
    "responsible_agency": "Department of Public Works",
    "final_address": "1614 Painters St",
    "address_councildis": "D",
    "status": "Pending",
    "rowid": "1043058",
    "final_x": "3687362.49878",
    "final_y": "538498.587209",
    "longitude": "-90.04931177569073",
    "latitude": "29.974505069728085",
    "geocoded_column": {
      "latitude": "29.974505069728085",
      "longitude": "-90.04931177569073"
    }
  },
  {
    "service_request": "2023-1043057",
    "request_type": "Trash/Recycling",
    "request_reason": "Illegal Dumping",
    "date_created": "2023-10-13T13:46:18.000",
    "date_modified": "2023-10-13T13:46:18.000",
    "request_status": "Pending",
    "responsible_agency": "Department of Sanitation",
    "final_address": "1328 St Roch Ave",
    "address_councildis": "C",
    "status": "Pending",
    "rowid": "1043057",
    "final_x": "3686346.9855",
    "final_y": "537394.473096",
    "longitude": "-90.05255798183192",
    "latitude": "29.971500393729766",
    "geocoded_column": {
      "latitude": "29.971500393729766",
      "longitude": "-90.05255798183192"
    }
  },
  {
    "service_request": "2023-1043056",
    "request_type": "Traffic Signals/Signs/Striping/Streetlights",
    "request_reason": "Street Light Outage/Malfunction",
    "date_created": "2023-10-13T13:44:45.000",
    "date_modified": "2023-10-13T13:45:03.000",
    "request_status": "Pending",
    "responsible_agency": "Department of Public Works",
    "final_address": "2656 Ursulines Ave",
    "address_councildis": "D",
    "status": "Assigned to Contractor",
    "contractor": "Legacy Professional Services",
    "rowid": "1043056",
    "final_x": "3677652.37966",
    "final_y": "538046.433609",
    "longitude": "-90.07999431141604",
    "latitude": "29.973557422212807",
    "geocoded_column": {
      "latitude": "29.973557422212807",
      "longitude": "-90.07999431141604"
    }
  },
  {
    "service_request": "2023-1043055",
    "request_type": "Trash/Recycling",
    "request_reason": "Missed Trash Pick-Up",
    "date_created": "2023-10-13T13:40:55.000",
    "date_modified": "2023-10-13T13:40:56.000",
    "request_status": "Pending",
    "responsible_agency": "Department of Sanitation",
    "final_address": "6013 N Tonti St",
    "address_councildis": "E",
    "status": "Assigned to Contractor",
    "contractor": "Waste Pro",
    "rowid": "1043055",
    "final_x": "3701028.79793",
    "final_y": "537714.607112",
    "longitude": "-90.00617927224185",
    "latitude": "29.971921239754444",
    "geocoded_column": {
      "latitude": "29.971921239754444",
      "longitude": "-90.00617927224185"
    }
  },
  {
    "service_request": "2023-1043052",
    "request_type": "Parks & Parkways",
    "request_reason": "Request Tree Service (Right of Way/Public Property)",
    "date_created": "2023-10-13T13:39:05.000",
    "date_modified": "2023-10-13T13:39:06.000",
    "request_status": "Pending",
    "responsible_agency": "Department of Parks & Parkway",
    "final_address": "801 Broadway St",
    "address_councildis": "A",
    "status": "Pending",
    "rowid": "1043052",
    "final_x": "3663458.18957",
    "final_y": "525318.347645",
    "longitude": "-90.12524659569888",
    "latitude": "29.938978591971413",
    "geocoded_column": {
      "latitude": "29.938978591971413",
      "longitude": "-90.12524659569888"
    }
  },
  {
    "service_request": "2023-1043051",
    "request_type": "Abandoned Vehicles",
    "request_reason": "Abandoned/Junk Vehicles",
    "date_created": "2023-10-13T13:38:38.000",
    "date_modified": "2023-10-13T13:38:38.000",
    "request_status": "Pending",
    "responsible_agency": "Department of Public Works",
    "final_address": "323 S Gayoso St",
    "address_councildis": "B",
    "status": "Pending",
    "rowid": "1043051",
    "final_x": "3673657.1492",
    "final_y": "535113.945414",
    "longitude": "-90.09271239038473",
    "latitude": "29.965613627599122",
    "geocoded_column": {
      "latitude": "29.965613627599122",
      "longitude": "-90.09271239038473"
    }
  },
  {
    "service_request": "2023-1043050",
    "request_type": "Trash/Recycling",
    "request_reason": "Repair Trash Cart",
    "date_created": "2023-10-13T13:37:43.000",
    "date_modified": "2023-10-13T13:37:43.000",
    "request_status": "Pending",
    "responsible_agency": "Department of Sanitation",
    "final_address": "4944 Desire Dr",
    "address_councildis": "D",
    "status": "Assigned to Contractor",
    "contractor": "IV Waste",
    "rowid": "1043050",
    "final_x": "3691501.16041",
    "final_y": "552217.209686",
    "longitude": "-90.03575028901683",
    "latitude": "30.012098134850664",
    "geocoded_column": {
      "latitude": "30.012098134850664",
      "longitude": "-90.03575028901683"
    }
  },
  {
    "service_request": "2023-1043049",
    "request_type": "Trash/Recycling",
    "request_reason": "Request a Large Item Pick Up",
    "date_created": "2023-10-13T13:37:35.000",
    "date_modified": "2023-10-13T13:37:52.000",
    "request_status": "Pending",
    "responsible_agency": "Department of Sanitation",
    "final_address": "13135 Cherbourg St",
    "address_councildis": "E",
    "status": "Assigned to Contractor",
    "contractor": "Waste Pro",
    "rowid": "1043049",
    "final_x": "3724712.84761",
    "final_y": "561284.82275",
    "longitude": "-89.93047099899937",
    "latitude": "30.03595445023929",
    "geocoded_column": {
      "latitude": "30.03595445023929",
      "longitude": "-89.93047099899937"
    }
  },
  {
    "service_request": "2023-1043048",
    "request_type": "Abandoned Vehicles",
    "request_reason": "Abandoned/Junk Vehicles",
    "date_created": "2023-10-13T13:35:12.000",
    "date_modified": "2023-10-13T13:35:12.000",
    "request_status": "Pending",
    "responsible_agency": "Department of Public Works",
    "final_address": "323 S Gayoso St",
    "address_councildis": "B",
    "status": "Pending",
    "rowid": "1043048",
    "final_x": "3673657.1492",
    "final_y": "535113.945414",
    "longitude": "-90.09271239038473",
    "latitude": "29.965613627599122",
    "geocoded_column": {
      "latitude": "29.965613627599122",
      "longitude": "-90.09271239038473"
    }
  },
  {
    "service_request": "2023-1043047",
    "request_type": "Abandoned Vehicles",
    "request_reason": "Abandoned/Junk Vehicles",
    "date_created": "2023-10-13T13:29:18.000",
    "date_modified": "2023-10-13T13:29:19.000",
    "request_status": "Pending",
    "responsible_agency": "Department of Public Works",
    "final_address": "4843 Bright Dr",
    "address_councildis": "E",
    "status": "Pending",
    "rowid": "1043047",
    "final_x": "3715845.62834",
    "final_y": "557381.098971",
    "longitude": "-89.95864075558397",
    "latitude": "30.025516295890064",
    "geocoded_column": {
      "latitude": "30.025516295890064",
      "longitude": "-89.95864075558397"
    }
  },
  {
    "service_request": "2023-1043046",
    "request_type": "Roads/Drainage",
    "request_reason": "Pothole",
    "date_created": "2023-10-13T13:28:14.000",
    "date_modified": "2023-10-13T13:28:15.000",
    "request_status": "Pending",
    "responsible_agency": "Department of Public Works",
    "final_address": "8628 Spruce St",
    "address_councildis": "A",
    "status": "Pending",
    "rowid": "1043046",
    "final_x": "3662333.24551",
    "final_y": "531779.748867",
    "longitude": "-90.12858371183036",
    "latitude": "29.95677793882637",
    "geocoded_column": {
      "latitude": "29.95677793882637",
      "longitude": "-90.12858371183036"
    }
  },
  {
    "service_request": "2023-1043045",
    "request_type": "Trash/Recycling",
    "request_reason": "Repair Trash Cart",
    "date_created": "2023-10-13T13:24:45.000",
    "date_modified": "2023-10-13T13:24:46.000",
    "request_status": "Pending",
    "responsible_agency": "Department of Sanitation",
    "final_address": "4419 Copernicus St",
    "address_councildis": "C",
    "status": "Assigned to Contractor",
    "contractor": "Richards Disposal",
    "rowid": "1043045",
    "final_x": "3700017.47421",
    "final_y": "522903.960379",
    "longitude": "-90.00991340609109",
    "latitude": "29.931229366149672",
    "geocoded_column": {
      "latitude": "29.931229366149672",
      "longitude": "-90.00991340609109"
    }
  },
  {
    "service_request": "2023-1043044",
    "request_type": "Trash/Recycling",
    "request_reason": "Order Recycling Cart",
    "date_created": "2023-10-13T13:18:59.000",
    "date_modified": "2023-10-13T13:19:00.000",
    "request_status": "Pending",
    "responsible_agency": "Department of Sanitation",
    "final_address": "7820 Exeter St",
    "address_councildis": "E",
    "status": "Pending",
    "rowid": "1043044",
    "final_x": "3697456.05418",
    "final_y": "560060.248861",
    "longitude": "-90.01665157408354",
    "latitude": "30.033476743420426",
    "geocoded_column": {
      "latitude": "30.033476743420426",
      "longitude": "-90.01665157408354"
    }
  },
  {
    "service_request": "2023-1043043",
    "request_type": "Abandoned Vehicles",
    "request_reason": "Abandoned/Junk Vehicles",
    "date_created": "2023-10-13T13:15:03.000",
    "date_modified": "2023-10-13T13:15:04.000",
    "request_status": "Pending",
    "responsible_agency": "Department of Public Works",
    "final_address": "2100 Comet St",
    "address_councildis": "C",
    "status": "Pending",
    "rowid": "1043043",
    "final_x": "3700275.13898",
    "final_y": "523360.432123",
    "longitude": "-90.00908334275061",
    "latitude": "29.932476319919974",
    "geocoded_column": {
      "latitude": "29.932476319919974",
      "longitude": "-90.00908334275061"
    }
  },
  {
    "service_request": "2023-1043042",
    "request_type": "Trash/Recycling",
    "request_reason": "Illegal Dumping",
    "date_created": "2023-10-13T13:12:15.000",
    "date_modified": "2023-10-13T13:12:15.000",
    "request_status": "Pending",
    "responsible_agency": "Department of Sanitation",
    "final_address": "700 BLK Market St",
    "address_councildis": "B",
    "status": "Pending",
    "rowid": "1043042",
    "final_x": "3681234.7766",
    "final_y": "522445.321367",
    "longitude": "-90.06922392272216",
    "latitude": "29.930551399181404",
    "geocoded_column": {
      "latitude": "29.930551399181404",
      "longitude": "-90.06922392272216"
    }
  },
  {
    "service_request": "2023-1043041",
    "request_type": "Roads/Drainage",
    "request_reason": "Damaged Sidewalk",
    "date_created": "2023-10-13T13:11:14.000",
    "date_modified": "2023-10-13T13:18:03.000",
    "request_status": "Pending",
    "responsible_agency": "Department of Public Works",
    "final_address": "GENERAL PERSHING ST & LA SALLE ST",
    "address_councildis": "B",
    "status": "Inspected",
    "rowid": "1043041",
    "final_x": "3670966.9",
    "final_y": "523730.48",
    "longitude": "-90.1015945457893",
    "latitude": "29.934392652671942",
    "geocoded_column": {
      "latitude": "29.934392652671942",
      "longitude": "-90.1015945457893"
    }
  },
  {
    "service_request": "2023-1043040",
    "request_type": "Trash/Recycling",
    "request_reason": "Illegal Dumping",
    "date_created": "2023-10-13T13:07:01.000",
    "date_modified": "2023-10-13T13:07:01.000",
    "request_status": "Pending",
    "responsible_agency": "Department of Sanitation",
    "final_address": "2920 Josephine St",
    "address_councildis": "B",
    "status": "Pending",
    "rowid": "1043040",
    "final_x": "3674985.45243",
    "final_y": "527676.179327",
    "longitude": "-90.08877277445194",
    "latitude": "29.945122640520133",
    "geocoded_column": {
      "latitude": "29.945122640520133",
      "longitude": "-90.08877277445194"
    }
  },
  {
    "service_request": "2023-1043039",
    "request_type": "Trash/Recycling",
    "request_reason": "Illegal Dumping",
    "date_created": "2023-10-13T13:06:47.000",
    "date_modified": "2023-10-13T13:06:47.000",
    "request_status": "Pending",
    "responsible_agency": "Department of Sanitation",
    "final_address": "2720 Josephine St",
    "address_councildis": "B",
    "status": "Pending",
    "rowid": "1043039",
    "final_x": "3675375.11413",
    "final_y": "527186.137663",
    "longitude": "-90.08755931111834",
    "latitude": "29.943763544308986",
    "geocoded_column": {
      "latitude": "29.943763544308986",
      "longitude": "-90.08755931111834"
    }
  },
  {
    "service_request": "2023-1043038",
    "request_type": "Trash/Recycling",
    "request_reason": "Replace Trash Cart",
    "date_created": "2023-10-13T13:06:29.000",
    "date_modified": "2023-10-13T13:06:30.000",
    "request_status": "Pending",
    "responsible_agency": "Department of Sanitation",
    "final_address": "1564 Jefferson Ave",
    "address_councildis": "A",
    "status": "Assigned to Contractor",
    "contractor": "Richards Disposal",
    "rowid": "1043038",
    "final_x": "3667206.96225",
    "final_y": "521110.401273",
    "longitude": "-90.11355266054338",
    "latitude": "29.92729887068099",
    "geocoded_column": {
      "latitude": "29.92729887068099",
      "longitude": "-90.11355266054338"
    }
  },
  {
    "service_request": "2023-1043037",
    "request_type": "Trash/Recycling",
    "request_reason": "Illegal Dumping",
    "date_created": "2023-10-13T13:05:52.000",
    "date_modified": "2023-10-13T13:05:53.000",
    "request_status": "Pending",
    "responsible_agency": "Department of Sanitation",
    "final_address": "2729 Josephine St",
    "address_councildis": "B",
    "status": "Pending",
    "rowid": "1043037",
    "final_x": "3675391.61953",
    "final_y": "527280.132671",
    "longitude": "-90.08750397243237",
    "latitude": "29.944021506162713",
    "geocoded_column": {
      "latitude": "29.944021506162713",
      "longitude": "-90.08750397243237"
    }
  },
  {
    "service_request": "2023-1043036",
    "request_type": "Abandoned Vehicles",
    "request_reason": "Abandoned/Junk Vehicles",
    "date_created": "2023-10-13T13:05:43.000",
    "date_modified": "2023-10-13T13:05:43.000",
    "request_status": "Pending",
    "responsible_agency": "Department of Public Works",
    "final_address": "4934 Haik Dr",
    "address_councildis": "D",
    "status": "Pending",
    "rowid": "1043036",
    "final_x": "3681895.16668",
    "final_y": "550922.851541",
    "longitude": "-90.06614497279188",
    "latitude": "30.00883472883657",
    "geocoded_column": {
      "latitude": "30.00883472883657",
      "longitude": "-90.06614497279188"
    }
  },
  {
    "service_request": "2023-1043035",
    "request_type": "Trash/Recycling",
    "request_reason": "Missed Trash Pick-Up",
    "date_created": "2023-10-13T13:02:52.000",
    "date_modified": "2023-10-13T15:19:18.000",
    "case_close_date": "2023-10-13T10:19:18.000",
    "request_status": "Closed",
    "responsible_agency": "Department of Sanitation",
    "final_address": "4848 Eastview Dr",
    "address_councildis": "E",
    "status": "Invalid Request",
    "contractor": "Waste Pro",
    "contractor_action": "Invalid Pick-Up",
    "rowid": "1043035",
    "final_x": "3704976.11012",
    "final_y": "556033.546457",
    "longitude": "-89.99303640942786",
    "latitude": "30.022165132281128",
    "geocoded_column": {
      "latitude": "30.022165132281128",
      "longitude": "-89.99303640942786"
    }
  },
  {
    "service_request": "2023-1043034",
    "request_type": "Roads/Drainage",
    "request_reason": "Pothole",
    "date_created": "2023-10-13T13:02:26.000",
    "date_modified": "2023-10-13T13:02:26.000",
    "request_status": "Pending",
    "responsible_agency": "Department of Public Works",
    "final_address": "5035 Danneel St",
    "address_councildis": "B",
    "status": "Pending",
    "rowid": "1043034",
    "final_x": "3668541.49178",
    "final_y": "522232.562426",
    "longitude": "-90.10930203264259",
    "latitude": "29.93034532584033",
    "geocoded_column": {
      "latitude": "29.93034532584033",
      "longitude": "-90.10930203264259"
    }
  },
  {
    "service_request": "2023-1043033",
    "request_type": "Trash/Recycling",
    "request_reason": "Replace Trash Cart",
    "date_created": "2023-10-13T13:00:39.000",
    "date_modified": "2023-10-13T13:00:40.000",
    "request_status": "Pending",
    "responsible_agency": "Department of Sanitation",
    "final_address": "822 Franklin Ave",
    "address_councildis": "C",
    "status": "Assigned to Contractor",
    "contractor": "IV Waste",
    "rowid": "1043033",
    "final_x": "3686856.16738",
    "final_y": "535553.168582",
    "longitude": "-90.05101499192216",
    "latitude": "29.966421789313486",
    "geocoded_column": {
      "latitude": "29.966421789313486",
      "longitude": "-90.05101499192216"
    }
  },
  {
    "service_request": "2023-1043032",
    "request_type": "Trash/Recycling",
    "request_reason": "MIssed Recycling Pick-Up",
    "date_created": "2023-10-13T12:50:55.000",
    "date_modified": "2023-10-13T13:30:50.000",
    "case_close_date": "2023-10-13T08:30:50.000",
    "request_status": "Closed",
    "responsible_agency": "Department of Sanitation",
    "final_address": "3143 Dauphine St",
    "address_councildis": "C",
    "status": "Invalid Request",
    "contractor": "IV Waste",
    "contractor_action": "Invalid Pick-Up",
    "rowid": "1043032",
    "final_x": "3689062.53142",
    "final_y": "534796.694854",
    "longitude": "-90.04407422636046",
    "latitude": "29.964273672970837",
    "geocoded_column": {
      "latitude": "29.964273672970837",
      "longitude": "-90.04407422636046"
    }
  },
  {
    "service_request": "2023-1043031",
    "request_type": "Trash/Recycling",
    "request_reason": "Request a Large Item Pick Up",
    "date_created": "2023-10-13T12:50:08.000",
    "date_modified": "2023-10-13T12:50:09.000",
    "request_status": "Pending",
    "responsible_agency": "Department of Sanitation",
    "final_address": "1621 St Ann St",
    "address_councildis": "C",
    "status": "Assigned to Contractor",
    "contractor": "Richards Disposal",
    "rowid": "1043031",
    "final_x": "3680176.49615",
    "final_y": "534780.834886",
    "longitude": "-90.07213613744874",
    "latitude": "29.964501989344644",
    "geocoded_column": {
      "latitude": "29.964501989344644",
      "longitude": "-90.07213613744874"
    }
  },
  {
    "service_request": "2023-1043030",
    "request_type": "Abandoned Vehicles",
    "request_reason": "Abandoned/Junk Vehicles",
    "date_created": "2023-10-13T12:45:51.000",
    "date_modified": "2023-10-13T12:45:52.000",
    "request_status": "Pending",
    "responsible_agency": "Department of Public Works",
    "final_address": "1523 St Ferdinand St",
    "address_councildis": "C",
    "status": "Pending",
    "rowid": "1043030",
    "final_x": "3688205.36527",
    "final_y": "538042.976137",
    "longitude": "-90.04666596486372",
    "latitude": "29.973226301926328",
    "geocoded_column": {
      "latitude": "29.973226301926328",
      "longitude": "-90.04666596486372"
    }
  },
  {
    "service_request": "2023-1043029",
    "request_type": "Roads/Drainage",
    "request_reason": "Street Subsidence (Sinking)",
    "date_created": "2023-10-13T12:41:20.000",
    "date_modified": "2023-10-13T12:41:20.000",
    "request_status": "Pending",
    "responsible_agency": "Department of Public Works",
    "final_address": " & ECONOMICS ST",
    "address_councildis": "D",
    "status": "Pending",
    "rowid": "1043029",
    "final_x": "3688215.13",
    "final_y": "559340.33",
    "longitude": "-90.04587938571166",
    "latitude": "30.031785975160673",
    "geocoded_column": {
      "latitude": "30.031785975160673",
      "longitude": "-90.04587938571166"
    }
  },
  {
    "service_request": "2023-1043028",
    "request_type": "Trash/Recycling",
    "request_reason": "Missed Trash Pick-Up",
    "date_created": "2023-10-13T12:37:31.000",
    "date_modified": "2023-10-13T15:19:43.000",
    "case_close_date": "2023-10-13T10:19:43.000",
    "request_status": "Closed",
    "responsible_agency": "Department of Sanitation",
    "final_address": "4900 Eastview Dr",
    "address_councildis": "E",
    "status": "Invalid Request",
    "contractor": "Waste Pro",
    "contractor_action": "Invalid Pick-Up",
    "rowid": "1043028",
    "final_x": "3704972.51639",
    "final_y": "556084.626586",
    "longitude": "-89.99304587673423",
    "latitude": "30.02230569846241",
    "geocoded_column": {
      "latitude": "30.02230569846241",
      "longitude": "-89.99304587673423"
    }
  },
  {
    "service_request": "2023-1043026",
    "request_type": "Trash/Recycling",
    "request_reason": "Request a Large Item Pick Up",
    "date_created": "2023-10-13T12:32:02.000",
    "date_modified": "2023-10-13T12:32:03.000",
    "request_status": "Pending",
    "responsible_agency": "Department of Sanitation",
    "final_address": "7331 Hickory St",
    "address_councildis": "A",
    "status": "Assigned to Contractor",
    "contractor": "Richards Disposal",
    "rowid": "1043026",
    "final_x": "3664924.16839",
    "final_y": "528599.584256",
    "longitude": "-90.12050866040082",
    "latitude": "29.94795835874452",
    "geocoded_column": {
      "latitude": "29.94795835874452",
      "longitude": "-90.12050866040082"
    }
  },
  {
    "service_request": "2023-1043025",
    "request_type": "Trash/Recycling",
    "request_reason": "Request a Large Item Pick Up",
    "date_created": "2023-10-13T12:30:55.000",
    "date_modified": "2023-10-13T12:30:56.000",
    "request_status": "Pending",
    "responsible_agency": "Department of Sanitation",
    "final_address": "2642 Mercedes Blvd",
    "address_councildis": "C",
    "status": "Assigned to Contractor",
    "contractor": "Richards Disposal",
    "rowid": "1043025",
    "final_x": "3698084.51299",
    "final_y": "521370.394681",
    "longitude": "-90.0160711374577",
    "latitude": "29.927073832685206",
    "geocoded_column": {
      "latitude": "29.927073832685206",
      "longitude": "-90.0160711374577"
    }
  },
  {
    "service_request": "2023-1043024",
    "request_type": "Roads/Drainage",
    "request_reason": "Street Subsidence (Sinking)",
    "date_created": "2023-10-13T12:30:38.000",
    "date_modified": "2023-10-13T12:30:38.000",
    "request_status": "Pending",
    "responsible_agency": "Department of Public Works",
    "final_address": "7227 Benjamin St",
    "address_councildis": "A",
    "status": "Pending",
    "rowid": "1043024",
    "final_x": "3662265.62016",
    "final_y": "524049.864444",
    "longitude": "-90.12905378623202",
    "latitude": "29.935525183944705",
    "geocoded_column": {
      "latitude": "29.935525183944705",
      "longitude": "-90.12905378623202"
    }
  },
  {
    "service_request": "2023-1043023",
    "request_type": "Trash/Recycling",
    "request_reason": "MIssed Recycling Pick-Up",
    "date_created": "2023-10-13T12:30:12.000",
    "date_modified": "2023-10-13T12:30:13.000",
    "request_status": "Pending",
    "responsible_agency": "Department of Sanitation",
    "final_address": "2527 Cleveland Ave",
    "address_councildis": "B",
    "status": "Assigned to Contractor",
    "contractor": "Richards Disposal",
    "rowid": "1043023",
    "final_x": "3675734.17345",
    "final_y": "534376.653573",
    "longitude": "-90.08617856593321",
    "latitude": "29.963524325457225",
    "geocoded_column": {
      "latitude": "29.963524325457225",
      "longitude": "-90.08617856593321"
    }
  },
  {
    "service_request": "2023-1043022",
    "request_type": "Trash/Recycling",
    "request_reason": "MIssed Recycling Pick-Up",
    "date_created": "2023-10-13T12:30:05.000",
    "date_modified": "2023-10-13T12:30:06.000",
    "request_status": "Pending",
    "responsible_agency": "Department of Sanitation",
    "final_address": "2527 Cleveland Ave",
    "address_councildis": "B",
    "status": "Assigned to Contractor",
    "contractor": "Richards Disposal",
    "rowid": "1043022",
    "final_x": "3675734.17345",
    "final_y": "534376.653573",
    "longitude": "-90.08617856593321",
    "latitude": "29.963524325457225",
    "geocoded_column": {
      "latitude": "29.963524325457225",
      "longitude": "-90.08617856593321"
    }
  },
  {
    "service_request": "2023-1043021",
    "request_type": "Trash/Recycling",
    "request_reason": "MIssed Recycling Pick-Up",
    "date_created": "2023-10-13T12:29:28.000",
    "date_modified": "2023-10-13T12:29:30.000",
    "request_status": "Pending",
    "responsible_agency": "Department of Sanitation",
    "final_address": "2527 Cleveland Ave",
    "address_councildis": "B",
    "status": "Assigned to Contractor",
    "contractor": "Richards Disposal",
    "rowid": "1043021",
    "final_x": "3675734.17345",
    "final_y": "534376.653573",
    "longitude": "-90.08617856593321",
    "latitude": "29.963524325457225",
    "geocoded_column": {
      "latitude": "29.963524325457225",
      "longitude": "-90.08617856593321"
    }
  },
  {
    "service_request": "2023-1043020",
    "request_type": "Trash/Recycling",
    "request_reason": "MIssed Recycling Pick-Up",
    "date_created": "2023-10-13T12:29:01.000",
    "date_modified": "2023-10-13T12:29:01.000",
    "request_status": "Pending",
    "responsible_agency": "Department of Sanitation",
    "final_address": "2527 Cleveland Ave",
    "address_councildis": "B",
    "status": "Assigned to Contractor",
    "contractor": "Richards Disposal",
    "rowid": "1043020",
    "final_x": "3675734.17345",
    "final_y": "534376.653573",
    "longitude": "-90.08617856593321",
    "latitude": "29.963524325457225",
    "geocoded_column": {
      "latitude": "29.963524325457225",
      "longitude": "-90.08617856593321"
    }
  },