[
  {
    "service_request": "2021-847531",
    "request_type": "Mosquito, Termite & Rodent Control",
    "request_reason": "Mosquito Complaint",
    "date_created": "2021-12-12T00:32:35.000",
    "date_modified": "2021-12-12T00:32:35.000",
    "request_status": "Pending",
    "responsible_agency": "Mosquito, Termite & Rodent Control Board",
    "final_address": "2416 Dante St",
    "address_councildis": "A",
    "status": "Pending",
    "rowid": "847531",
    "final_x": "3664369.0178",
    "final_y": "532153.571523",
    "longitude": "-90.1221428877437",
    "latitude": "29.957746817549204",
    "geocoded_column": {
      "latitude": "29.957746817549204",
      "longitude": "-90.1221428877437"
    }
  },
  {
    "service_request": "2021-847529",
    "request_type": "Traffic Signals/Signs/Striping/Streetlights",
    "request_reason": "Street Light Outage/Malfunction",
    "date_created": "2021-12-11T23:17:45.000",
    "date_modified": "2021-12-11T23:17:46.000",
    "request_status": "Pending",
    "responsible_agency": "Department of Public Works",
    "final_address": "6214 Bellaire Dr",
    "address_councildis": "A",
    "status": "Pending",
    "contractor": "Royal Engineering",
    "rowid": "847529",
    "final_x": "3664270.74061",
    "final_y": "549070.763731",
    "longitude": "-90.1218884381107",
    "latitude": "30.004266283313928",
    "geocoded_column": {
      "latitude": "30.004266283313928",
      "longitude": "-90.1218884381107"
    }
  },
  {
    "service_request": "2021-847528",
    "request_type": "Abandoned Vehicles",
    "request_reason": "Abandoned/Junk Vehicles",
    "date_created": "2021-12-11T23:08:32.000",
    "date_modified": "2021-12-11T23:08:32.000",
    "request_status": "Pending",
    "responsible_agency": "Department of Public Works",
    "final_address": "8312 Oak St",
    "address_councildis": "A",
    "status": "Pending",
    "rowid": "847528",
    "final_x": "3661314.99872",
    "final_y": "528909.046784",
    "longitude": "-90.13189407307465",
    "latitude": "29.9489138298997",
    "geocoded_column": {
      "latitude": "29.9489138298997",
      "longitude": "-90.13189407307465"
    }
  },
  {
    "service_request": "2021-847527",
    "request_type": "Property Maintenance",
    "request_reason": "Property Maintenance",
    "date_created": "2021-12-11T22:30:15.000",
    "date_modified": "2021-12-11T22:30:15.000",
    "request_status": "Pending",
    "responsible_agency": "Department of Code Enforcement",
    "final_address": "1312 Caffin Ave",
    "address_councildis": "E",
    "status": "Pending",
    "rowid": "847527",
    "final_x": "3698188.13002",
    "final_y": "534629.675398",
    "longitude": "-90.0152625735521",
    "latitude": "29.9635289445516",
    "geocoded_column": {
      "latitude": "29.9635289445516",
      "longitude": "-90.0152625735521"
    }
  },
  {
    "service_request": "2021-847526",
    "request_type": "Trash/Recycling",
    "request_reason": "Repair Trash Cart",
    "date_created": "2021-12-11T22:22:38.000",
    "date_modified": "2021-12-11T22:22:39.000",
    "request_status": "Pending",
    "responsible_agency": "Department of Sanitation",
    "final_address": "3149 State Street Dr",
    "address_councildis": "A",
    "status": "Assigned to Contractor",
    "contractor": "Richards Disposal",
    "rowid": "847526",
    "final_x": "3667566.23047",
    "final_y": "527886.319615",
    "longitude": "-90.11219058150489",
    "latitude": "29.94591995302409",
    "geocoded_column": {
      "latitude": "29.94591995302409",
      "longitude": "-90.11219058150489"
    }
  },
  {
    "service_request": "2021-847523",
    "request_type": "Abandoned Vehicles",
    "request_reason": "Abandoned/Junk Vehicles",
    "date_created": "2021-12-11T21:48:45.000",
    "date_modified": "2021-12-11T21:48:45.000",
    "request_status": "Pending",
    "responsible_agency": "Department of Public Works",
    "final_address": "1301 Prytania St",
    "address_councildis": "B",
    "status": "Pending",
    "rowid": "847523",
    "final_x": "3679926.34274",
    "final_y": "525771.075709",
    "longitude": "-90.07323899454884",
    "latitude": "29.939735751869136",
    "geocoded_column": {
      "latitude": "29.939735751869136",
      "longitude": "-90.07323899454884"
    }
  },
  {
    "service_request": "2021-847522",
    "request_type": "Health Related Questions",
    "request_reason": "Noise Ordinance Complaint",
    "date_created": "2021-12-11T21:32:37.000",
    "date_modified": "2021-12-11T22:00:22.000",
    "request_status": "Pending",
    "responsible_agency": "Health Department",
    "final_address": "1013 Pine St, New Orleans, Louisiana, 70118",
    "address_councildis": "A",
    "status": "Pending",
    "rowid": "847522",
    "final_x": "3663620.09869",
    "final_y": "526157.913022",
    "longitude": "-90.12470746875746",
    "latitude": "29.941282434403035",
    "geocoded_column": {
      "latitude": "29.941282434403035",
      "longitude": "-90.12470746875746"
    }
  },
  {
    "service_request": "2021-847521",
    "request_type": "Trash/Recycling",
    "request_reason": "Replace Trash Cart",
    "date_created": "2021-12-11T21:12:17.000",
    "date_modified": "2021-12-11T21:12:18.000",
    "request_status": "Pending",
    "responsible_agency": "Department of Sanitation",
    "final_address": "2812 First St",
    "address_councildis": "B",
    "status": "Assigned to Contractor",
    "contractor": "Richards Disposal",
    "rowid": "847521",
    "final_x": "3674512.3419",
    "final_y": "526825.62003",
    "longitude": "-90.09029566679683",
    "latitude": "29.942798003502404",
    "geocoded_column": {
      "latitude": "29.942798003502404",
      "longitude": "-90.09029566679683"
    }
  },
  {
    "service_request": "2021-847519",
    "request_type": "Traffic Signals/Signs/Striping/Streetlights",
    "request_reason": "Traffic Signal Malfunctioning/Damaged",
    "date_created": "2021-12-11T20:28:32.000",
    "date_modified": "2021-12-11T20:28:32.000",
    "request_status": "Pending",
    "responsible_agency": "Department of Public Works",
    "final_address": "MAGAZINE ST & ANDREW HIGGINS ST",
    "address_councildis": "B",
    "status": "Pending",
    "rowid": "847519",
    "final_x": "3680946.6",
    "final_y": "526882.68",
    "longitude": "-90.0699792057781",
    "latitude": "29.94276140283198",
    "geocoded_column": {
      "latitude": "29.94276140283198",
      "longitude": "-90.0699792057781"
    }
  },
  {
    "service_request": "2021-847518",
    "request_type": "Traffic Signals/Signs/Striping/Streetlights",
    "request_reason": "Traffic Signal Malfunctioning/Damaged",
    "date_created": "2021-12-11T20:27:36.000",
    "date_modified": "2021-12-11T20:27:36.000",
    "request_status": "Pending",
    "responsible_agency": "Department of Public Works",
    "final_address": "ST CHARLES AVE & CALLIOPE ST",
    "address_councildis": "B",
    "status": "Pending",
    "rowid": "847518",
    "final_x": "3679819.05",
    "final_y": "526554.96",
    "longitude": "-90.07355052352129",
    "latitude": "29.941894417235446",
    "geocoded_column": {
      "latitude": "29.941894417235446",
      "longitude": "-90.07355052352129"
    }
  },
  {
    "service_request": "2021-847517",
    "request_type": "Safety & Permits",
    "request_reason": "School Bus Complaints",
    "date_created": "2021-12-11T19:05:01.000",
    "date_modified": "2021-12-11T19:05:01.000",
    "request_status": "Pending",
    "responsible_agency": "Safety and Permits",
    "final_address": "1932 Orleans Ave",
    "address_councildis": "D",
    "status": "Pending",
    "rowid": "847517",
    "final_x": "3678990.09986",
    "final_y": "535268.735494",
    "longitude": "-90.07586577954072",
    "latitude": "29.965879402471927",
    "geocoded_column": {
      "latitude": "29.965879402471927",
      "longitude": "-90.07586577954072"
    }
  },
  {
    "service_request": "2021-847516",
    "request_type": "Mosquito, Termite & Rodent Control",
    "request_reason": "Non-Rodent Complaint (Mice, Possums, Snakes)",
    "date_created": "2021-12-11T18:35:10.000",
    "date_modified": "2021-12-11T19:00:20.000",
    "request_status": "Pending",
    "responsible_agency": "Mosquito, Termite & Rodent Control Board",
    "final_address": "2415 Delachaise St",
    "address_councildis": "B",
    "status": "Pending",
    "rowid": "847516",
    "final_x": "3672681.6436",
    "final_y": "524132.49766",
    "longitude": "-90.09616743398355",
    "latitude": "29.935447275137324",
    "geocoded_column": {
      "latitude": "29.935447275137324",
      "longitude": "-90.09616743398355"
    }
  },
  {
    "service_request": "2021-847515",
    "request_type": "Safety & Permits",
    "request_reason": "Licenses & Permits",
    "date_created": "2021-12-11T18:30:18.000",
    "date_modified": "2021-12-11T18:30:18.000",
    "request_status": "Pending",
    "responsible_agency": "Safety and Permits",
    "final_address": "821 Louisa St",
    "address_councildis": "C",
    "status": "Pending",
    "rowid": "847515",
    "final_x": "3689346.08508",
    "final_y": "534883.912518",
    "longitude": "-90.04317568887538",
    "latitude": "29.96450471541891",
    "geocoded_column": {
      "latitude": "29.96450471541891",
      "longitude": "-90.04317568887538"
    }
  },
  {
    "service_request": "2021-847514",
    "request_type": "Roads/Drainage",
    "request_reason": "Catch Basin - Clogged",
    "date_created": "2021-12-11T18:17:46.000",
    "date_modified": "2021-12-11T18:17:46.000",
    "request_status": "Pending",
    "responsible_agency": "Department of Public Works",
    "final_address": "905 Gallier St",
    "address_councildis": "C",
    "status": "Pending",
    "rowid": "847514",
    "final_x": "3690316.25347",
    "final_y": "534894.680326",
    "longitude": "-90.04011159654836",
    "latitude": "29.964504251315553",
    "geocoded_column": {
      "latitude": "29.964504251315553",
      "longitude": "-90.04011159654836"
    }
  },
  {
    "service_request": "2021-847513",
    "request_type": "Trash/Recycling",
    "request_reason": "Illegal Dumping",
    "date_created": "2021-12-11T18:15:29.000",
    "date_modified": "2021-12-11T18:15:29.000",
    "request_status": "Pending",
    "responsible_agency": "Department of Sanitation",
    "final_address": "9 Press St",
    "address_councildis": "C",
    "status": "Pending",
    "rowid": "847513",
    "final_x": "3688361.27497",
    "final_y": "537552.28372",
    "longitude": "-90.04619098016053",
    "latitude": "29.97187225549465",
    "geocoded_column": {
      "latitude": "29.97187225549465",
      "longitude": "-90.04619098016053"
    }
  },
  {
    "service_request": "2021-847512",
    "request_type": "Trash/Recycling",
    "request_reason": "Missed Trash Pick-Up",
    "date_created": "2021-12-11T18:14:15.000",
    "date_modified": "2021-12-11T19:00:22.000",
    "request_status": "Pending",
    "responsible_agency": "Department of Sanitation",
    "final_address": "4731 Lennox Blvd",
    "address_councildis": "C",
    "status": "Assigned to Contractor",
    "contractor": "Richards Disposal",
    "rowid": "847512",
    "final_x": "3700653.26525",
    "final_y": "513232.028466",
    "longitude": "-90.00825939812731",
    "latitude": "29.904614651459603",
    "geocoded_column": {
      "latitude": "29.904614651459603",
      "longitude": "-90.00825939812731"
    }
  },
  {
    "service_request": "2021-847511",
    "request_type": "Abandoned Vehicles",
    "request_reason": "Abandoned/Junk Vehicles",
    "date_created": "2021-12-11T17:55:33.000",
    "date_modified": "2021-12-11T17:55:33.000",
    "request_status": "Pending",
    "responsible_agency": "Department of Public Works",
    "final_address": "534 First St",
    "address_councildis": "B",
    "status": "Pending",
    "rowid": "847511",
    "final_x": "3679103.08239",
    "final_y": "519875.096248",
    "longitude": "-90.07604239373521",
    "latitude": "29.923548611804684",
    "geocoded_column": {
      "latitude": "29.923548611804684",
      "longitude": "-90.07604239373521"
    }
  },
  {
    "service_request": "2021-847510",
    "request_type": "Trash/Recycling",
    "request_reason": "Illegal Dumping",
    "date_created": "2021-12-11T17:27:13.000",
    "date_modified": "2021-12-11T17:27:13.000",
    "request_status": "Pending",
    "responsible_agency": "Department of Sanitation",
    "final_address": "3318 Law St Apt C",
    "address_councildis": "D",
    "status": "Pending",
    "rowid": "847510",
    "final_x": "3691354.96598",
    "final_y": "541350.2795",
    "longitude": "-90.03660072392954",
    "latitude": "29.982222585556453",
    "geocoded_column": {
      "latitude": "29.982222585556453",
      "longitude": "-90.03660072392954"
    }
  },
  {
    "service_request": "2021-847509",
    "request_type": "Abandoned Vehicles",
    "request_reason": "Abandoned/Junk Vehicles",
    "date_created": "2021-12-11T17:20:07.000",
    "date_modified": "2021-12-11T17:20:07.000",
    "request_status": "Pending",
    "responsible_agency": "Department of Public Works",
    "final_address": "3318 Law St Apt C",
    "address_councildis": "D",
    "status": "Pending",
    "rowid": "847509",
    "final_x": "3691354.96598",
    "final_y": "541350.2795",
    "longitude": "-90.03660072392954",
    "latitude": "29.982222585556453",
    "geocoded_column": {
      "latitude": "29.982222585556453",
      "longitude": "-90.03660072392954"
    }
  },
  {
    "service_request": "2021-847507",
    "request_type": "Trash/Recycling",
    "request_reason": "Request a Large Item Pick Up",
    "date_created": "2021-12-11T16:51:02.000",
    "date_modified": "2021-12-11T17:01:04.000",
    "request_status": "Pending",
    "responsible_agency": "Department of Sanitation",
    "final_address": "4816 Constance St, New Orleans, Louisiana, 70115",
    "address_councildis": "B",
    "status": "Assigned to Contractor",
    "contractor": "Richards Disposal",
    "rowid": "847507",
    "final_x": "3669471.74817",
    "final_y": "518214.761014",
    "longitude": "-90.10650115049242",
    "latitude": "29.91927029155932",
    "geocoded_column": {
      "latitude": "29.91927029155932",
      "longitude": "-90.10650115049242"
    }
  },
  {
    "service_request": "2021-847505",
    "request_type": "Abandoned Vehicles",
    "request_reason": "Abandoned/Junk Vehicles",
    "date_created": "2021-12-11T16:42:34.000",
    "date_modified": "2021-12-11T16:42:34.000",
    "request_status": "Pending",
    "responsible_agency": "Department of Public Works",
    "final_address": "3635 Frenchmen St",
    "address_councildis": "D",
    "status": "Pending",
    "rowid": "847505",
    "final_x": "3683834.79676",
    "final_y": "546092.95176",
    "longitude": "-90.06018659850307",
    "latitude": "29.99549511885396",
    "geocoded_column": {
      "latitude": "29.99549511885396",
      "longitude": "-90.06018659850307"
    }
  },
  {
    "service_request": "2021-847504",
    "request_type": "COVID-19",
    "request_reason": "COVID-19 Business Non-Compliance",
    "date_created": "2021-12-11T16:20:50.000",
    "date_modified": "2021-12-11T16:20:52.000",
    "request_status": "Pending",
    "responsible_agency": "Safety and Permits",
    "final_address": "611 OKeefe Ave",
    "address_councildis": "B",
    "status": "Pending",
    "rowid": "847504",
    "final_x": "3679355.91375",
    "final_y": "529017.045504",
    "longitude": "-90.07492737207814",
    "latitude": "29.948678324365698",
    "geocoded_column": {
      "latitude": "29.948678324365698",
      "longitude": "-90.07492737207814"
    }
  },
  {
    "service_request": "2021-847503",
    "request_type": "Trash/Recycling",
    "request_reason": "Illegal Dumping",
    "date_created": "2021-12-11T15:50:33.000",
    "date_modified": "2021-12-11T16:00:21.000",
    "request_status": "Pending",
    "responsible_agency": "Department of Sanitation",
    "final_address": "2100 St Thomas St Apt",
    "address_councildis": "B",
    "status": "Pending",
    "rowid": "847503",
    "final_x": "3680221.36891",
    "final_y": "520791.588729",
    "longitude": "-90.07248054463341",
    "latitude": "29.926034879330242",
    "geocoded_column": {
      "latitude": "29.926034879330242",
      "longitude": "-90.07248054463341"
    }
  },
  {
    "service_request": "2021-847502",
    "request_type": "Trash/Recycling",
    "request_reason": "Start Trash Service",
    "date_created": "2021-12-11T15:29:20.000",
    "date_modified": "2021-12-11T15:29:21.000",
    "request_status": "Pending",
    "responsible_agency": "Department of Sanitation",
    "final_address": "6768 Pontchartrain Blvd",
    "address_councildis": "A",
    "status": "Assigned to Contractor",
    "contractor": "Metro Disposal",
    "rowid": "847502",
    "final_x": "3666351.15591",
    "final_y": "553183.566935",
    "longitude": "-90.11517786741243",
    "latitude": "30.01551441460922",
    "geocoded_column": {
      "latitude": "30.01551441460922",
      "longitude": "-90.11517786741243"
    }
  },
  {
    "service_request": "2021-847500",
    "request_type": "Trash/Recycling",
    "request_reason": "Order Recycling Cart",
    "date_created": "2021-12-11T15:06:24.000",
    "date_modified": "2021-12-11T15:06:24.000",
    "request_status": "Pending",
    "responsible_agency": "Department of Sanitation",
    "final_address": "7620 Expedition Dr",
    "address_councildis": "E",
    "status": "Pending",
    "rowid": "847500",
    "final_x": "3725915.3239",
    "final_y": "571264.32132",
    "longitude": "-89.92628374338888",
    "latitude": "30.063353363007153",
    "geocoded_column": {
      "latitude": "30.063353363007153",
      "longitude": "-89.92628374338888"
    }
  },
  {
    "service_request": "2021-847499",
    "request_type": "Traffic Signals/Signs/Striping/Streetlights",
    "request_reason": "Street Light Outage/Malfunction",
    "date_created": "2021-12-11T15:01:43.000",
    "date_modified": "2021-12-11T15:01:44.000",
    "request_status": "Pending",
    "responsible_agency": "Department of Public Works",
    "final_address": "1601 Tennessee St",
    "address_councildis": "E",
    "status": "Pending",
    "contractor": "Royal Engineering",
    "rowid": "847499",
    "final_x": "3696262.17744",
    "final_y": "536222.050055",
    "longitude": "-90.02128691635313",
    "latitude": "29.96796818495812",
    "geocoded_column": {
      "latitude": "29.96796818495812",
      "longitude": "-90.02128691635313"
    }
  },
  {
    "service_request": "2021-847496",
    "request_type": "Parks & Parkways",
    "request_reason": "Request Tree Service (Right of Way/Public Property)",
    "date_created": "2021-12-11T14:47:33.000",
    "date_modified": "2021-12-11T14:47:33.000",
    "request_status": "Pending",
    "responsible_agency": "Department of Parks & Parkway",
    "final_address": "1532 Eleonore St",
    "address_councildis": "A",
    "status": "Pending",
    "rowid": "847496",
    "final_x": "3665841.33095",
    "final_y": "522007.632186",
    "longitude": "-90.11783358628247",
    "latitude": "29.929805874871004",
    "geocoded_column": {
      "latitude": "29.929805874871004",
      "longitude": "-90.11783358628247"
    }
  },
  {
    "service_request": "2021-847495",
    "request_type": "Trash/Recycling",
    "request_reason": "Missed Trash Pick-Up",
    "date_created": "2021-12-11T14:12:35.000",
    "date_modified": "2021-12-11T14:12:35.000",
    "request_status": "Pending",
    "responsible_agency": "Department of Sanitation",
    "final_address": "1200 Nashville Ave",
    "address_councildis": "A",
    "status": "Assigned to Contractor",
    "contractor": "Richards Disposal",
    "rowid": "847495",
    "final_x": "3665755.3417",
    "final_y": "520397.913848",
    "longitude": "-90.11815893151461",
    "latitude": "29.92538216569043",
    "geocoded_column": {
      "latitude": "29.92538216569043",
      "longitude": "-90.11815893151461"
    }
  },
  {
    "service_request": "2021-847494",
    "request_type": "Trash/Recycling",
    "request_reason": "Missed Trash Pick-Up",
    "date_created": "2021-12-11T13:55:53.000",
    "date_modified": "2021-12-11T13:55:54.000",
    "request_status": "Pending",
    "responsible_agency": "Department of Sanitation",
    "final_address": "4918 Lancelot Dr",
    "address_councildis": "E",
    "status": "Assigned to Contractor",
    "contractor": "Metro Disposal",
    "rowid": "847494",
    "final_x": "3707268.56491",
    "final_y": "556582.92105",
    "longitude": "-89.98577247253519",
    "latitude": "30.023601768175702",
    "geocoded_column": {
      "latitude": "30.023601768175702",
      "longitude": "-89.98577247253519"
    }
  },
  {
    "service_request": "2021-847493",
    "request_type": "Trash/Recycling",
    "request_reason": "Request a Large Item Pick Up",
    "date_created": "2021-12-11T13:40:33.000",
    "date_modified": "2021-12-11T14:00:26.000",
    "request_status": "Pending",
    "responsible_agency": "Department of Sanitation",
    "final_address": "4116 N Tonti St",
    "address_councildis": "D",
    "status": "Assigned to Contractor",
    "contractor": "Metro Disposal",
    "rowid": "847493",
    "final_x": "3693349.32278",
    "final_y": "539645.843338",
    "longitude": "-90.0303628203479",
    "latitude": "29.977473787568467",
    "geocoded_column": {
      "latitude": "29.977473787568467",
      "longitude": "-90.0303628203479"
    }
  },
  {
    "service_request": "2021-847492",
    "request_type": "Traffic Signals/Signs/Striping/Streetlights",
    "request_reason": "Traffic Signal Malfunctioning/Damaged",
    "date_created": "2021-12-11T13:17:24.000",
    "date_modified": "2021-12-11T13:17:24.000",
    "request_status": "Pending",
    "responsible_agency": "Department of Public Works",
    "final_address": "POYDRAS ST & BARONNE ST",
    "address_councildis": "B",
    "status": "Pending",
    "rowid": "847492",
    "final_x": "3679923.0",
    "final_y": "529523.38",
    "longitude": "-90.07311925771364",
    "latitude": "29.9500534374059",
    "geocoded_column": {
      "latitude": "29.9500534374059",
      "longitude": "-90.07311925771364"
    }
  },
  {
    "service_request": "2021-847491",
    "request_type": "Trash/Recycling",
    "request_reason": "Order Recycling Cart",
    "date_created": "2021-12-11T13:15:38.000",
    "date_modified": "2021-12-11T13:15:38.000",
    "request_status": "Pending",
    "responsible_agency": "Department of Sanitation",
    "final_address": "625 Spain St",
    "address_councildis": "C",
    "status": "Pending",
    "rowid": "847491",
    "final_x": "3686291.46108",
    "final_y": "534823.642566",
    "longitude": "-90.05282406842827",
    "latitude": "29.964433210726867",
    "geocoded_column": {
      "latitude": "29.964433210726867",
      "longitude": "-90.05282406842827"
    }
  },
  {
    "service_request": "2021-847490",
    "request_type": "Trash/Recycling",
    "request_reason": "Order Trash Cart",
    "date_created": "2021-12-11T13:14:49.000",
    "date_modified": "2021-12-11T13:14:50.000",
    "request_status": "Pending",
    "responsible_agency": "Department of Sanitation",
    "final_address": "625 Spain St",
    "address_councildis": "C",
    "status": "Assigned to Contractor",
    "contractor": "Metro Disposal",
    "rowid": "847490",
    "final_x": "3686291.46108",
    "final_y": "534823.642566",
    "longitude": "-90.05282406842827",
    "latitude": "29.964433210726867",
    "geocoded_column": {
      "latitude": "29.964433210726867",
      "longitude": "-90.05282406842827"
    }
  },
  {
    "service_request": "2021-847489",
    "request_type": "Trash/Recycling",
    "request_reason": "Order Recycling Cart",
    "date_created": "2021-12-11T12:40:11.000",
    "date_modified": "2021-12-11T13:00:12.000",
    "request_status": "Pending",
    "responsible_agency": "Department of Sanitation",
    "final_address": "5202 Chestnut St",
    "address_councildis": "B",
    "status": "Pending",
    "rowid": "847489",
    "final_x": "3668028.45153",
    "final_y": "519316.121847",
    "longitude": "-90.11101983840369",
    "latitude": "29.92234109893925",
    "geocoded_column": {
      "latitude": "29.92234109893925",
      "longitude": "-90.11101983840369"
    }
  },
  {
    "service_request": "2021-847488",
    "request_type": "Trash/Recycling",
    "request_reason": "Illegal Dumping",
    "date_created": "2021-12-11T12:38:25.000",
    "date_modified": "2021-12-11T12:38:25.000",
    "request_status": "Pending",
    "responsible_agency": "Department of Sanitation",
    "final_address": "1740 Florida Ave",
    "address_councildis": "D",
    "status": "Pending",
    "rowid": "847488",
    "final_x": "3681016.18037",
    "final_y": "543678.77563",
    "longitude": "-90.06917447426429",
    "latitude": "29.988942799071776",
    "geocoded_column": {
      "latitude": "29.988942799071776",
      "longitude": "-90.06917447426429"
    }
  },
  {
    "service_request": "2021-847487",
    "request_type": "Abandoned Vehicles",
    "request_reason": "Abandoned/Junk Vehicles",
    "date_created": "2021-12-11T12:32:32.000",
    "date_modified": "2021-12-11T13:00:13.000",
    "request_status": "Pending",
    "responsible_agency": "Department of Public Works",
    "final_address": "420 Huso St",
    "address_councildis": "A",
    "status": "Pending",
    "rowid": "847487",
    "final_x": "3660586.02707",
    "final_y": "526002.832573",
    "longitude": "-90.13429178629933",
    "latitude": "29.94094366190658",
    "geocoded_column": {
      "latitude": "29.94094366190658",
      "longitude": "-90.13429178629933"
    }
  },
  {
    "service_request": "2021-847486",
    "request_type": "Trash/Recycling",
    "request_reason": "Request a Large Item Pick Up",
    "date_created": "2021-12-11T12:29:10.000",
    "date_modified": "2021-12-11T12:29:11.000",
    "request_status": "Pending",
    "responsible_agency": "Department of Sanitation",
    "final_address": "3703 Burgundy St",
    "address_councildis": "C",
    "status": "Assigned to Contractor",
    "contractor": "Metro Disposal",
    "rowid": "847486",
    "final_x": "3690838.73392",
    "final_y": "534734.12167",
    "longitude": "-90.03846737813254",
    "latitude": "29.96404654665972",
    "geocoded_column": {
      "latitude": "29.96404654665972",
      "longitude": "-90.03846737813254"
    }
  },
  {
    "service_request": "2021-847485",
    "request_type": "Traffic Signals/Signs/Striping/Streetlights",
    "request_reason": "Street Light Outage/Malfunction",
    "date_created": "2021-12-11T12:21:14.000",
    "date_modified": "2021-12-11T13:00:15.000",
    "request_status": "Pending",
    "responsible_agency": "Department of Public Works",
    "final_address": "4748 Bonita Dr",
    "address_councildis": "E",
    "status": "Pending",
    "contractor": "Royal Engineering",
    "rowid": "847485",
    "final_x": "3704427.03153",
    "final_y": "555346.376217",
    "longitude": "-89.9947967115361",
    "latitude": "30.0202933276222",
    "geocoded_column": {
      "latitude": "30.0202933276222",
      "longitude": "-89.9947967115361"
    }
  },
  {
    "service_request": "2021-847484",
    "request_type": "Trash/Recycling",
    "request_reason": "Order Recycling Cart",
    "date_created": "2021-12-11T12:19:29.000",
    "date_modified": "2021-12-11T12:19:29.000",
    "request_status": "Pending",
    "responsible_agency": "Department of Sanitation",
    "final_address": "911 Race St",
    "address_councildis": "B",
    "status": "Pending",
    "rowid": "847484",
    "final_x": "3680883.94293",
    "final_y": "523720.705403",
    "longitude": "-90.0702870714362",
    "latitude": "29.934068922331125",
    "geocoded_column": {
      "latitude": "29.934068922331125",
      "longitude": "-90.0702870714362"
    }
  },
  {
    "service_request": "2021-847483",
    "request_type": "Trash/Recycling",
    "request_reason": "Order Trash Cart",
    "date_created": "2021-12-11T12:18:39.000",
    "date_modified": "2021-12-11T12:18:40.000",
    "request_status": "Pending",
    "responsible_agency": "Department of Sanitation",
    "final_address": "911 Race St",
    "address_councildis": "B",
    "status": "Assigned to Contractor",
    "contractor": "Richards Disposal",
    "rowid": "847483",
    "final_x": "3680883.94293",
    "final_y": "523720.705403",
    "longitude": "-90.0702870714362",
    "latitude": "29.934068922331125",
    "geocoded_column": {
      "latitude": "29.934068922331125",
      "longitude": "-90.0702870714362"
    }
  },
  {
    "service_request": "2021-847482",
    "request_type": "Traffic Signals/Signs/Striping/Streetlights",
    "request_reason": "Street Light Outage/Malfunction",
    "date_created": "2021-12-11T12:15:26.000",
    "date_modified": "2021-12-11T12:15:26.000",
    "request_status": "Pending",
    "responsible_agency": "Department of Public Works",
    "final_address": "28 Honeysuckle Ln",
    "address_councildis": "E",
    "status": "Pending",
    "contractor": "Royal Engineering",
    "rowid": "847482",
    "final_x": "3713050.02603",
    "final_y": "568570.653029",
    "longitude": "-89.96705277029895",
    "latitude": "30.056374991149347",
    "geocoded_column": {
      "latitude": "30.056374991149347",
      "longitude": "-89.96705277029895"
    }
  },
  {
    "service_request": "2021-847480",
    "request_type": "Trash/Recycling",
    "request_reason": "Request a Large Item Pick Up",
    "date_created": "2021-12-11T12:05:45.000",
    "date_modified": "2021-12-11T12:05:45.000",
    "request_status": "Pending",
    "responsible_agency": "Department of Sanitation",
    "final_address": "35 Honeysuckle Ln",
    "address_councildis": "E",
    "status": "Assigned to Contractor",
    "contractor": "Metro Disposal",
    "rowid": "847480",
    "final_x": "3713024.20478",
    "final_y": "568411.211237",
    "longitude": "-89.96714039497594",
    "latitude": "30.05593743804322",
    "geocoded_column": {
      "latitude": "30.05593743804322",
      "longitude": "-89.96714039497594"
    }
  },
  {
    "service_request": "2021-847479",
    "request_type": "Trash/Recycling",
    "request_reason": "Start Trash Service",
    "date_created": "2021-12-11T11:57:27.000",
    "date_modified": "2021-12-11T12:00:36.000",
    "request_status": "Pending",
    "responsible_agency": "Department of Sanitation",
    "final_address": "1812 Charbonnet St",
    "address_councildis": "E",
    "status": "Assigned to Contractor",
    "contractor": "Metro Disposal",
    "rowid": "847479",
    "final_x": "3699278.00676",
    "final_y": "536360.494727",
    "longitude": "-90.01175783967423",
    "latitude": "29.96825356024086",
    "geocoded_column": {
      "latitude": "29.96825356024086",
      "longitude": "-90.01175783967423"
    }
  },
  {
    "service_request": "2021-847478",
    "request_type": "Trash/Recycling",
    "request_reason": "Order Trash Cart",
    "date_created": "2021-12-11T11:57:02.000",
    "date_modified": "2021-12-11T12:00:38.000",
    "request_status": "Pending",
    "responsible_agency": "Department of Sanitation",
    "final_address": "1812 Charbonnet St",
    "address_councildis": "E",
    "status": "Assigned to Contractor",
    "contractor": "Metro Disposal",
    "rowid": "847478",
    "final_x": "3699278.00676",
    "final_y": "536360.494727",
    "longitude": "-90.01175783967423",
    "latitude": "29.96825356024086",
    "geocoded_column": {
      "latitude": "29.96825356024086",
      "longitude": "-90.01175783967423"
    }
  },
  {
    "service_request": "2021-847476",
    "request_type": "Traffic Signals/Signs/Striping/Streetlights",
    "request_reason": "Additional signage",
    "date_created": "2021-12-11T11:46:40.000",
    "date_modified": "2021-12-11T11:46:40.000",
    "request_status": "Pending",
    "responsible_agency": "Department of Public Works",
    "final_address": "ADAMS ST & S CLAIBORNE AVE",
    "address_councildis": "A",
    "status": "Pending",
    "rowid": "847476",
    "final_x": "3665915.6",
    "final_y": "530520.88",
    "longitude": "-90.11731392194706",
    "latitude": "29.95321240676059",
    "geocoded_column": {
      "latitude": "29.95321240676059",
      "longitude": "-90.11731392194706"
    }
  },
  {
    "service_request": "2021-847474",
    "request_type": "Trash/Recycling",
    "request_reason": "Missed Trash Pick-Up",
    "date_created": "2021-12-11T11:22:34.000",
    "date_modified": "2021-12-11T12:00:40.000",
    "request_status": "Pending",
    "responsible_agency": "Department of Sanitation",
    "final_address": "324 S St Patrick St",
    "address_councildis": "A",
    "status": "Assigned to Contractor",
    "contractor": "Richards Disposal",
    "rowid": "847474",
    "final_x": "3668600.25972",
    "final_y": "539004.066378",
    "longitude": "-90.10855058369152",
    "latitude": "29.976459738768135",
    "geocoded_column": {
      "latitude": "29.976459738768135",
      "longitude": "-90.10855058369152"
    }
  },
  {
    "service_request": "2021-847473",
    "request_type": "Parks & Parkways",
    "request_reason": "Request Tree Service (Right of Way/Public Property)",
    "date_created": "2021-12-11T11:18:53.000",
    "date_modified": "2021-12-11T11:18:53.000",
    "request_status": "Pending",
    "responsible_agency": "Department of Parks & Parkway",
    "final_address": "1700 BLK Arts St",
    "address_councildis": "D",
    "status": "Pending",
    "rowid": "847473",
    "final_x": "3687013.82869",
    "final_y": "538874.39612",
    "longitude": "-90.05039966841302",
    "latitude": "29.97554915095204",
    "geocoded_column": {
      "latitude": "29.97554915095204",
      "longitude": "-90.05039966841302"
    }
  },
  {
    "service_request": "2021-847470",
    "request_type": "Traffic Signals/Signs/Striping/Streetlights",
    "request_reason": "Traffic Signal Malfunctioning/Damaged",
    "date_created": "2021-12-11T11:03:29.000",
    "date_modified": "2021-12-11T12:00:44.000",
    "request_status": "Pending",
    "responsible_agency": "Department of Public Works",
    "final_address": "Calliope St & St Charles Ave, New Orleans, Louisiana, 70130",
    "address_councildis": "B",
    "rowid": "847470",
    "final_x": "3679819.05",
    "final_y": "526554.96",
    "longitude": "-90.07355052352129",
    "latitude": "29.941894417235446",
    "geocoded_column": {
      "latitude": "29.941894417235446",
      "longitude": "-90.07355052352129"
    }
  },
  {
    "service_request": "2021-847469",
    "request_type": "Abandoned Vehicles",
    "request_reason": "Abandoned/Junk Vehicles",
    "date_created": "2021-12-11T11:00:57.000",
    "date_modified": "2021-12-11T11:00:57.000",
    "request_status": "Pending",
    "responsible_agency": "Department of Public Works",
    "final_address": "540 First St",
    "address_councildis": "B",
    "status": "Pending",
    "rowid": "847469",
    "final_x": "3679072.66165",
    "final_y": "519915.376312",
    "longitude": "-90.07613702568153",
    "latitude": "29.92366028667495",
    "geocoded_column": {
      "latitude": "29.92366028667495",
      "longitude": "-90.07613702568153"
    }
  },
  {
    "service_request": "2021-847467",
    "request_type": "Traffic Signals/Signs/Striping/Streetlights",
    "request_reason": "Street Light Outage/Malfunction",
    "date_created": "2021-12-11T10:55:31.000",
    "date_modified": "2021-12-11T10:55:32.000",
    "request_status": "Pending",
    "responsible_agency": "Department of Public Works",
    "final_address": "MARENGO ST & DRYADES ST",
    "address_councildis": "B",
    "status": "Pending",
    "contractor": "Royal Engineering",
    "rowid": "847467",
    "final_x": "3671853.5",
    "final_y": "522059.98",
    "longitude": "-90.09885238488384",
    "latitude": "29.929773080256794",
    "geocoded_column": {
      "latitude": "29.929773080256794",
      "longitude": "-90.09885238488384"
    }
  },
  {
    "service_request": "2021-847466",
    "request_type": "Trash/Recycling",
    "request_reason": "Request a Large Item Pick Up",
    "date_created": "2021-12-11T10:55:20.000",
    "date_modified": "2021-12-11T11:00:39.000",
    "request_status": "Pending",
    "responsible_agency": "Department of Sanitation",
    "final_address": "331 36Th St",
    "address_councildis": "A",
    "status": "Assigned to Contractor",
    "contractor": "Metro Disposal",
    "rowid": "847466",
    "final_x": "3665128.7042",
    "final_y": "551996.42063",
    "longitude": "-90.1190800166919",
    "latitude": "30.0122858548906",
    "geocoded_column": {
      "latitude": "30.0122858548906",
      "longitude": "-90.1190800166919"
    }
  },
  {
    "service_request": "2021-847465",
    "request_type": "Trash/Recycling",
    "request_reason": "Repair Trash Cart",
    "date_created": "2021-12-11T10:39:43.000",
    "date_modified": "2021-12-11T11:00:41.000",
    "request_status": "Pending",
    "responsible_agency": "Department of Sanitation",
    "final_address": "95 Fontainebleau Dr",
    "address_councildis": "B",
    "status": "Assigned to Contractor",
    "contractor": "Richards Disposal",
    "rowid": "847465",
    "final_x": "3667282.71642",
    "final_y": "530705.469122",
    "longitude": "-90.11299093651621",
    "latitude": "29.953680002264115",
    "geocoded_column": {
      "latitude": "29.953680002264115",
      "longitude": "-90.11299093651621"
    }
  },
  {
    "service_request": "2021-847462",
    "request_type": "Abandoned Vehicles",
    "request_reason": "Abandoned/Junk Vehicles",
    "date_created": "2021-12-11T10:36:19.000",
    "date_modified": "2021-12-11T10:36:19.000",
    "request_status": "Pending",
    "responsible_agency": "Department of Public Works",
    "final_address": "2600 Banks St",
    "address_councildis": "B",
    "status": "Pending",
    "rowid": "847462",
    "final_x": "3675016.30683",
    "final_y": "533772.105605",
    "longitude": "-90.0884662563443",
    "latitude": "29.961883486636783",
    "geocoded_column": {
      "latitude": "29.961883486636783",
      "longitude": "-90.0884662563443"
    }
  },
  {
    "service_request": "2021-847461",
    "request_type": "Abandoned Vehicles",
    "request_reason": "Abandoned/Junk Vehicles",
    "date_created": "2021-12-11T10:31:05.000",
    "date_modified": "2021-12-11T10:31:05.000",
    "request_status": "Pending",
    "responsible_agency": "Department of Public Works",
    "final_address": "2600 Banks St",
    "address_councildis": "B",
    "status": "Pending",
    "rowid": "847461",
    "final_x": "3675016.30683",
    "final_y": "533772.105605",
    "longitude": "-90.0884662563443",
    "latitude": "29.961883486636783",
    "geocoded_column": {
      "latitude": "29.961883486636783",
      "longitude": "-90.0884662563443"
    }
  },
  {
    "service_request": "2021-847460",
    "request_type": "Property Maintenance",
    "request_reason": "Property Maintenance",
    "date_created": "2021-12-11T10:25:53.000",
    "date_modified": "2021-12-11T10:25:53.000",
    "request_status": "Pending",
    "responsible_agency": "Department of Code Enforcement",
    "final_address": "3117 Orleans Ave",
    "address_councildis": "A",
    "status": "Pending",
    "rowid": "847460",
    "final_x": "3675204.84238",
    "final_y": "538266.268681",
    "longitude": "-90.08771661368836",
    "latitude": "29.97423527928678",
    "geocoded_column": {
      "latitude": "29.97423527928678",
      "longitude": "-90.08771661368836"
    }
  },
  {
    "service_request": "2021-847459",
    "request_type": "Traffic Signals/Signs/Striping/Streetlights",
    "request_reason": "Street Light Outage/Malfunction",
    "date_created": "2021-12-11T10:22:13.000",
    "date_modified": "2021-12-11T11:00:45.000",
    "request_status": "Pending",
    "responsible_agency": "Department of Public Works",
    "final_address": "2800 Upperline St",
    "address_councildis": "B",
    "status": "Pending",
    "contractor": "Royal Engineering",
    "rowid": "847459",
    "final_x": "3669167.51578",
    "final_y": "524989.592701",
    "longitude": "-90.10723263481977",
    "latitude": "29.937907871185672",
    "geocoded_column": {
      "latitude": "29.937907871185672",
      "longitude": "-90.10723263481977"
    }
  },
  {
    "service_request": "2021-847458",
    "request_type": "Trash/Recycling",
    "request_reason": "Missed Trash Pick-Up",
    "date_created": "2021-12-11T10:16:20.000",
    "date_modified": "2021-12-11T11:00:47.000",
    "request_status": "Pending",
    "responsible_agency": "Department of Sanitation",
    "final_address": "7085 Patterson Rd",
    "address_councildis": "C",
    "status": "Assigned to Contractor",
    "contractor": "Richards Disposal",
    "rowid": "847458",
    "final_x": "3710411.57905",
    "final_y": "519567.650615",
    "longitude": "-89.97722551554051",
    "latitude": "29.921721504848957",
    "geocoded_column": {
      "latitude": "29.921721504848957",
      "longitude": "-89.97722551554051"
    }
  },
  {
    "service_request": "2021-847457",
    "request_type": "Abandoned Vehicles",
    "request_reason": "Abandoned/Junk Vehicles",
    "date_created": "2021-12-11T10:12:39.000",
    "date_modified": "2021-12-11T11:00:50.000",
    "request_status": "Pending",
    "responsible_agency": "Department of Public Works",
    "final_address": "3724 Banks St",
    "address_councildis": "B",
    "status": "Pending",
    "rowid": "847457",
    "final_x": "3671402.32718",
    "final_y": "536506.201415",
    "longitude": "-90.09978571260238",
    "latitude": "29.969508800351328",
    "geocoded_column": {
      "latitude": "29.969508800351328",
      "longitude": "-90.09978571260238"
    }
  },
  {
    "service_request": "2021-847456",
    "request_type": "Traffic Signals/Signs/Striping/Streetlights",
    "request_reason": "Traffic Sign Missing/Damaged",
    "date_created": "2021-12-11T10:11:13.000",
    "date_modified": "2021-12-11T10:13:42.000",
    "request_status": "Pending",
    "responsible_agency": "Department of Public Works",
    "final_address": "700 S Peters St",
    "address_councildis": "B",
    "status": "Pending",
    "rowid": "847456",
    "final_x": "3682279.14312",
    "final_y": "527966.560575",
    "longitude": "-90.06573419823657",
    "latitude": "29.945701245317867",
    "geocoded_column": {
      "latitude": "29.945701245317867",
      "longitude": "-90.06573419823657"
    }
  },
  {
    "service_request": "2021-847453",
    "request_type": "Trash/Recycling",
    "request_reason": "Illegal Dumping",
    "date_created": "2021-12-11T09:56:09.000",
    "date_modified": "2021-12-11T09:56:09.000",
    "request_status": "Pending",
    "responsible_agency": "Department of Sanitation",
    "final_address": "11221 Old Gentilly Rd",
    "address_councildis": "E",
    "status": "Pending",
    "rowid": "847453",
    "final_x": "3717420.41919",
    "final_y": "554690.320664",
    "longitude": "-89.95376706950672",
    "latitude": "30.018065682811578",
    "geocoded_column": {
      "latitude": "30.018065682811578",
      "longitude": "-89.95376706950672"
    }
  },
  {
    "service_request": "2021-847452",
    "request_type": "Abandoned Vehicles",
    "request_reason": "Abandoned/Junk Vehicles",
    "date_created": "2021-12-11T09:49:19.000",
    "date_modified": "2021-12-11T10:00:20.000",
    "request_status": "Pending",
    "responsible_agency": "Department of Public Works",
    "final_address": "315 Tricou St",
    "address_councildis": "E",
    "status": "Pending",
    "rowid": "847452",
    "final_x": "3699140.25578",
    "final_y": "530501.472386",
    "longitude": "-90.01240616366826",
    "latitude": "29.952147702423566",
    "geocoded_column": {
      "latitude": "29.952147702423566",
      "longitude": "-90.01240616366826"
    }
  },
  {
    "service_request": "2021-847450",
    "request_type": "Trash/Recycling",
    "request_reason": "Repair Trash Cart",
    "date_created": "2021-12-11T09:40:00.000",
    "date_modified": "2021-12-11T09:40:00.000",
    "request_status": "Pending",
    "responsible_agency": "Department of Sanitation",
    "final_address": "6029 Perrier St",
    "address_councildis": "A",
    "status": "Assigned to Contractor",
    "contractor": "Richards Disposal",
    "rowid": "847450",
    "final_x": "3664913.01357",
    "final_y": "520649.840057",
    "longitude": "-90.12080949402394",
    "latitude": "29.92609941945013",
    "geocoded_column": {
      "latitude": "29.92609941945013",
      "longitude": "-90.12080949402394"
    }
  },
  {
    "service_request": "2021-847449",
    "request_type": "Trash/Recycling",
    "request_reason": "Request a Large Item Pick Up",
    "date_created": "2021-12-11T09:35:53.000",
    "date_modified": "2021-12-11T09:35:54.000",
    "request_status": "Pending",
    "responsible_agency": "Department of Sanitation",
    "final_address": "3125 Cambronne St",
    "address_councildis": "A",
    "status": "Assigned to Contractor",
    "contractor": "Richards Disposal",
    "rowid": "847449",
    "final_x": "3665905.19501",
    "final_y": "534238.760517",
    "longitude": "-90.11722218235055",
    "latitude": "29.96343566465797",
    "geocoded_column": {
      "latitude": "29.96343566465797",
      "longitude": "-90.11722218235055"
    }
  },
  {
    "service_request": "2021-847448",
    "request_type": "Property Maintenance",
    "request_reason": "Property Maintenance",
    "date_created": "2021-12-11T09:32:05.000",
    "date_modified": "2021-12-11T09:32:05.000",
    "request_status": "Pending",
    "responsible_agency": "Department of Code Enforcement",
    "final_address": "4423 Loyola Ave",
    "address_councildis": "B",
    "status": "Pending",
    "rowid": "847448",
    "final_x": "3670396.08538",
    "final_y": "523026.995707",
    "longitude": "-90.10342043482254",
    "latitude": "29.932475156974558",
    "geocoded_column": {
      "latitude": "29.932475156974558",
      "longitude": "-90.10342043482254"
    }
  },
  {
    "service_request": "2021-847447",
    "request_type": "Trash/Recycling",
    "request_reason": "Request a Large Item Pick Up",
    "date_created": "2021-12-11T09:28:39.000",
    "date_modified": "2021-12-11T09:28:40.000",
    "request_status": "Pending",
    "responsible_agency": "Department of Sanitation",
    "final_address": "919 Crystal St",
    "address_councildis": "D",
    "status": "Assigned to Contractor",
    "contractor": "Metro Disposal",
    "rowid": "847447",
    "final_x": "3671105.75259",
    "final_y": "556728.765978",
    "longitude": "-90.10003493055869",
    "latitude": "30.025122603992372",
    "geocoded_column": {
      "latitude": "30.025122603992372",
      "longitude": "-90.10003493055869"
    }
  },
  {
    "service_request": "2021-847446",
    "request_type": "Traffic Signals/Signs/Striping/Streetlights",
    "request_reason": "Street Light Knocked Down/Leaning",
    "date_created": "2021-12-11T09:25:52.000",
    "date_modified": "2021-12-11T09:25:53.000",
    "request_status": "Pending",
    "responsible_agency": "Department of Public Works",
    "final_address": "DESIRE ST & N ROBERTSON ST",
    "address_councildis": "D",
    "status": "Pending",
    "contractor": "Royal Engineering",
    "rowid": "847446",
    "final_x": "3690552.8",
    "final_y": "537201.18",
    "longitude": "-90.03928234424546",
    "latitude": "29.970838971820314",
    "geocoded_column": {
      "latitude": "29.970838971820314",
      "longitude": "-90.03928234424546"
    }
  },
  {
    "service_request": "2021-847444",
    "request_type": "Traffic Signals/Signs/Striping/Streetlights",
    "request_reason": "Traffic Signal Malfunctioning/Damaged",
    "date_created": "2021-12-11T09:11:35.000",
    "date_modified": "2021-12-11T09:11:36.000",
    "request_status": "Pending",
    "responsible_agency": "Department of Public Works",
    "final_address": "TENNESSEE ST & N CLAIBORNE AVE",
    "address_councildis": "E",
    "status": "Pending",
    "rowid": "847444",
    "final_x": "3696177.3",
    "final_y": "536095.98",
    "longitude": "-90.02155951871875",
    "latitude": "29.967624209323066",
    "geocoded_column": {
      "latitude": "29.967624209323066",
      "longitude": "-90.02155951871875"
    }
  },
  {
    "service_request": "2021-847443",
    "request_type": "Trash/Recycling",
    "request_reason": "Order Recycling Cart",
    "date_created": "2021-12-11T09:03:34.000",
    "date_modified": "2021-12-11T10:00:23.000",
    "request_status": "Pending",
    "responsible_agency": "Department of Sanitation",
    "final_address": "6124 Constance St",
    "address_councildis": "A",
    "status": "Pending",
    "rowid": "847443",
    "final_x": "3663860.94887",
    "final_y": "519125.441399",
    "longitude": "-90.12418135211985",
    "latitude": "29.92193837028346",
    "geocoded_column": {
      "latitude": "29.92193837028346",
      "longitude": "-90.12418135211985"
    }
  },
  {
    "service_request": "2021-847442",
    "request_type": "Traffic Signals/Signs/Striping/Streetlights",
    "request_reason": "Street Name Sign Damaged or Missing",
    "date_created": "2021-12-11T09:01:44.000",
    "date_modified": "2021-12-11T10:00:24.000",
    "request_status": "Pending",
    "responsible_agency": "Department of Public Works",
    "final_address": "MORRISON RD & MACKENZIE ST",
    "address_councildis": "E",
    "status": "Pending",
    "rowid": "847442",
    "final_x": "3711538.9",
    "final_y": "565309.38",
    "longitude": "-89.97195161564936",
    "latitude": "30.047457271692405",
    "geocoded_column": {
      "latitude": "30.047457271692405",
      "longitude": "-89.97195161564936"
    }
  },
  {
    "service_request": "2021-847440",
    "request_type": "Abandoned Vehicles",
    "request_reason": "Vehicle Blocking Your Driveway",
    "date_created": "2021-12-11T08:54:26.000",
    "date_modified": "2021-12-11T09:00:28.000",
    "request_status": "Pending",
    "responsible_agency": "Department of Public Works",
    "final_address": "230 Carondelet St",
    "address_councildis": "B",
    "status": "Pending",
    "rowid": "847440",
    "final_x": "3680577.68411",
    "final_y": "530260.842369",
    "longitude": "-90.07102646274123",
    "latitude": "29.95206139596962",
    "geocoded_column": {
      "latitude": "29.95206139596962",
      "longitude": "-90.07102646274123"
    }
  },
  {
    "service_request": "2021-847439",
    "request_type": "Mayor's Request",
    "request_reason": "Requests to the Mayor",
    "date_created": "2021-12-11T08:54:16.000",
    "date_modified": "2021-12-11T08:54:16.000",
    "request_status": "Pending",
    "responsible_agency": "Executive Office of the Mayor",
    "status": "Pending",
    "rowid": "847439",
    "longitude": "0.0",
    "latitude": "0.0",
    "geocoded_column": {
      "latitude": "0.0",
      "longitude": "0.0"
    }
  },
  {
    "service_request": "2021-847438",
    "request_type": "COVID-19",
    "request_reason": "COVID-19 Business Non-Compliance",
    "date_created": "2021-12-11T08:39:43.000",
    "date_modified": "2021-12-11T09:00:31.000",
    "request_status": "Pending",
    "responsible_agency": "Safety and Permits",
    "final_address": "3705 Coliseum St",
    "address_councildis": "B",
    "status": "Pending",
    "rowid": "847438",
    "final_x": "3673321.77467",
    "final_y": "520162.498104",
    "longitude": "-90.09428206164169",
    "latitude": "29.924512038006064",
    "geocoded_column": {
      "latitude": "29.924512038006064",
      "longitude": "-90.09428206164169"
    }
  },
  {
    "service_request": "2021-847437",
    "request_type": "Abandoned Vehicles",
    "request_reason": "Vehicle Blocking Your Driveway",
    "date_created": "2021-12-11T08:36:20.000",
    "date_modified": "2021-12-11T09:00:33.000",
    "request_status": "Pending",
    "responsible_agency": "Department of Public Works",
    "final_address": "977 Taft Pl",
    "address_councildis": "A",
    "status": "Pending",
    "rowid": "847437",
    "final_x": "3673856.42459",
    "final_y": "540665.299147",
    "longitude": "-90.09189314960383",
    "latitude": "29.980872030512426",
    "geocoded_column": {
      "latitude": "29.980872030512426",
      "longitude": "-90.09189314960383"
    }
  },
  {
    "service_request": "2021-847436",
    "request_type": "Abandoned Vehicles",
    "request_reason": "Vehicle Blocking Your Driveway",
    "date_created": "2021-12-11T08:29:29.000",
    "date_modified": "2021-12-11T09:00:36.000",
    "request_status": "Pending",
    "responsible_agency": "Department of Public Works",
    "final_address": "230 Carondelet St",
    "address_councildis": "B",
    "status": "Pending",
    "rowid": "847436",
    "final_x": "3680577.68411",
    "final_y": "530260.842369",
    "longitude": "-90.07102646274123",
    "latitude": "29.95206139596962",
    "geocoded_column": {
      "latitude": "29.95206139596962",
      "longitude": "-90.07102646274123"
    }
  },
  {
    "service_request": "2021-847435",
    "request_type": "Trash/Recycling",
    "request_reason": "Missed Trash Pick-Up",
    "date_created": "2021-12-11T08:01:39.000",
    "date_modified": "2021-12-11T08:01:40.000",
    "request_status": "Pending",
    "responsible_agency": "Department of Sanitation",
    "final_address": "136 S Solomon St",
    "address_councildis": "A",
    "status": "Assigned to Contractor",
    "contractor": "Richards Disposal",
    "rowid": "847435",
    "final_x": "3670446.15745",
    "final_y": "538394.501513",
    "longitude": "-90.1027413392566",
    "latitude": "29.97472925952119",
    "geocoded_column": {
      "latitude": "29.97472925952119",
      "longitude": "-90.1027413392566"
    }
  },
  {
    "service_request": "2021-847434",
    "request_type": "Traffic Signals/Signs/Striping/Streetlights",
    "request_reason": "Street Light Outage/Malfunction",
    "date_created": "2021-12-11T07:12:50.000",
    "date_modified": "2021-12-11T07:12:51.000",
    "request_status": "Pending",
    "responsible_agency": "Department of Public Works",
    "final_address": "5670 Rosemary Pl",
    "address_councildis": "A",
    "status": "Pending",
    "contractor": "Royal Engineering",
    "rowid": "847434",
    "final_x": "3667117.12986",
    "final_y": "545258.179535",
    "longitude": "-90.11302441326724",
    "latitude": "29.993699937158567",
    "geocoded_column": {
      "latitude": "29.993699937158567",
      "longitude": "-90.11302441326724"
    }
  },
  {
    "service_request": "2021-847433",
    "request_type": "Mosquito, Termite & Rodent Control",
    "request_reason": "Non-Rodent Complaint (Mice, Possums, Snakes)",
    "date_created": "2021-12-11T06:57:39.000",
    "date_modified": "2021-12-11T06:57:39.000",
    "request_status": "Pending",
    "responsible_agency": "Mosquito, Termite & Rodent Control Board",
    "final_address": "5700 Campus Blvd",
    "address_councildis": "D",
    "status": "Pending",
    "rowid": "847433",
    "final_x": "3688816.27164",
    "final_y": "554389.254616",
    "longitude": "-90.04415577851262",
    "latitude": "30.018153783504978",
    "geocoded_column": {
      "latitude": "30.018153783504978",
      "longitude": "-90.04415577851262"
    }
  },
  {
    "service_request": "2021-847432",
    "request_type": "Property Maintenance",
    "request_reason": "Property Maintenance",
    "date_created": "2021-12-11T06:54:38.000",
    "date_modified": "2021-12-11T06:54:38.000",
    "request_status": "Pending",
    "responsible_agency": "Department of Code Enforcement",
    "final_address": "5700 Campus Blvd",
    "address_councildis": "D",
    "status": "Pending",
    "rowid": "847432",
    "final_x": "3688816.27164",
    "final_y": "554389.254616",
    "longitude": "-90.04415577851262",
    "latitude": "30.018153783504978",
    "geocoded_column": {
      "latitude": "30.018153783504978",
      "longitude": "-90.04415577851262"
    }
  },
  {
    "service_request": "2021-847431",
    "request_type": "Property Maintenance",
    "request_reason": "Property Maintenance",
    "date_created": "2021-12-11T06:53:52.000",
    "date_modified": "2021-12-11T06:53:52.000",
    "request_status": "Pending",
    "responsible_agency": "Department of Code Enforcement",
    "final_address": "4747 Franklin Ave",
    "address_councildis": "D",
    "status": "Pending",
    "rowid": "847431",
    "final_x": "3686898.93359",
    "final_y": "550659.858644",
    "longitude": "-90.0503457697232",
    "latitude": "30.007958488991463",
    "geocoded_column": {
      "latitude": "30.007958488991463",
      "longitude": "-90.0503457697232"
    }
  },
  {
    "service_request": "2021-847430",
    "request_type": "Trash/Recycling",
    "request_reason": "Order Recycling Cart",
    "date_created": "2021-12-11T06:51:53.000",
    "date_modified": "2021-12-11T06:51:53.000",
    "request_status": "Pending",
    "responsible_agency": "Department of Sanitation",
    "final_address": "4023 Prentiss Ave",
    "address_councildis": "D",
    "status": "Pending",
    "rowid": "847430",
    "final_x": "3688762.30806",
    "final_y": "554363.101848",
    "longitude": "-90.04432721219374",
    "latitude": "30.01808354239693",
    "geocoded_column": {
      "latitude": "30.01808354239693",
      "longitude": "-90.04432721219374"
    }
  },
  {
    "service_request": "2021-847429",
    "request_type": "Trash/Recycling",
    "request_reason": "Order Trash Cart",
    "date_created": "2021-12-11T06:51:09.000",
    "date_modified": "2021-12-11T06:51:10.000",
    "request_status": "Pending",
    "responsible_agency": "Department of Sanitation",
    "final_address": "4023 Prentiss Ave",
    "address_councildis": "D",
    "status": "Assigned to Contractor",
    "contractor": "Metro Disposal",
    "rowid": "847429",
    "final_x": "3688762.30806",
    "final_y": "554363.101848",
    "longitude": "-90.04432721219374",
    "latitude": "30.01808354239693",
    "geocoded_column": {
      "latitude": "30.01808354239693",
      "longitude": "-90.04432721219374"
    }
  },
  {
    "service_request": "2021-847428",
    "request_type": "Roads/Drainage",
    "request_reason": "Bicycle Hazardous Incident Reporting",
    "date_created": "2021-12-11T06:17:20.000",
    "date_modified": "2021-12-11T06:17:20.000",
    "request_status": "Pending",
    "responsible_agency": "Health Department",
    "final_address": "7849 Read Blvd Apt 12",
    "address_councildis": "E",
    "status": "Pending",
    "rowid": "847428",
    "final_x": "3708429.38795",
    "final_y": "565267.44797",
    "longitude": "-89.98178086429685",
    "latitude": "30.047443191521047",
    "geocoded_column": {
      "latitude": "30.047443191521047",
      "longitude": "-89.98178086429685"
    }
  },
  {
    "service_request": "2021-847427",
    "request_type": "Abandoned Vehicles",
    "request_reason": "Vehicle Blocking Your Driveway",
    "date_created": "2021-12-11T00:31:40.000",
    "date_modified": "2021-12-11T01:00:30.000",
    "request_status": "Pending",
    "responsible_agency": "Department of Public Works",
    "final_address": "2617 Joseph St, New Orleans, Louisiana, 70115",
    "address_councildis": "A",
    "status": "Pending",
    "rowid": "847427",
    "final_x": "3667696.01818",
    "final_y": "525576.155645",
    "longitude": "-90.11185855089349",
    "latitude": "29.93956394418909",
    "geocoded_column": {
      "latitude": "29.93956394418909",
      "longitude": "-90.11185855089349"
    }
  },
  {
    "service_request": "2021-847426",
    "request_type": "Trash/Recycling",
    "request_reason": "Request a Large Item Pick Up",
    "date_created": "2021-12-10T23:55:59.000",
    "date_modified": "2021-12-10T23:56:00.000",
    "request_status": "Pending",
    "responsible_agency": "Department of Sanitation",
    "final_address": "2525 Palmyra St",
    "address_councildis": "B",
    "status": "Assigned to Contractor",
    "contractor": "Richards Disposal",
    "rowid": "847426",
    "final_x": "3675539.30011",
    "final_y": "534056.696453",
    "longitude": "-90.08680494772284",
    "latitude": "29.962650381921808",
    "geocoded_column": {
      "latitude": "29.962650381921808",
      "longitude": "-90.08680494772284"
    }
  },
  {
    "service_request": "2021-847425",
    "request_type": "Abandoned Vehicles",
    "request_reason": "Abandoned/Junk Vehicles",
    "date_created": "2021-12-10T23:27:08.000",
    "date_modified": "2021-12-10T23:27:08.000",
    "request_status": "Pending",
    "responsible_agency": "Department of Public Works",
    "final_address": "4600 Sandalwood St",
    "address_councildis": "E",
    "status": "Pending",
    "rowid": "847425",
    "final_x": "3712245.56165",
    "final_y": "555232.252825",
    "longitude": "-89.97009711568735",
    "latitude": "30.019726081811413",
    "geocoded_column": {
      "latitude": "30.019726081811413",
      "longitude": "-89.97009711568735"
    }
  },
  {
    "service_request": "2021-847424",
    "request_type": "COVID-19",
    "request_reason": "COVID-19 Business Non-Compliance",
    "date_created": "2021-12-10T23:23:25.000",
    "date_modified": "2021-12-10T23:23:26.000",
    "request_status": "Pending",
    "responsible_agency": "Safety and Permits",
    "final_address": "898 Baronne St",
    "address_councildis": "B",
    "status": "Pending",
    "rowid": "847424",
    "final_x": "3679513.39362",
    "final_y": "527697.883967",
    "longitude": "-90.07447590108141",
    "latitude": "29.945046314433363",
    "geocoded_column": {
      "latitude": "29.945046314433363",
      "longitude": "-90.07447590108141"
    }
  },
  {
    "service_request": "2021-847423",
    "request_type": "Mayor's Request",
    "request_reason": "Requests to the Mayor",
    "date_created": "2021-12-10T22:55:00.000",
    "date_modified": "2021-12-10T22:55:00.000",
    "request_status": "Pending",
    "responsible_agency": "Executive Office of the Mayor",
    "status": "Pending",
    "rowid": "847423",
    "longitude": "0.0",
    "latitude": "0.0",
    "geocoded_column": {
      "latitude": "0.0",
      "longitude": "0.0"
    }
  },
  {
    "service_request": "2021-847422",
    "request_type": "Traffic Signals/Signs/Striping/Streetlights",
    "request_reason": "Request for Traffic Calming due to Speeding",
    "date_created": "2021-12-10T22:41:12.000",
    "date_modified": "2021-12-10T22:41:12.000",
    "request_status": "Pending",
    "responsible_agency": "Department of Public Works",
    "final_address": "3032 Orleans Ave",
    "address_councildis": "A",
    "status": "Pending",
    "rowid": "847422",
    "final_x": "3675511.17934",
    "final_y": "537892.435337",
    "longitude": "-90.08676197357316",
    "latitude": "29.97319820491467",
    "geocoded_column": {
      "latitude": "29.97319820491467",
      "longitude": "-90.08676197357316"
    }
  },
  {
    "service_request": "2021-847420",
    "request_type": "Parks & Parkways",
    "request_reason": "Request Tree Service (Right of Way/Public Property)",
    "date_created": "2021-12-10T22:22:32.000",
    "date_modified": "2021-12-10T22:22:32.000",
    "request_status": "Pending",
    "responsible_agency": "Department of Parks & Parkway",
    "final_address": "2501 N Derbigny St",
    "address_councildis": "D",
    "status": "Pending",
    "rowid": "847420",
    "final_x": "3687064.48297",
    "final_y": "538727.122505",
    "longitude": "-90.05024489710529",
    "latitude": "29.975142640727455",
    "geocoded_column": {
      "latitude": "29.975142640727455",
      "longitude": "-90.05024489710529"
    }
  },
  {
    "service_request": "2021-847419",
    "request_type": "Health Related Questions",
    "request_reason": "Noise Ordinance Complaint",
    "date_created": "2021-12-10T22:16:40.000",
    "date_modified": "2021-12-10T23:01:34.000",
    "request_status": "Pending",
    "responsible_agency": "Health Department",
    "final_address": "718 Bourbon St, New Orleans, Louisiana, 70116",
    "address_councildis": "C",
    "status": "Pending",
    "rowid": "847419",
    "final_x": "3682364.17781",
    "final_y": "532746.008004",
    "longitude": "-90.06529872053143",
    "latitude": "29.95884052062511",
    "geocoded_column": {
      "latitude": "29.95884052062511",
      "longitude": "-90.06529872053143"
    }
  },
  {
    "service_request": "2021-847418",
    "request_type": "Health Related Questions",
    "request_reason": "Noise Ordinance Complaint",
    "date_created": "2021-12-10T21:54:54.000",
    "date_modified": "2021-12-10T21:54:54.000",
    "request_status": "Pending",
    "responsible_agency": "Health Department",
    "final_address": "550 Baronne St",
    "address_councildis": "B",
    "status": "Pending",
    "rowid": "847418",
    "final_x": "3679871.27515",
    "final_y": "529133.143296",
    "longitude": "-90.07329612681656",
    "latitude": "29.948981981496516",
    "geocoded_column": {
      "latitude": "29.948981981496516",
      "longitude": "-90.07329612681656"
    }
  },
  {
    "service_request": "2021-847417",
    "request_type": "Safety & Permits",
    "request_reason": "Licenses & Permits",
    "date_created": "2021-12-10T21:34:42.000",
    "date_modified": "2021-12-10T21:34:42.000",
    "request_status": "Pending",
    "responsible_agency": "Safety and Permits",
    "final_address": "5559 Milne St",
    "address_councildis": "A",
    "status": "Pending",
    "rowid": "847417",
    "final_x": "3666834.72148",
    "final_y": "544196.050318",
    "longitude": "-90.11395220647341",
    "latitude": "29.99078771160649",
    "geocoded_column": {
      "latitude": "29.99078771160649",
      "longitude": "-90.11395220647341"
    }
  },
  {
    "service_request": "2021-847416",
    "request_type": "Mayor's Request",
    "request_reason": "Requests to the Mayor",
    "date_created": "2021-12-10T21:22:27.000",
    "date_modified": "2021-12-10T21:22:27.000",
    "request_status": "Pending",
    "responsible_agency": "Executive Office of the Mayor",
    "status": "Pending",
    "rowid": "847416",
    "longitude": "0.0",
    "latitude": "0.0",
    "geocoded_column": {
      "latitude": "0.0",
      "longitude": "0.0"
    }
  },
  {
    "service_request": "2021-847415",
    "request_type": "Traffic Signals/Signs/Striping/Streetlights",
    "request_reason": "Traffic Signal Malfunctioning/Damaged",
    "date_created": "2021-12-10T21:02:32.000",
    "date_modified": "2021-12-10T21:02:32.000",
    "request_status": "Pending",
    "responsible_agency": "Department of Public Works",
    "final_address": "MAGAZINE ST & HENRY CLAY AVE",
    "address_councildis": "A",
    "status": "Pending",
    "rowid": "847415",
    "final_x": "3663792.1",
    "final_y": "519586.38",
    "longitude": "-90.1243833286967",
    "latitude": "29.923207804965596",
    "geocoded_column": {
      "latitude": "29.923207804965596",
      "longitude": "-90.1243833286967"
    }
  },
  {
    "service_request": "2021-847414",
    "request_type": "Traffic Signals/Signs/Striping/Streetlights",
    "request_reason": "Street Light Outage/Malfunction",
    "date_created": "2021-12-10T20:55:18.000",
    "date_modified": "2021-12-10T20:55:19.000",
    "request_status": "Pending",
    "responsible_agency": "Department of Public Works",
    "final_address": "212 S Olympia St",
    "address_councildis": "A",
    "status": "Pending",
    "contractor": "Royal Engineering",
    "rowid": "847414",
    "final_x": "3669138.55713",
    "final_y": "539124.291274",
    "longitude": "-90.10684640773812",
    "latitude": "29.97677448464722",
    "geocoded_column": {
      "latitude": "29.97677448464722",
      "longitude": "-90.10684640773812"
    }
  },
  {
    "service_request": "2021-847413",
    "request_type": "Safety & Permits",
    "request_reason": "Licenses & Permits",
    "date_created": "2021-12-10T20:52:39.000",
    "date_modified": "2021-12-10T20:52:39.000",
    "request_status": "Pending",
    "responsible_agency": "Safety and Permits",
    "final_address": "239 Decatur St",
    "address_councildis": "C",
    "status": "Pending",
    "rowid": "847413",
    "final_x": "3682195.63317",
    "final_y": "530830.069826",
    "longitude": "-90.06589786183099",
    "latitude": "29.95357746948798",
    "geocoded_column": {
      "latitude": "29.95357746948798",
      "longitude": "-90.06589786183099"
    }
  },
  {
    "service_request": "2021-847412",
    "request_type": "Health Related Questions",
    "request_reason": "Noise Ordinance Complaint",
    "date_created": "2021-12-10T20:49:30.000",
    "date_modified": "2021-12-10T20:49:30.000",
    "request_status": "Pending",
    "responsible_agency": "Health Department",
    "final_address": "239 Decatur St",
    "address_councildis": "C",
    "status": "Pending",
    "rowid": "847412",
    "final_x": "3682195.63317",
    "final_y": "530830.069826",
    "longitude": "-90.06589786183099",
    "latitude": "29.95357746948798",
    "geocoded_column": {
      "latitude": "29.95357746948798",
      "longitude": "-90.06589786183099"
    }
  },
  {
    "service_request": "2021-847411",
    "request_type": "Health Related Questions",
    "request_reason": "Noise Ordinance Complaint",
    "date_created": "2021-12-10T20:31:38.000",
    "date_modified": "2021-12-10T21:00:50.000",
    "request_status": "Pending",
    "responsible_agency": "Health Department",
    "final_address": "916 Broadway St, New Orleans, Louisiana, 70118",
    "address_councildis": "B",
    "status": "Pending",
    "rowid": "847411",
    "final_x": "3667583.23713",
    "final_y": "531749.671363",
    "longitude": "-90.11200687061496",
    "latitude": "29.95654241244522",
    "geocoded_column": {
      "latitude": "29.95654241244522",
      "longitude": "-90.11200687061496"
    }
  },
  {
    "service_request": "2021-847410",
    "request_type": "Trash/Recycling",
    "request_reason": "Illegal Dumping",
    "date_created": "2021-12-10T20:28:53.000",
    "date_modified": "2021-12-10T20:28:53.000",
    "request_status": "Pending",
    "responsible_agency": "Department of Sanitation",
    "final_address": "1827 N Roman St",
    "address_councildis": "D",
    "status": "Pending",
    "rowid": "847410",
    "final_x": "3683157.57557",
    "final_y": "538788.317129",
    "longitude": "-90.06258177483085",
    "latitude": "29.97543062009753",
    "geocoded_column": {
      "latitude": "29.97543062009753",
      "longitude": "-90.06258177483085"
    }
  },
  {
    "service_request": "2021-847409",
    "request_type": "Trash/Recycling",
    "request_reason": "Illegal Dumping",
    "date_created": "2021-12-10T20:01:44.000",
    "date_modified": "2021-12-10T20:01:44.000",
    "request_status": "Pending",
    "responsible_agency": "Department of Sanitation",
    "final_address": "934 Burgundy St",
    "address_councildis": "C",
    "status": "Pending",
    "rowid": "847409",
    "final_x": "3682331.0086",
    "final_y": "533910.011013",
    "longitude": "-90.06536278643355",
    "latitude": "29.962042140439443",
    "geocoded_column": {
      "latitude": "29.962042140439443",
      "longitude": "-90.06536278643355"
    }
  },
  {
    "service_request": "2021-847408",
    "request_type": "Trash/Recycling",
    "request_reason": "Missed Trash Pick-Up",
    "date_created": "2021-12-10T20:01:32.000",
    "date_modified": "2021-12-10T20:01:33.000",
    "request_status": "Pending",
    "responsible_agency": "Department of Sanitation",
    "final_address": "933 N Villere St",
    "address_councildis": "C",
    "status": "Assigned to Contractor",
    "contractor": "Richards Disposal",
    "rowid": "847408",
    "final_x": "3680870.94383",
    "final_y": "535019.457414",
    "longitude": "-90.06993481631078",
    "latitude": "29.965137084062658",
    "geocoded_column": {
      "latitude": "29.965137084062658",
      "longitude": "-90.06993481631078"
    }
  },
  {
    "service_request": "2021-847407",
    "request_type": "Trash/Recycling",
    "request_reason": "Request a Large Item Pick Up",
    "date_created": "2021-12-10T19:59:53.000",
    "date_modified": "2021-12-10T20:01:22.000",
    "request_status": "Pending",
    "responsible_agency": "Department of Sanitation",
    "final_address": "4423 DHemecourt St",
    "address_councildis": "A",
    "status": "Assigned to Contractor",
    "contractor": "Richards Disposal",
    "rowid": "847407",
    "final_x": "3668697.77018",
    "final_y": "537809.17332",
    "longitude": "-90.10828296228458",
    "latitude": "29.973171318173772",
    "geocoded_column": {
      "latitude": "29.973171318173772",
      "longitude": "-90.10828296228458"
    }
  },
  {
    "service_request": "2021-847406",
    "request_type": "Trash/Recycling",
    "request_reason": "Illegal Dumping",
    "date_created": "2021-12-10T19:47:43.000",
    "date_modified": "2021-12-10T19:47:43.000",
    "request_status": "Pending",
    "responsible_agency": "Department of Sanitation",
    "final_address": "3663 Behrman Pl",
    "address_councildis": "C",
    "status": "Pending",
    "rowid": "847406",
    "final_x": "3697538.6824",
    "final_y": "517730.586934",
    "longitude": "-90.01792607581157",
    "latitude": "29.917082843058076",
    "geocoded_column": {
      "latitude": "29.917082843058076",
      "longitude": "-90.01792607581157"
    }
  },
  {
    "service_request": "2021-847405",
    "request_type": "Trash/Recycling",
    "request_reason": "Request a Large Item Pick Up",
    "date_created": "2021-12-10T19:40:22.000",
    "date_modified": "2021-12-10T20:01:26.000",
    "request_status": "Pending",
    "responsible_agency": "Department of Sanitation",
    "final_address": "New Orleans,LA",
    "address_councildis": "D",
    "status": "Assigned to Contractor",
    "contractor": "Metro Disposal",
    "rowid": "847405",
    "final_x": "3676967.32635",
    "final_y": "551297.148373",
    "longitude": "-90.08170073276169",
    "latitude": "30.010012838461336",
    "geocoded_column": {
      "latitude": "30.010012838461336",
      "longitude": "-90.08170073276169"
    }
  },
  {
    "service_request": "2021-847404",
    "request_type": "Mayor's Request",
    "request_reason": "Requests to the Mayor",
    "date_created": "2021-12-10T19:25:53.000",
    "date_modified": "2021-12-10T19:25:53.000",
    "request_status": "Pending",
    "responsible_agency": "Executive Office of the Mayor",
    "status": "Pending",
    "rowid": "847404",
    "longitude": "0.0",
    "latitude": "0.0",
    "geocoded_column": {
      "latitude": "0.0",
      "longitude": "0.0"
    }
  },
  {
    "service_request": "2021-847403",
    "request_type": "Property Maintenance",
    "request_reason": "Property Maintenance",
    "date_created": "2021-12-10T18:59:06.000",
    "date_modified": "2021-12-10T18:59:06.000",
    "request_status": "Pending",
    "responsible_agency": "Department of Code Enforcement",
    "final_address": "1429 Spain St",
    "address_councildis": "C",
    "status": "Pending",
    "rowid": "847403",
    "final_x": "3686056.39337",
    "final_y": "537738.777416",
    "longitude": "-90.05346356687937",
    "latitude": "29.972456038347676",
    "geocoded_column": {
      "latitude": "29.972456038347676",
      "longitude": "-90.05346356687937"
    }
  },
  {
    "service_request": "2021-847402",
    "request_type": "Trash/Recycling",
    "request_reason": "Replace Trash Cart",
    "date_created": "2021-12-10T18:37:53.000",
    "date_modified": "2021-12-10T18:37:53.000",
    "request_status": "Pending",
    "responsible_agency": "Department of Sanitation",
    "final_address": "1124 St Charles Ave",
    "address_councildis": "B",
    "status": "Assigned to Contractor",
    "contractor": "Richards Disposal",
    "rowid": "847402",
    "final_x": "3679882.49973",
    "final_y": "526445.416574",
    "longitude": "-90.07335400248864",
    "latitude": "29.94159129094358",
    "geocoded_column": {
      "latitude": "29.94159129094358",
      "longitude": "-90.07335400248864"
    }
  },
  {
    "service_request": "2021-847401",
    "request_type": "Trash/Recycling",
    "request_reason": "Missed Trash Pick-Up",
    "date_created": "2021-12-10T18:29:19.000",
    "date_modified": "2021-12-10T19:00:42.000",
    "request_status": "Pending",
    "responsible_agency": "Department of Sanitation",
    "final_address": "5222 Orleans Ave, New Orleans, Louisiana, 70124",
    "address_councildis": "A",
    "status": "Assigned to Contractor",
    "contractor": "Metro Disposal",
    "rowid": "847401",
    "final_x": "3670514.97991",
    "final_y": "543807.349902",
    "longitude": "-90.10234032473844",
    "latitude": "29.989610716769043",
    "geocoded_column": {
      "latitude": "29.989610716769043",
      "longitude": "-90.10234032473844"
    }
  },
  {
    "service_request": "2021-847399",
    "request_type": "Traffic Signals/Signs/Striping/Streetlights",
    "request_reason": "Traffic Sign Missing/Damaged",
    "date_created": "2021-12-10T18:11:34.000",
    "date_modified": "2021-12-10T19:00:46.000",
    "request_status": "Pending",
    "responsible_agency": "Department of Public Works",
    "final_address": "3803 Dauphine St",
    "address_councildis": "C",
    "status": "Pending",
    "rowid": "847399",
    "final_x": "3690982.04092",
    "final_y": "534321.657285",
    "longitude": "-90.03802955334237",
    "latitude": "29.962907960329975",
    "geocoded_column": {
      "latitude": "29.962907960329975",
      "longitude": "-90.03802955334237"
    }
  },
  {
    "service_request": "2021-847398",
    "request_type": "Mayor's Request",
    "request_reason": "Requests to the Mayor",
    "date_created": "2021-12-10T17:56:49.000",
    "date_modified": "2021-12-10T17:56:49.000",
    "request_status": "Pending",
    "responsible_agency": "Executive Office of the Mayor",
    "final_address": "909 Semmes St",
    "address_councildis": "C",
    "status": "Pending",
    "rowid": "847398",
    "final_x": "3688528.59747",
    "final_y": "524025.1831",
    "longitude": "-90.04614245762163",
    "latitude": "29.934672215766103",
    "geocoded_column": {
      "latitude": "29.934672215766103",
      "longitude": "-90.04614245762163"
    }
  },
  {
    "service_request": "2021-847397",
    "request_type": "Traffic Signals/Signs/Striping/Streetlights",
    "request_reason": "Street Light Outage/Malfunction",
    "date_created": "2021-12-10T17:43:36.000",
    "date_modified": "2021-12-10T17:43:37.000",
    "request_status": "Pending",
    "responsible_agency": "Department of Public Works",
    "final_address": "5948 General Haig St",
    "address_councildis": "A",
    "status": "Pending",
    "contractor": "Royal Engineering",
    "rowid": "847397",
    "final_x": "3670438.57499",
    "final_y": "546847.049937",
    "longitude": "-90.10247852763067",
    "latitude": "29.997971099204474",
    "geocoded_column": {
      "latitude": "29.997971099204474",
      "longitude": "-90.10247852763067"
    }
  },
  {
    "service_request": "2021-847396",
    "request_type": "Property Maintenance",
    "request_reason": "Property Maintenance",
    "date_created": "2021-12-10T17:34:49.000",
    "date_modified": "2021-12-10T17:34:49.000",
    "request_status": "Pending",
    "responsible_agency": "Department of Code Enforcement",
    "final_address": "4716 Clio St",
    "address_councildis": "B",
    "status": "Pending",
    "rowid": "847396",
    "final_x": "3669573.16852",
    "final_y": "532701.238724",
    "longitude": "-90.10569110736881",
    "latitude": "29.959100437438412",
    "geocoded_column": {
      "latitude": "29.959100437438412",
      "longitude": "-90.10569110736881"
    }
  },
  {
    "service_request": "2021-847395",
    "request_type": "Roads/Drainage",
    "request_reason": "Pothole",
    "date_created": "2021-12-10T17:29:13.000",
    "date_modified": "2021-12-10T17:29:13.000",
    "request_status": "Pending",
    "responsible_agency": "Department of Public Works",
    "final_address": "3001 Perdido St",
    "address_councildis": "B",
    "status": "Pending",
    "rowid": "847395",
    "final_x": "3672582.61275",
    "final_y": "533613.706437",
    "longitude": "-90.09615689379773",
    "latitude": "29.961520419056246",
    "geocoded_column": {
      "latitude": "29.961520419056246",
      "longitude": "-90.09615689379773"
    }
  },
  {
    "service_request": "2021-847394",
    "request_type": "Traffic Signals/Signs/Striping/Streetlights",
    "request_reason": "Street Light Outage/Malfunction",
    "date_created": "2021-12-10T17:22:05.000",
    "date_modified": "2021-12-10T18:00:31.000",
    "case_close_date": "2019-12-03T18:00:00.000",
    "request_status": "Pending",
    "responsible_agency": "Department of Public Works",
    "final_address": "100 BLK Carondelet St",
    "address_councildis": "B",
    "status": "Pending",
    "contractor": "Royal Engineering",
    "rowid": "847394",
    "final_x": "3680742.99215",
    "final_y": "530680.892822",
    "longitude": "-90.07048988014087",
    "latitude": "29.95321138455006",
    "geocoded_column": {
      "latitude": "29.95321138455006",
      "longitude": "-90.07048988014087"
    }
  },
  {
    "service_request": "2021-847393",
    "request_type": "Traffic Signals/Signs/Striping/Streetlights",
    "request_reason": "Street Light Outage/Malfunction",
    "date_created": "2021-12-10T17:13:57.000",
    "date_modified": "2021-12-10T18:00:34.000",
    "case_close_date": "2019-12-03T18:00:00.000",
    "request_status": "Pending",
    "responsible_agency": "Department of Public Works",
    "final_address": "100 BLK Carondelet St",
    "address_councildis": "B",
    "status": "Pending",
    "contractor": "Royal Engineering",
    "rowid": "847393",
    "final_x": "3680742.99215",
    "final_y": "530680.892822",
    "longitude": "-90.07048988014087",
    "latitude": "29.95321138455006",
    "geocoded_column": {
      "latitude": "29.95321138455006",
      "longitude": "-90.07048988014087"
    }
  },
  {
    "service_request": "2021-847392",
    "request_type": "Trash/Recycling",
    "request_reason": "Repair Trash Cart",
    "date_created": "2021-12-10T17:05:28.000",
    "date_modified": "2021-12-10T17:05:29.000",
    "request_status": "Pending",
    "responsible_agency": "Department of Sanitation",
    "final_address": "2320 Lowerline St",
    "address_councildis": "A",
    "status": "Assigned to Contractor",
    "contractor": "Richards Disposal",
    "rowid": "847392",
    "final_x": "3665907.86106",
    "final_y": "530219.933697",
    "longitude": "-90.11734844258233",
    "latitude": "29.952385128138477",
    "geocoded_column": {
      "latitude": "29.952385128138477",
      "longitude": "-90.11734844258233"
    }
  },
  {
    "service_request": "2021-847391",
    "request_type": "Trash/Recycling",
    "request_reason": "Illegal Dumping",
    "date_created": "2021-12-10T17:01:08.000",
    "date_modified": "2021-12-10T18:00:36.000",
    "request_status": "Pending",
    "responsible_agency": "Department of Code Enforcement",
    "final_address": "3400 BLK General Taylor St",
    "address_councildis": "B",
    "status": "Pending",
    "rowid": "847391",
    "final_x": "3671121.39033",
    "final_y": "527475.626267",
    "longitude": "-90.10097966274783",
    "latitude": "29.944686022246696",
    "geocoded_column": {
      "latitude": "29.944686022246696",
      "longitude": "-90.10097966274783"
    }
  },
  {
    "service_request": "2021-847390",
    "request_type": "Trash/Recycling",
    "request_reason": "Order Recycling Cart",
    "date_created": "2021-12-10T16:59:26.000",
    "date_modified": "2021-12-10T17:00:46.000",
    "request_status": "Pending",
    "responsible_agency": "Department of Sanitation",
    "final_address": "234 Topaz St",
    "address_councildis": "D",
    "status": "Pending",
    "rowid": "847390",
    "final_x": "3667412.31546",
    "final_y": "556295.912922",
    "longitude": "-90.11172024074024",
    "latitude": "30.024041202521847",
    "geocoded_column": {
      "latitude": "30.024041202521847",
      "longitude": "-90.11172024074024"
    }
  },
  {
    "service_request": "2021-847389",
    "request_type": "Trash/Recycling",
    "request_reason": "Missed Trash Pick-Up",
    "date_created": "2021-12-10T16:50:39.000",
    "date_modified": "2021-12-10T17:00:48.000",
    "request_status": "Pending",
    "responsible_agency": "Department of Sanitation",
    "final_address": "622 Nashville Ave, New Orleans, Louisiana, 70115",
    "address_councildis": "A",
    "status": "Assigned to Contractor",
    "contractor": "Richards Disposal",
    "rowid": "847389",
    "final_x": "3665331.76192",
    "final_y": "518538.530295",
    "longitude": "-90.11955822089102",
    "latitude": "29.920281789372734",
    "geocoded_column": {
      "latitude": "29.920281789372734",
      "longitude": "-90.11955822089102"
    }
  },
  {
    "service_request": "2021-847388",
    "request_type": "Trash/Recycling",
    "request_reason": "Missed Trash Pick-Up",
    "date_created": "2021-12-10T16:42:21.000",
    "date_modified": "2021-12-10T16:42:23.000",
    "request_status": "Pending",
    "responsible_agency": "Department of Sanitation",
    "final_address": "3421 Chestnut St",
    "address_councildis": "B",
    "status": "Assigned to Contractor",
    "contractor": "Richards Disposal",
    "rowid": "847388",
    "final_x": "3674540.20929",
    "final_y": "520265.839032",
    "longitude": "-90.0904323341557",
    "latitude": "29.92475990769322",
    "geocoded_column": {
      "latitude": "29.92475990769322",
      "longitude": "-90.0904323341557"
    }
  },
  {
    "service_request": "2021-847387",
    "request_type": "Trash/Recycling",
    "request_reason": "Replace Trash Cart",
    "date_created": "2021-12-10T16:23:45.000",
    "date_modified": "2021-12-10T17:00:50.000",
    "request_status": "Pending",
    "responsible_agency": "Department of Sanitation",
    "final_address": "1115 Casa Calvo St",
    "address_councildis": "C",
    "status": "Assigned to Contractor",
    "contractor": "Richards Disposal",
    "rowid": "847387",
    "final_x": "3692065.88739",
    "final_y": "527209.520191",
    "longitude": "-90.03486142452067",
    "latitude": "29.94331831825191",
    "geocoded_column": {
      "latitude": "29.94331831825191",
      "longitude": "-90.03486142452067"
    }
  },
  {
    "service_request": "2021-847386",
    "request_type": "Trash/Recycling",
    "request_reason": "Order Trash Cart",
    "date_created": "2021-12-10T16:03:46.000",
    "date_modified": "2021-12-10T17:00:52.000",
    "request_status": "Pending",
    "responsible_agency": "Department of Sanitation",
    "final_address": "2624 Port St",
    "address_councildis": "D",
    "status": "Assigned to Contractor",
    "contractor": "Metro Disposal",
    "rowid": "847386",
    "final_x": "3688889.92521",
    "final_y": "542265.454093",
    "longitude": "-90.04435398053415",
    "latitude": "29.984815464940162",
    "geocoded_column": {
      "latitude": "29.984815464940162",
      "longitude": "-90.04435398053415"
    }
  },
  {
    "service_request": "2021-847384",
    "request_type": "Trash/Recycling",
    "request_reason": "Order Trash Cart",
    "date_created": "2021-12-10T16:02:26.000",
    "date_modified": "2021-12-10T16:02:26.000",
    "request_status": "Pending",
    "responsible_agency": "Department of Sanitation",
    "final_address": "1977 Murl St",
    "address_councildis": "C",
    "status": "Assigned to Contractor",
    "contractor": "Richards Disposal",
    "rowid": "847384",
    "final_x": "3695177.10742",
    "final_y": "523327.259259",
    "longitude": "-90.02517849462434",
    "latitude": "29.932546126406233",
    "geocoded_column": {
      "latitude": "29.932546126406233",
      "longitude": "-90.02517849462434"
    }
  },
  {
    "service_request": "2021-847383",
    "request_type": "Trash/Recycling",
    "request_reason": "Request a Large Item Pick Up",
    "date_created": "2021-12-10T15:59:55.000",
    "date_modified": "2021-12-10T15:59:56.000",
    "request_status": "Pending",
    "responsible_agency": "Department of Sanitation",
    "final_address": "518 Upperline St",
    "address_councildis": "B",
    "status": "Assigned to Contractor",
    "contractor": "Richards Disposal",
    "rowid": "847383",
    "final_x": "3668920.04679",
    "final_y": "517377.548789",
    "longitude": "-90.10827085168047",
    "latitude": "29.916984452414162",
    "geocoded_column": {
      "latitude": "29.916984452414162",
      "longitude": "-90.10827085168047"
    }
  },
  {
    "service_request": "2021-847382",
    "request_type": "Abandoned Vehicles",
    "request_reason": "Abandoned/Junk Vehicles",
    "date_created": "2021-12-10T15:49:53.000",
    "date_modified": "2021-12-10T15:49:53.000",
    "request_status": "Pending",
    "responsible_agency": "Department of Public Works",
    "final_address": "3600 BLK Pine St",
    "address_councildis": "B",
    "status": "Pending",
    "rowid": "847382",
    "final_x": "3668791.0948",
    "final_y": "533834.644717",
    "longitude": "-90.10812244209342",
    "latitude": "29.96223994562989",
    "geocoded_column": {
      "latitude": "29.96223994562989",
      "longitude": "-90.10812244209342"
    }
  },
  {
    "service_request": "2021-847381",
    "request_type": "Trash/Recycling",
    "request_reason": "Illegal Dumping",
    "date_created": "2021-12-10T15:49:02.000",
    "date_modified": "2021-12-10T16:00:42.000",
    "request_status": "Pending",
    "responsible_agency": "Department of Sanitation",
    "final_address": "6700 Bundy Rd",
    "address_councildis": "E",
    "status": "Pending",
    "rowid": "847381",
    "final_x": "3707873.14872",
    "final_y": "559000.702684",
    "longitude": "-89.9837721485914",
    "latitude": "30.030230157086496",
    "geocoded_column": {
      "latitude": "30.030230157086496",
      "longitude": "-89.9837721485914"
    }
  },
  {
    "service_request": "2021-847380",
    "request_type": "Trash/Recycling",
    "request_reason": "Missed Trash Pick-Up",
    "date_created": "2021-12-10T15:41:06.000",
    "date_modified": "2021-12-10T16:00:44.000",
    "request_status": "Pending",
    "responsible_agency": "Department of Sanitation",
    "final_address": "5222 Orleans Ave, New Orleans, Louisiana, 70124",
    "address_councildis": "A",
    "status": "Assigned to Contractor",
    "contractor": "Metro Disposal",
    "rowid": "847380",
    "final_x": "3670514.97991",
    "final_y": "543807.349902",
    "longitude": "-90.10234032473844",
    "latitude": "29.989610716769043",
    "geocoded_column": {
      "latitude": "29.989610716769043",
      "longitude": "-90.10234032473844"
    }
  },
  {
    "service_request": "2021-847377",
    "request_type": "Abandoned Vehicles",
    "request_reason": "Abandoned/Junk Vehicles",
    "date_created": "2021-12-10T15:27:25.000",
    "date_modified": "2021-12-10T16:00:49.000",
    "request_status": "Pending",
    "responsible_agency": "Department of Public Works",
    "final_address": "5915 Spain St",
    "address_councildis": "D",
    "status": "Pending",
    "rowid": "847377",
    "final_x": "3684735.27669",
    "final_y": "554842.71292",
    "longitude": "-90.05703420642139",
    "latitude": "30.01952624519802",
    "geocoded_column": {
      "latitude": "30.01952624519802",
      "longitude": "-90.05703420642139"
    }
  },
  {
    "service_request": "2021-847376",
    "request_type": "Trash/Recycling",
    "request_reason": "Repair Trash Cart",
    "date_created": "2021-12-10T15:26:21.000",
    "date_modified": "2021-12-10T16:00:52.000",
    "request_status": "Pending",
    "responsible_agency": "Department of Sanitation",
    "final_address": "729 State St, New Orleans, Louisiana, 70118",
    "address_councildis": "A",
    "status": "Assigned to Contractor",
    "contractor": "Richards Disposal",
    "rowid": "847376",
    "final_x": "3664721.16154",
    "final_y": "519087.510967",
    "longitude": "-90.1214672779465",
    "latitude": "29.921809085438234",
    "geocoded_column": {
      "latitude": "29.921809085438234",
      "longitude": "-90.1214672779465"
    }
  },
  {
    "service_request": "2021-847375",
    "request_type": "Property Maintenance",
    "request_reason": "Property Maintenance",
    "date_created": "2021-12-10T15:23:59.000",
    "date_modified": "2021-12-10T16:00:53.000",
    "request_status": "Pending",
    "responsible_agency": "Department of Code Enforcement",
    "final_address": "5125 St Claude Ave",
    "address_councildis": "E",
    "status": "Pending",
    "rowid": "847375",
    "final_x": "3696496.59952",
    "final_y": "534305.427909",
    "longitude": "-90.0206159497999",
    "latitude": "29.962690772905088",
    "geocoded_column": {
      "latitude": "29.962690772905088",
      "longitude": "-90.0206159497999"
    }
  },
  {
    "service_request": "2021-847374",
    "request_type": "Trash/Recycling",
    "request_reason": "Request a Large Item Pick Up",
    "date_created": "2021-12-10T15:17:09.000",
    "date_modified": "2021-12-10T16:00:55.000",
    "request_status": "Pending",
    "responsible_agency": "Department of Sanitation",
    "final_address": "5100 Toulon St",
    "address_councildis": "E",
    "status": "Assigned to Contractor",
    "contractor": "Metro Disposal",
    "rowid": "847374",
    "final_x": "3723573.53273",
    "final_y": "561740.679775",
    "longitude": "-89.9340538046524",
    "latitude": "30.037246174569287",
    "geocoded_column": {
      "latitude": "30.037246174569287",
      "longitude": "-89.9340538046524"
    }
  },
  {
    "service_request": "2021-847373",
    "request_type": "Trash/Recycling",
    "request_reason": "Illegal Dumping",
    "date_created": "2021-12-10T15:10:00.000",
    "date_modified": "2021-12-10T15:10:00.000",
    "request_status": "Pending",
    "responsible_agency": "Department of Sanitation",
    "final_address": "4022 S Derbigny St",
    "address_councildis": "B",
    "status": "Pending",
    "rowid": "847373",
    "final_x": "3671549.64033",
    "final_y": "526341.905854",
    "longitude": "-90.09966608539447",
    "latitude": "29.941555989432814",
    "geocoded_column": {
      "latitude": "29.941555989432814",
      "longitude": "-90.09966608539447"
    }
  },
  {
    "service_request": "2021-847372",
    "request_type": "Traffic Signals/Signs/Striping/Streetlights",
    "request_reason": "Street Light Outage/Malfunction",
    "date_created": "2021-12-10T15:07:07.000",
    "date_modified": "2021-12-10T16:00:57.000",
    "request_status": "Pending",
    "responsible_agency": "Department of Public Works",
    "final_address": "4335 Prytania St",
    "address_councildis": "B",
    "status": "Pending",
    "contractor": "Royal Engineering",
    "rowid": "847372",
    "final_x": "3671050.30811",
    "final_y": "520376.651192",
    "longitude": "-90.10144505868888",
    "latitude": "29.925168233987975",
    "geocoded_column": {
      "latitude": "29.925168233987975",
      "longitude": "-90.10144505868888"
    }
  },
  {
    "service_request": "2021-847371",
    "request_type": "Traffic Signals/Signs/Striping/Streetlights",
    "request_reason": "Traffic Signal Malfunctioning/Damaged",
    "date_created": "2021-12-10T15:03:56.000",
    "date_modified": "2021-12-10T15:03:58.000",
    "request_status": "Pending",
    "responsible_agency": "Department of Public Works",
    "final_address": "NAPOLEON AVE & PRYTANIA ST",
    "address_councildis": "B",
    "status": "Pending",
    "rowid": "847371",
    "final_x": "3670865.7",
    "final_y": "520323.88",
    "longitude": "-90.10202959904824",
    "latitude": "29.92502858607668",
    "geocoded_column": {
      "latitude": "29.92502858607668",
      "longitude": "-90.10202959904824"
    }
  },
  {
    "service_request": "2021-847367",
    "request_type": "Safety & Permits",
    "request_reason": "Short term Rental (Enforcement)",
    "date_created": "2021-12-10T14:55:50.000",
    "date_modified": "2021-12-10T14:57:36.000",
    "request_status": "Pending",
    "responsible_agency": "Safety and Permits",
    "final_address": "6040 Charlotte Dr",
    "address_councildis": "D",
    "status": "Pending",
    "rowid": "847367",
    "final_x": "3679805.17371",
    "final_y": "554806.842776",
    "longitude": "-90.07261293536949",
    "latitude": "30.019577687830925",
    "geocoded_column": {
      "latitude": "30.019577687830925",
      "longitude": "-90.07261293536949"
    }
  },
  {
    "service_request": "2021-847366",
    "request_type": "Roads/Drainage",
    "request_reason": "Pothole",
    "date_created": "2021-12-10T14:48:45.000",
    "date_modified": "2021-12-10T15:00:39.000",
    "request_status": "Pending",
    "responsible_agency": "Department of Public Works",
    "final_address": "TULANE AVE & S NORMAN C FRANCIS PKWY",
    "address_councildis": "B",
    "status": "Pending",
    "rowid": "847366",
    "final_x": "3671783.6",
    "final_y": "535005.68",
    "longitude": "-90.09863268125413",
    "latitude": "29.965371578483712",
    "geocoded_column": {
      "latitude": "29.965371578483712",
      "longitude": "-90.09863268125413"
    }
  },
  {
    "service_request": "2021-847364",
    "request_type": "Trash/Recycling",
    "request_reason": "Request a Large Item Pick Up",
    "date_created": "2021-12-10T14:41:03.000",
    "date_modified": "2021-12-10T15:00:42.000",
    "request_status": "Pending",
    "responsible_agency": "Department of Sanitation",
    "final_address": "6423 General Diaz St",
    "address_councildis": "A",
    "status": "Assigned to Contractor",
    "contractor": "Metro Disposal",
    "rowid": "847364",
    "final_x": "3669838.2715",
    "final_y": "550149.114644",
    "longitude": "-90.10426299365677",
    "latitude": "30.00706834389824",
    "geocoded_column": {
      "latitude": "30.00706834389824",
      "longitude": "-90.10426299365677"
    }
  },
  {
    "service_request": "2021-847362",
    "request_type": "Abandoned Vehicles",
    "request_reason": "Abandoned/Junk Vehicles",
    "date_created": "2021-12-10T14:39:27.000",
    "date_modified": "2021-12-10T14:39:27.000",
    "request_status": "Pending",
    "responsible_agency": "Department of Public Works",
    "final_address": "3109 Cleveland Ave",
    "address_councildis": "B",
    "status": "Pending",
    "rowid": "847362",
    "final_x": "3673791.22126",
    "final_y": "535861.845767",
    "longitude": "-90.09226341417832",
    "latitude": "29.96766610937116",
    "geocoded_column": {
      "latitude": "29.96766610937116",
      "longitude": "-90.09226341417832"
    }
  },
  {
    "service_request": "2021-847361",
    "request_type": "Roads/Drainage",
    "request_reason": "Damaged Sidewalk",
    "date_created": "2021-12-10T14:37:45.000",
    "date_modified": "2021-12-10T15:00:46.000",
    "request_status": "Pending",
    "responsible_agency": "Department of Public Works",
    "final_address": "5932 Louis Xiv St",
    "address_councildis": "A",
    "status": "Pending",
    "rowid": "847361",
    "final_x": "3667950.22164",
    "final_y": "546969.514257",
    "longitude": "-90.11033509444223",
    "latitude": "29.99838109652575",
    "geocoded_column": {
      "latitude": "29.99838109652575",
      "longitude": "-90.11033509444223"
    }
  },
  {
    "service_request": "2021-847360",
    "request_type": "Trash/Recycling",
    "request_reason": "Request a Large Item Pick Up",
    "date_created": "2021-12-10T14:25:49.000",
    "date_modified": "2021-12-10T14:25:50.000",
    "request_status": "Pending",
    "responsible_agency": "Department of Sanitation",
    "final_address": "3511 Hyman Ct",
    "address_councildis": "C",
    "status": "Assigned to Contractor",
    "contractor": "Richards Disposal",
    "rowid": "847360",
    "final_x": "3700882.02666",
    "final_y": "518111.835382",
    "longitude": "-90.00735920604109",
    "latitude": "29.918025187329835",
    "geocoded_column": {
      "latitude": "29.918025187329835",
      "longitude": "-90.00735920604109"
    }
  },