[
  {
    "service_request": "2025-1162668",
    "request_type": "Trash/Recycling",
    "request_reason": "Request a Large Item Pick Up",
    "date_created": "2025-01-15T23:56:26.000",
    "date_modified": "2025-01-15T23:56:28.000",
    "request_status": "Pending",
    "responsible_agency": "Department of Sanitation",
    "final_address": "4851 Ken Ct",
    "address_councildis": "C",
    "status": "Assigned to Contractor",
    "contractor": "Richards Disposal",
    "rowid": "1162668",
    "final_x": "3702144.70257",
    "final_y": "518440.761846",
    "longitude": "-90.00336160432953",
    "latitude": "29.918889384303846",
    "geocoded_column": {
      "latitude": "29.918889384303846",
      "longitude": "-90.00336160432953"
    }
  },
  {
    "service_request": "2025-1162667",
    "request_type": "Trash/Recycling",
    "request_reason": "Request a Large Item Pick Up",
    "date_created": "2025-01-15T23:53:01.000",
    "date_modified": "2025-01-15T23:53:09.000",
    "request_status": "Pending",
    "responsible_agency": "Department of Sanitation",
    "final_address": "4851 Ken Ct",
    "address_councildis": "C",
    "status": "Assigned to Contractor",
    "contractor": "Richards Disposal",
    "rowid": "1162667",
    "final_x": "3702144.70257",
    "final_y": "518440.761846",
    "longitude": "-90.00336160432953",
    "latitude": "29.918889384303846",
    "geocoded_column": {
      "latitude": "29.918889384303846",
      "longitude": "-90.00336160432953"
    }
  },
  {
    "service_request": "2025-1162666",
    "request_type": "Christmas Tree Recycle Pick Up",
    "request_reason": "Christmas Tree Recycle Pick Up",
    "date_created": "2025-01-15T23:06:54.000",
    "date_modified": "2025-01-15T23:06:57.000",
    "request_status": "Pending",
    "responsible_agency": "Office of Resilience and Sustainability",
    "final_address": "7119 Virgilian St",
    "address_councildis": "D",
    "status": "Pending",
    "contractor": "R&R Recycling",
    "rowid": "1162666",
    "final_x": "3696859.37277",
    "final_y": "557057.085978",
    "longitude": "-90.01864602986434",
    "latitude": "30.02523803429347",
    "geocoded_column": {
      "latitude": "30.02523803429347",
      "longitude": "-90.01864602986434"
    }
  },
  {
    "service_request": "2025-1162665",
    "request_type": "Trash/Recycling",
    "request_reason": "Replace Trash Cart",
    "date_created": "2025-01-15T21:48:45.000",
    "date_modified": "2025-01-15T21:48:48.000",
    "request_status": "Pending",
    "responsible_agency": "Department of Sanitation",
    "final_address": "49 Pinehurst Dr",
    "address_councildis": "C",
    "status": "Assigned to Contractor",
    "contractor": "Richards Disposal",
    "rowid": "1162665",
    "final_x": "3714693.30194",
    "final_y": "515913.39122",
    "longitude": "-89.9638479645276",
    "latitude": "29.911533552038637",
    "geocoded_column": {
      "latitude": "29.911533552038637",
      "longitude": "-89.9638479645276"
    }
  },
  {
    "service_request": "2025-1162664",
    "request_type": "Trash/Recycling",
    "request_reason": "MIssed Recycling Pick-Up",
    "date_created": "2025-01-15T21:12:38.000",
    "date_modified": "2025-01-15T21:12:39.000",
    "request_status": "Pending",
    "responsible_agency": "Department of Sanitation",
    "final_address": "219 N Tonti St",
    "address_councildis": "B",
    "status": "Assigned to Contractor",
    "contractor": "IV Waste",
    "rowid": "1162664",
    "final_x": "3676708.91105",
    "final_y": "534839.579974",
    "longitude": "-90.08308449486326",
    "latitude": "29.96476800860436",
    "geocoded_column": {
      "latitude": "29.96476800860436",
      "longitude": "-90.08308449486326"
    }
  },
  {
    "service_request": "2025-1162663",
    "request_type": "Streetlights",
    "request_reason": "Streetlight Outage/Malfunction",
    "date_created": "2025-01-15T21:11:02.000",
    "date_modified": "2025-01-15T21:11:03.000",
    "request_status": "Pending",
    "responsible_agency": "Department of Public Works",
    "final_address": "5620 Norland Ave",
    "address_councildis": "C",
    "status": "Pending",
    "contractor": "Legacy Professional Services",
    "rowid": "1162663",
    "final_x": "3704400.72862",
    "final_y": "520750.158905",
    "longitude": "-89.99615548666877",
    "latitude": "29.925167231739103",
    "geocoded_column": {
      "latitude": "29.925167231739103",
      "longitude": "-89.99615548666877"
    }
  },
  {
    "service_request": "2025-1162662",
    "request_type": "Trash/Recycling",
    "request_reason": "Replace Recycling Cart",
    "date_created": "2025-01-15T21:09:19.000",
    "date_modified": "2025-01-15T21:09:24.000",
    "request_status": "Pending",
    "responsible_agency": "Department of Sanitation",
    "final_address": "5620 Norland Ave",
    "address_councildis": "C",
    "status": "Pending",
    "rowid": "1162662",
    "final_x": "3704400.72862",
    "final_y": "520750.158905",
    "longitude": "-89.99615548666877",
    "latitude": "29.925167231739103",
    "geocoded_column": {
      "latitude": "29.925167231739103",
      "longitude": "-89.99615548666877"
    }
  },
  {
    "service_request": "2025-1162661",
    "request_type": "Trash/Recycling",
    "request_reason": "Request a Large Item Pick Up",
    "date_created": "2025-01-15T20:13:54.000",
    "date_modified": "2025-01-15T20:13:58.000",
    "request_status": "Pending",
    "responsible_agency": "Department of Sanitation",
    "final_address": "327 Harney St",
    "address_councildis": "A",
    "status": "Assigned to Contractor",
    "contractor": "IV Waste",
    "rowid": "1162661",
    "final_x": "3667201.13313",
    "final_y": "547152.392465",
    "longitude": "-90.11269531735161",
    "latitude": "29.998905911571384",
    "geocoded_column": {
      "latitude": "29.998905911571384",
      "longitude": "-90.11269531735161"
    }
  },
  {
    "service_request": "2025-1162660",
    "request_type": "Trash/Recycling",
    "request_reason": "Request a Large Item Pick Up",
    "date_created": "2025-01-15T19:38:35.000",
    "date_modified": "2025-01-15T19:38:38.000",
    "request_status": "Pending",
    "responsible_agency": "Department of Sanitation",
    "final_address": "9014 Edinburgh St",
    "address_councildis": "A",
    "status": "Assigned to Contractor",
    "contractor": "IV Waste",
    "rowid": "1162660",
    "final_x": "3665018.90573",
    "final_y": "536630.145223",
    "longitude": "-90.1199410297224",
    "latitude": "29.97003701833087",
    "geocoded_column": {
      "latitude": "29.97003701833087",
      "longitude": "-90.1199410297224"
    }
  },
  {
    "service_request": "2025-1162659",
    "request_type": "Trash/Recycling",
    "request_reason": "Damaged Caused By Contractor",
    "date_created": "2025-01-15T19:11:31.000",
    "date_modified": "2025-01-15T19:11:34.000",
    "request_status": "Pending",
    "responsible_agency": "Department of Sanitation",
    "final_address": "2045 Mirabeau Ave",
    "address_councildis": "D",
    "status": "Assigned to Contractor",
    "contractor": "IV Waste",
    "rowid": "1162659",
    "final_x": "3682757.66882",
    "final_y": "550720.759061",
    "longitude": "-90.0634271242006",
    "latitude": "30.008252792131966",
    "geocoded_column": {
      "latitude": "30.008252792131966",
      "longitude": "-90.0634271242006"
    }
  },
  {
    "service_request": "2025-1162658",
    "request_type": "Trash/Recycling",
    "request_reason": "Replace Recycling Cart",
    "date_created": "2025-01-15T19:00:03.000",
    "date_modified": "2025-01-15T19:00:07.000",
    "request_status": "Pending",
    "responsible_agency": "Department of Sanitation",
    "final_address": "132 Roselyn Park Pl",
    "address_councildis": "C",
    "status": "Pending",
    "rowid": "1162658",
    "final_x": "3702708.91281",
    "final_y": "523872.721532",
    "longitude": "-90.00138139059996",
    "latitude": "29.93380737239089",
    "geocoded_column": {
      "latitude": "29.93380737239089",
      "longitude": "-90.00138139059996"
    }
  },
  {
    "service_request": "2025-1162657",
    "request_type": "Streetlights",
    "request_reason": "Streetlight Outage/Malfunction",
    "date_created": "2025-01-15T18:48:49.000",
    "date_modified": "2025-01-15T18:48:50.000",
    "request_status": "Pending",
    "responsible_agency": "Department of Public Works",
    "final_address": "3800 BLK Napoleon Ave",
    "address_councildis": "B",
    "status": "Pending",
    "contractor": "Legacy Professional Services",
    "rowid": "1162657",
    "final_x": "3670001.62387",
    "final_y": "528915.125684",
    "longitude": "-90.1044663662237",
    "latitude": "29.948677243060448",
    "geocoded_column": {
      "latitude": "29.948677243060448",
      "longitude": "-90.1044663662237"
    }
  },
  {
    "service_request": "2025-1162656",
    "request_type": "Abandoned Vehicles",
    "request_reason": "Abandoned/Junk Vehicles",
    "date_created": "2025-01-15T18:45:19.000",
    "date_modified": "2025-01-15T18:45:23.000",
    "request_status": "Pending",
    "responsible_agency": "Department of Public Works",
    "final_address": "1633 S Carrollton Ave",
    "address_councildis": "A",
    "status": "Pending",
    "rowid": "1162656",
    "final_x": "3663203.15725",
    "final_y": "529498.564161",
    "longitude": "-90.1259126993039",
    "latitude": "29.950480240541417",
    "geocoded_column": {
      "latitude": "29.950480240541417",
      "longitude": "-90.1259126993039"
    }
  },
  {
    "service_request": "2025-1162655",
    "request_type": "Christmas Tree Recycle Pick Up",
    "request_reason": "Christmas Tree Recycle Pick Up",
    "date_created": "2025-01-15T18:28:20.000",
    "date_modified": "2025-01-15T18:28:24.000",
    "request_status": "Pending",
    "responsible_agency": "Office of Resilience and Sustainability",
    "final_address": "1610 Cambronne St",
    "address_councildis": "A",
    "status": "Pending",
    "contractor": "R&R Recycling",
    "rowid": "1162655",
    "final_x": "3662156.23309",
    "final_y": "530254.565761",
    "longitude": "-90.12919327418045",
    "latitude": "29.952589294179937",
    "geocoded_column": {
      "latitude": "29.952589294179937",
      "longitude": "-90.12919327418045"
    }
  },
  {
    "service_request": "2025-1162654",
    "request_type": "Trash/Recycling",
    "request_reason": "Request a Large Item Pick Up",
    "date_created": "2025-01-15T18:23:12.000",
    "date_modified": "2025-01-15T18:23:15.000",
    "request_status": "Pending",
    "responsible_agency": "Department of Sanitation",
    "final_address": "5432 Douglass St",
    "address_councildis": "E",
    "status": "Assigned to Contractor",
    "contractor": "Waste Pro",
    "rowid": "1162654",
    "final_x": "3696835.45917",
    "final_y": "531717.414275",
    "longitude": "-90.0196395795817",
    "latitude": "29.95556397163048",
    "geocoded_column": {
      "latitude": "29.95556397163048",
      "longitude": "-90.0196395795817"
    }
  },
  {
    "service_request": "2025-1162653",
    "request_type": "Abandoned Vehicles",
    "request_reason": "Abandoned/Junk Vehicles",
    "date_created": "2025-01-15T18:17:52.000",
    "date_modified": "2025-01-15T18:17:54.000",
    "request_status": "Pending",
    "responsible_agency": "Department of Public Works",
    "final_address": "4122 S Derbigny St",
    "address_councildis": "B",
    "status": "Pending",
    "rowid": "1162653",
    "final_x": "3671184.52603",
    "final_y": "526301.388798",
    "longitude": "-90.10082020259362",
    "latitude": "29.94145538460403",
    "geocoded_column": {
      "latitude": "29.94145538460403",
      "longitude": "-90.10082020259362"
    }
  },
  {
    "service_request": "2025-1162652",
    "request_type": "Roads and Streets",
    "request_reason": "Pothole",
    "date_created": "2025-01-15T18:16:47.000",
    "date_modified": "2025-01-15T18:16:49.000",
    "request_status": "Pending",
    "responsible_agency": "Department of Public Works",
    "final_address": "spruce and Carrolton. Road work on this street never finished. Left multiple issues behind",
    "status": "Pending",
    "rowid": "1162652",
    "longitude": "0.0",
    "latitude": "0.0",
    "geocoded_column": {
      "latitude": "0.0",
      "longitude": "0.0"
    }
  },
  {
    "service_request": "2025-1162651",
    "request_type": "Roads and Streets",
    "request_reason": "Street Subsidence (Sinking)",
    "date_created": "2025-01-15T18:14:48.000",
    "date_modified": "2025-01-15T18:14:50.000",
    "request_status": "Pending",
    "responsible_agency": "Department of Public Works",
    "final_address": "Cohn St, New Orleans, Louisiana, 70118",
    "address_councildis": "A",
    "status": "Pending",
    "rowid": "1162651",
    "final_x": "3665189.02848",
    "final_y": "528843.77536",
    "longitude": "-90.11966422078301",
    "latitude": "29.94862209423817",
    "geocoded_column": {
      "latitude": "29.94862209423817",
      "longitude": "-90.11966422078301"
    }
  },
  {
    "service_request": "2025-1162650",
    "request_type": "Roads and Streets",
    "request_reason": "Ditch and Culvert Maintenance",
    "date_created": "2025-01-15T18:12:15.000",
    "date_modified": "2025-01-15T18:12:18.000",
    "request_status": "Pending",
    "responsible_agency": "Department of Public Works",
    "final_address": "906 Wilson Dr, New Orleans, Louisiana, 70119",
    "address_councildis": "A",
    "status": "Pending",
    "rowid": "1162650",
    "final_x": "3674133.75169",
    "final_y": "539930.516426",
    "longitude": "-90.09104238761749",
    "latitude": "29.978843365069103",
    "geocoded_column": {
      "latitude": "29.978843365069103",
      "longitude": "-90.09104238761749"
    }
  },
  {
    "service_request": "2025-1162649",
    "request_type": "Traffic Signals",
    "request_reason": "Traffic Signal Malfunctioning or Damaged",
    "date_created": "2025-01-15T18:11:45.000",
    "date_modified": "2025-01-15T18:11:48.000",
    "request_status": "Pending",
    "responsible_agency": "Department of Public Works",
    "final_address": "DESIRE PKWY & CHEF MENTEUR HWY",
    "address_councildis": "D",
    "status": "Pending",
    "rowid": "1162649",
    "final_x": "3692027.1",
    "final_y": "550101.18",
    "longitude": "-90.03416442567848",
    "latitude": "30.00626344869749",
    "geocoded_column": {
      "latitude": "30.00626344869749",
      "longitude": "-90.03416442567848"
    }
  },
  {
    "service_request": "2025-1162648",
    "request_type": "Roads and Streets",
    "request_reason": "Pothole",
    "date_created": "2025-01-15T18:10:06.000",
    "date_modified": "2025-01-15T18:10:08.000",
    "request_status": "Pending",
    "responsible_agency": "Department of Public Works",
    "final_address": "Carrolton and Earhart",
    "status": "Pending",
    "rowid": "1162648",
    "longitude": "0.0",
    "latitude": "0.0",
    "geocoded_column": {
      "latitude": "0.0",
      "longitude": "0.0"
    }
  },
  {
    "service_request": "2025-1162647",
    "request_type": "Roads and Streets",
    "request_reason": "Pothole",
    "date_created": "2025-01-15T18:08:10.000",
    "date_modified": "2025-01-15T18:08:12.000",
    "request_status": "Pending",
    "responsible_agency": "Department of Public Works",
    "final_address": "Earhart",
    "address_councildis": "B",
    "status": "Pending",
    "rowid": "1162647",
    "final_x": "3671885.14446",
    "final_y": "531621.784131",
    "longitude": "-90.09842717620424",
    "latitude": "29.95606398312866",
    "geocoded_column": {
      "latitude": "29.95606398312866",
      "longitude": "-90.09842717620424"
    }
  },
  {
    "service_request": "2025-1162646",
    "request_type": "Traffic Signals",
    "request_reason": "Traffic Signal Malfunctioning or Damaged",
    "date_created": "2025-01-15T18:07:13.000",
    "date_modified": "2025-01-15T18:07:16.000",
    "request_status": "Pending",
    "responsible_agency": "Department of Public Works",
    "final_address": "DESIRE PKWY & CHEF MENTEUR HWY",
    "address_councildis": "D",
    "status": "Pending",
    "rowid": "1162646",
    "final_x": "3692027.1",
    "final_y": "550101.18",
    "longitude": "-90.03416442567848",
    "latitude": "30.00626344869749",
    "geocoded_column": {
      "latitude": "30.00626344869749",
      "longitude": "-90.03416442567848"
    }
  },
  {
    "service_request": "2025-1162645",
    "request_type": "Trash/Recycling",
    "request_reason": "Replace Trash Cart",
    "date_created": "2025-01-15T18:02:52.000",
    "date_modified": "2025-01-15T18:03:01.000",
    "request_status": "Pending",
    "responsible_agency": "Department of Sanitation",
    "final_address": "5654 Abbey Dr",
    "address_councildis": "C",
    "status": "Assigned to Contractor",
    "contractor": "Richards Disposal",
    "rowid": "1162645",
    "final_x": "3704616.04849",
    "final_y": "521238.779961",
    "longitude": "-89.99545778685976",
    "latitude": "29.926503858637716",
    "geocoded_column": {
      "latitude": "29.926503858637716",
      "longitude": "-89.99545778685976"
    }
  },
  {
    "service_request": "2025-1162644",
    "request_type": "Trash/Recycling",
    "request_reason": "Order Second Trash Cart",
    "date_created": "2025-01-15T17:49:26.000",
    "date_modified": "2025-01-15T17:49:28.000",
    "request_status": "Pending",
    "responsible_agency": "Department of Sanitation",
    "final_address": "3330 Allen St",
    "address_councildis": "D",
    "status": "Assigned to Contractor",
    "contractor": "IV Waste",
    "rowid": "1162644",
    "final_x": "3682034.72776",
    "final_y": "544797.017103",
    "longitude": "-90.06591812331395",
    "latitude": "29.991986630173674",
    "geocoded_column": {
      "latitude": "29.991986630173674",
      "longitude": "-90.06591812331395"
    }
  },
  {
    "service_request": "2025-1162643",
    "request_type": "Trash/Recycling",
    "request_reason": "Order Trash Cart",
    "date_created": "2025-01-15T17:47:56.000",
    "date_modified": "2025-01-15T17:47:57.000",
    "request_status": "Pending",
    "responsible_agency": "Department of Sanitation",
    "final_address": "3328 Allen St",
    "address_councildis": "D",
    "status": "Assigned to Contractor",
    "contractor": "IV Waste",
    "rowid": "1162643",
    "final_x": "3682034.64245",
    "final_y": "544788.682383",
    "longitude": "-90.06591868400093",
    "latitude": "29.991963715239375",
    "geocoded_column": {
      "latitude": "29.991963715239375",
      "longitude": "-90.06591868400093"
    }
  },
  {
    "service_request": "2025-1162642",
    "request_type": "Healthy Homes",
    "request_reason": "Healthy Homes",
    "date_created": "2025-01-15T17:41:51.000",
    "date_modified": "2025-01-15T17:41:53.000",
    "request_status": "Pending",
    "responsible_agency": "Department of Code Enforcement",
    "final_address": "1824 Oretha Castle Haley Blvd",
    "address_councildis": "B",
    "status": "Pending",
    "rowid": "1162642",
    "final_x": "3677489.3364",
    "final_y": "525257.591229",
    "longitude": "-90.0809506907614",
    "latitude": "29.938397305061265",
    "geocoded_column": {
      "latitude": "29.938397305061265",
      "longitude": "-90.0809506907614"
    }
  },
  {
    "service_request": "2025-1162641",
    "request_type": "Streetlights",
    "request_reason": "Streetlight Outage/Malfunction",
    "date_created": "2025-01-15T17:41:12.000",
    "date_modified": "2025-01-15T17:41:13.000",
    "request_status": "Pending",
    "responsible_agency": "Department of Public Works",
    "final_address": "2810 General Taylor St",
    "address_councildis": "B",
    "status": "Pending",
    "contractor": "Legacy Professional Services",
    "rowid": "1162641",
    "final_x": "3671589.24935",
    "final_y": "525300.904125",
    "longitude": "-90.09957641981057",
    "latitude": "29.938692400453732",
    "geocoded_column": {
      "latitude": "29.938692400453732",
      "longitude": "-90.09957641981057"
    }
  },
  {
    "service_request": "2025-1162640",
    "request_type": "Christmas Tree Recycle Pick Up",
    "request_reason": "Christmas Tree Recycle Pick Up",
    "date_created": "2025-01-15T17:39:00.000",
    "date_modified": "2025-01-15T17:39:02.000",
    "request_status": "Pending",
    "responsible_agency": "Office of Resilience and Sustainability",
    "final_address": "6924 Louis Xiv St",
    "address_councildis": "A",
    "status": "Pending",
    "contractor": "R&R Recycling",
    "rowid": "1162640",
    "final_x": "3668554.93422",
    "final_y": "553582.427159",
    "longitude": "-90.1082014450589",
    "latitude": "30.016546534985732",
    "geocoded_column": {
      "latitude": "30.016546534985732",
      "longitude": "-90.1082014450589"
    }
  },
  {
    "service_request": "2025-1162639",
    "request_type": "Christmas Tree Recycle Pick Up",
    "request_reason": "Christmas Tree Recycle Pick Up",
    "date_created": "2025-01-15T17:37:49.000",
    "date_modified": "2025-01-15T17:37:51.000",
    "request_status": "Pending",
    "responsible_agency": "Office of Resilience and Sustainability",
    "final_address": "2819 Baronne St",
    "address_councildis": "B",
    "status": "Pending",
    "contractor": "R&R Recycling",
    "rowid": "1162639",
    "final_x": "3675345.34177",
    "final_y": "523074.058491",
    "longitude": "-90.08779443633823",
    "latitude": "29.93245756305682",
    "geocoded_column": {
      "latitude": "29.93245756305682",
      "longitude": "-90.08779443633823"
    }
  },
  {
    "service_request": "2025-1162638",
    "request_type": "Trash/Recycling",
    "request_reason": "Illegal Dumping",
    "date_created": "2025-01-15T17:35:14.000",
    "date_modified": "2025-01-15T17:35:17.000",
    "request_status": "Pending",
    "responsible_agency": "Department of Sanitation",
    "final_address": "1200 BLK Tricou St",
    "address_councildis": "E",
    "status": "Pending",
    "rowid": "1162638",
    "final_x": "3700342.23511",
    "final_y": "533554.992061",
    "longitude": "-90.00849942110784",
    "latitude": "29.96050564068879",
    "geocoded_column": {
      "latitude": "29.96050564068879",
      "longitude": "-90.00849942110784"
    }
  },
  {
    "service_request": "2025-1162637",
    "request_type": "Trash/Recycling",
    "request_reason": "Repair Trash Cart",
    "date_created": "2025-01-15T17:23:39.000",
    "date_modified": "2025-01-15T17:23:42.000",
    "request_status": "Pending",
    "responsible_agency": "Department of Sanitation",
    "final_address": "2330 Jefferson Ave",
    "address_councildis": "A",
    "status": "Assigned to Contractor",
    "contractor": "IV Waste",
    "rowid": "1162637",
    "final_x": "3667908.67002",
    "final_y": "524251.40038",
    "longitude": "-90.11123178585328",
    "latitude": "29.935915057861504",
    "geocoded_column": {
      "latitude": "29.935915057861504",
      "longitude": "-90.11123178585328"
    }
  },
  {
    "service_request": "2025-1162636",
    "request_type": "Abandoned Vehicles",
    "request_reason": "Vehicle Blocking Your Driveway",
    "date_created": "2025-01-15T17:16:33.000",
    "date_modified": "2025-01-15T17:16:35.000",
    "request_status": "Pending",
    "responsible_agency": "Department of Public Works",
    "final_address": " & BALDWIN ST",
    "address_councildis": "D",
    "status": "Pending",
    "rowid": "1162636",
    "final_x": "3687880.8",
    "final_y": "560035.64",
    "longitude": "-90.04691121641319",
    "latitude": "30.03370814054373",
    "geocoded_column": {
      "latitude": "30.03370814054373",
      "longitude": "-90.04691121641319"
    }
  },
  {
    "service_request": "2025-1162635",
    "request_type": "Trash/Recycling",
    "request_reason": "Request a Large Item Pick Up",
    "date_created": "2025-01-15T16:57:05.000",
    "date_modified": "2025-01-15T16:57:06.000",
    "request_status": "Pending",
    "responsible_agency": "Department of Sanitation",
    "final_address": "1706 Joliet St",
    "address_councildis": "A",
    "status": "Assigned to Contractor",
    "contractor": "IV Waste",
    "rowid": "1162635",
    "final_x": "3662117.58855",
    "final_y": "530723.433346",
    "longitude": "-90.1292997401619",
    "latitude": "29.95387964548417",
    "geocoded_column": {
      "latitude": "29.95387964548417",
      "longitude": "-90.1292997401619"
    }
  },
  {
    "service_request": "2025-1162634",
    "request_type": "Trash/Recycling",
    "request_reason": "Request a Large Item Pick Up",
    "date_created": "2025-01-15T16:56:44.000",
    "date_modified": "2025-01-15T16:56:46.000",
    "request_status": "Pending",
    "responsible_agency": "Department of Sanitation",
    "final_address": "425 Second St",
    "address_councildis": "B",
    "status": "Assigned to Contractor",
    "contractor": "IV Waste",
    "rowid": "1162634",
    "final_x": "3679180.65442",
    "final_y": "519336.894455",
    "longitude": "-90.07581617241613",
    "latitude": "29.922066391155745",
    "geocoded_column": {
      "latitude": "29.922066391155745",
      "longitude": "-90.07581617241613"
    }
  },
  {
    "service_request": "2025-1162633",
    "request_type": "Trash/Recycling",
    "request_reason": "Missed Trash Pick-Up",
    "date_created": "2025-01-15T16:51:44.000",
    "date_modified": "2025-01-15T16:51:46.000",
    "request_status": "Pending",
    "responsible_agency": "Department of Sanitation",
    "final_address": "7321 Vanderkloot Ave",
    "address_councildis": "E",
    "status": "Assigned to Contractor",
    "contractor": "Waste Pro",
    "rowid": "1162633",
    "final_x": "3706377.90852",
    "final_y": "562530.744224",
    "longitude": "-89.98836614234891",
    "latitude": "30.039984719637737",
    "geocoded_column": {
      "latitude": "30.039984719637737",
      "longitude": "-89.98836614234891"
    }
  },
  {
    "service_request": "2025-1162632",
    "request_type": "Trash/Recycling",
    "request_reason": "Return Recycling Cart",
    "date_created": "2025-01-15T16:50:29.000",
    "date_modified": "2025-01-15T16:50:32.000",
    "request_status": "Pending",
    "responsible_agency": "Department of Sanitation",
    "final_address": "2021 Pine St",
    "address_councildis": "A",
    "status": "Pending",
    "rowid": "1162632",
    "final_x": "3665642.01056",
    "final_y": "529160.773312",
    "longitude": "-90.11822334518563",
    "latitude": "29.949480535426062",
    "geocoded_column": {
      "latitude": "29.949480535426062",
      "longitude": "-90.11822334518563"
    }
  },
  {
    "service_request": "2025-1162631",
    "request_type": "Trash/Recycling",
    "request_reason": "Request a Large Item Pick Up",
    "date_created": "2025-01-15T16:48:05.000",
    "date_modified": "2025-01-15T16:48:08.000",
    "request_status": "Pending",
    "responsible_agency": "Department of Sanitation",
    "final_address": "2348 Lake Oaks Prkwy",
    "address_councildis": "D",
    "status": "Assigned to Contractor",
    "contractor": "IV Waste",
    "rowid": "1162631",
    "final_x": "3684425.09193",
    "final_y": "558334.973404",
    "longitude": "-90.05789146117077",
    "latitude": "30.02913816602361",
    "geocoded_column": {
      "latitude": "30.02913816602361",
      "longitude": "-90.05789146117077"
    }
  },
  {
    "service_request": "2025-1162630",
    "request_type": "Trash/Recycling",
    "request_reason": "Return Recycling Cart",
    "date_created": "2025-01-15T16:44:32.000",
    "date_modified": "2025-01-15T16:44:34.000",
    "request_status": "Pending",
    "responsible_agency": "Department of Sanitation",
    "final_address": "35 Versailles Blvd",
    "address_councildis": "A",
    "status": "Pending",
    "rowid": "1162630",
    "final_x": "3667411.88532",
    "final_y": "529461.700289",
    "longitude": "-90.11262491276037",
    "latitude": "29.950256260356355",
    "geocoded_column": {
      "latitude": "29.950256260356355",
      "longitude": "-90.11262491276037"
    }
  },
  {
    "service_request": "2025-1162629",
    "request_type": "Trash/Recycling",
    "request_reason": "Request a Large Item Pick Up",
    "date_created": "2025-01-15T16:43:06.000",
    "date_modified": "2025-01-15T16:43:09.000",
    "request_status": "Pending",
    "responsible_agency": "Department of Sanitation",
    "final_address": "2719 Milan St",
    "address_councildis": "B",
    "status": "Assigned to Contractor",
    "contractor": "IV Waste",
    "rowid": "1162629",
    "final_x": "3671241.74747",
    "final_y": "524981.522621",
    "longitude": "-90.10068437063326",
    "latitude": "29.93782448855903",
    "geocoded_column": {
      "latitude": "29.93782448855903",
      "longitude": "-90.10068437063326"
    }
  },
  {
    "service_request": "2025-1162628",
    "request_type": "Trash/Recycling",
    "request_reason": "MIssed Recycling Pick-Up",
    "date_created": "2025-01-15T16:37:24.000",
    "date_modified": "2025-01-15T17:27:06.000",
    "case_close_date": "2025-01-15T11:27:05.000",
    "request_status": "Closed",
    "responsible_agency": "Department of Sanitation",
    "final_address": "4223 Eden St",
    "address_councildis": "B",
    "status": "Invalid Request",
    "contractor": "IV Waste",
    "contractor_action": "Invalid Request",
    "rowid": "1162628",
    "final_x": "3670355.29543",
    "final_y": "530424.39181",
    "longitude": "-90.10329851663387",
    "latitude": "29.952816795574023",
    "geocoded_column": {
      "latitude": "29.952816795574023",
      "longitude": "-90.10329851663387"
    }
  },
  {
    "service_request": "2025-1162627",
    "request_type": "Christmas Tree Recycle Pick Up",
    "request_reason": "Christmas Tree Recycle Pick Up",
    "date_created": "2025-01-15T16:36:49.000",
    "date_modified": "2025-01-15T16:36:52.000",
    "request_status": "Pending",
    "responsible_agency": "Office of Resilience and Sustainability",
    "final_address": "1808 Spain St",
    "address_councildis": "D",
    "status": "Pending",
    "contractor": "R&R Recycling",
    "rowid": "1162627",
    "final_x": "3685882.34486",
    "final_y": "539067.016586",
    "longitude": "-90.05396640530915",
    "latitude": "29.976113575394304",
    "geocoded_column": {
      "latitude": "29.976113575394304",
      "longitude": "-90.05396640530915"
    }
  },
  {
    "service_request": "2025-1162626",
    "request_type": "Trash/Recycling",
    "request_reason": "Repair Recycling Cart",
    "date_created": "2025-01-15T16:32:12.000",
    "date_modified": "2025-01-15T16:32:14.000",
    "request_status": "Pending",
    "responsible_agency": "Department of Sanitation",
    "final_address": "831 Pacific Ave",
    "address_councildis": "C",
    "status": "Pending",
    "rowid": "1162626",
    "final_x": "3688403.64739",
    "final_y": "528426.378816",
    "longitude": "-90.04638086550617",
    "latitude": "29.94677786941864",
    "geocoded_column": {
      "latitude": "29.94677786941864",
      "longitude": "-90.04638086550617"
    }
  },
  {
    "service_request": "2025-1162625",
    "request_type": "Streetlights",
    "request_reason": "Streetlight Outage/Malfunction",
    "date_created": "2025-01-15T16:31:08.000",
    "date_modified": "2025-01-15T16:31:09.000",
    "request_status": "Pending",
    "responsible_agency": "Department of Public Works",
    "final_address": "4619 Cerise Ave",
    "address_councildis": "E",
    "status": "Pending",
    "contractor": "Legacy Professional Services",
    "rowid": "1162625",
    "final_x": "3708758.92286",
    "final_y": "554893.2726",
    "longitude": "-89.9811262933771",
    "latitude": "30.018907615692598",
    "geocoded_column": {
      "latitude": "30.018907615692598",
      "longitude": "-89.9811262933771"
    }
  },
  {
    "service_request": "2025-1162624",
    "request_type": "Trash/Recycling",
    "request_reason": "Request a Large Item Pick Up",
    "date_created": "2025-01-15T16:30:36.000",
    "date_modified": "2025-01-15T16:30:39.000",
    "request_status": "Pending",
    "responsible_agency": "Department of Sanitation",
    "final_address": "5435 Burgundy St",
    "address_councildis": "E",
    "status": "Assigned to Contractor",
    "contractor": "Waste Pro",
    "rowid": "1162624",
    "final_x": "3697218.57475",
    "final_y": "533167.080452",
    "longitude": "-90.01837731327934",
    "latitude": "29.95953795837898",
    "geocoded_column": {
      "latitude": "29.95953795837898",
      "longitude": "-90.01837731327934"
    }
  },
  {
    "service_request": "2025-1162623",
    "request_type": "Christmas Tree Recycle Pick Up",
    "request_reason": "Christmas Tree Recycle Pick Up",
    "date_created": "2025-01-15T16:29:29.000",
    "date_modified": "2025-01-15T16:29:31.000",
    "request_status": "Pending",
    "responsible_agency": "Office of Resilience and Sustainability",
    "final_address": "7820 Green St",
    "address_councildis": "A",
    "status": "Pending",
    "contractor": "R&R Recycling",
    "rowid": "1162623",
    "final_x": "3663810.90291",
    "final_y": "529004.771264",
    "longitude": "-90.12401020028076",
    "latitude": "29.94910484621437",
    "geocoded_column": {
      "latitude": "29.94910484621437",
      "longitude": "-90.12401020028076"
    }
  },
  {
    "service_request": "2025-1162622",
    "request_type": "Utility Poles",
    "request_reason": "Utility Pole Leaning",
    "date_created": "2025-01-15T16:29:03.000",
    "date_modified": "2025-01-15T16:29:07.000",
    "request_status": "Pending",
    "responsible_agency": "Utility Company Collective",
    "final_address": "100 BLK S Genois St",
    "address_councildis": "B",
    "status": "Pending",
    "rowid": "1162622",
    "final_x": "3672461.58188",
    "final_y": "537018.332575",
    "longitude": "-90.09642303221013",
    "latitude": "29.97088559046566",
    "geocoded_column": {
      "latitude": "29.97088559046566",
      "longitude": "-90.09642303221013"
    }
  },
  {
    "service_request": "2025-1162621",
    "request_type": "Roads and Streets",
    "request_reason": "Pothole",
    "date_created": "2025-01-15T16:25:47.000",
    "date_modified": "2025-01-15T16:25:50.000",
    "request_status": "Pending",
    "responsible_agency": "Department of Public Works",
    "final_address": "3642 Clermont Dr",
    "address_councildis": "D",
    "status": "Pending",
    "rowid": "1162621",
    "final_x": "3685706.48617",
    "final_y": "545862.914192",
    "longitude": "-90.05428223070795",
    "latitude": "29.9948052825103",
    "geocoded_column": {
      "latitude": "29.9948052825103",
      "longitude": "-90.05428223070795"
    }
  },
  {
    "service_request": "2025-1162620",
    "request_type": "Trash/Recycling",
    "request_reason": "Request a Large Item Pick Up",
    "date_created": "2025-01-15T16:21:30.000",
    "date_modified": "2025-01-15T16:21:36.000",
    "request_status": "Pending",
    "responsible_agency": "Department of Sanitation",
    "final_address": "826 Delery St Apt D",
    "address_councildis": "E",
    "status": "Assigned to Contractor",
    "contractor": "Waste Pro",
    "rowid": "1162620",
    "final_x": "3699949.40836",
    "final_y": "532093.377219",
    "longitude": "-90.00979319335984",
    "latitude": "29.95649920309229",
    "geocoded_column": {
      "latitude": "29.95649920309229",
      "longitude": "-90.00979319335984"
    }
  },
  {
    "service_request": "2025-1162619",
    "request_type": "Trash/Recycling",
    "request_reason": "Order Recycling Cart",
    "date_created": "2025-01-15T16:20:49.000",
    "date_modified": "2025-01-15T16:20:58.000",
    "request_status": "Pending",
    "responsible_agency": "Department of Sanitation",
    "final_address": "4032 Laurel St",
    "address_councildis": "B",
    "status": "Pending",
    "rowid": "1162619",
    "final_x": "3672328.18811",
    "final_y": "518131.478262",
    "longitude": "-90.09748763136216",
    "latitude": "29.918956886886953",
    "geocoded_column": {
      "latitude": "29.918956886886953",
      "longitude": "-90.09748763136216"
    }
  },
  {
    "service_request": "2025-1162618",
    "request_type": "Street and Traffic Signs",
    "request_reason": "Street Name Sign Damaged or Missing",
    "date_created": "2025-01-15T16:20:38.000",
    "date_modified": "2025-01-15T16:20:40.000",
    "request_status": "Pending",
    "responsible_agency": "Department of Public Works",
    "final_address": "DELARONDE ST & PACIFIC AVE",
    "address_councildis": "C",
    "status": "Pending",
    "rowid": "1162618",
    "final_x": "3688562.3",
    "final_y": "531155.08",
    "longitude": "-90.04578313288886",
    "latitude": "29.954275960717702",
    "geocoded_column": {
      "latitude": "29.954275960717702",
      "longitude": "-90.04578313288886"
    }
  },
  {
    "service_request": "2025-1162617",
    "request_type": "Trash/Recycling",
    "request_reason": "Return Trash Cart",
    "date_created": "2025-01-15T16:20:12.000",
    "date_modified": "2025-01-15T16:20:15.000",
    "request_status": "Pending",
    "responsible_agency": "Department of Sanitation",
    "final_address": "4032 Laurel St",
    "address_councildis": "B",
    "status": "Assigned to Contractor",
    "contractor": "IV Waste",
    "rowid": "1162617",
    "final_x": "3672328.18811",
    "final_y": "518131.478262",
    "longitude": "-90.09748763136216",
    "latitude": "29.918956886886953",
    "geocoded_column": {
      "latitude": "29.918956886886953",
      "longitude": "-90.09748763136216"
    }
  },
  {
    "service_request": "2025-1162616",
    "request_type": "Trash/Recycling",
    "request_reason": "Request a Large Item Pick Up",
    "date_created": "2025-01-15T16:17:59.000",
    "date_modified": "2025-01-15T16:18:01.000",
    "request_status": "Pending",
    "responsible_agency": "Department of Sanitation",
    "final_address": "1920 Valentine Ct",
    "address_councildis": "C",
    "status": "Assigned to Contractor",
    "contractor": "Richards Disposal",
    "rowid": "1162616",
    "final_x": "3699716.99786",
    "final_y": "524148.123708",
    "longitude": "-90.01081663292476",
    "latitude": "29.93465992364249",
    "geocoded_column": {
      "latitude": "29.93465992364249",
      "longitude": "-90.01081663292476"
    }
  },
  {
    "service_request": "2025-1162615",
    "request_type": "Property Maintenance",
    "request_reason": "Property Maintenance",
    "date_created": "2025-01-15T16:16:27.000",
    "date_modified": "2025-01-15T16:16:29.000",
    "request_status": "Pending",
    "responsible_agency": "Department of Code Enforcement",
    "final_address": "3501 Gravier St",
    "address_councildis": "B",
    "status": "Pending",
    "rowid": "1162615",
    "final_x": "3671172.20091",
    "final_y": "534890.18023",
    "longitude": "-90.10056737926661",
    "latitude": "29.965072093697486",
    "geocoded_column": {
      "latitude": "29.965072093697486",
      "longitude": "-90.10056737926661"
    }
  },
  {
    "service_request": "2025-1162614",
    "request_type": "Christmas Tree Recycle Pick Up",
    "request_reason": "Christmas Tree Recycle Pick Up",
    "date_created": "2025-01-15T16:16:13.000",
    "date_modified": "2025-01-15T16:16:17.000",
    "request_status": "Pending",
    "responsible_agency": "Office of Resilience and Sustainability",
    "final_address": "5824 Magnolia St",
    "address_councildis": "A",
    "status": "Pending",
    "contractor": "R&R Recycling",
    "rowid": "1162614",
    "final_x": "3666837.57722",
    "final_y": "524892.224188",
    "longitude": "-90.11459174208953",
    "latitude": "29.937708486484265",
    "geocoded_column": {
      "latitude": "29.937708486484265",
      "longitude": "-90.11459174208953"
    }
  },
  {
    "service_request": "2025-1162613",
    "request_type": "Property Maintenance",
    "request_reason": "Property Maintenance",
    "date_created": "2025-01-15T16:15:08.000",
    "date_modified": "2025-01-15T16:15:10.000",
    "request_status": "Pending",
    "responsible_agency": "Department of Code Enforcement",
    "final_address": "240 Pacific Ave",
    "address_councildis": "C",
    "status": "Pending",
    "rowid": "1162613",
    "final_x": "3688588.22991",
    "final_y": "530817.07405",
    "longitude": "-90.04571325027493",
    "latitude": "29.95334575958422",
    "geocoded_column": {
      "latitude": "29.95334575958422",
      "longitude": "-90.04571325027493"
    }
  },
  {
    "service_request": "2025-1162612",
    "request_type": "Trash/Recycling",
    "request_reason": "Request a Large Item Pick Up",
    "date_created": "2025-01-15T16:14:13.000",
    "date_modified": "2025-01-15T16:14:15.000",
    "request_status": "Pending",
    "responsible_agency": "Department of Sanitation",
    "final_address": "1016 Canal St Apt 403",
    "address_councildis": "B",
    "status": "Assigned to Contractor",
    "contractor": "IV Waste",
    "rowid": "1162612",
    "final_x": "3680042.52738",
    "final_y": "531278.692674",
    "longitude": "-90.07268087717482",
    "latitude": "29.954876341034225",
    "geocoded_column": {
      "latitude": "29.954876341034225",
      "longitude": "-90.07268087717482"
    }
  },
  {
    "service_request": "2025-1162611",
    "request_type": "Abandoned Vehicles",
    "request_reason": "Abandoned/Junk Vehicles",
    "date_created": "2025-01-15T16:12:49.000",
    "date_modified": "2025-01-15T16:12:51.000",
    "request_status": "Pending",
    "responsible_agency": "Department of Public Works",
    "final_address": "301 Elmira Ave",
    "address_councildis": "C",
    "status": "Pending",
    "rowid": "1162611",
    "final_x": "3687976.54588",
    "final_y": "530592.813186",
    "longitude": "-90.04765262677662",
    "latitude": "29.95274800544382",
    "geocoded_column": {
      "latitude": "29.95274800544382",
      "longitude": "-90.04765262677662"
    }
  },
  {
    "service_request": "2025-1162610",
    "request_type": "Trash/Recycling",
    "request_reason": "Request a Large Item Pick Up",
    "date_created": "2025-01-15T16:10:46.000",
    "date_modified": "2025-01-15T16:10:53.000",
    "request_status": "Pending",
    "responsible_agency": "Department of Sanitation",
    "final_address": "1904 Brutus St",
    "address_councildis": "D",
    "status": "Assigned to Contractor",
    "contractor": "IV Waste",
    "rowid": "1162610",
    "final_x": "3681701.83004",
    "final_y": "550089.692628",
    "longitude": "-90.06678488141307",
    "latitude": "30.00654971973073",
    "geocoded_column": {
      "latitude": "30.00654971973073",
      "longitude": "-90.06678488141307"
    }
  },
  {
    "service_request": "2025-1162609",
    "request_type": "Trash/Recycling",
    "request_reason": "Illegal Dumping",
    "date_created": "2025-01-15T16:05:58.000",
    "date_modified": "2025-01-15T16:06:00.000",
    "request_status": "Pending",
    "responsible_agency": "Department of Sanitation",
    "final_address": "2021 N Johnson St",
    "address_councildis": "D",
    "status": "Pending",
    "rowid": "1162609",
    "final_x": "3683790.36015",
    "final_y": "539572.819338",
    "longitude": "-90.06055575109461",
    "latitude": "29.977568415884072",
    "geocoded_column": {
      "latitude": "29.977568415884072",
      "longitude": "-90.06055575109461"
    }
  },
  {
    "service_request": "2025-1162608",
    "request_type": "Christmas Tree Recycle Pick Up",
    "request_reason": "Christmas Tree Recycle Pick Up",
    "date_created": "2025-01-15T16:05:38.000",
    "date_modified": "2025-01-15T16:05:40.000",
    "request_status": "Pending",
    "responsible_agency": "Office of Resilience and Sustainability",
    "final_address": "6102 Catina St",
    "address_councildis": "A",
    "status": "Pending",
    "contractor": "R&R Recycling",
    "rowid": "1162608",
    "final_x": "3666758.52986",
    "final_y": "548106.583826",
    "longitude": "-90.11406143768164",
    "latitude": "30.00154256570635",
    "geocoded_column": {
      "latitude": "30.00154256570635",
      "longitude": "-90.11406143768164"
    }
  },
  {
    "service_request": "2025-1162606",
    "request_type": "Trash/Recycling",
    "request_reason": "Illegal Dumping",
    "date_created": "2025-01-15T16:05:34.000",
    "date_modified": "2025-01-15T16:05:37.000",
    "request_status": "Pending",
    "responsible_agency": "Department of Sanitation",
    "final_address": "ALMONASTER AVE & FRANCE RD OVERPASS",
    "address_councildis": "D",
    "status": "Pending",
    "rowid": "1162606",
    "final_x": "3693571.5",
    "final_y": "549145.58",
    "longitude": "-90.02931966324068",
    "latitude": "30.003587663349105",
    "geocoded_column": {
      "latitude": "30.003587663349105",
      "longitude": "-90.02931966324068"
    }
  },
  {
    "service_request": "2025-1162607",
    "request_type": "Trash/Recycling",
    "request_reason": "Request a Large Item Pick Up",
    "date_created": "2025-01-15T16:05:34.000",
    "date_modified": "2025-01-15T16:05:37.000",
    "request_status": "Pending",
    "responsible_agency": "Department of Sanitation",
    "final_address": "1104 Dauphine St",
    "address_councildis": "C",
    "status": "Assigned to Contractor",
    "contractor": "IV Waste",
    "rowid": "1162607",
    "final_x": "3682901.87932",
    "final_y": "534076.817797",
    "longitude": "-90.06355422878521",
    "latitude": "29.962483419481018",
    "geocoded_column": {
      "latitude": "29.962483419481018",
      "longitude": "-90.06355422878521"
    }
  },
  {
    "service_request": "2025-1162605",
    "request_type": "Trash/Recycling",
    "request_reason": "Replace Trash Cart",
    "date_created": "2025-01-15T16:02:23.000",
    "date_modified": "2025-01-15T16:02:26.000",
    "request_status": "Pending",
    "responsible_agency": "Department of Sanitation",
    "final_address": "3735 General Taylor St",
    "address_councildis": "B",
    "status": "Assigned to Contractor",
    "contractor": "IV Waste",
    "rowid": "1162605",
    "final_x": "3670924.57716",
    "final_y": "528521.628352",
    "longitude": "-90.1015655600695",
    "latitude": "29.947568004987104",
    "geocoded_column": {
      "latitude": "29.947568004987104",
      "longitude": "-90.1015655600695"
    }
  },
  {
    "service_request": "2025-1162604",
    "request_type": "Trash/Recycling",
    "request_reason": "Request a Large Item Pick Up",
    "date_created": "2025-01-15T16:01:19.000",
    "date_modified": "2025-01-15T16:01:37.000",
    "request_status": "Pending",
    "responsible_agency": "Department of Sanitation",
    "final_address": "2669 Gladiolus St",
    "address_councildis": "D",
    "status": "Assigned to Contractor",
    "contractor": "IV Waste",
    "rowid": "1162604",
    "final_x": "3687611.85353",
    "final_y": "547599.031506",
    "longitude": "-90.04820190279199",
    "latitude": "29.99952035933342",
    "geocoded_column": {
      "latitude": "29.99952035933342",
      "longitude": "-90.04820190279199"
    }
  },
  {
    "service_request": "2025-1162603",
    "request_type": "Abandoned Vehicles",
    "request_reason": "Vehicle Blocking Your Driveway",
    "date_created": "2025-01-15T16:00:33.000",
    "date_modified": "2025-01-15T16:00:35.000",
    "request_status": "Pending",
    "responsible_agency": "Department of Public Works",
    "final_address": " & BALDWIN ST",
    "address_councildis": "D",
    "status": "Pending",
    "rowid": "1162603",
    "final_x": "3687880.8",
    "final_y": "560035.64",
    "longitude": "-90.04691121641319",
    "latitude": "30.03370814054373",
    "geocoded_column": {
      "latitude": "30.03370814054373",
      "longitude": "-90.04691121641319"
    }
  },
  {
    "service_request": "2025-1162602",
    "request_type": "Roads and Streets",
    "request_reason": "Debris in Driving Lanes",
    "date_created": "2025-01-15T15:57:57.000",
    "date_modified": "2025-01-15T15:57:58.000",
    "request_status": "Pending",
    "responsible_agency": "Department of Public Works",
    "final_address": "987 Allen Toussaint Blvd",
    "address_councildis": "D",
    "status": "Pending",
    "rowid": "1162602",
    "final_x": "3671424.32065",
    "final_y": "554636.17916",
    "longitude": "-90.0990995260852",
    "latitude": "30.01935930791479",
    "geocoded_column": {
      "latitude": "30.01935930791479",
      "longitude": "-90.0990995260852"
    }
  },
  {
    "service_request": "2025-1162601",
    "request_type": "Trash/Recycling",
    "request_reason": "Illegal Dumping",
    "date_created": "2025-01-15T15:55:50.000",
    "date_modified": "2025-01-15T15:55:53.000",
    "request_status": "Pending",
    "responsible_agency": "Department of Sanitation",
    "final_address": "7843 Keats St",
    "address_councildis": "E",
    "status": "Pending",
    "rowid": "1162601",
    "final_x": "3696167.26128",
    "final_y": "559765.300701",
    "longitude": "-90.02073495621127",
    "latitude": "30.032706406751014",
    "geocoded_column": {
      "latitude": "30.032706406751014",
      "longitude": "-90.02073495621127"
    }
  },
  {
    "service_request": "2025-1162600",
    "request_type": "Trash/Recycling",
    "request_reason": "Request a Large Item Pick Up",
    "date_created": "2025-01-15T15:49:14.000",
    "date_modified": "2025-01-15T15:49:16.000",
    "request_status": "Pending",
    "responsible_agency": "Department of Sanitation",
    "final_address": "1200 Kentucky St",
    "address_councildis": "D",
    "status": "Assigned to Contractor",
    "contractor": "IV Waste",
    "rowid": "1162600",
    "final_x": "3693354.92355",
    "final_y": "535341.745158",
    "longitude": "-90.03049969398435",
    "latitude": "29.9656388722138",
    "geocoded_column": {
      "latitude": "29.9656388722138",
      "longitude": "-90.03049969398435"
    }
  },
  {
    "service_request": "2025-1162599",
    "request_type": "Trash/Recycling",
    "request_reason": "Request a Large Item Pick Up",
    "date_created": "2025-01-15T15:48:46.000",
    "date_modified": "2025-01-15T15:48:48.000",
    "request_status": "Pending",
    "responsible_agency": "Department of Sanitation",
    "final_address": "2030 Burgundy St",
    "address_councildis": "C",
    "status": "Assigned to Contractor",
    "contractor": "IV Waste",
    "rowid": "1162599",
    "final_x": "3684554.94524",
    "final_y": "535514.623814",
    "longitude": "-90.05828356108412",
    "latitude": "29.966386416183127",
    "geocoded_column": {
      "latitude": "29.966386416183127",
      "longitude": "-90.05828356108412"
    }
  },
  {
    "service_request": "2025-1162598",
    "request_type": "Trash/Recycling",
    "request_reason": "Replace Trash Cart",
    "date_created": "2025-01-15T15:47:30.000",
    "date_modified": "2025-01-15T15:47:32.000",
    "request_status": "Pending",
    "responsible_agency": "Department of Sanitation",
    "final_address": "2537 Port St",
    "address_councildis": "D",
    "status": "Assigned to Contractor",
    "contractor": "IV Waste",
    "rowid": "1162598",
    "final_x": "3688866.93283",
    "final_y": "541934.234828",
    "longitude": "-90.04443837120654",
    "latitude": "29.983905441279127",
    "geocoded_column": {
      "latitude": "29.983905441279127",
      "longitude": "-90.04443837120654"
    }
  },
  {
    "service_request": "2025-1162597",
    "request_type": "Trash/Recycling",
    "request_reason": "Request a Large Item Pick Up",
    "date_created": "2025-01-15T15:46:34.000",
    "date_modified": "2025-01-15T15:47:01.000",
    "request_status": "Pending",
    "responsible_agency": "Department of Sanitation",
    "final_address": "4851 Shalimar Dr",
    "address_councildis": "D",
    "status": "Assigned to Contractor",
    "contractor": "Waste Pro",
    "rowid": "1162597",
    "final_x": "3697153.55587",
    "final_y": "554861.798744",
    "longitude": "-90.01779610192226",
    "latitude": "30.01919254419802",
    "geocoded_column": {
      "latitude": "30.01919254419802",
      "longitude": "-90.01779610192226"
    }
  },
  {
    "service_request": "2025-1162596",
    "request_type": "Safety & Permits",
    "request_reason": "Construction permit",
    "date_created": "2025-01-15T15:45:25.000",
    "date_modified": "2025-01-15T15:45:27.000",
    "request_status": "Pending",
    "responsible_agency": "Safety and Permits",
    "final_address": "2019 Burgundy St",
    "address_councildis": "C",
    "status": "Pending",
    "rowid": "1162596",
    "final_x": "3684451.28969",
    "final_y": "535649.416198",
    "longitude": "-90.05860616765877",
    "latitude": "29.96676021978141",
    "geocoded_column": {
      "latitude": "29.96676021978141",
      "longitude": "-90.05860616765877"
    }
  },
  {
    "service_request": "2025-1162595",
    "request_type": "Streetlights",
    "request_reason": "Streetlight Outage/Malfunction",
    "date_created": "2025-01-15T15:44:49.000",
    "date_modified": "2025-01-15T15:44:51.000",
    "request_status": "Pending",
    "responsible_agency": "Department of Public Works",
    "final_address": "3830 S Pin Oak Ave",
    "address_councildis": "C",
    "status": "Pending",
    "contractor": "Legacy Professional Services",
    "rowid": "1162595",
    "final_x": "3704832.73361",
    "final_y": "514156.555762",
    "longitude": "-89.99503489362013",
    "latitude": "29.90702322672558",
    "geocoded_column": {
      "latitude": "29.90702322672558",
      "longitude": "-89.99503489362013"
    }
  },
  {
    "service_request": "2025-1162594",
    "request_type": "Christmas Tree Recycle Pick Up",
    "request_reason": "Christmas Tree Recycle Pick Up",
    "date_created": "2025-01-15T15:44:46.000",
    "date_modified": "2025-01-15T15:44:49.000",
    "request_status": "Pending",
    "responsible_agency": "Office of Resilience and Sustainability",
    "final_address": "1231 Governor Nicholls St",
    "address_councildis": "C",
    "status": "Pending",
    "contractor": "R&R Recycling",
    "rowid": "1162594",
    "final_x": "3681998.84098",
    "final_y": "535288.925318",
    "longitude": "-90.06636357295567",
    "latitude": "29.96584378492434",
    "geocoded_column": {
      "latitude": "29.96584378492434",
      "longitude": "-90.06636357295567"
    }
  },
  {
    "service_request": "2025-1162593",
    "request_type": "Trash/Recycling",
    "request_reason": "Illegal Dumping",
    "date_created": "2025-01-15T15:43:45.000",
    "date_modified": "2025-01-15T15:43:48.000",
    "request_status": "Pending",
    "responsible_agency": "Department of Sanitation",
    "final_address": "7843 Keats St",
    "address_councildis": "E",
    "status": "Pending",
    "rowid": "1162593",
    "final_x": "3696167.26128",
    "final_y": "559765.300701",
    "longitude": "-90.02073495621127",
    "latitude": "30.032706406751014",
    "geocoded_column": {
      "latitude": "30.032706406751014",
      "longitude": "-90.02073495621127"
    }
  },
  {
    "service_request": "2025-1162592",
    "request_type": "Trash/Recycling",
    "request_reason": "Repair Trash Cart",
    "date_created": "2025-01-15T15:42:51.000",
    "date_modified": "2025-01-15T15:43:28.000",
    "request_status": "Pending",
    "responsible_agency": "Department of Sanitation",
    "final_address": "3830 S Pin Oak Ave",
    "address_councildis": "C",
    "status": "Assigned to Contractor",
    "contractor": "Richards Disposal",
    "rowid": "1162592",
    "final_x": "3704832.73361",
    "final_y": "514156.555762",
    "longitude": "-89.99503489362013",
    "latitude": "29.90702322672558",
    "geocoded_column": {
      "latitude": "29.90702322672558",
      "longitude": "-89.99503489362013"
    }
  },
  {
    "service_request": "2025-1162591",
    "request_type": "Christmas Tree Recycle Pick Up",
    "request_reason": "Christmas Tree Recycle Pick Up",
    "date_created": "2025-01-15T15:34:34.000",
    "date_modified": "2025-01-15T15:34:36.000",
    "request_status": "Pending",
    "responsible_agency": "Office of Resilience and Sustainability",
    "final_address": "3102 Spain St",
    "address_councildis": "D",
    "status": "Pending",
    "contractor": "R&R Recycling",
    "rowid": "1162591",
    "final_x": "3685427.99138",
    "final_y": "544172.154382",
    "longitude": "-90.05522153628344",
    "latitude": "29.99016484179469",
    "geocoded_column": {
      "latitude": "29.99016484179469",
      "longitude": "-90.05522153628344"
    }
  },
  {
    "service_request": "2025-1162590",
    "request_type": "Abandoned Vehicles",
    "request_reason": "Abandoned/Junk Vehicles",
    "date_created": "2025-01-15T15:32:51.000",
    "date_modified": "2025-01-15T15:32:54.000",
    "request_status": "Pending",
    "responsible_agency": "Department of Public Works",
    "final_address": "2922 Third St",
    "address_councildis": "B",
    "status": "Pending",
    "rowid": "1162590",
    "final_x": "3673772.63739",
    "final_y": "526842.638142",
    "longitude": "-90.09263051214735",
    "latitude": "29.942866841742514",
    "geocoded_column": {
      "latitude": "29.942866841742514",
      "longitude": "-90.09263051214735"
    }
  },
  {
    "service_request": "2025-1162589",
    "request_type": "Trash/Recycling",
    "request_reason": "Return Recycling Cart",
    "date_created": "2025-01-15T15:29:00.000",
    "date_modified": "2025-01-15T15:29:02.000",
    "request_status": "Pending",
    "responsible_agency": "Department of Sanitation",
    "final_address": "4538 Orleans Ave",
    "address_councildis": "A",
    "status": "Pending",
    "rowid": "1162589",
    "final_x": "3670815.99182",
    "final_y": "541405.347276",
    "longitude": "-90.10147107867452",
    "latitude": "29.982997136842346",
    "geocoded_column": {
      "latitude": "29.982997136842346",
      "longitude": "-90.10147107867452"
    }
  },
  {
    "service_request": "2025-1162588",
    "request_type": "Trash/Recycling",
    "request_reason": "Request a Large Item Pick Up",
    "date_created": "2025-01-15T15:28:31.000",
    "date_modified": "2025-01-15T15:28:34.000",
    "request_status": "Pending",
    "responsible_agency": "Department of Sanitation",
    "final_address": "4813 Crowder Blvd",
    "address_councildis": "E",
    "status": "Assigned to Contractor",
    "contractor": "Waste Pro",
    "rowid": "1162588",
    "final_x": "3706463.48273",
    "final_y": "556074.121497",
    "longitude": "-89.988335217847",
    "latitude": "30.022228776292863",
    "geocoded_column": {
      "latitude": "30.022228776292863",
      "longitude": "-89.988335217847"
    }
  },
  {
    "service_request": "2025-1162587",
    "request_type": "Christmas Tree Recycle Pick Up",
    "request_reason": "Christmas Tree Recycle Pick Up",
    "date_created": "2025-01-15T15:27:24.000",
    "date_modified": "2025-01-15T15:27:26.000",
    "request_status": "Pending",
    "responsible_agency": "Office of Resilience and Sustainability",
    "final_address": "2621 Fats Domino Ave",
    "address_councildis": "E",
    "status": "Pending",
    "contractor": "R&R Recycling",
    "rowid": "1162587",
    "final_x": "3699695.32874",
    "final_y": "539553.356234",
    "longitude": "-90.01032350474644",
    "latitude": "29.977019534260414",
    "geocoded_column": {
      "latitude": "29.977019534260414",
      "longitude": "-90.01032350474644"
    }
  },
  {
    "service_request": "2025-1162586",
    "request_type": "Trash/Recycling",
    "request_reason": "Request a Large Item Pick Up",
    "date_created": "2025-01-15T15:27:19.000",
    "date_modified": "2025-01-15T15:27:22.000",
    "request_status": "Pending",
    "responsible_agency": "Department of Sanitation",
    "final_address": "4261 Trieste St",
    "address_councildis": "E",
    "status": "Assigned to Contractor",
    "contractor": "Waste Pro",
    "rowid": "1162586",
    "final_x": "3760154.47049",
    "final_y": "573079.150057",
    "longitude": "-89.81797891540721",
    "latitude": "30.06714279680244",
    "geocoded_column": {
      "latitude": "30.06714279680244",
      "longitude": "-89.81797891540721"
    }
  },
  {
    "service_request": "2025-1162585",
    "request_type": "Trash/Recycling",
    "request_reason": "Repair Trash Cart",
    "date_created": "2025-01-15T15:26:47.000",
    "date_modified": "2025-01-15T15:26:49.000",
    "request_status": "Pending",
    "responsible_agency": "Department of Sanitation",
    "final_address": "4538 Orleans Ave",
    "address_councildis": "A",
    "status": "Assigned to Contractor",
    "contractor": "IV Waste",
    "rowid": "1162585",
    "final_x": "3670815.99182",
    "final_y": "541405.347276",
    "longitude": "-90.10147107867452",
    "latitude": "29.982997136842346",
    "geocoded_column": {
      "latitude": "29.982997136842346",
      "longitude": "-90.10147107867452"
    }
  },
  {
    "service_request": "2025-1162584",
    "request_type": "Trash/Recycling",
    "request_reason": "Request a Large Item Pick Up",
    "date_created": "2025-01-15T15:26:47.000",
    "date_modified": "2025-01-15T15:26:49.000",
    "request_status": "Pending",
    "responsible_agency": "Department of Sanitation",
    "final_address": "2621 Fats Domino Ave",
    "address_councildis": "E",
    "status": "Assigned to Contractor",
    "contractor": "Waste Pro",
    "rowid": "1162584",
    "final_x": "3699695.32874",
    "final_y": "539553.356234",
    "longitude": "-90.01032350474644",
    "latitude": "29.977019534260414",
    "geocoded_column": {
      "latitude": "29.977019534260414",
      "longitude": "-90.01032350474644"
    }
  },
  {
    "service_request": "2025-1162583",
    "request_type": "Christmas Tree Recycle Pick Up",
    "request_reason": "Christmas Tree Recycle Pick Up",
    "date_created": "2025-01-15T15:22:05.000",
    "date_modified": "2025-01-15T15:22:08.000",
    "request_status": "Pending",
    "responsible_agency": "Office of Resilience and Sustainability",
    "final_address": "829 Pacific Ave",
    "address_councildis": "C",
    "status": "Pending",
    "contractor": "R&R Recycling",
    "rowid": "1162583",
    "final_x": "3688404.78377",
    "final_y": "528460.248896",
    "longitude": "-90.04637607644734",
    "latitude": "29.946870965473337",
    "geocoded_column": {
      "latitude": "29.946870965473337",
      "longitude": "-90.04637607644734"
    }
  },
  {
    "service_request": "2025-1162582",
    "request_type": "Trash/Recycling",
    "request_reason": "Request a Large Item Pick Up",
    "date_created": "2025-01-15T15:19:20.000",
    "date_modified": "2025-01-15T15:19:46.000",
    "request_status": "Pending",
    "responsible_agency": "Department of Sanitation",
    "final_address": "4361 San Remo St",
    "address_councildis": "E",
    "status": "Assigned to Contractor",
    "contractor": "Waste Pro",
    "rowid": "1162582",
    "final_x": "3760541.27292",
    "final_y": "573692.37425",
    "longitude": "-89.81673054053617",
    "latitude": "30.068814810124877",
    "geocoded_column": {
      "latitude": "30.068814810124877",
      "longitude": "-89.81673054053617"
    }
  },
  {
    "service_request": "2025-1162581",
    "request_type": "Trash/Recycling",
    "request_reason": "Repair Recycling Cart",
    "date_created": "2025-01-15T15:18:34.000",
    "date_modified": "2025-01-15T15:18:36.000",
    "request_status": "Pending",
    "responsible_agency": "Department of Sanitation",
    "final_address": "7602 Alabama St",
    "address_councildis": "D",
    "status": "Pending",
    "rowid": "1162581",
    "final_x": "3694889.99894",
    "final_y": "558365.971036",
    "longitude": "-90.02482169172048",
    "latitude": "30.028898953567655",
    "geocoded_column": {
      "latitude": "30.028898953567655",
      "longitude": "-90.02482169172048"
    }
  },
  {
    "service_request": "2025-1162580",
    "request_type": "Trash/Recycling",
    "request_reason": "Repair Trash Cart",
    "date_created": "2025-01-15T15:18:07.000",
    "date_modified": "2025-01-15T15:18:09.000",
    "request_status": "Pending",
    "responsible_agency": "Department of Sanitation",
    "final_address": "7602 Alabama St",
    "address_councildis": "D",
    "status": "Assigned to Contractor",
    "contractor": "Waste Pro",
    "rowid": "1162580",
    "final_x": "3694889.99894",
    "final_y": "558365.971036",
    "longitude": "-90.02482169172048",
    "latitude": "30.028898953567655",
    "geocoded_column": {
      "latitude": "30.028898953567655",
      "longitude": "-90.02482169172048"
    }
  },
  {
    "service_request": "2025-1162579",
    "request_type": "Trash/Recycling",
    "request_reason": "Order Trash Cart",
    "date_created": "2025-01-15T15:18:04.000",
    "date_modified": "2025-01-15T15:18:05.000",
    "request_status": "Pending",
    "responsible_agency": "Department of Sanitation",
    "final_address": "4834 Francis Dr",
    "address_councildis": "D",
    "status": "Assigned to Contractor",
    "contractor": "Waste Pro",
    "rowid": "1162579",
    "final_x": "3698146.94186",
    "final_y": "554844.351512",
    "longitude": "-90.01465799614867",
    "latitude": "30.019113173845792",
    "geocoded_column": {
      "latitude": "30.019113173845792",
      "longitude": "-90.01465799614867"
    }
  },
  {
    "service_request": "2025-1162578",
    "request_type": "Trash/Recycling",
    "request_reason": "Illegal Dumping",
    "date_created": "2025-01-15T15:16:54.000",
    "date_modified": "2025-01-15T15:16:56.000",
    "request_status": "Pending",
    "responsible_agency": "Department of Sanitation",
    "final_address": "2443 Montegut St",
    "address_councildis": "D",
    "status": "Pending",
    "rowid": "1162578",
    "final_x": "3689779.04604",
    "final_y": "541371.2827",
    "longitude": "-90.04157748067554",
    "latitude": "29.98232928130808",
    "geocoded_column": {
      "latitude": "29.98232928130808",
      "longitude": "-90.04157748067554"
    }
  },
  {
    "service_request": "2025-1162577",
    "request_type": "Trash/Recycling",
    "request_reason": "Order Recycling Cart",
    "date_created": "2025-01-15T15:16:38.000",
    "date_modified": "2025-01-15T15:16:39.000",
    "request_status": "Pending",
    "responsible_agency": "Department of Sanitation",
    "final_address": "1644 State St",
    "address_councildis": "A",
    "status": "Pending",
    "rowid": "1162577",
    "final_x": "3665867.44512",
    "final_y": "523081.796859",
    "longitude": "-90.11771517349044",
    "latitude": "29.932758725231793",
    "geocoded_column": {
      "latitude": "29.932758725231793",
      "longitude": "-90.11771517349044"
    }
  },
  {
    "service_request": "2025-1162576",
    "request_type": "Trash/Recycling",
    "request_reason": "Repair Trash Cart",
    "date_created": "2025-01-15T15:16:01.000",
    "date_modified": "2025-01-15T15:16:06.000",
    "request_status": "Pending",
    "responsible_agency": "Department of Sanitation",
    "final_address": "1644 State St",
    "address_councildis": "A",
    "status": "Assigned to Contractor",
    "contractor": "IV Waste",
    "rowid": "1162576",
    "final_x": "3665867.44512",
    "final_y": "523081.796859",
    "longitude": "-90.11771517349044",
    "latitude": "29.932758725231793",
    "geocoded_column": {
      "latitude": "29.932758725231793",
      "longitude": "-90.11771517349044"
    }
  },
  {
    "service_request": "2025-1162575",
    "request_type": "Trash/Recycling",
    "request_reason": "Illegal Dumping",
    "date_created": "2025-01-15T15:15:24.000",
    "date_modified": "2025-01-15T15:15:26.000",
    "request_status": "Pending",
    "responsible_agency": "Department of Sanitation",
    "final_address": "2443 Montegut St",
    "address_councildis": "D",
    "status": "Pending",
    "rowid": "1162575",
    "final_x": "3689779.04604",
    "final_y": "541371.2827",
    "longitude": "-90.04157748067554",
    "latitude": "29.98232928130808",
    "geocoded_column": {
      "latitude": "29.98232928130808",
      "longitude": "-90.04157748067554"
    }
  },
  {
    "service_request": "2025-1162574",
    "request_type": "Trash/Recycling",
    "request_reason": "Request a Large Item Pick Up",
    "date_created": "2025-01-15T15:13:20.000",
    "date_modified": "2025-01-15T15:13:22.000",
    "request_status": "Pending",
    "responsible_agency": "Department of Sanitation",
    "final_address": "2428 Ramsey Dr",
    "address_councildis": "C",
    "status": "Assigned to Contractor",
    "contractor": "Richards Disposal",
    "rowid": "1162574",
    "final_x": "3703208.46846",
    "final_y": "521981.411386",
    "longitude": "-89.99987381239198",
    "latitude": "29.92859095230058",
    "geocoded_column": {
      "latitude": "29.92859095230058",
      "longitude": "-89.99987381239198"
    }
  },
  {
    "service_request": "2025-1162573",
    "request_type": "Roads and Streets",
    "request_reason": "Curb Damage",
    "date_created": "2025-01-15T15:08:54.000",
    "date_modified": "2025-01-15T15:08:57.000",
    "request_status": "Pending",
    "responsible_agency": "Department of Public Works",
    "final_address": "3029 N Dorgenois St",
    "address_councildis": "D",
    "status": "Pending",
    "rowid": "1162573",
    "final_x": "3690004.06819",
    "final_y": "541393.220044",
    "longitude": "-90.04086597145249",
    "latitude": "29.982382624021124",
    "geocoded_column": {
      "latitude": "29.982382624021124",
      "longitude": "-90.04086597145249"
    }
  },
  {
    "service_request": "2025-1162572",
    "request_type": "Christmas Tree Recycle Pick Up",
    "request_reason": "Christmas Tree Recycle Pick Up",
    "date_created": "2025-01-15T15:07:14.000",
    "date_modified": "2025-01-15T15:07:17.000",
    "request_status": "Pending",
    "responsible_agency": "Office of Resilience and Sustainability",
    "final_address": "620 Clouet St",
    "address_councildis": "C",
    "status": "Pending",
    "contractor": "R&R Recycling",
    "rowid": "1162572",
    "final_x": "3688549.29628",
    "final_y": "534334.273349",
    "longitude": "-90.04571138581942",
    "latitude": "29.963018043413676",
    "geocoded_column": {
      "latitude": "29.963018043413676",
      "longitude": "-90.04571138581942"
    }
  },
  {
    "service_request": "2025-1162571",
    "request_type": "Trash/Recycling",
    "request_reason": "Repair Trash Cart",
    "date_created": "2025-01-15T15:05:29.000",
    "date_modified": "2025-01-15T15:05:31.000",
    "request_status": "Pending",
    "responsible_agency": "Department of Sanitation",
    "final_address": "6023 Laurel St",
    "address_councildis": "A",
    "status": "Assigned to Contractor",
    "contractor": "IV Waste",
    "rowid": "1162571",
    "final_x": "3664234.28941",
    "final_y": "518325.657142",
    "longitude": "-90.12302953432162",
    "latitude": "29.919728375090145",
    "geocoded_column": {
      "latitude": "29.919728375090145",
      "longitude": "-90.12302953432162"
    }
  },
  {
    "service_request": "2025-1162570",
    "request_type": "Trash/Recycling",
    "request_reason": "Repair Trash Cart",
    "date_created": "2025-01-15T15:02:32.000",
    "date_modified": "2025-01-15T15:02:34.000",
    "request_status": "Pending",
    "responsible_agency": "Department of Sanitation",
    "final_address": "1929 Esplanade Ave",
    "address_councildis": "D",
    "status": "Assigned to Contractor",
    "contractor": "IV Waste",
    "rowid": "1162570",
    "final_x": "3680257.00079",
    "final_y": "537446.59604",
    "longitude": "-90.07178922667175",
    "latitude": "29.971829481547797",
    "geocoded_column": {
      "latitude": "29.971829481547797",
      "longitude": "-90.07178922667175"
    }
  },
  {
    "service_request": "2025-1162569",
    "request_type": "Trash/Recycling",
    "request_reason": "Request a Large Item Pick Up",
    "date_created": "2025-01-15T15:02:28.000",
    "date_modified": "2025-01-15T15:02:47.000",
    "request_status": "Pending",
    "responsible_agency": "Department of Sanitation",
    "final_address": "7806 Sun St",
    "address_councildis": "E",
    "status": "Assigned to Contractor",
    "contractor": "Waste Pro",
    "rowid": "1162569",
    "final_x": "3720504.90495",
    "final_y": "574200.813546",
    "longitude": "-89.94327354936135",
    "latitude": "30.071609046329918",
    "geocoded_column": {
      "latitude": "30.071609046329918",
      "longitude": "-89.94327354936135"
    }
  },
  {
    "service_request": "2025-1162568",
    "request_type": "Streetlights",
    "request_reason": "Streetlight Outage/Malfunction",
    "date_created": "2025-01-15T15:02:06.000",
    "date_modified": "2025-01-15T15:02:07.000",
    "request_status": "Pending",
    "responsible_agency": "Department of Public Works",
    "final_address": "344 St Joseph St",
    "address_councildis": "B",
    "status": "Pending",
    "contractor": "Legacy Professional Services",
    "rowid": "1162568",
    "final_x": "3681402.60552",
    "final_y": "527129.177727",
    "longitude": "-90.068530898725",
    "latitude": "29.943425356742654",
    "geocoded_column": {
      "latitude": "29.943425356742654",
      "longitude": "-90.068530898725"
    }
  },
  {
    "service_request": "2025-1162567",
    "request_type": "Roads and Streets",
    "request_reason": "Pothole",
    "date_created": "2025-01-15T14:58:35.000",
    "date_modified": "2025-01-15T14:58:38.000",
    "request_status": "Pending",
    "responsible_agency": "Department of Public Works",
    "final_address": "14102 Willowbrook Dr",
    "address_councildis": "E",
    "status": "Pending",
    "rowid": "1162567",
    "final_x": "3724723.25446",
    "final_y": "564250.549665",
    "longitude": "-89.93032335504337",
    "latitude": "30.044108625043723",
    "geocoded_column": {
      "latitude": "30.044108625043723",
      "longitude": "-89.93032335504337"
    }
  },
  {
    "service_request": "2025-1162566",
    "request_type": "Trash/Recycling",
    "request_reason": "Illegal Dumping",
    "date_created": "2025-01-15T14:55:42.000",
    "date_modified": "2025-01-15T14:55:44.000",
    "request_status": "Pending",
    "responsible_agency": "Department of Sanitation",
    "final_address": "3029 N Dorgenois St",
    "address_councildis": "D",
    "status": "Pending",
    "rowid": "1162566",
    "final_x": "3690004.06819",
    "final_y": "541393.220044",
    "longitude": "-90.04086597145249",
    "latitude": "29.982382624021124",
    "geocoded_column": {
      "latitude": "29.982382624021124",
      "longitude": "-90.04086597145249"
    }
  },
  {
    "service_request": "2025-1162565",
    "request_type": "Abandoned Vehicles",
    "request_reason": "Abandoned/Junk Vehicles",
    "date_created": "2025-01-15T14:54:43.000",
    "date_modified": "2025-01-15T14:54:45.000",
    "request_status": "Pending",
    "responsible_agency": "Department of Public Works",
    "final_address": "1936 St Louis St",
    "address_councildis": "B",
    "status": "Pending",
    "rowid": "1162565",
    "final_x": "3678446.1348",
    "final_y": "534576.446341",
    "longitude": "-90.07760756330917",
    "latitude": "29.963992245905747",
    "geocoded_column": {
      "latitude": "29.963992245905747",
      "longitude": "-90.07760756330917"
    }
  },
  {
    "service_request": "2025-1162564",
    "request_type": "Trash/Recycling",
    "request_reason": "Request a Large Item Pick Up",
    "date_created": "2025-01-15T14:54:20.000",
    "date_modified": "2025-01-15T14:54:22.000",
    "request_status": "Pending",
    "responsible_agency": "Department of Sanitation",
    "final_address": "4835 Bonita Dr",
    "address_councildis": "E",
    "status": "Assigned to Contractor",
    "contractor": "Waste Pro",
    "rowid": "1162564",
    "final_x": "3704476.40484",
    "final_y": "555903.763481",
    "longitude": "-89.9946201321961",
    "latitude": "30.02182434156688",
    "geocoded_column": {
      "latitude": "30.02182434156688",
      "longitude": "-89.9946201321961"
    }
  },
  {
    "service_request": "2025-1162563",
    "request_type": "Trash/Recycling",
    "request_reason": "Request a Large Item Pick Up",
    "date_created": "2025-01-15T14:53:09.000",
    "date_modified": "2025-01-15T14:53:14.000",
    "request_status": "Pending",
    "responsible_agency": "Department of Sanitation",
    "final_address": "2020 Camp St",
    "address_councildis": "B",
    "status": "Assigned to Contractor",
    "contractor": "IV Waste",
    "rowid": "1162563",
    "final_x": "3679150.01717",
    "final_y": "522739.85721",
    "longitude": "-90.07579499293321",
    "latitude": "29.931424352313797",
    "geocoded_column": {
      "latitude": "29.931424352313797",
      "longitude": "-90.07579499293321"
    }
  },
  {
    "service_request": "2025-1162562",
    "request_type": "Abandoned Vehicles",
    "request_reason": "Abandoned/Junk Vehicles",
    "date_created": "2025-01-15T14:52:09.000",
    "date_modified": "2025-01-15T14:52:13.000",
    "request_status": "Pending",
    "responsible_agency": "Department of Public Works",
    "final_address": "4122 S Derbigny St",
    "address_councildis": "B",
    "status": "Pending",
    "rowid": "1162562",
    "final_x": "3671184.52603",
    "final_y": "526301.388798",
    "longitude": "-90.10082020259362",
    "latitude": "29.94145538460403",
    "geocoded_column": {
      "latitude": "29.94145538460403",
      "longitude": "-90.10082020259362"
    }
  },
  {
    "service_request": "2025-1162561",
    "request_type": "Christmas Tree Recycle Pick Up",
    "request_reason": "Christmas Tree Recycle Pick Up",
    "date_created": "2025-01-15T14:52:03.000",
    "date_modified": "2025-01-15T14:58:00.000",
    "request_status": "Pending",
    "responsible_agency": "Office of Resilience and Sustainability",
    "final_address": "2257 Halsey Ave",
    "address_councildis": "C",
    "status": "Pending",
    "contractor": "R&R Recycling",
    "rowid": "1162561",
    "final_x": "3697611.85482",
    "final_y": "522466.984122",
    "longitude": "-90.01752343703001",
    "latitude": "29.930104010107105",
    "geocoded_column": {
      "latitude": "29.930104010107105",
      "longitude": "-90.01752343703001"
    }
  },
  {
    "service_request": "2025-1162560",
    "request_type": "Abandoned Vehicles",
    "request_reason": "Abandoned/Junk Vehicles",
    "date_created": "2025-01-15T14:51:37.000",
    "date_modified": "2025-01-15T14:51:38.000",
    "request_status": "Pending",
    "responsible_agency": "Department of Public Works",
    "final_address": "1936 St Louis St",
    "address_councildis": "B",
    "status": "Pending",
    "rowid": "1162560",
    "final_x": "3678446.1348",
    "final_y": "534576.446341",
    "longitude": "-90.07760756330917",
    "latitude": "29.963992245905747",
    "geocoded_column": {
      "latitude": "29.963992245905747",
      "longitude": "-90.07760756330917"
    }
  },
  {
    "service_request": "2025-1162559",
    "request_type": "Abandoned Vehicles",
    "request_reason": "Abandoned/Junk Vehicles",
    "date_created": "2025-01-15T14:51:36.000",
    "date_modified": "2025-01-15T14:51:38.000",
    "request_status": "Pending",
    "responsible_agency": "Department of Public Works",
    "final_address": "1933 Ursulines Ave",
    "address_councildis": "D",
    "status": "Pending",
    "rowid": "1162559",
    "final_x": "3679960.69314",
    "final_y": "536429.849863",
    "longitude": "-90.0727603381234",
    "latitude": "29.96904274575226",
    "geocoded_column": {
      "latitude": "29.96904274575226",
      "longitude": "-90.0727603381234"
    }
  },
  {
    "service_request": "2025-1162558",
    "request_type": "Parks & Parkways",
    "request_reason": "Park Maintenance/Clean Up",
    "date_created": "2025-01-15T14:50:05.000",
    "date_modified": "2025-01-15T14:50:06.000",
    "request_status": "Pending",
    "responsible_agency": "Department of Parks & Parkway",
    "final_address": "3029 N Dorgenois St",
    "address_councildis": "D",
    "status": "Pending",
    "rowid": "1162558",
    "final_x": "3690004.06819",
    "final_y": "541393.220044",
    "longitude": "-90.04086597145249",
    "latitude": "29.982382624021124",
    "geocoded_column": {
      "latitude": "29.982382624021124",
      "longitude": "-90.04086597145249"
    }
  },
  {
    "service_request": "2025-1162557",
    "request_type": "Trash/Recycling",
    "request_reason": "Request a Large Item Pick Up",
    "date_created": "2025-01-15T14:49:25.000",
    "date_modified": "2025-01-15T14:49:27.000",
    "request_status": "Pending",
    "responsible_agency": "Department of Sanitation",
    "final_address": "4845 Marque Dr",
    "address_councildis": "E",
    "status": "Assigned to Contractor",
    "contractor": "Waste Pro",
    "rowid": "1162557",
    "final_x": "3710022.34757",
    "final_y": "556525.276186",
    "longitude": "-89.97707332049688",
    "latitude": "30.023353931186254",
    "geocoded_column": {
      "latitude": "30.023353931186254",
      "longitude": "-89.97707332049688"
    }
  },
  {
    "service_request": "2025-1162556",
    "request_type": "Roads and Streets",
    "request_reason": "Pothole",
    "date_created": "2025-01-15T14:49:08.000",
    "date_modified": "2025-01-15T14:49:10.000",
    "request_status": "Pending",
    "responsible_agency": "Department of Public Works",
    "final_address": "734 Jefferson Ave",
    "address_councildis": "A",
    "status": "Pending",
    "rowid": "1162556",
    "final_x": "3666512.67489",
    "final_y": "518165.675062",
    "longitude": "-90.1158431294325",
    "latitude": "29.919222105117242",
    "geocoded_column": {
      "latitude": "29.919222105117242",
      "longitude": "-90.1158431294325"
    }
  },
  {
    "service_request": "2025-1162555",
    "request_type": "Trash/Recycling",
    "request_reason": "Request a Large Item Pick Up",
    "date_created": "2025-01-15T14:46:53.000",
    "date_modified": "2025-01-15T14:46:55.000",
    "request_status": "Pending",
    "responsible_agency": "Department of Sanitation",
    "final_address": "5402 Chartres St",
    "address_councildis": "E",
    "status": "Assigned to Contractor",
    "contractor": "Waste Pro",
    "rowid": "1162555",
    "final_x": "3696730.30269",
    "final_y": "532071.947715",
    "longitude": "-90.01995879261924",
    "latitude": "29.956542128284326",
    "geocoded_column": {
      "latitude": "29.956542128284326",
      "longitude": "-90.01995879261924"
    }
  },
  {
    "service_request": "2025-1162554",
    "request_type": "Trash/Recycling",
    "request_reason": "Missed Trash Pick-Up",
    "date_created": "2025-01-15T14:46:42.000",
    "date_modified": "2025-01-15T14:47:08.000",
    "request_status": "Pending",
    "responsible_agency": "Department of Sanitation",
    "final_address": "110 Pinehurst Ct",
    "address_councildis": "E",
    "status": "Assigned to Contractor",
    "contractor": "Waste Pro",
    "rowid": "1162554",
    "final_x": "3720086.9575",
    "final_y": "564679.984546",
    "longitude": "-89.94495948667388",
    "latitude": "30.045444671123985",
    "geocoded_column": {
      "latitude": "30.045444671123985",
      "longitude": "-89.94495948667388"
    }
  },
  {
    "service_request": "2025-1162553",
    "request_type": "Trash/Recycling",
    "request_reason": "Return Trash Cart",
    "date_created": "2025-01-15T14:44:28.000",
    "date_modified": "2025-01-15T14:44:30.000",
    "request_status": "Pending",
    "responsible_agency": "Department of Sanitation",
    "final_address": "4628 Bienville Ave",
    "address_councildis": "A",
    "status": "Assigned to Contractor",
    "contractor": "IV Waste",
    "rowid": "1162553",
    "final_x": "3669668.15137",
    "final_y": "540343.604171",
    "longitude": "-90.105132500674",
    "latitude": "29.980111585018875",
    "geocoded_column": {
      "latitude": "29.980111585018875",
      "longitude": "-90.105132500674"
    }
  },
  {
    "service_request": "2025-1162552",
    "request_type": "Christmas Tree Recycle Pick Up",
    "request_reason": "Christmas Tree Recycle Pick Up",
    "date_created": "2025-01-15T14:44:04.000",
    "date_modified": "2025-01-15T14:44:07.000",
    "request_status": "Pending",
    "responsible_agency": "Office of Resilience and Sustainability",
    "final_address": "4214 S Prieur St",
    "address_councildis": "B",
    "status": "Pending",
    "contractor": "R&R Recycling",
    "rowid": "1162552",
    "final_x": "3670853.29614",
    "final_y": "526900.478782",
    "longitude": "-90.10184563455195",
    "latitude": "29.94311247966586",
    "geocoded_column": {
      "latitude": "29.94311247966586",
      "longitude": "-90.10184563455195"
    }
  },
  {
    "service_request": "2025-1162551",
    "request_type": "Trash/Recycling",
    "request_reason": "Request a Large Item Pick Up",
    "date_created": "2025-01-15T14:43:34.000",
    "date_modified": "2025-01-15T14:43:37.000",
    "request_status": "Pending",
    "responsible_agency": "Department of Sanitation",
    "final_address": "6006 Airway St",
    "address_councildis": "D",
    "status": "Assigned to Contractor",
    "contractor": "Waste Pro",
    "rowid": "1162551",
    "final_x": "3696578.70896",
    "final_y": "552810.219478",
    "longitude": "-90.01968672693643",
    "latitude": "30.013569608865815",
    "geocoded_column": {
      "latitude": "30.013569608865815",
      "longitude": "-90.01968672693643"
    }
  },
  {
    "service_request": "2025-1162550",
    "request_type": "Trash/Recycling",
    "request_reason": "Request a Large Item Pick Up",
    "date_created": "2025-01-15T14:42:35.000",
    "date_modified": "2025-01-15T14:42:37.000",
    "request_status": "Pending",
    "responsible_agency": "Department of Sanitation",
    "final_address": "78 Marywood Ct",
    "address_councildis": "E",
    "status": "Assigned to Contractor",
    "contractor": "Waste Pro",
    "rowid": "1162550",
    "final_x": "3712454.65483",
    "final_y": "566479.780515",
    "longitude": "-89.9690133108145",
    "latitude": "30.050645450406105",
    "geocoded_column": {
      "latitude": "30.050645450406105",
      "longitude": "-89.9690133108145"
    }
  },
  {
    "service_request": "2025-1162549",
    "request_type": "Trash/Recycling",
    "request_reason": "Request a Large Item Pick Up",
    "date_created": "2025-01-15T14:41:39.000",
    "date_modified": "2025-01-15T14:41:41.000",
    "request_status": "Pending",
    "responsible_agency": "Department of Sanitation",
    "final_address": "4444 Cessna Ct",
    "address_councildis": "D",
    "status": "Assigned to Contractor",
    "contractor": "Waste Pro",
    "rowid": "1162549",
    "final_x": "3696546.13559",
    "final_y": "552641.790934",
    "longitude": "-90.01979574151123",
    "latitude": "30.013107520388907",
    "geocoded_column": {
      "latitude": "30.013107520388907",
      "longitude": "-90.01979574151123"
    }
  },
  {
    "service_request": "2025-1162548",
    "request_type": "Street and Traffic Signs",
    "request_reason": "Traffic or Parking Sign Damaged or Missing",
    "date_created": "2025-01-15T14:41:18.000",
    "date_modified": "2025-01-15T14:41:19.000",
    "request_status": "Pending",
    "responsible_agency": "Department of Public Works",
    "final_address": "1 Earhart Blvd",
    "address_councildis": "B",
    "status": "Pending",
    "rowid": "1162548",
    "final_x": "3669172.05185",
    "final_y": "532017.478019",
    "longitude": "-90.10698084754388",
    "latitude": "29.957232131761604",
    "geocoded_column": {
      "latitude": "29.957232131761604",
      "longitude": "-90.10698084754388"
    }
  },
  {
    "service_request": "2025-1162547",
    "request_type": "Trash/Recycling",
    "request_reason": "Illegal Dumping",
    "date_created": "2025-01-15T14:38:54.000",
    "date_modified": "2025-01-15T14:38:56.000",
    "request_status": "Pending",
    "responsible_agency": "Department of Sanitation",
    "final_address": "2755 Sage St",
    "address_councildis": "D",
    "status": "Pending",
    "rowid": "1162547",
    "final_x": "3688285.42825",
    "final_y": "545595.842896",
    "longitude": "-90.04614515113748",
    "latitude": "29.9939915249457",
    "geocoded_column": {
      "latitude": "29.9939915249457",
      "longitude": "-90.04614515113748"
    }
  },
  {
    "service_request": "2025-1162546",
    "request_type": "Property Maintenance",
    "request_reason": "Property Maintenance",
    "date_created": "2025-01-15T14:35:51.000",
    "date_modified": "2025-01-15T14:35:51.000",
    "request_status": "Pending",
    "responsible_agency": "Department of Code Enforcement",
    "final_address": "7537 Forest Glen Rd",
    "address_councildis": "E",
    "status": "Pending",
    "rowid": "1162546",
    "final_x": "3709936.8739",
    "final_y": "564626.653665",
    "longitude": "-89.97704039504991",
    "latitude": "30.045632287119147",
    "geocoded_column": {
      "latitude": "30.045632287119147",
      "longitude": "-89.97704039504991"
    }
  },
  {
    "service_request": "2025-1162545",
    "request_type": "Trash/Recycling",
    "request_reason": "Request a Large Item Pick Up",
    "date_created": "2025-01-15T14:31:18.000",
    "date_modified": "2025-01-15T14:31:21.000",
    "request_status": "Pending",
    "responsible_agency": "Department of Sanitation",
    "final_address": "8641 Curran Rd",
    "address_councildis": "E",
    "status": "Assigned to Contractor",
    "contractor": "Waste Pro",
    "rowid": "1162545",
    "final_x": "3704217.45489",
    "final_y": "562657.985312",
    "longitude": "-89.99518910799985",
    "latitude": "30.04040413316678",
    "geocoded_column": {
      "latitude": "30.04040413316678",
      "longitude": "-89.99518910799985"
    }
  },
  {
    "service_request": "2025-1162544",
    "request_type": "Trash/Recycling",
    "request_reason": "Missed Trash Pick-Up",
    "date_created": "2025-01-15T14:26:43.000",
    "date_modified": "2025-01-15T14:26:46.000",
    "request_status": "Pending",
    "responsible_agency": "Department of Sanitation",
    "final_address": "7251 Northgate Dr",
    "address_councildis": "E",
    "status": "Assigned to Contractor",
    "contractor": "Waste Pro",
    "rowid": "1162544",
    "final_x": "3713471.47167",
    "final_y": "565525.940002",
    "longitude": "-89.96583551935227",
    "latitude": "30.047989448193054",
    "geocoded_column": {
      "latitude": "30.047989448193054",
      "longitude": "-89.96583551935227"
    }
  },
  {
    "service_request": "2025-1162543",
    "request_type": "Streetlights",
    "request_reason": "Streetlight Outage/Malfunction",
    "date_created": "2025-01-15T14:26:33.000",
    "date_modified": "2025-01-15T14:26:34.000",
    "request_status": "Pending",
    "responsible_agency": "Department of Public Works",
    "final_address": "ODEON ST & GENERAL MEYER AVE & SOCRATES ST",
    "address_councildis": "C",
    "status": "Pending",
    "contractor": "Legacy Professional Services",
    "rowid": "1162543",
    "final_x": "3695984.6",
    "final_y": "526251.38",
    "longitude": "-90.02252372114835",
    "latitude": "29.940561078378014",
    "geocoded_column": {
      "latitude": "29.940561078378014",
      "longitude": "-90.02252372114835"
    }
  },
  {
    "service_request": "2025-1162542",
    "request_type": "Property Maintenance",
    "request_reason": "Property Maintenance",
    "date_created": "2025-01-15T14:26:15.000",
    "date_modified": "2025-01-15T14:26:17.000",
    "request_status": "Pending",
    "responsible_agency": "Department of Code Enforcement",
    "final_address": "7515 Lacombe St",
    "address_councildis": "E",
    "status": "Pending",
    "rowid": "1162542",
    "final_x": "3710113.68312",
    "final_y": "564662.100257",
    "longitude": "-89.97648026932721",
    "latitude": "30.04572399533231",
    "geocoded_column": {
      "latitude": "30.04572399533231",
      "longitude": "-89.97648026932721"
    }
  },
  {
    "service_request": "2025-1162541",
    "request_type": "Trash/Recycling",
    "request_reason": "Request a Large Item Pick Up",
    "date_created": "2025-01-15T14:22:36.000",
    "date_modified": "2025-01-15T14:22:39.000",
    "request_status": "Pending",
    "responsible_agency": "Department of Sanitation",
    "final_address": "3001 Nashville Ave",
    "address_councildis": "A",
    "status": "Assigned to Contractor",
    "contractor": "IV Waste",
    "rowid": "1162541",
    "final_x": "3667747.37677",
    "final_y": "526908.177278",
    "longitude": "-90.11165156704207",
    "latitude": "29.943225068656087",
    "geocoded_column": {
      "latitude": "29.943225068656087",
      "longitude": "-90.11165156704207"
    }
  },
  {
    "service_request": "2025-1162540",
    "request_type": "Trash/Recycling",
    "request_reason": "Request a Large Item Pick Up",
    "date_created": "2025-01-15T14:20:04.000",
    "date_modified": "2025-01-15T14:20:06.000",
    "request_status": "Pending",
    "responsible_agency": "Department of Sanitation",
    "final_address": "11636 Pressburg St",
    "address_councildis": "E",
    "status": "Assigned to Contractor",
    "contractor": "Waste Pro",
    "rowid": "1162540",
    "final_x": "3718653.32236",
    "final_y": "557716.982555",
    "longitude": "-89.94975613983904",
    "latitude": "30.026346922369797",
    "geocoded_column": {
      "latitude": "30.026346922369797",
      "longitude": "-89.94975613983904"
    }
  },
  {
    "service_request": "2025-1162539",
    "request_type": "Christmas Tree Recycle Pick Up",
    "request_reason": "Christmas Tree Recycle Pick Up",
    "date_created": "2025-01-15T14:18:23.000",
    "date_modified": "2025-01-15T14:18:25.000",
    "request_status": "Pending",
    "responsible_agency": "Office of Resilience and Sustainability",
    "final_address": "1414 Second St",
    "address_councildis": "B",
    "status": "Pending",
    "contractor": "R&R Recycling",
    "rowid": "1162539",
    "final_x": "3677130.72942",
    "final_y": "522325.164346",
    "longitude": "-90.08218393741878",
    "latitude": "29.930344864111333",
    "geocoded_column": {
      "latitude": "29.930344864111333",
      "longitude": "-90.08218393741878"
    }
  },
  {
    "service_request": "2025-1162538",
    "request_type": "Roads and Streets",
    "request_reason": "Pothole",
    "date_created": "2025-01-15T14:17:51.000",
    "date_modified": "2025-01-15T14:18:50.000",
    "case_close_date": "2025-01-15T08:18:49.000",
    "request_status": "Closed",
    "responsible_agency": "Department of Public Works",
    "final_address": "300 BLK N White St",
    "address_councildis": "B",
    "status": "Resolved",
    "rowid": "1162538",
    "final_x": "3675478.52269",
    "final_y": "536244.053284",
    "longitude": "-90.08692173842039",
    "latitude": "29.968666691721292",
    "geocoded_column": {
      "latitude": "29.968666691721292",
      "longitude": "-90.08692173842039"
    }
  },
  {
    "service_request": "2025-1162537",
    "request_type": "Trash/Recycling",
    "request_reason": "Replace Trash Cart",
    "date_created": "2025-01-15T14:17:16.000",
    "date_modified": "2025-01-15T14:17:18.000",
    "request_status": "Pending",
    "responsible_agency": "Department of Sanitation",
    "final_address": "3609 Silver Maple Ct",
    "address_councildis": "C",
    "status": "Assigned to Contractor",
    "contractor": "Richards Disposal",
    "rowid": "1162537",
    "final_x": "3703004.63479",
    "final_y": "512496.080113",
    "longitude": "-90.00086546812281",
    "latitude": "29.902516065019796",
    "geocoded_column": {
      "latitude": "29.902516065019796",
      "longitude": "-90.00086546812281"
    }
  },
  {
    "service_request": "2025-1162536",
    "request_type": "Trash/Recycling",
    "request_reason": "Replace Trash Cart",
    "date_created": "2025-01-15T14:16:07.000",
    "date_modified": "2025-01-15T14:16:16.000",
    "request_status": "Pending",
    "responsible_agency": "Department of Sanitation",
    "final_address": "3609 Silver Maple Ct",
    "address_councildis": "C",
    "status": "Assigned to Contractor",
    "contractor": "Richards Disposal",
    "rowid": "1162536",
    "final_x": "3703004.63479",
    "final_y": "512496.080113",
    "longitude": "-90.00086546812281",
    "latitude": "29.902516065019796",
    "geocoded_column": {
      "latitude": "29.902516065019796",
      "longitude": "-90.00086546812281"
    }
  },
  {
    "service_request": "2025-1162535",
    "request_type": "Abandoned Vehicles",
    "request_reason": "Abandoned/Junk Vehicles",
    "date_created": "2025-01-15T14:15:21.000",
    "date_modified": "2025-01-15T14:15:22.000",
    "request_status": "Pending",
    "responsible_agency": "Department of Public Works",
    "final_address": "2814 Dumaine St",
    "address_councildis": "A",
    "status": "Pending",
    "rowid": "1162535",
    "final_x": "3676580.50465",
    "final_y": "537912.326537",
    "longitude": "-90.08338414228527",
    "latitude": "29.973220868008323",
    "geocoded_column": {
      "latitude": "29.973220868008323",
      "longitude": "-90.08338414228527"
    }
  },
  {
    "service_request": "2025-1162534",
    "request_type": "Streetlights",
    "request_reason": "Streetlight Outage/Malfunction",
    "date_created": "2025-01-15T14:14:52.000",
    "date_modified": "2025-01-15T14:14:53.000",
    "request_status": "Pending",
    "responsible_agency": "Department of Public Works",
    "final_address": "1551 Leda St",
    "address_councildis": "A",
    "status": "Pending",
    "contractor": "Legacy Professional Services",
    "rowid": "1162534",
    "final_x": "3675719.53723",
    "final_y": "541894.085196",
    "longitude": "-90.08596635898144",
    "latitude": "29.984195133447834",
    "geocoded_column": {
      "latitude": "29.984195133447834",
      "longitude": "-90.08596635898144"
    }
  },
  {
    "service_request": "2025-1162533",
    "request_type": "Roads and Streets",
    "request_reason": "Pothole",
    "date_created": "2025-01-15T14:11:57.000",
    "date_modified": "2025-01-15T14:13:19.000",
    "case_close_date": "2025-01-15T08:13:18.000",
    "request_status": "Closed",
    "responsible_agency": "Department of Public Works",
    "final_address": "200 BLK N Gayoso St",
    "address_councildis": "B",
    "status": "Resolved",
    "rowid": "1162533",
    "final_x": "3674709.55737",
    "final_y": "536349.121971",
    "longitude": "-90.08934657544505",
    "latitude": "29.968978572363447",
    "geocoded_column": {
      "latitude": "29.968978572363447",
      "longitude": "-90.08934657544505"
    }
  },
  {
    "service_request": "2025-1162532",
    "request_type": "Trash/Recycling",
    "request_reason": "Request a Large Item Pick Up",
    "date_created": "2025-01-15T14:10:58.000",
    "date_modified": "2025-01-15T14:11:00.000",
    "request_status": "Pending",
    "responsible_agency": "Department of Sanitation",
    "final_address": "4717 Ray Ave",
    "address_councildis": "E",
    "status": "Assigned to Contractor",
    "contractor": "Waste Pro",
    "rowid": "1162532",
    "final_x": "3698839.90263",
    "final_y": "554250.648152",
    "longitude": "-90.01249011709898",
    "latitude": "30.017458768905495",
    "geocoded_column": {
      "latitude": "30.017458768905495",
      "longitude": "-90.01249011709898"
    }
  },
  {
    "service_request": "2025-1162531",
    "request_type": "Roads and Streets",
    "request_reason": "Pothole",
    "date_created": "2025-01-15T14:10:23.000",
    "date_modified": "2025-01-15T14:10:49.000",
    "case_close_date": "2025-01-15T08:10:48.000",
    "request_status": "Closed",
    "responsible_agency": "Department of Public Works",
    "final_address": "319 N Dupre St",
    "address_councildis": "B",
    "status": "Resolved",
    "rowid": "1162531",
    "final_x": "3675184.72161",
    "final_y": "536486.194503",
    "longitude": "-90.08784126801083",
    "latitude": "29.969341282279057",
    "geocoded_column": {
      "latitude": "29.969341282279057",
      "longitude": "-90.08784126801083"
    }
  },