[
  {
    "service_request": "2021-832747",
    "request_type": "Trash/Recycling",
    "request_reason": "Repair Trash Cart",
    "date_created": "2021-10-12T23:37:38.000",
    "date_modified": "2021-10-12T23:37:39.000",
    "request_status": "Pending",
    "responsible_agency": "Department of Sanitation",
    "final_address": "1700 Valmont St",
    "address_councildis": "B",
    "status": "Assigned to Contractor",
    "contractor": "Richards Disposal",
    "rowid": "832747",
    "final_x": "3667867.92033",
    "final_y": "521862.805306",
    "longitude": "-90.11144084744744",
    "latitude": "29.92934837915848",
    "geocoded_column": {
      "latitude": "29.92934837915848",
      "longitude": "-90.11144084744744"
    }
  },
  {
    "service_request": "2021-832746",
    "request_type": "Abandoned Vehicles",
    "request_reason": "Abandoned/Junk Vehicles",
    "date_created": "2021-10-12T23:33:29.000",
    "date_modified": "2021-10-12T23:33:29.000",
    "request_status": "Pending",
    "responsible_agency": "Department of Public Works",
    "final_address": "432 Newton St",
    "address_councildis": "C",
    "status": "Pending",
    "rowid": "832746",
    "final_x": "3686843.71484",
    "final_y": "527988.595455",
    "longitude": "-90.05132159408465",
    "latitude": "29.9456221970913",
    "geocoded_column": {
      "latitude": "29.9456221970913",
      "longitude": "-90.05132159408465"
    }
  },
  {
    "service_request": "2021-832745",
    "request_type": "Property Maintenance",
    "request_reason": "Property Maintenance",
    "date_created": "2021-10-12T23:29:48.000",
    "date_modified": "2021-10-12T23:29:48.000",
    "request_status": "Pending",
    "responsible_agency": "Department of Code Enforcement",
    "final_address": "3121 Banks St",
    "address_councildis": "B",
    "status": "Pending",
    "rowid": "832745",
    "final_x": "3673249.73",
    "final_y": "535268.061318",
    "longitude": "-90.09399374219767",
    "latitude": "29.96604951751718",
    "geocoded_column": {
      "latitude": "29.96604951751718",
      "longitude": "-90.09399374219767"
    }
  },
  {
    "service_request": "2021-832744",
    "request_type": "Property Maintenance",
    "request_reason": "Property Maintenance",
    "date_created": "2021-10-12T23:10:17.000",
    "date_modified": "2021-10-12T23:10:17.000",
    "request_status": "Pending",
    "responsible_agency": "Department of Code Enforcement",
    "final_address": "1229 Cadiz St",
    "address_councildis": "B",
    "status": "Pending",
    "rowid": "832744",
    "final_x": "3670241.68033",
    "final_y": "519922.605176",
    "longitude": "-90.10401302216587",
    "latitude": "29.923943631598064",
    "geocoded_column": {
      "latitude": "29.923943631598064",
      "longitude": "-90.10401302216587"
    }
  },
  {
    "service_request": "2021-832742",
    "request_type": "Property Maintenance",
    "request_reason": "Property Maintenance",
    "date_created": "2021-10-12T22:09:51.000",
    "date_modified": "2021-10-12T22:09:51.000",
    "request_status": "Pending",
    "responsible_agency": "Department of Code Enforcement",
    "final_address": "1483 N Roman St",
    "address_councildis": "D",
    "status": "Pending",
    "rowid": "832742",
    "final_x": "3681028.80194",
    "final_y": "537648.440008",
    "longitude": "-90.06934472713628",
    "latitude": "29.972361095418552",
    "geocoded_column": {
      "latitude": "29.972361095418552",
      "longitude": "-90.06934472713628"
    }
  },
  {
    "service_request": "2021-832741",
    "request_type": "Trash/Recycling",
    "request_reason": "Missed Trash Pick-Up",
    "date_created": "2021-10-12T22:06:07.000",
    "date_modified": "2021-10-12T22:06:08.000",
    "request_status": "Pending",
    "responsible_agency": "Department of Sanitation",
    "final_address": "1316 Pauline St",
    "address_councildis": "D",
    "status": "Assigned to Contractor",
    "contractor": "Metro Disposal",
    "rowid": "832741",
    "final_x": "3691400.28022",
    "final_y": "536353.445703",
    "longitude": "-90.03663620264618",
    "latitude": "29.9684816576169",
    "geocoded_column": {
      "latitude": "29.9684816576169",
      "longitude": "-90.03663620264618"
    }
  },
  {
    "service_request": "2021-832740",
    "request_type": "Traffic Signals/Signs/Striping/Streetlights",
    "request_reason": "Street Light Outage/Malfunction",
    "date_created": "2021-10-12T21:57:50.000",
    "date_modified": "2021-10-12T21:57:50.000",
    "request_status": "Pending",
    "responsible_agency": "Department of Public Works",
    "final_address": "926 Dufossat St",
    "address_councildis": "B",
    "status": "Pending",
    "contractor": "Royal Engineering",
    "rowid": "832740",
    "final_x": "3668021.17626",
    "final_y": "518846.625591",
    "longitude": "-90.11105861221397",
    "latitude": "29.921050345769512",
    "geocoded_column": {
      "latitude": "29.921050345769512",
      "longitude": "-90.11105861221397"
    }
  },
  {
    "service_request": "2021-832739",
    "request_type": "Property Maintenance",
    "request_reason": "Property Maintenance",
    "date_created": "2021-10-12T21:43:05.000",
    "date_modified": "2021-10-12T21:43:05.000",
    "request_status": "Pending",
    "responsible_agency": "Department of Code Enforcement",
    "final_address": "1433 N Roman St",
    "address_councildis": "D",
    "status": "Pending",
    "rowid": "832739",
    "final_x": "3680829.36719",
    "final_y": "537266.426056",
    "longitude": "-90.06998787827882",
    "latitude": "29.97131673650215",
    "geocoded_column": {
      "latitude": "29.97131673650215",
      "longitude": "-90.06998787827882"
    }
  },
  {
    "service_request": "2021-832738",
    "request_type": "Abandoned Vehicles",
    "request_reason": "Abandoned/Junk Vehicles",
    "date_created": "2021-10-12T21:33:07.000",
    "date_modified": "2021-10-12T21:33:07.000",
    "request_status": "Pending",
    "responsible_agency": "Department of Public Works",
    "final_address": "409 S Alexander St",
    "address_councildis": "A",
    "status": "Pending",
    "rowid": "832738",
    "final_x": "3669154.82593",
    "final_y": "538147.293577",
    "longitude": "-90.10682805454235",
    "latitude": "29.974087591118334",
    "geocoded_column": {
      "latitude": "29.974087591118334",
      "longitude": "-90.10682805454235"
    }
  },
  {
    "service_request": "2021-832737",
    "request_type": "Traffic Signals/Signs/Striping/Streetlights",
    "request_reason": "Street Light Outage/Malfunction",
    "date_created": "2021-10-12T21:23:24.000",
    "date_modified": "2021-10-12T21:23:25.000",
    "request_status": "Pending",
    "responsible_agency": "Department of Public Works",
    "final_address": "6400 Argonne Blvd",
    "address_councildis": "A",
    "status": "Pending",
    "contractor": "Royal Engineering",
    "rowid": "832737",
    "final_x": "3670330.50849",
    "final_y": "549956.887316",
    "longitude": "-90.10271440102224",
    "latitude": "30.006525259074426",
    "geocoded_column": {
      "latitude": "30.006525259074426",
      "longitude": "-90.10271440102224"
    }
  },
  {
    "service_request": "2021-832736",
    "request_type": "Health Related Questions",
    "request_reason": "Noise Ordinance Complaint",
    "date_created": "2021-10-12T21:23:09.000",
    "date_modified": "2021-10-12T21:23:09.000",
    "request_status": "Pending",
    "responsible_agency": "Health Department",
    "final_address": "1500 N Claiborne Ave",
    "address_councildis": "C",
    "status": "Pending",
    "rowid": "832736",
    "final_x": "3681846.67516",
    "final_y": "537148.826504",
    "longitude": "-90.0667791844965",
    "latitude": "29.970962498120493",
    "geocoded_column": {
      "latitude": "29.970962498120493",
      "longitude": "-90.0667791844965"
    }
  },
  {
    "service_request": "2021-832735",
    "request_type": "Traffic Signals/Signs/Striping/Streetlights",
    "request_reason": "Street Light Outage/Malfunction",
    "date_created": "2021-10-12T21:20:02.000",
    "date_modified": "2021-10-12T21:20:02.000",
    "request_status": "Pending",
    "responsible_agency": "Department of Public Works",
    "final_address": "6615 Louis Xiv St",
    "address_councildis": "A",
    "status": "Pending",
    "contractor": "Royal Engineering",
    "rowid": "832735",
    "final_x": "3668560.40046",
    "final_y": "551596.811477",
    "longitude": "-90.1082512496993",
    "latitude": "30.01108663048943",
    "geocoded_column": {
      "latitude": "30.01108663048943",
      "longitude": "-90.1082512496993"
    }
  },
  {
    "service_request": "2021-832734",
    "request_type": "Traffic Signals/Signs/Striping/Streetlights",
    "request_reason": "Street Light Outage/Malfunction",
    "date_created": "2021-10-12T21:15:20.000",
    "date_modified": "2021-10-12T21:15:21.000",
    "request_status": "Pending",
    "responsible_agency": "Department of Public Works",
    "final_address": "6251 Caldwell Dr",
    "address_councildis": "D",
    "status": "Pending",
    "contractor": "Royal Engineering",
    "rowid": "832734",
    "final_x": "3679422.70075",
    "final_y": "556415.425498",
    "longitude": "-90.073765552702",
    "latitude": "30.024012269263725",
    "geocoded_column": {
      "latitude": "30.024012269263725",
      "longitude": "-90.073765552702"
    }
  },
  {
    "service_request": "2021-832733",
    "request_type": "Abandoned Vehicles",
    "request_reason": "Abandoned/Junk Vehicles",
    "date_created": "2021-10-12T21:09:04.000",
    "date_modified": "2021-10-12T21:09:04.000",
    "request_status": "Pending",
    "responsible_agency": "Department of Public Works",
    "final_address": "2373 N Villere St",
    "address_councildis": "C",
    "status": "Pending",
    "rowid": "832733",
    "final_x": "3686293.89481",
    "final_y": "537555.071432",
    "longitude": "-90.05271998115671",
    "latitude": "29.971943614645046",
    "geocoded_column": {
      "latitude": "29.971943614645046",
      "longitude": "-90.05271998115671"
    }
  },
  {
    "service_request": "2021-832732",
    "request_type": "Trash/Recycling",
    "request_reason": "Request a Large Item Pick Up",
    "date_created": "2021-10-12T21:00:21.000",
    "date_modified": "2021-10-12T21:00:21.000",
    "request_status": "Pending",
    "responsible_agency": "Department of Sanitation",
    "final_address": "8240 Sycamore St",
    "address_councildis": "A",
    "status": "Assigned to Contractor",
    "contractor": "Richards Disposal",
    "rowid": "832732",
    "final_x": "3663791.73056",
    "final_y": "531408.794499",
    "longitude": "-90.1239906237315",
    "latitude": "29.955715688982757",
    "geocoded_column": {
      "latitude": "29.955715688982757",
      "longitude": "-90.1239906237315"
    }
  },
  {
    "service_request": "2021-832731",
    "request_type": "Roads/Drainage",
    "request_reason": "Pothole",
    "date_created": "2021-10-12T20:58:06.000",
    "date_modified": "2021-10-12T20:58:06.000",
    "request_status": "Pending",
    "responsible_agency": "Department of Public Works",
    "final_address": "1009 Camp St",
    "address_councildis": "B",
    "status": "Pending",
    "rowid": "832731",
    "final_x": "3680500.15503",
    "final_y": "526921.324606",
    "longitude": "-90.07138739408252",
    "latitude": "29.94288118977351",
    "geocoded_column": {
      "latitude": "29.94288118977351",
      "longitude": "-90.07138739408252"
    }
  },
  {
    "service_request": "2021-832730",
    "request_type": "Roads/Drainage",
    "request_reason": "Pothole",
    "date_created": "2021-10-12T20:51:01.000",
    "date_modified": "2021-10-12T20:51:01.000",
    "request_status": "Pending",
    "responsible_agency": "Department of Public Works",
    "final_address": "3701 Willow St",
    "address_councildis": "B",
    "status": "Pending",
    "rowid": "832730",
    "final_x": "3671954.12807",
    "final_y": "525678.270781",
    "longitude": "-90.09841161556152",
    "latitude": "29.939719228288183",
    "geocoded_column": {
      "latitude": "29.939719228288183",
      "longitude": "-90.09841161556152"
    }
  },
  {
    "service_request": "2021-832729",
    "request_type": "Trash/Recycling",
    "request_reason": "Illegal Dumping",
    "date_created": "2021-10-12T20:31:30.000",
    "date_modified": "2021-10-12T20:31:30.000",
    "request_status": "Pending",
    "responsible_agency": "Department of Sanitation",
    "final_address": "4011 Orleans Ave",
    "address_councildis": "A",
    "status": "Pending",
    "rowid": "832729",
    "final_x": "3672982.64532",
    "final_y": "540040.091083",
    "longitude": "-90.09467428326738",
    "latitude": "29.979178923467284",
    "geocoded_column": {
      "latitude": "29.979178923467284",
      "longitude": "-90.09467428326738"
    }
  },
  {
    "service_request": "2021-832727",
    "request_type": "Trash/Recycling",
    "request_reason": "Replace Recycling Cart",
    "date_created": "2021-10-12T20:28:06.000",
    "date_modified": "2021-10-12T20:28:06.000",
    "request_status": "Pending",
    "responsible_agency": "Department of Sanitation",
    "final_address": "1110 Burgundy St",
    "address_councildis": "C",
    "status": "Pending",
    "rowid": "832727",
    "final_x": "3682665.38408",
    "final_y": "534346.456005",
    "longitude": "-90.06429161678672",
    "latitude": "29.963232036156914",
    "geocoded_column": {
      "latitude": "29.963232036156914",
      "longitude": "-90.06429161678672"
    }
  },
  {
    "service_request": "2021-832725",
    "request_type": "Abandoned Vehicles",
    "request_reason": "Abandoned/Junk Vehicles",
    "date_created": "2021-10-12T19:55:25.000",
    "date_modified": "2021-10-12T20:14:26.000",
    "request_status": "Pending",
    "responsible_agency": "Department of Public Works",
    "status": "Inspected",
    "rowid": "832725",
    "longitude": "0.0",
    "latitude": "0.0",
    "geocoded_column": {
      "latitude": "0.0",
      "longitude": "0.0"
    }
  },
  {
    "service_request": "2021-832724",
    "request_type": "Traffic Signals/Signs/Striping/Streetlights",
    "request_reason": "Street Light Outage/Malfunction",
    "date_created": "2021-10-12T19:51:27.000",
    "date_modified": "2021-10-12T19:51:28.000",
    "request_status": "Pending",
    "responsible_agency": "Department of Public Works",
    "final_address": "1338 Fern St",
    "address_councildis": "A",
    "status": "Pending",
    "contractor": "Royal Engineering",
    "rowid": "832724",
    "final_x": "3662945.25095",
    "final_y": "528362.443968",
    "longitude": "-90.12676481158141",
    "latitude": "29.947363745346895",
    "geocoded_column": {
      "latitude": "29.947363745346895",
      "longitude": "-90.12676481158141"
    }
  },
  {
    "service_request": "2021-832723",
    "request_type": "Property Maintenance",
    "request_reason": "Property Maintenance",
    "date_created": "2021-10-12T19:49:27.000",
    "date_modified": "2021-10-12T19:49:27.000",
    "request_status": "Pending",
    "responsible_agency": "Department of Code Enforcement",
    "final_address": "2525 Memorial Park Dr",
    "address_councildis": "C",
    "status": "Pending",
    "rowid": "832723",
    "final_x": "3692766.18371",
    "final_y": "521079.566969",
    "longitude": "-90.03287007438414",
    "latitude": "29.92644119738659",
    "geocoded_column": {
      "latitude": "29.92644119738659",
      "longitude": "-90.03287007438414"
    }
  },
  {
    "service_request": "2021-832722",
    "request_type": "Trash/Recycling",
    "request_reason": "Order Trash Cart",
    "date_created": "2021-10-12T19:42:46.000",
    "date_modified": "2021-10-12T19:42:46.000",
    "request_status": "Pending",
    "responsible_agency": "Department of Sanitation",
    "final_address": "New Orleans,LA",
    "status": "Assigned to Contractor",
    "rowid": "832722",
    "longitude": "0.0",
    "latitude": "0.0",
    "geocoded_column": {
      "latitude": "0.0",
      "longitude": "0.0"
    }
  },
  {
    "service_request": "2021-832720",
    "request_type": "Roads/Drainage",
    "request_reason": "Accessibility Ramps, Curbs and Sidewalk Repair",
    "date_created": "2021-10-12T19:25:46.000",
    "date_modified": "2021-10-12T19:25:46.000",
    "request_status": "Pending",
    "responsible_agency": "Department of Public Works",
    "final_address": "1701 Jena St",
    "address_councildis": "B",
    "status": "Pending",
    "rowid": "832720",
    "final_x": "3670435.17985",
    "final_y": "521315.126329",
    "longitude": "-90.10335502722437",
    "latitude": "29.927766910941525",
    "geocoded_column": {
      "latitude": "29.927766910941525",
      "longitude": "-90.10335502722437"
    }
  },
  {
    "service_request": "2021-832719",
    "request_type": "Property Maintenance",
    "request_reason": "Property Maintenance",
    "date_created": "2021-10-12T19:22:48.000",
    "date_modified": "2021-10-12T19:22:48.000",
    "request_status": "Pending",
    "responsible_agency": "Department of Code Enforcement",
    "final_address": "1701 Jena St Unit 1",
    "address_councildis": "B",
    "status": "Pending",
    "rowid": "832719",
    "final_x": "3670448.18318",
    "final_y": "521317.038841",
    "longitude": "-90.10331391387989",
    "latitude": "29.92777178592791",
    "geocoded_column": {
      "latitude": "29.92777178592791",
      "longitude": "-90.10331391387989"
    }
  },
  {
    "service_request": "2021-832717",
    "request_type": "Roads/Drainage",
    "request_reason": "Pothole",
    "date_created": "2021-10-12T19:19:21.000",
    "date_modified": "2021-10-12T19:19:21.000",
    "request_status": "Pending",
    "responsible_agency": "Department of Public Works",
    "final_address": "3300 S Claiborne Ave, New Orleans, Louisiana, 70125",
    "address_councildis": "B",
    "status": "Pending",
    "rowid": "832717",
    "final_x": "3672553.49697",
    "final_y": "526110.318398",
    "longitude": "-90.09650459627572",
    "latitude": "29.9408894428693",
    "geocoded_column": {
      "latitude": "29.9408894428693",
      "longitude": "-90.09650459627572"
    }
  },
  {
    "service_request": "2021-832716",
    "request_type": "Trash/Recycling",
    "request_reason": "Missed Trash Pick-Up",
    "date_created": "2021-10-12T19:00:56.000",
    "date_modified": "2021-10-12T19:00:57.000",
    "request_status": "Pending",
    "responsible_agency": "Department of Sanitation",
    "final_address": "6135 Memphis St",
    "address_councildis": "A",
    "status": "Assigned to Contractor",
    "contractor": "Metro Disposal",
    "rowid": "832716",
    "final_x": "3669338.60058",
    "final_y": "548136.922514",
    "longitude": "-90.10590969185229",
    "latitude": "30.00155024499763",
    "geocoded_column": {
      "latitude": "30.00155024499763",
      "longitude": "-90.10590969185229"
    }
  },
  {
    "service_request": "2021-832715",
    "request_type": "Abandoned Vehicles",
    "request_reason": "Vehicle Blocking Your Driveway",
    "date_created": "2021-10-12T18:58:13.000",
    "date_modified": "2021-10-12T18:58:14.000",
    "request_status": "Pending",
    "responsible_agency": "Department of Public Works",
    "final_address": "6 Marywood Ct",
    "address_councildis": "E",
    "status": "Pending",
    "rowid": "832715",
    "final_x": "3712752.09227",
    "final_y": "566385.221091",
    "longitude": "-89.96807678509569",
    "latitude": "30.05037570930936",
    "geocoded_column": {
      "latitude": "30.05037570930936",
      "longitude": "-89.96807678509569"
    }
  },
  {
    "service_request": "2021-832714",
    "request_type": "Trash/Recycling",
    "request_reason": "Missed Trash Pick-Up",
    "date_created": "2021-10-12T18:57:05.000",
    "date_modified": "2021-10-12T18:57:06.000",
    "request_status": "Pending",
    "responsible_agency": "Department of Sanitation",
    "final_address": "6404 Colbert St",
    "address_councildis": "A",
    "status": "Assigned to Contractor",
    "contractor": "Metro Disposal",
    "rowid": "832714",
    "final_x": "3667585.44961",
    "final_y": "550258.75842",
    "longitude": "-90.11137660268481",
    "latitude": "30.007436077721145",
    "geocoded_column": {
      "latitude": "30.007436077721145",
      "longitude": "-90.11137660268481"
    }
  },
  {
    "service_request": "2021-832713",
    "request_type": "COVID-19",
    "request_reason": "COVID-19 Business Non-Compliance",
    "date_created": "2021-10-12T18:56:12.000",
    "date_modified": "2021-10-12T18:56:13.000",
    "request_status": "Pending",
    "responsible_agency": "Safety and Permits",
    "status": "Pending",
    "rowid": "832713",
    "longitude": "0.0",
    "latitude": "0.0",
    "geocoded_column": {
      "latitude": "0.0",
      "longitude": "0.0"
    }
  },
  {
    "service_request": "2021-832712",
    "request_type": "Trash/Recycling",
    "request_reason": "Missed Trash Pick-Up",
    "date_created": "2021-10-12T18:53:42.000",
    "date_modified": "2021-10-12T18:53:43.000",
    "request_status": "Pending",
    "responsible_agency": "Department of Sanitation",
    "final_address": "5978 General Diaz St",
    "address_councildis": "A",
    "status": "Assigned to Contractor",
    "contractor": "Metro Disposal",
    "rowid": "832712",
    "final_x": "3669423.63694",
    "final_y": "547133.175761",
    "longitude": "-90.10567502644442",
    "latitude": "29.998787784854745",
    "geocoded_column": {
      "latitude": "29.998787784854745",
      "longitude": "-90.10567502644442"
    }
  },
  {
    "service_request": "2021-832711",
    "request_type": "Traffic Signals/Signs/Striping/Streetlights",
    "request_reason": "Street Light Outage/Malfunction",
    "date_created": "2021-10-12T18:42:19.000",
    "date_modified": "2021-10-12T18:46:35.000",
    "request_status": "Pending",
    "responsible_agency": "Department of Public Works",
    "final_address": "7810 W Laverne St",
    "address_councildis": "D",
    "status": "Pending",
    "contractor": "Royal Engineering",
    "rowid": "832711",
    "final_x": "3694937.49795",
    "final_y": "559134.482012",
    "longitude": "-90.02464386126871",
    "latitude": "30.031010574094854",
    "geocoded_column": {
      "latitude": "30.031010574094854",
      "longitude": "-90.02464386126871"
    }
  },
  {
    "service_request": "2021-832710",
    "request_type": "Abandoned Vehicles",
    "request_reason": "Vehicle Blocking Your Driveway",
    "date_created": "2021-10-12T18:36:43.000",
    "date_modified": "2021-10-12T18:36:44.000",
    "request_status": "Pending",
    "responsible_agency": "Department of Public Works",
    "final_address": "7211 Boston Dr",
    "address_councildis": "E",
    "status": "Pending",
    "rowid": "832710",
    "final_x": "3706126.78993",
    "final_y": "561409.344286",
    "longitude": "-89.98920132226719",
    "latitude": "30.036909415160466",
    "geocoded_column": {
      "latitude": "30.036909415160466",
      "longitude": "-89.98920132226719"
    }
  },
  {
    "service_request": "2021-832709",
    "request_type": "Property Maintenance",
    "request_reason": "Property Maintenance",
    "date_created": "2021-10-12T18:28:03.000",
    "date_modified": "2021-10-12T18:28:03.000",
    "request_status": "Pending",
    "responsible_agency": "Department of Code Enforcement",
    "final_address": "1334 Teche St",
    "address_councildis": "C",
    "status": "Pending",
    "rowid": "832709",
    "final_x": "3686722.09314",
    "final_y": "526464.892414",
    "longitude": "-90.05175939979132",
    "latitude": "29.94143627124423",
    "geocoded_column": {
      "latitude": "29.94143627124423",
      "longitude": "-90.05175939979132"
    }
  },
  {
    "service_request": "2021-832708",
    "request_type": "Trash/Recycling",
    "request_reason": "Missed Trash Pick-Up",
    "date_created": "2021-10-12T18:23:16.000",
    "date_modified": "2021-10-12T18:23:17.000",
    "request_status": "Pending",
    "responsible_agency": "Department of Sanitation",
    "final_address": "2120 Audubon St",
    "address_councildis": "A",
    "status": "Assigned to Contractor",
    "contractor": "Richards Disposal",
    "rowid": "832708",
    "final_x": "3666266.63655",
    "final_y": "529152.753856",
    "longitude": "-90.1162513814703",
    "latitude": "29.949440256306634",
    "geocoded_column": {
      "latitude": "29.949440256306634",
      "longitude": "-90.1162513814703"
    }
  },
  {
    "service_request": "2021-832706",
    "request_type": "Trash/Recycling",
    "request_reason": "Missed Trash Pick-Up",
    "date_created": "2021-10-12T18:20:06.000",
    "date_modified": "2021-10-12T18:20:07.000",
    "request_status": "Pending",
    "responsible_agency": "Department of Sanitation",
    "final_address": "6019 Louisville St",
    "address_councildis": "A",
    "status": "Assigned to Contractor",
    "contractor": "Metro Disposal",
    "rowid": "832706",
    "final_x": "3667841.35745",
    "final_y": "547492.885522",
    "longitude": "-90.11066135540084",
    "latitude": "29.999823381258206",
    "geocoded_column": {
      "latitude": "29.999823381258206",
      "longitude": "-90.11066135540084"
    }
  },
  {
    "service_request": "2021-832703",
    "request_type": "Traffic Signals/Signs/Striping/Streetlights",
    "request_reason": "Traffic Sign Missing/Damaged",
    "date_created": "2021-10-12T18:12:58.000",
    "date_modified": "2021-10-12T18:12:58.000",
    "request_status": "Pending",
    "responsible_agency": "Department of Public Works",
    "final_address": "4501 Willow St",
    "address_councildis": "B",
    "status": "Pending",
    "rowid": "832703",
    "final_x": "3669899.27681",
    "final_y": "525423.979261",
    "longitude": "-90.10490769534354",
    "latitude": "29.939080743179673",
    "geocoded_column": {
      "latitude": "29.939080743179673",
      "longitude": "-90.10490769534354"
    }
  },
  {
    "service_request": "2021-832702",
    "request_type": "Traffic Signals/Signs/Striping/Streetlights",
    "request_reason": "Street Light Outage/Malfunction",
    "date_created": "2021-10-12T18:12:39.000",
    "date_modified": "2021-10-12T18:12:40.000",
    "request_status": "Pending",
    "responsible_agency": "Department of Public Works",
    "final_address": "2212 N Johnson St",
    "address_councildis": "D",
    "status": "Pending",
    "contractor": "Royal Engineering",
    "rowid": "832702",
    "final_x": "3684904.88425",
    "final_y": "539589.047562",
    "longitude": "-90.05703514198156",
    "latitude": "29.97757895025821",
    "geocoded_column": {
      "latitude": "29.97757895025821",
      "longitude": "-90.05703514198156"
    }
  },
  {
    "service_request": "2021-832701",
    "request_type": "Trash/Recycling",
    "request_reason": "Missed Trash Pick-Up",
    "date_created": "2021-10-12T18:09:34.000",
    "date_modified": "2021-10-12T18:09:35.000",
    "request_status": "Pending",
    "responsible_agency": "Department of Sanitation",
    "final_address": "2036 St Ferdinand St",
    "address_councildis": "D",
    "status": "Assigned to Contractor",
    "contractor": "Metro Disposal",
    "rowid": "832701",
    "final_x": "3688626.41999",
    "final_y": "540006.636491",
    "longitude": "-90.0452664792684",
    "latitude": "29.978612667354046",
    "geocoded_column": {
      "latitude": "29.978612667354046",
      "longitude": "-90.0452664792684"
    }
  },
  {
    "service_request": "2021-832700",
    "request_type": "Trash/Recycling",
    "request_reason": "Request a Large Item Pick Up",
    "date_created": "2021-10-12T18:03:41.000",
    "date_modified": "2021-10-12T18:03:42.000",
    "request_status": "Pending",
    "responsible_agency": "Department of Sanitation",
    "final_address": "2222 General Pershing St",
    "address_councildis": "B",
    "status": "Assigned to Contractor",
    "contractor": "Richards Disposal",
    "rowid": "832700",
    "final_x": "3670972.59911",
    "final_y": "523223.548987",
    "longitude": "-90.10159375722967",
    "latitude": "29.932998587282455",
    "geocoded_column": {
      "latitude": "29.932998587282455",
      "longitude": "-90.10159375722967"
    }
  },
  {
    "service_request": "2021-832699",
    "request_type": "Parks & Parkways",
    "request_reason": "Request Grass Cutting Service (City Owned Property)",
    "date_created": "2021-10-12T18:01:35.000",
    "date_modified": "2021-10-12T18:01:35.000",
    "request_status": "Pending",
    "responsible_agency": "Department of Parks & Parkway",
    "final_address": "2420 Ursulines Ave",
    "address_councildis": "D",
    "status": "Pending",
    "rowid": "832699",
    "final_x": "3678523.08565",
    "final_y": "537359.475272",
    "longitude": "-90.0772682197892",
    "latitude": "29.97164230635432",
    "geocoded_column": {
      "latitude": "29.97164230635432",
      "longitude": "-90.0772682197892"
    }
  },
  {
    "service_request": "2021-832698",
    "request_type": "Roads/Drainage",
    "request_reason": "Pothole",
    "date_created": "2021-10-12T17:57:09.000",
    "date_modified": "2021-10-12T17:57:09.000",
    "request_status": "Pending",
    "responsible_agency": "Department of Public Works",
    "final_address": "3509 S Liberty St",
    "address_councildis": "B",
    "status": "Pending",
    "rowid": "832698",
    "final_x": "3672735.50734",
    "final_y": "523687.243323",
    "longitude": "-90.09601256447773",
    "latitude": "29.934221370783384",
    "geocoded_column": {
      "latitude": "29.934221370783384",
      "longitude": "-90.09601256447773"
    }
  },
  {
    "service_request": "2021-832696",
    "request_type": "Trash/Recycling",
    "request_reason": "Order Recycling Cart",
    "date_created": "2021-10-12T17:55:01.000",
    "date_modified": "2021-10-12T17:55:01.000",
    "request_status": "Pending",
    "responsible_agency": "Department of Sanitation",
    "final_address": "2109 Lapeyrouse St, New Orleans, Louisiana, 70119",
    "address_councildis": "D",
    "status": "Pending",
    "rowid": "832696",
    "final_x": "3680723.71931",
    "final_y": "538963.66785",
    "longitude": "-90.07026244378382",
    "latitude": "29.975986767418174",
    "geocoded_column": {
      "latitude": "29.975986767418174",
      "longitude": "-90.07026244378382"
    }
  },
  {
    "service_request": "2021-832695",
    "request_type": "Trash/Recycling",
    "request_reason": "MIssed Recycling Pick-Up",
    "date_created": "2021-10-12T17:54:22.000",
    "date_modified": "2021-10-12T17:54:22.000",
    "request_status": "Pending",
    "responsible_agency": "Department of Sanitation",
    "final_address": "2109 Lapeyrouse St, New Orleans, Louisiana, 70119",
    "address_councildis": "D",
    "status": "Assigned to Contractor",
    "contractor": "Metro Disposal",
    "rowid": "832695",
    "final_x": "3680723.71931",
    "final_y": "538963.66785",
    "longitude": "-90.07026244378382",
    "latitude": "29.975986767418174",
    "geocoded_column": {
      "latitude": "29.975986767418174",
      "longitude": "-90.07026244378382"
    }
  },
  {
    "service_request": "2021-832694",
    "request_type": "Trash/Recycling",
    "request_reason": "Illegal Dumping",
    "date_created": "2021-10-12T17:54:00.000",
    "date_modified": "2021-10-12T17:54:00.000",
    "request_status": "Pending",
    "responsible_agency": "Department of Sanitation",
    "final_address": "4858 Tchoupitoulas St",
    "address_councildis": "B",
    "status": "Pending",
    "rowid": "832694",
    "final_x": "3669210.32142",
    "final_y": "517208.856437",
    "longitude": "-90.10736031678353",
    "latitude": "29.916512064887815",
    "geocoded_column": {
      "latitude": "29.916512064887815",
      "longitude": "-90.10736031678353"
    }
  },
  {
    "service_request": "2021-832693",
    "request_type": "Abandoned Vehicles",
    "request_reason": "Abandoned/Junk Vehicles",
    "date_created": "2021-10-12T17:52:09.000",
    "date_modified": "2021-10-12T17:52:09.000",
    "case_close_date": "2021-08-17T19:00:00.000",
    "request_status": "Pending",
    "responsible_agency": "Department of Public Works",
    "final_address": "1948 Pace Blvd",
    "address_councildis": "C",
    "status": "Pending",
    "contractor": "Richards Disposal",
    "rowid": "832693",
    "final_x": "3694520.45027",
    "final_y": "523266.390075",
    "longitude": "-90.02725368524285",
    "latitude": "29.932399354203405",
    "geocoded_column": {
      "latitude": "29.932399354203405",
      "longitude": "-90.02725368524285"
    }
  },
  {
    "service_request": "2021-832692",
    "request_type": "Roads/Drainage",
    "request_reason": "Culvert Issue",
    "date_created": "2021-10-12T17:51:28.000",
    "date_modified": "2021-10-12T17:51:28.000",
    "request_status": "Pending",
    "responsible_agency": "Department of Public Works",
    "final_address": "1459 N Villere St",
    "address_councildis": "C",
    "status": "Pending",
    "rowid": "832692",
    "final_x": "3682126.22402",
    "final_y": "536613.110151",
    "longitude": "-90.06591504755097",
    "latitude": "29.96948096377762",
    "geocoded_column": {
      "latitude": "29.96948096377762",
      "longitude": "-90.06591504755097"
    }
  },
  {
    "service_request": "2021-832691",
    "request_type": "Trash/Recycling",
    "request_reason": "Missed Trash Pick-Up",
    "date_created": "2021-10-12T17:48:36.000",
    "date_modified": "2021-10-12T17:48:37.000",
    "request_status": "Pending",
    "responsible_agency": "Department of Sanitation",
    "final_address": "5953 Colbert St",
    "address_councildis": "A",
    "status": "Assigned to Contractor",
    "contractor": "Metro Disposal",
    "rowid": "832691",
    "final_x": "3667434.5513",
    "final_y": "547036.780945",
    "longitude": "-90.1119618364148",
    "latitude": "29.9985811805548",
    "geocoded_column": {
      "latitude": "29.9985811805548",
      "longitude": "-90.1119618364148"
    }
  },
  {
    "service_request": "2021-832690",
    "request_type": "Traffic Signals/Signs/Striping/Streetlights",
    "request_reason": "Traffic Signal Malfunctioning/Damaged",
    "date_created": "2021-10-12T17:48:36.000",
    "date_modified": "2021-10-12T17:48:36.000",
    "request_status": "Pending",
    "responsible_agency": "Department of Public Works",
    "final_address": "HOLIDAY DR & MACARTHUR BLVD",
    "address_councildis": "C",
    "status": "Pending",
    "contractor": "Royal Engineering",
    "rowid": "832690",
    "final_x": "3698736.7",
    "final_y": "520398.98",
    "longitude": "-90.01404767124727",
    "latitude": "29.924382143358752",
    "geocoded_column": {
      "latitude": "29.924382143358752",
      "longitude": "-90.01404767124727"
    }
  },
  {
    "service_request": "2021-832688",
    "request_type": "Trash/Recycling",
    "request_reason": "Missed Trash Pick-Up",
    "date_created": "2021-10-12T17:42:45.000",
    "date_modified": "2021-10-12T17:42:46.000",
    "request_status": "Pending",
    "responsible_agency": "Department of Sanitation",
    "final_address": "8325 Green St",
    "address_councildis": "A",
    "status": "Assigned to Contractor",
    "contractor": "Richards Disposal",
    "rowid": "832688",
    "final_x": "3662474.52352",
    "final_y": "530337.398978",
    "longitude": "-90.12818550102949",
    "latitude": "29.952807857753168",
    "geocoded_column": {
      "latitude": "29.952807857753168",
      "longitude": "-90.12818550102949"
    }
  },
  {
    "service_request": "2021-832687",
    "request_type": "Trash/Recycling",
    "request_reason": "Return Recycling Cart",
    "date_created": "2021-10-12T17:42:02.000",
    "date_modified": "2021-10-12T17:42:02.000",
    "request_status": "Pending",
    "responsible_agency": "Department of Sanitation",
    "final_address": "230 Cherokee St",
    "address_councildis": "A",
    "status": "Pending",
    "rowid": "832687",
    "final_x": "3661122.83616",
    "final_y": "524346.074876",
    "longitude": "-90.13265178493108",
    "latitude": "29.936372645258658",
    "geocoded_column": {
      "latitude": "29.936372645258658",
      "longitude": "-90.13265178493108"
    }
  },
  {
    "service_request": "2021-832685",
    "request_type": "Trash/Recycling",
    "request_reason": "Repair Trash Cart",
    "date_created": "2021-10-12T17:31:56.000",
    "date_modified": "2021-10-12T17:34:09.000",
    "case_close_date": "2020-11-22T18:00:00.000",
    "request_status": "Pending",
    "responsible_agency": "Department of Sanitation",
    "final_address": "6516 Brunswick Ct",
    "address_councildis": "C",
    "status": "Assigned to Contractor",
    "contractor": "Richards Disposal",
    "rowid": "832685",
    "final_x": "3708071.70923",
    "final_y": "517009.654581",
    "longitude": "-89.98470645008561",
    "latitude": "29.914763844566934",
    "geocoded_column": {
      "latitude": "29.914763844566934",
      "longitude": "-89.98470645008561"
    }
  },
  {
    "service_request": "2021-832683",
    "request_type": "Trash/Recycling",
    "request_reason": "Order Recycling Cart",
    "date_created": "2021-10-12T17:19:19.000",
    "date_modified": "2021-10-12T17:19:19.000",
    "request_status": "Pending",
    "responsible_agency": "Department of Sanitation",
    "final_address": "4936 Robin Hood Dr",
    "address_councildis": "E",
    "status": "Pending",
    "rowid": "832683",
    "final_x": "3717324.09682",
    "final_y": "557902.183963",
    "longitude": "-89.9539492417141",
    "latitude": "30.02690021693735",
    "geocoded_column": {
      "latitude": "30.02690021693735",
      "longitude": "-89.9539492417141"
    }
  },
  {
    "service_request": "2021-832681",
    "request_type": "Safety & Permits",
    "request_reason": "Construction permit",
    "date_created": "2021-10-12T17:11:52.000",
    "date_modified": "2021-10-12T17:19:11.000",
    "request_status": "Pending",
    "responsible_agency": "Department of Code Enforcement",
    "final_address": "816 Third St",
    "address_councildis": "B",
    "status": "Pending",
    "rowid": "832681",
    "final_x": "3678066.05518",
    "final_y": "520357.310968",
    "longitude": "-90.07929924640788",
    "latitude": "29.924905793381352",
    "geocoded_column": {
      "latitude": "29.924905793381352",
      "longitude": "-90.07929924640788"
    }
  },
  {
    "service_request": "2021-832680",
    "request_type": "Roads/Drainage",
    "request_reason": "Accessibility Ramps, Curbs and Sidewalk Repair",
    "date_created": "2021-10-12T17:09:47.000",
    "date_modified": "2021-10-12T17:09:47.000",
    "request_status": "Pending",
    "responsible_agency": "Department of Public Works",
    "final_address": "2233 St Ann St",
    "address_councildis": "D",
    "status": "Pending",
    "rowid": "832680",
    "final_x": "3678373.58741",
    "final_y": "536164.386951",
    "longitude": "-90.07778171436611",
    "latitude": "29.968360727610758",
    "geocoded_column": {
      "latitude": "29.968360727610758",
      "longitude": "-90.07778171436611"
    }
  },
  {
    "service_request": "2021-832679",
    "request_type": "Traffic Signals/Signs/Striping/Streetlights",
    "request_reason": "Street Light Outage/Malfunction",
    "date_created": "2021-10-12T17:07:14.000",
    "date_modified": "2021-10-12T17:07:15.000",
    "request_status": "Pending",
    "responsible_agency": "Department of Public Works",
    "final_address": "4964 Lafaye St",
    "address_councildis": "D",
    "status": "Pending",
    "contractor": "Royal Engineering",
    "rowid": "832679",
    "final_x": "3687316.94767",
    "final_y": "551491.483989",
    "longitude": "-90.04899569160996",
    "latitude": "30.010232278312916",
    "geocoded_column": {
      "latitude": "30.010232278312916",
      "longitude": "-90.04899569160996"
    }
  },
  {
    "service_request": "2021-832678",
    "request_type": "Trash/Recycling",
    "request_reason": "Start Trash Service",
    "date_created": "2021-10-12T17:06:32.000",
    "date_modified": "2021-10-12T17:06:33.000",
    "request_status": "Pending",
    "responsible_agency": "Department of Sanitation",
    "final_address": "929 Sumner St",
    "address_councildis": "C",
    "status": "Assigned to Contractor",
    "contractor": "Richards Disposal",
    "rowid": "832678",
    "final_x": "3691084.9014",
    "final_y": "527866.693247",
    "longitude": "-90.0379351790337",
    "latitude": "29.945155849189206",
    "geocoded_column": {
      "latitude": "29.945155849189206",
      "longitude": "-90.0379351790337"
    }
  },
  {
    "service_request": "2021-832677",
    "request_type": "Roads/Drainage",
    "request_reason": "Street Subsidence (Sinking)",
    "date_created": "2021-10-12T17:04:49.000",
    "date_modified": "2021-10-12T17:04:49.000",
    "request_status": "Pending",
    "responsible_agency": "Department of Public Works",
    "final_address": "1661 N Broad St",
    "address_councildis": "D",
    "status": "Pending",
    "rowid": "832677",
    "final_x": "3679353.87829",
    "final_y": "540676.747595",
    "longitude": "-90.07452935868302",
    "latitude": "29.980738591877866",
    "geocoded_column": {
      "latitude": "29.980738591877866",
      "longitude": "-90.07452935868302"
    }
  },
  {
    "service_request": "2021-832676",
    "request_type": "Roads/Drainage",
    "request_reason": "Street Subsidence (Sinking)",
    "date_created": "2021-10-12T17:03:00.000",
    "date_modified": "2021-10-12T17:03:00.000",
    "request_status": "Pending",
    "responsible_agency": "Department of Public Works",
    "final_address": "1661 N Broad St",
    "address_councildis": "D",
    "status": "Pending",
    "rowid": "832676",
    "final_x": "3679353.87829",
    "final_y": "540676.747595",
    "longitude": "-90.07452935868302",
    "latitude": "29.980738591877866",
    "geocoded_column": {
      "latitude": "29.980738591877866",
      "longitude": "-90.07452935868302"
    }
  },
  {
    "service_request": "2021-832675",
    "request_type": "Abandoned Vehicles",
    "request_reason": "Abandoned/Junk Vehicles",
    "date_created": "2021-10-12T16:47:22.000",
    "date_modified": "2021-10-12T22:01:33.000",
    "request_status": "Pending",
    "responsible_agency": "Department of Public Works",
    "final_address": "New Orleans,LA",
    "address_councildis": "A",
    "rowid": "832675",
    "final_x": "3666965.02637",
    "final_y": "552521.175574",
    "longitude": "-90.11326059636967",
    "latitude": "30.013675112236704",
    "geocoded_column": {
      "latitude": "30.013675112236704",
      "longitude": "-90.11326059636967"
    }
  },
  {
    "service_request": "2021-832673",
    "request_type": "Traffic Signals/Signs/Striping/Streetlights",
    "request_reason": "Street Light Outage/Malfunction",
    "date_created": "2021-10-12T16:33:12.000",
    "date_modified": "2021-10-12T16:33:13.000",
    "request_status": "Pending",
    "responsible_agency": "Department of Public Works",
    "final_address": "1728 Toledano St",
    "address_councildis": "B",
    "status": "Pending",
    "contractor": "Royal Engineering",
    "rowid": "832673",
    "final_x": "3674286.47291",
    "final_y": "522281.90329",
    "longitude": "-90.09116430615796",
    "latitude": "29.930310999263007",
    "geocoded_column": {
      "latitude": "29.930310999263007",
      "longitude": "-90.09116430615796"
    }
  },
  {
    "service_request": "2021-832672",
    "request_type": "Traffic Signals/Signs/Striping/Streetlights",
    "request_reason": "Street Light Outage/Malfunction",
    "date_created": "2021-10-12T16:32:12.000",
    "date_modified": "2021-10-12T16:32:13.000",
    "request_status": "Pending",
    "responsible_agency": "Department of Public Works",
    "final_address": "2325 Bienville Ave",
    "address_councildis": "B",
    "status": "Pending",
    "contractor": "Royal Engineering",
    "rowid": "832672",
    "final_x": "3677053.27061",
    "final_y": "534924.55111",
    "longitude": "-90.08199409924049",
    "latitude": "29.964991314427838",
    "geocoded_column": {
      "latitude": "29.964991314427838",
      "longitude": "-90.08199409924049"
    }
  },
  {
    "service_request": "2021-832671",
    "request_type": "Traffic Signals/Signs/Striping/Streetlights",
    "request_reason": "Street Light Knocked Down/Leaning",
    "date_created": "2021-10-12T16:30:19.000",
    "date_modified": "2021-10-12T16:30:20.000",
    "request_status": "Pending",
    "responsible_agency": "Department of Public Works",
    "final_address": "1061 Camp St",
    "address_councildis": "B",
    "status": "Pending",
    "contractor": "Royal Engineering",
    "rowid": "832671",
    "final_x": "3680402.16527",
    "final_y": "526522.600638",
    "longitude": "-90.07171063194589",
    "latitude": "29.941787798759197",
    "geocoded_column": {
      "latitude": "29.941787798759197",
      "longitude": "-90.07171063194589"
    }
  },
  {
    "service_request": "2021-832670",
    "request_type": "Roads/Drainage",
    "request_reason": "Pothole",
    "date_created": "2021-10-12T16:28:57.000",
    "date_modified": "2021-10-12T16:28:57.000",
    "request_status": "Pending",
    "responsible_agency": "Department of Public Works",
    "final_address": "9 Wren St",
    "address_councildis": "D",
    "status": "Pending",
    "rowid": "832670",
    "final_x": "3672172.44007",
    "final_y": "555833.180505",
    "longitude": "-90.09669489842862",
    "latitude": "30.022628454104076",
    "geocoded_column": {
      "latitude": "30.022628454104076",
      "longitude": "-90.09669489842862"
    }
  },
  {
    "service_request": "2021-832669",
    "request_type": "Traffic Signals/Signs/Striping/Streetlights",
    "request_reason": "Street Light Outage/Malfunction",
    "date_created": "2021-10-12T16:22:53.000",
    "date_modified": "2021-10-12T16:24:33.000",
    "request_status": "Pending",
    "responsible_agency": "Department of Public Works",
    "final_address": "905 Sumner St",
    "address_councildis": "C",
    "status": "Pending",
    "contractor": "Royal Engineering",
    "rowid": "832669",
    "final_x": "3691085.85123",
    "final_y": "528081.367167",
    "longitude": "-90.03792451748313",
    "latitude": "29.94574609922635",
    "geocoded_column": {
      "latitude": "29.94574609922635",
      "longitude": "-90.03792451748313"
    }
  },
  {
    "service_request": "2021-832668",
    "request_type": "Property Maintenance",
    "request_reason": "Property Maintenance",
    "date_created": "2021-10-12T16:21:36.000",
    "date_modified": "2021-10-12T16:21:36.000",
    "request_status": "Pending",
    "responsible_agency": "Department of Code Enforcement",
    "final_address": "8331 Aberdeen Rd",
    "address_councildis": "E",
    "status": "Pending",
    "rowid": "832668",
    "final_x": "3703309.70596",
    "final_y": "561668.756511",
    "longitude": "-89.99809430181408",
    "latitude": "30.037713259887656",
    "geocoded_column": {
      "latitude": "30.037713259887656",
      "longitude": "-89.99809430181408"
    }
  },
  {
    "service_request": "2021-832667",
    "request_type": "Traffic Signals/Signs/Striping/Streetlights",
    "request_reason": "Street Light Outage/Malfunction",
    "date_created": "2021-10-12T16:20:15.000",
    "date_modified": "2021-10-12T16:20:16.000",
    "request_status": "Pending",
    "responsible_agency": "Department of Public Works",
    "final_address": "5859 Rhodes Ave",
    "address_councildis": "C",
    "status": "Pending",
    "contractor": "Royal Engineering",
    "rowid": "832667",
    "final_x": "3705124.19051",
    "final_y": "519432.048439",
    "longitude": "-89.99392040458761",
    "latitude": "29.921519651640413",
    "geocoded_column": {
      "latitude": "29.921519651640413",
      "longitude": "-89.99392040458761"
    }
  },
  {
    "service_request": "2021-832666",
    "request_type": "Trash/Recycling",
    "request_reason": "Repair Trash Cart",
    "date_created": "2021-10-12T16:19:15.000",
    "date_modified": "2021-10-12T22:04:23.000",
    "request_status": "Pending",
    "responsible_agency": "Department of Sanitation",
    "final_address": "New Orleans,LA",
    "address_councildis": "C",
    "status": "Assigned to Contractor",
    "contractor": "Richards Disposal",
    "rowid": "832666",
    "final_x": "3700022.98026",
    "final_y": "520910.341881",
    "longitude": "-90.0099687107613",
    "latitude": "29.925747427993475",
    "geocoded_column": {
      "latitude": "29.925747427993475",
      "longitude": "-90.0099687107613"
    }
  },
  {
    "service_request": "2021-832664",
    "request_type": "Roads/Drainage",
    "request_reason": "Pothole",
    "date_created": "2021-10-12T16:16:10.000",
    "date_modified": "2021-10-12T16:16:10.000",
    "request_status": "Pending",
    "responsible_agency": "Department of Public Works",
    "final_address": "4930 S Johnson St",
    "address_councildis": "B",
    "status": "Pending",
    "rowid": "832664",
    "final_x": "3668951.87111",
    "final_y": "526957.405374",
    "longitude": "-90.10784700131288",
    "latitude": "29.943325063246196",
    "geocoded_column": {
      "latitude": "29.943325063246196",
      "longitude": "-90.10784700131288"
    }
  },
  {
    "service_request": "2021-832663",
    "request_type": "Property Maintenance",
    "request_reason": "Property Maintenance",
    "date_created": "2021-10-12T16:11:20.000",
    "date_modified": "2021-10-12T16:11:20.000",
    "request_status": "Pending",
    "responsible_agency": "Department of Code Enforcement",
    "final_address": "3337 Louisa St",
    "address_councildis": "D",
    "status": "Pending",
    "rowid": "832663",
    "final_x": "3691872.02211",
    "final_y": "544821.427599",
    "longitude": "-90.03484337457749",
    "latitude": "29.991750892369847",
    "geocoded_column": {
      "latitude": "29.991750892369847",
      "longitude": "-90.03484337457749"
    }
  },
  {
    "service_request": "2021-832661",
    "request_type": "Trash/Recycling",
    "request_reason": "Missed Trash Pick-Up",
    "date_created": "2021-10-12T16:08:00.000",
    "date_modified": "2021-10-12T16:08:00.000",
    "request_status": "Pending",
    "responsible_agency": "Department of Sanitation",
    "final_address": "59 Spanish Fort Blvd",
    "address_councildis": "D",
    "status": "Assigned to Contractor",
    "contractor": "Metro Disposal",
    "rowid": "832661",
    "final_x": "3674053.07771",
    "final_y": "555349.662809",
    "longitude": "-90.09076908297037",
    "latitude": "30.021243012183184",
    "geocoded_column": {
      "latitude": "30.021243012183184",
      "longitude": "-90.09076908297037"
    }
  },
  {
    "service_request": "2021-832660",
    "request_type": "Property Maintenance",
    "request_reason": "Property Maintenance",
    "date_created": "2021-10-12T16:07:10.000",
    "date_modified": "2021-10-12T16:07:10.000",
    "request_status": "Pending",
    "responsible_agency": "Department of Code Enforcement",
    "final_address": "3343 Louisa St",
    "address_councildis": "D",
    "status": "Pending",
    "rowid": "832660",
    "final_x": "3691890.20246",
    "final_y": "544858.282447",
    "longitude": "-90.0347846276245",
    "latitude": "29.99185166334312",
    "geocoded_column": {
      "latitude": "29.99185166334312",
      "longitude": "-90.0347846276245"
    }
  },
  {
    "service_request": "2021-832658",
    "request_type": "Property Maintenance",
    "request_reason": "Property Maintenance",
    "date_created": "2021-10-12T16:05:27.000",
    "date_modified": "2021-10-12T16:05:27.000",
    "request_status": "Pending",
    "responsible_agency": "Department of Code Enforcement",
    "final_address": "3336 Louisa St",
    "address_councildis": "D",
    "status": "Pending",
    "rowid": "832658",
    "final_x": "3691752.65904",
    "final_y": "544836.876047",
    "longitude": "-90.03521986286101",
    "latitude": "29.991797088764358",
    "geocoded_column": {
      "latitude": "29.991797088764358",
      "longitude": "-90.03521986286101"
    }
  },
  {
    "service_request": "2021-832657",
    "request_type": "Abandoned Vehicles",
    "request_reason": "Abandoned/Junk Vehicles",
    "date_created": "2021-10-12T16:04:54.000",
    "date_modified": "2021-10-12T16:04:54.000",
    "request_status": "Pending",
    "responsible_agency": "Department of Public Works",
    "final_address": "3117 N Villere St",
    "address_councildis": "C",
    "status": "Pending",
    "rowid": "832657",
    "final_x": "3689429.97321",
    "final_y": "537103.568072",
    "longitude": "-90.04283183289137",
    "latitude": "29.97060539285459",
    "geocoded_column": {
      "latitude": "29.97060539285459",
      "longitude": "-90.04283183289137"
    }
  },
  {
    "service_request": "2021-832656",
    "request_type": "Tax and Revenue",
    "request_reason": "Sales Tax Question",
    "date_created": "2021-10-12T16:04:04.000",
    "date_modified": "2021-10-12T16:04:04.000",
    "request_status": "Pending",
    "responsible_agency": "Bureau of Revenue",
    "status": "Pending",
    "rowid": "832656",
    "longitude": "0.0",
    "latitude": "0.0",
    "geocoded_column": {
      "latitude": "0.0",
      "longitude": "0.0"
    }
  },
  {
    "service_request": "2021-832655",
    "request_type": "Property Maintenance",
    "request_reason": "Property Maintenance",
    "date_created": "2021-10-12T16:03:34.000",
    "date_modified": "2021-10-12T16:03:34.000",
    "request_status": "Pending",
    "responsible_agency": "Department of Code Enforcement",
    "final_address": "3239 Piety St",
    "address_councildis": "D",
    "status": "Pending",
    "rowid": "832655",
    "final_x": "3692026.46249",
    "final_y": "544379.877455",
    "longitude": "-90.03437134362991",
    "latitude": "29.990531976210836",
    "geocoded_column": {
      "latitude": "29.990531976210836",
      "longitude": "-90.03437134362991"
    }
  },
  {
    "service_request": "2021-832653",
    "request_type": "Parks & Parkways",
    "request_reason": "Request Tree Service (Right of Way/Public Property)",
    "date_created": "2021-10-12T16:01:44.000",
    "date_modified": "2021-10-12T16:01:44.000",
    "request_status": "Pending",
    "responsible_agency": "Department of Parks & Parkway",
    "final_address": "1489 Madrid St",
    "address_councildis": "D",
    "status": "Pending",
    "rowid": "832653",
    "final_x": "3678147.34158",
    "final_y": "554685.107416",
    "longitude": "-90.07785535204576",
    "latitude": "30.019293010096487",
    "geocoded_column": {
      "latitude": "30.019293010096487",
      "longitude": "-90.07785535204576"
    }
  },
  {
    "service_request": "2021-832651",
    "request_type": "Trash/Recycling",
    "request_reason": "Missed Trash Pick-Up",
    "date_created": "2021-10-12T16:01:00.000",
    "date_modified": "2021-10-12T16:01:00.000",
    "request_status": "Pending",
    "responsible_agency": "Department of Sanitation",
    "final_address": "122 Winthrop Pl",
    "address_councildis": "D",
    "status": "Assigned to Contractor",
    "contractor": "Metro Disposal",
    "rowid": "832651",
    "final_x": "3677538.14702",
    "final_y": "543948.869902",
    "longitude": "-90.08015120805909",
    "latitude": "29.989790514304307",
    "geocoded_column": {
      "latitude": "29.989790514304307",
      "longitude": "-90.08015120805909"
    }
  },
  {
    "service_request": "2021-832650",
    "request_type": "Property Maintenance",
    "request_reason": "Property Maintenance",
    "date_created": "2021-10-12T15:59:09.000",
    "date_modified": "2021-10-12T15:59:09.000",
    "request_status": "Pending",
    "responsible_agency": "Department of Code Enforcement",
    "final_address": "1457 Lauradale Dr",
    "address_councildis": "C",
    "status": "Pending",
    "rowid": "832650",
    "final_x": "3692735.20611",
    "final_y": "525718.767357",
    "longitude": "-90.03280164459694",
    "latitude": "29.93919838715334",
    "geocoded_column": {
      "latitude": "29.93919838715334",
      "longitude": "-90.03280164459694"
    }
  },
  {
    "service_request": "2021-832649",
    "request_type": "Property Maintenance",
    "request_reason": "Property Maintenance",
    "date_created": "2021-10-12T15:58:44.000",
    "date_modified": "2021-10-12T15:58:44.000",
    "request_status": "Pending",
    "responsible_agency": "Department of Code Enforcement",
    "final_address": "3244 Piety St",
    "address_councildis": "D",
    "status": "Pending",
    "rowid": "832649",
    "final_x": "3691971.71395",
    "final_y": "544437.048079",
    "longitude": "-90.03454223291186",
    "latitude": "29.990690881180587",
    "geocoded_column": {
      "latitude": "29.990690881180587",
      "longitude": "-90.03454223291186"
    }
  },
  {
    "service_request": "2021-832648",
    "request_type": "Property Maintenance",
    "request_reason": "Property Maintenance",
    "date_created": "2021-10-12T15:57:34.000",
    "date_modified": "2021-10-12T15:57:34.000",
    "request_status": "Pending",
    "responsible_agency": "Department of Code Enforcement",
    "final_address": "3238 Piety St",
    "address_councildis": "D",
    "status": "Pending",
    "rowid": "832648",
    "final_x": "3691961.0255",
    "final_y": "544396.003791",
    "longitude": "-90.0345774644685",
    "latitude": "29.990578357364377",
    "geocoded_column": {
      "latitude": "29.990578357364377",
      "longitude": "-90.0345774644685"
    }
  },
  {
    "service_request": "2021-832644",
    "request_type": "Property Maintenance",
    "request_reason": "Property Maintenance",
    "date_created": "2021-10-12T15:56:11.000",
    "date_modified": "2021-10-12T15:56:11.000",
    "request_status": "Pending",
    "responsible_agency": "Department of Code Enforcement",
    "final_address": "1449 Lauradale Dr",
    "address_councildis": "C",
    "status": "Pending",
    "rowid": "832644",
    "final_x": "3692738.04733",
    "final_y": "525788.099965",
    "longitude": "-90.03279019010549",
    "latitude": "29.9393889394066",
    "geocoded_column": {
      "latitude": "29.9393889394066",
      "longitude": "-90.03279019010549"
    }
  },
  {
    "service_request": "2021-832643",
    "request_type": "Property Maintenance",
    "request_reason": "Property Maintenance",
    "date_created": "2021-10-12T15:55:50.000",
    "date_modified": "2021-10-12T15:55:50.000",
    "request_status": "Pending",
    "responsible_agency": "Department of Code Enforcement",
    "final_address": "3232 Piety St",
    "address_councildis": "D",
    "status": "Pending",
    "rowid": "832643",
    "final_x": "3691950.22416",
    "final_y": "544353.418767",
    "longitude": "-90.03461310769643",
    "latitude": "29.990461600588603",
    "geocoded_column": {
      "latitude": "29.990461600588603",
      "longitude": "-90.03461310769643"
    }
  },
  {
    "service_request": "2021-832642",
    "request_type": "Traffic Signals/Signs/Striping/Streetlights",
    "request_reason": "Street Light Outage/Malfunction",
    "date_created": "2021-10-12T15:55:44.000",
    "date_modified": "2021-10-12T15:55:45.000",
    "request_status": "Pending",
    "responsible_agency": "Department of Public Works",
    "final_address": "5810 Norland Ave",
    "address_councildis": "C",
    "status": "Pending",
    "contractor": "Royal Engineering",
    "rowid": "832642",
    "final_x": "3705155.36542",
    "final_y": "520460.416632",
    "longitude": "-89.99378405106106",
    "latitude": "29.924346304846654",
    "geocoded_column": {
      "latitude": "29.924346304846654",
      "longitude": "-89.99378405106106"
    }
  },
  {
    "service_request": "2021-832640",
    "request_type": "Trash/Recycling",
    "request_reason": "Replace Trash Cart",
    "date_created": "2021-10-12T15:52:43.000",
    "date_modified": "2021-10-12T15:52:43.000",
    "request_status": "Pending",
    "responsible_agency": "Department of Sanitation",
    "final_address": "3223 Canal St",
    "address_councildis": "B",
    "status": "Assigned to Contractor",
    "contractor": "Richards Disposal",
    "rowid": "832640",
    "final_x": "3673779.42504",
    "final_y": "536442.410183",
    "longitude": "-90.09228080914703",
    "latitude": "29.96926281675288",
    "geocoded_column": {
      "latitude": "29.96926281675288",
      "longitude": "-90.09228080914703"
    }
  },
  {
    "service_request": "2021-832638",
    "request_type": "Property Maintenance",
    "request_reason": "Property Maintenance",
    "date_created": "2021-10-12T15:50:56.000",
    "date_modified": "2021-10-12T15:50:56.000",
    "request_status": "Pending",
    "responsible_agency": "Department of Code Enforcement",
    "final_address": "3501 Metropolitan St",
    "address_councildis": "D",
    "status": "Pending",
    "rowid": "832638",
    "final_x": "3691695.85148",
    "final_y": "545387.561552",
    "longitude": "-90.03537960106547",
    "latitude": "29.993313043736624",
    "geocoded_column": {
      "latitude": "29.993313043736624",
      "longitude": "-90.03537960106547"
    }
  },
  {
    "service_request": "2021-832637",
    "request_type": "Traffic Signals/Signs/Striping/Streetlights",
    "request_reason": "Street Light Outage/Malfunction",
    "date_created": "2021-10-12T15:50:28.000",
    "date_modified": "2021-10-12T15:50:28.000",
    "request_status": "Pending",
    "responsible_agency": "Department of Public Works",
    "final_address": "1041 Dauphine St",
    "address_councildis": "C",
    "status": "Pending",
    "contractor": "Royal Engineering",
    "rowid": "832637",
    "final_x": "3682822.98716",
    "final_y": "534051.983493",
    "longitude": "-90.06380422787494",
    "latitude": "29.962417537326097",
    "geocoded_column": {
      "latitude": "29.962417537326097",
      "longitude": "-90.06380422787494"
    }
  },
  {
    "service_request": "2021-832636",
    "request_type": "Property Maintenance",
    "request_reason": "Property Maintenance",
    "date_created": "2021-10-12T15:49:44.000",
    "date_modified": "2021-10-12T15:49:44.000",
    "request_status": "Pending",
    "responsible_agency": "Department of Code Enforcement",
    "final_address": "3509 Metropolitan St",
    "address_councildis": "D",
    "status": "Pending",
    "rowid": "832636",
    "final_x": "3691718.90595",
    "final_y": "545451.262672",
    "longitude": "-90.0353044965641",
    "latitude": "29.993487480610806",
    "geocoded_column": {
      "latitude": "29.993487480610806",
      "longitude": "-90.0353044965641"
    }
  },
  {
    "service_request": "2021-832635",
    "request_type": "Trash/Recycling",
    "request_reason": "Replace Trash Cart",
    "date_created": "2021-10-12T15:49:33.000",
    "date_modified": "2021-10-12T15:49:34.000",
    "request_status": "Pending",
    "responsible_agency": "Department of Sanitation",
    "final_address": "830 Verret St",
    "address_councildis": "C",
    "status": "Assigned to Contractor",
    "contractor": "Richards Disposal",
    "rowid": "832635",
    "final_x": "3687197.31324",
    "final_y": "528470.506432",
    "longitude": "-90.0501881321014",
    "latitude": "29.9469364052874",
    "geocoded_column": {
      "latitude": "29.9469364052874",
      "longitude": "-90.0501881321014"
    }
  },
  {
    "service_request": "2021-832634",
    "request_type": "Property Maintenance",
    "request_reason": "Property Maintenance",
    "date_created": "2021-10-12T15:47:33.000",
    "date_modified": "2021-10-12T15:47:33.000",
    "request_status": "Pending",
    "responsible_agency": "Department of Code Enforcement",
    "final_address": "3605 Metropolitan St",
    "address_councildis": "D",
    "status": "Pending",
    "rowid": "832634",
    "final_x": "3691743.10838",
    "final_y": "545659.212624",
    "longitude": "-90.03522060345522",
    "latitude": "29.99405851359081",
    "geocoded_column": {
      "latitude": "29.99405851359081",
      "longitude": "-90.03522060345522"
    }
  },
  {
    "service_request": "2021-832632",
    "request_type": "Property Maintenance",
    "request_reason": "Property Maintenance",
    "date_created": "2021-10-12T15:45:57.000",
    "date_modified": "2021-10-12T15:45:57.000",
    "request_status": "Pending",
    "responsible_agency": "Department of Code Enforcement",
    "final_address": "3600 Metropolitan St",
    "address_councildis": "D",
    "status": "Pending",
    "rowid": "832632",
    "final_x": "3691645.61552",
    "final_y": "545628.616784",
    "longitude": "-90.03552966328077",
    "latitude": "29.993977422728317",
    "geocoded_column": {
      "latitude": "29.993977422728317",
      "longitude": "-90.03552966328077"
    }
  },
  {
    "service_request": "2021-832628",
    "request_type": "Trash/Recycling",
    "request_reason": "Order Recycling Cart",
    "date_created": "2021-10-12T15:35:51.000",
    "date_modified": "2021-10-12T15:43:25.000",
    "request_status": "Pending",
    "responsible_agency": "Department of Sanitation",
    "final_address": "New Orleans,LA",
    "address_councildis": "C",
    "rowid": "832628",
    "final_x": "3686658.21122",
    "final_y": "530542.348162",
    "longitude": "-90.05181711095243",
    "latitude": "29.952649851779107",
    "geocoded_column": {
      "latitude": "29.952649851779107",
      "longitude": "-90.05181711095243"
    }
  },
  {
    "service_request": "2021-832627",
    "request_type": "Traffic Signals/Signs/Striping/Streetlights",
    "request_reason": "Street Light Outage/Malfunction",
    "date_created": "2021-10-12T15:34:27.000",
    "date_modified": "2021-10-12T15:34:28.000",
    "request_status": "Pending",
    "responsible_agency": "Department of Public Works",
    "final_address": "3424 Desaix Blvd",
    "address_councildis": "A",
    "status": "Pending",
    "contractor": "Royal Engineering",
    "rowid": "832627",
    "final_x": "3676641.58344",
    "final_y": "543530.927438",
    "longitude": "-90.08299761399815",
    "latitude": "29.98866824947329",
    "geocoded_column": {
      "latitude": "29.98866824947329",
      "longitude": "-90.08299761399815"
    }
  },
  {
    "service_request": "2021-832626",
    "request_type": "Abandoned Vehicles",
    "request_reason": "Abandoned/Junk Vehicles",
    "date_created": "2021-10-12T15:34:26.000",
    "date_modified": "2021-10-12T15:34:26.000",
    "request_status": "Pending",
    "responsible_agency": "Department of Public Works",
    "final_address": "5331 Laurel St",
    "address_councildis": "B",
    "status": "Pending",
    "rowid": "832626",
    "final_x": "3667126.0578",
    "final_y": "517937.507382",
    "longitude": "-90.1139146484354",
    "latitude": "29.918576780645992",
    "geocoded_column": {
      "latitude": "29.918576780645992",
      "longitude": "-90.1139146484354"
    }
  },
  {
    "service_request": "2021-832625",
    "request_type": "Trash/Recycling",
    "request_reason": "Illegal Dumping",
    "date_created": "2021-10-12T15:33:55.000",
    "date_modified": "2021-10-12T15:33:55.000",
    "request_status": "Pending",
    "responsible_agency": "Department of Sanitation",
    "final_address": "906 Governor Nicholls St",
    "address_councildis": "C",
    "status": "Pending",
    "rowid": "832625",
    "final_x": "3683006.70741",
    "final_y": "534383.499141",
    "longitude": "-90.06321246165278",
    "latitude": "29.9633234933172",
    "geocoded_column": {
      "latitude": "29.9633234933172",
      "longitude": "-90.06321246165278"
    }
  },
  {
    "service_request": "2021-832624",
    "request_type": "Trash/Recycling",
    "request_reason": "Repair Trash Cart",
    "date_created": "2021-10-12T15:33:43.000",
    "date_modified": "2021-10-12T15:33:44.000",
    "request_status": "Pending",
    "responsible_agency": "Department of Sanitation",
    "final_address": "1304 Valmont St",
    "address_councildis": "B",
    "status": "Assigned to Contractor",
    "contractor": "Richards Disposal",
    "rowid": "832624",
    "final_x": "3667633.22964",
    "final_y": "520011.588728",
    "longitude": "-90.11224400188621",
    "latitude": "29.924264999938657",
    "geocoded_column": {
      "latitude": "29.924264999938657",
      "longitude": "-90.11224400188621"
    }
  },
  {
    "service_request": "2021-832622",
    "request_type": "Trash/Recycling",
    "request_reason": "Missed Trash Pick-Up",
    "date_created": "2021-10-12T15:30:11.000",
    "date_modified": "2021-10-12T15:30:12.000",
    "request_status": "Pending",
    "responsible_agency": "Department of Sanitation",
    "final_address": "301 Sharon Dr",
    "address_councildis": "A",
    "status": "Assigned to Contractor",
    "contractor": "Metro Disposal",
    "rowid": "832622",
    "final_x": "3665042.93498",
    "final_y": "547206.637329",
    "longitude": "-90.11951130908467",
    "latitude": "29.999118106417967",
    "geocoded_column": {
      "latitude": "29.999118106417967",
      "longitude": "-90.11951130908467"
    }
  },
  {
    "service_request": "2021-832620",
    "request_type": "Property Maintenance",
    "request_reason": "Property Maintenance",
    "date_created": "2021-10-12T15:28:35.000",
    "date_modified": "2021-10-12T15:28:36.000",
    "request_status": "Pending",
    "responsible_agency": "Department of Code Enforcement",
    "final_address": "6001 Downman Rd",
    "address_councildis": "D",
    "status": "Pending",
    "rowid": "832620",
    "final_x": "3696112.03299",
    "final_y": "554957.618712",
    "longitude": "-90.02108347211927",
    "latitude": "30.019488851075813",
    "geocoded_column": {
      "latitude": "30.019488851075813",
      "longitude": "-90.02108347211927"
    }
  },
  {
    "service_request": "2021-832619",
    "request_type": "Traffic Signals/Signs/Striping/Streetlights",
    "request_reason": "Street Light Outage/Malfunction",
    "date_created": "2021-10-12T15:27:01.000",
    "date_modified": "2021-10-12T15:27:02.000",
    "request_status": "Pending",
    "responsible_agency": "Department of Public Works",
    "final_address": "8216 Apple St",
    "address_councildis": "A",
    "status": "Pending",
    "contractor": "Royal Engineering",
    "rowid": "832619",
    "final_x": "3664966.17332",
    "final_y": "532411.632899",
    "longitude": "-90.12024860806963",
    "latitude": "29.958439032318193",
    "geocoded_column": {
      "latitude": "29.958439032318193",
      "longitude": "-90.12024860806963"
    }
  },
  {
    "service_request": "2021-832618",
    "request_type": "Trash/Recycling",
    "request_reason": "Order Trash Cart",
    "date_created": "2021-10-12T15:26:05.000",
    "date_modified": "2021-10-12T15:26:06.000",
    "request_status": "Pending",
    "responsible_agency": "Department of Sanitation",
    "final_address": "3636 River Oaks Dr",
    "address_councildis": "C",
    "status": "Assigned to Contractor",
    "contractor": "Richards Disposal",
    "rowid": "832618",
    "final_x": "3701427.66167",
    "final_y": "517492.374646",
    "longitude": "-90.00565960152494",
    "latitude": "29.916304509178026",
    "geocoded_column": {
      "latitude": "29.916304509178026",
      "longitude": "-90.00565960152494"
    }
  },
  {
    "service_request": "2021-832613",
    "request_type": "Trash/Recycling",
    "request_reason": "Replace Trash Cart",
    "date_created": "2021-10-12T15:20:16.000",
    "date_modified": "2021-10-12T15:20:16.000",
    "request_status": "Pending",
    "responsible_agency": "Department of Sanitation",
    "final_address": "6117 Magazine St",
    "address_councildis": "A",
    "status": "Assigned to Contractor",
    "contractor": "Richards Disposal",
    "rowid": "832613",
    "final_x": "3663985.58548",
    "final_y": "519529.824695",
    "longitude": "-90.1237744505849",
    "latitude": "29.923046680896892",
    "geocoded_column": {
      "latitude": "29.923046680896892",
      "longitude": "-90.1237744505849"
    }
  },
  {
    "service_request": "2021-832611",
    "request_type": "Abandoned Vehicles",
    "request_reason": "Abandoned/Junk Vehicles",
    "date_created": "2021-10-12T15:16:45.000",
    "date_modified": "2021-10-12T15:16:45.000",
    "request_status": "Pending",
    "responsible_agency": "Department of Public Works",
    "final_address": "6061 General Diaz St",
    "address_councildis": "A",
    "status": "Pending",
    "rowid": "832611",
    "final_x": "3669640.40858",
    "final_y": "547654.93941",
    "longitude": "-90.10497257102575",
    "latitude": "30.00021606601047",
    "geocoded_column": {
      "latitude": "30.00021606601047",
      "longitude": "-90.10497257102575"
    }
  },
  {
    "service_request": "2021-832610",
    "request_type": "Safety & Permits",
    "request_reason": "Licenses & Permits",
    "date_created": "2021-10-12T15:15:42.000",
    "date_modified": "2021-10-12T15:15:42.000",
    "request_status": "Pending",
    "responsible_agency": "Safety and Permits",
    "final_address": "1229 Cadiz St",
    "address_councildis": "B",
    "status": "Pending",
    "rowid": "832610",
    "final_x": "3670241.68033",
    "final_y": "519922.605176",
    "longitude": "-90.10401302216587",
    "latitude": "29.923943631598064",
    "geocoded_column": {
      "latitude": "29.923943631598064",
      "longitude": "-90.10401302216587"
    }
  },
  {
    "service_request": "2021-832609",
    "request_type": "Property Maintenance",
    "request_reason": "Property Maintenance",
    "date_created": "2021-10-12T15:12:15.000",
    "date_modified": "2021-10-12T15:12:15.000",
    "request_status": "Pending",
    "responsible_agency": "Department of Code Enforcement",
    "final_address": "1933 France St",
    "address_councildis": "D",
    "status": "Pending",
    "rowid": "832609",
    "final_x": "3693247.50947",
    "final_y": "538461.077001",
    "longitude": "-90.03072691777493",
    "latitude": "29.974219286159922",
    "geocoded_column": {
      "latitude": "29.974219286159922",
      "longitude": "-90.03072691777493"
    }
  },
  {
    "service_request": "2021-832608",
    "request_type": "Roads/Drainage",
    "request_reason": "Debris in Roadway",
    "date_created": "2021-10-12T15:11:26.000",
    "date_modified": "2021-10-12T15:11:27.000",
    "request_status": "Pending",
    "responsible_agency": "Department of Public Works",
    "final_address": "1229 Cadiz St",
    "address_councildis": "B",
    "status": "Pending",
    "rowid": "832608",
    "final_x": "3670241.68033",
    "final_y": "519922.605176",
    "longitude": "-90.10401302216587",
    "latitude": "29.923943631598064",
    "geocoded_column": {
      "latitude": "29.923943631598064",
      "longitude": "-90.10401302216587"
    }
  },
  {
    "service_request": "2021-832606",
    "request_type": "COVID-19",
    "request_reason": "COVID-19 Business Non-Compliance",
    "date_created": "2021-10-12T15:08:37.000",
    "date_modified": "2021-10-12T15:08:39.000",
    "request_status": "Pending",
    "responsible_agency": "Safety and Permits",
    "final_address": "6600 Franklin Ave",
    "address_councildis": "D",
    "status": "Pending",
    "rowid": "832606",
    "final_x": "3685596.64431",
    "final_y": "557999.040667",
    "longitude": "-90.054201246174",
    "latitude": "30.028178567309073",
    "geocoded_column": {
      "latitude": "30.028178567309073",
      "longitude": "-90.054201246174"
    }
  },
  {
    "service_request": "2021-832605",
    "request_type": "Roads/Drainage",
    "request_reason": "Pothole",
    "date_created": "2021-10-12T15:07:32.000",
    "date_modified": "2021-10-12T15:07:32.000",
    "request_status": "Pending",
    "responsible_agency": "Department of Public Works",
    "final_address": "220 Hay Pl",
    "address_councildis": "A",
    "status": "Pending",
    "rowid": "832605",
    "final_x": "3665941.35181",
    "final_y": "554126.601368",
    "longitude": "-90.11644102184513",
    "latitude": "30.018119400853024",
    "geocoded_column": {
      "latitude": "30.018119400853024",
      "longitude": "-90.11644102184513"
    }
  },
  {
    "service_request": "2021-832604",
    "request_type": "Trash/Recycling",
    "request_reason": "Request a Large Item Pick Up",
    "date_created": "2021-10-12T15:06:11.000",
    "date_modified": "2021-10-12T15:06:12.000",
    "request_status": "Pending",
    "responsible_agency": "Department of Sanitation",
    "final_address": "6338 Mandeville St",
    "address_councildis": "D",
    "status": "Assigned to Contractor",
    "contractor": "Metro Disposal",
    "rowid": "832604",
    "final_x": "3684113.21141",
    "final_y": "556463.040794",
    "longitude": "-90.05894278208541",
    "latitude": "30.024000586992912",
    "geocoded_column": {
      "latitude": "30.024000586992912",
      "longitude": "-90.05894278208541"
    }
  },
  {
    "service_request": "2021-832602",
    "request_type": "Trash/Recycling",
    "request_reason": "Illegal Dumping",
    "date_created": "2021-10-12T15:03:27.000",
    "date_modified": "2021-10-12T15:03:27.000",
    "request_status": "Pending",
    "responsible_agency": "Department of Sanitation",
    "final_address": "1900 BLK France St",
    "address_councildis": "D",
    "status": "Pending",
    "rowid": "832602",
    "final_x": "3693183.20579",
    "final_y": "538352.370589",
    "longitude": "-90.03093390515166",
    "latitude": "29.973922392128927",
    "geocoded_column": {
      "latitude": "29.973922392128927",
      "longitude": "-90.03093390515166"
    }
  },
  {
    "service_request": "2021-832601",
    "request_type": "Property Maintenance",
    "request_reason": "Property Maintenance",
    "date_created": "2021-10-12T15:00:57.000",
    "date_modified": "2021-10-12T15:00:57.000",
    "request_status": "Pending",
    "responsible_agency": "Department of Code Enforcement",
    "final_address": "756 Louisiana Ave",
    "address_councildis": "B",
    "status": "Pending",
    "rowid": "832601",
    "final_x": "3675421.91317",
    "final_y": "518559.665399",
    "longitude": "-90.0877076333053",
    "latitude": "29.920042152197247",
    "geocoded_column": {
      "latitude": "29.920042152197247",
      "longitude": "-90.0877076333053"
    }
  },
  {
    "service_request": "2021-832600",
    "request_type": "Trash/Recycling",
    "request_reason": "Replace Trash Cart",
    "date_created": "2021-10-12T14:59:50.000",
    "date_modified": "2021-10-12T14:59:51.000",
    "request_status": "Pending",
    "responsible_agency": "Department of Sanitation",
    "final_address": "2132 Jefferson Ave",
    "address_councildis": "A",
    "status": "Assigned to Contractor",
    "contractor": "Richards Disposal",
    "rowid": "832600",
    "final_x": "3667734.05537",
    "final_y": "523619.029883",
    "longitude": "-90.11180433258103",
    "latitude": "29.93418136114859",
    "geocoded_column": {
      "latitude": "29.93418136114859",
      "longitude": "-90.11180433258103"
    }
  },
  {
    "service_request": "2021-832599",
    "request_type": "Traffic Signals/Signs/Striping/Streetlights",
    "request_reason": "Street Light Knocked Down/Leaning",
    "date_created": "2021-10-12T14:59:14.000",
    "date_modified": "2021-10-12T14:59:15.000",
    "request_status": "Pending",
    "responsible_agency": "Department of Public Works",
    "final_address": "MARCONI DR & SNIPE ST",
    "address_councildis": "D",
    "status": "Pending",
    "contractor": "Royal Engineering",
    "rowid": "832599",
    "final_x": "3671976.4",
    "final_y": "556577.18",
    "longitude": "-90.09728898109357",
    "latitude": "30.024680001491536",
    "geocoded_column": {
      "latitude": "30.024680001491536",
      "longitude": "-90.09728898109357"
    }
  },
  {
    "service_request": "2021-832598",
    "request_type": "Traffic Signals/Signs/Striping/Streetlights",
    "request_reason": "Street Light Outage/Malfunction",
    "date_created": "2021-10-12T14:58:27.000",
    "date_modified": "2021-10-12T14:58:28.000",
    "request_status": "Pending",
    "responsible_agency": "Department of Public Works",
    "final_address": "MARCONI DR & SNIPE ST",
    "address_councildis": "D",
    "status": "Pending",
    "contractor": "Royal Engineering",
    "rowid": "832598",
    "final_x": "3671976.4",
    "final_y": "556577.18",
    "longitude": "-90.09728898109357",
    "latitude": "30.024680001491536",
    "geocoded_column": {
      "latitude": "30.024680001491536",
      "longitude": "-90.09728898109357"
    }
  },
  {
    "service_request": "2021-832593",
    "request_type": "Property Maintenance",
    "request_reason": "Property Maintenance",
    "date_created": "2021-10-12T14:50:45.000",
    "date_modified": "2021-10-12T14:50:45.000",
    "request_status": "Pending",
    "responsible_agency": "Department of Code Enforcement",
    "final_address": "5708 Pauline Dr",
    "address_councildis": "D",
    "status": "Pending",
    "rowid": "832593",
    "final_x": "3691758.78051",
    "final_y": "555053.251801",
    "longitude": "-90.03483481871191",
    "latitude": "30.019888169999252",
    "geocoded_column": {
      "latitude": "30.019888169999252",
      "longitude": "-90.03483481871191"
    }
  },
  {
    "service_request": "2021-832592",
    "request_type": "Roads/Drainage",
    "request_reason": "Road Shoulder Repair",
    "date_created": "2021-10-12T14:49:50.000",
    "date_modified": "2021-10-12T14:49:50.000",
    "request_status": "Pending",
    "responsible_agency": "Department of Public Works",
    "final_address": "3014 Touro St",
    "address_councildis": "D",
    "status": "Pending",
    "rowid": "832592",
    "final_x": "3683574.38197",
    "final_y": "543740.04891",
    "longitude": "-90.0610917483485",
    "latitude": "29.98903342590538",
    "geocoded_column": {
      "latitude": "29.98903342590538",
      "longitude": "-90.0610917483485"
    }
  },
  {
    "service_request": "2021-832591",
    "request_type": "Trash/Recycling",
    "request_reason": "Replace Trash Cart",
    "date_created": "2021-10-12T14:49:00.000",
    "date_modified": "2021-10-12T14:49:00.000",
    "request_status": "Pending",
    "responsible_agency": "Department of Sanitation",
    "final_address": "5229 Prytania St",
    "address_councildis": "B",
    "status": "Assigned to Contractor",
    "contractor": "Richards Disposal",
    "rowid": "832591",
    "final_x": "3667858.48865",
    "final_y": "520223.574648",
    "longitude": "-90.11152579985848",
    "latitude": "29.924841291564594",
    "geocoded_column": {
      "latitude": "29.924841291564594",
      "longitude": "-90.11152579985848"
    }
  },
  {
    "service_request": "2021-832590",
    "request_type": "Abandoned Vehicles",
    "request_reason": "Abandoned/Junk Vehicles",
    "date_created": "2021-10-12T14:46:19.000",
    "date_modified": "2021-10-12T14:46:19.000",
    "request_status": "Pending",
    "responsible_agency": "Department of Public Works",
    "final_address": "4222 Baudin St",
    "address_councildis": "A",
    "status": "Pending",
    "rowid": "832590",
    "final_x": "3669438.5762",
    "final_y": "537539.745992",
    "longitude": "-90.10595245699622",
    "latitude": "29.972408684968936",
    "geocoded_column": {
      "latitude": "29.972408684968936",
      "longitude": "-90.10595245699622"
    }
  },
  {
    "service_request": "2021-832588",
    "request_type": "Roads/Drainage",
    "request_reason": "Pothole",
    "date_created": "2021-10-12T14:42:04.000",
    "date_modified": "2021-10-12T14:42:04.000",
    "request_status": "Pending",
    "responsible_agency": "Department of Public Works",
    "final_address": "901 Robert St",
    "address_councildis": "B",
    "status": "Pending",
    "rowid": "832588",
    "final_x": "3668684.08135",
    "final_y": "518705.698999",
    "longitude": "-90.10897086558742",
    "latitude": "29.920643381840673",
    "geocoded_column": {
      "latitude": "29.920643381840673",
      "longitude": "-90.10897086558742"
    }
  },
  {
    "service_request": "2021-832587",
    "request_type": "Abandoned Vehicles",
    "request_reason": "Abandoned/Junk Vehicles",
    "date_created": "2021-10-12T14:41:27.000",
    "date_modified": "2021-10-12T14:41:27.000",
    "request_status": "Pending",
    "responsible_agency": "Department of Public Works",
    "final_address": "4222 Baudin St",
    "address_councildis": "A",
    "status": "Pending",
    "rowid": "832587",
    "final_x": "3669438.5762",
    "final_y": "537539.745992",
    "longitude": "-90.10595245699622",
    "latitude": "29.972408684968936",
    "geocoded_column": {
      "latitude": "29.972408684968936",
      "longitude": "-90.10595245699622"
    }
  },
  {
    "service_request": "2021-832586",
    "request_type": "Trash/Recycling",
    "request_reason": "Illegal Dumping",
    "date_created": "2021-10-12T14:36:28.000",
    "date_modified": "2021-10-12T14:36:44.000",
    "case_close_date": "2021-10-12T09:36:44.000",
    "request_status": "Closed",
    "responsible_agency": "Department of Sanitation",
    "final_address": "3517 Third St",
    "address_councildis": "B",
    "status": "Resolved",
    "rowid": "832586",
    "final_x": "3672662.65147",
    "final_y": "528655.154944",
    "longitude": "-90.09607322012631",
    "latitude": "29.947883669598355",
    "geocoded_column": {
      "latitude": "29.947883669598355",
      "longitude": "-90.09607322012631"
    }
  },
  {
    "service_request": "2021-832585",
    "request_type": "Trash/Recycling",
    "request_reason": "Illegal Dumping",
    "date_created": "2021-10-12T14:34:47.000",
    "date_modified": "2021-10-12T14:35:12.000",
    "case_close_date": "2021-10-12T09:35:12.000",
    "request_status": "Closed",
    "responsible_agency": "Department of Sanitation",
    "final_address": "2409 S Tonti St",
    "address_councildis": "B",
    "status": "Resolved",
    "rowid": "832585",
    "final_x": "3672762.32244",
    "final_y": "529370.772417",
    "longitude": "-90.09573411417945",
    "latitude": "29.94984842232231",
    "geocoded_column": {
      "latitude": "29.94984842232231",
      "longitude": "-90.09573411417945"
    }
  },
  {
    "service_request": "2021-832583",
    "request_type": "Trash/Recycling",
    "request_reason": "Missed Trash Pick-Up",
    "date_created": "2021-10-12T14:33:56.000",
    "date_modified": "2021-10-12T22:19:46.000",
    "request_status": "Pending",
    "responsible_agency": "Department of Sanitation",
    "final_address": "New Orleans,LA",
    "address_councildis": "C",
    "status": "Assigned to Contractor",
    "contractor": "Metro Disposal",
    "rowid": "832583",
    "final_x": "3684276.30398",
    "final_y": "535699.877863",
    "longitude": "-90.05915699898144",
    "latitude": "29.966904323465595",
    "geocoded_column": {
      "latitude": "29.966904323465595",
      "longitude": "-90.05915699898144"
    }
  },
  {
    "service_request": "2021-832582",
    "request_type": "Trash/Recycling",
    "request_reason": "Illegal Dumping",
    "date_created": "2021-10-12T14:33:33.000",
    "date_modified": "2021-10-12T14:33:51.000",
    "case_close_date": "2021-10-12T09:33:51.000",
    "request_status": "Closed",
    "responsible_agency": "Department of Sanitation",
    "final_address": "2200 BLK S Johnson St",
    "address_councildis": "B",
    "status": "Resolved",
    "rowid": "832582",
    "final_x": "3673581.69676",
    "final_y": "528652.143271",
    "longitude": "-90.09317152540069",
    "latitude": "29.94784806960861",
    "geocoded_column": {
      "latitude": "29.94784806960861",
      "longitude": "-90.09317152540069"
    }
  },
  {
    "service_request": "2021-832581",
    "request_type": "Trash/Recycling",
    "request_reason": "Illegal Dumping",
    "date_created": "2021-10-12T14:32:01.000",
    "date_modified": "2021-10-12T14:32:27.000",
    "case_close_date": "2021-10-12T09:32:27.000",
    "request_status": "Closed",
    "responsible_agency": "Department of Sanitation",
    "final_address": "2300 BLK N Johnson St",
    "address_councildis": "D",
    "status": "Resolved",
    "rowid": "832581",
    "final_x": "3685687.64565",
    "final_y": "539693.415808",
    "longitude": "-90.0545592424571",
    "latitude": "29.97784192934101",
    "geocoded_column": {
      "latitude": "29.97784192934101",
      "longitude": "-90.0545592424571"
    }
  },
  {
    "service_request": "2021-832580",
    "request_type": "Trash/Recycling",
    "request_reason": "Illegal Dumping",
    "date_created": "2021-10-12T14:31:07.000",
    "date_modified": "2021-10-12T14:31:07.000",
    "request_status": "Pending",
    "responsible_agency": "Department of Sanitation",
    "final_address": "1418 Governor Nicholls St",
    "address_councildis": "C",
    "status": "Pending",
    "rowid": "832580",
    "final_x": "3681549.46895",
    "final_y": "535564.20455",
    "longitude": "-90.06777307263567",
    "latitude": "29.96661436305579",
    "geocoded_column": {
      "latitude": "29.96661436305579",
      "longitude": "-90.06777307263567"
    }
  },
  {
    "service_request": "2021-832579",
    "request_type": "Trash/Recycling",
    "request_reason": "Illegal Dumping",
    "date_created": "2021-10-12T14:30:46.000",
    "date_modified": "2021-10-12T14:31:03.000",
    "case_close_date": "2021-10-12T09:31:03.000",
    "request_status": "Closed",
    "responsible_agency": "Department of Sanitation",
    "final_address": "3300 First St",
    "address_councildis": "B",
    "status": "Resolved",
    "rowid": "832579",
    "final_x": "3673554.77537",
    "final_y": "528278.399232",
    "longitude": "-90.09326929805376",
    "latitude": "29.94682119776854",
    "geocoded_column": {
      "latitude": "29.94682119776854",
      "longitude": "-90.09326929805376"
    }
  },
  {
    "service_request": "2021-832577",
    "request_type": "Trash/Recycling",
    "request_reason": "Illegal Dumping",
    "date_created": "2021-10-12T14:28:41.000",
    "date_modified": "2021-10-12T14:29:09.000",
    "case_close_date": "2021-10-12T09:29:09.000",
    "request_status": "Closed",
    "responsible_agency": "Department of Sanitation",
    "final_address": "2400 BLK S Johnson St",
    "address_councildis": "B",
    "status": "Resolved",
    "rowid": "832577",
    "final_x": "3673301.30494",
    "final_y": "528463.921862",
    "longitude": "-90.09406326300095",
    "latitude": "29.947338864222953",
    "geocoded_column": {
      "latitude": "29.947338864222953",
      "longitude": "-90.09406326300095"
    }
  },
  {
    "service_request": "2021-832576",
    "request_type": "Trash/Recycling",
    "request_reason": "Missed Trash Pick-Up",
    "date_created": "2021-10-12T14:28:27.000",
    "date_modified": "2021-10-12T14:28:27.000",
    "request_status": "Pending",
    "responsible_agency": "Department of Sanitation",
    "final_address": "7008 Queensway Dr",
    "address_councildis": "E",
    "status": "Assigned to Contractor",
    "contractor": "Metro Disposal",
    "rowid": "832576",
    "final_x": "3719235.067",
    "final_y": "569255.747174",
    "longitude": "-89.94747693438578",
    "latitude": "30.058054482658527",
    "geocoded_column": {
      "latitude": "30.058054482658527",
      "longitude": "-89.94747693438578"
    }
  },
  {
    "service_request": "2021-832574",
    "request_type": "Trash/Recycling",
    "request_reason": "Illegal Dumping",
    "date_created": "2021-10-12T14:26:47.000",
    "date_modified": "2021-10-12T14:27:36.000",
    "case_close_date": "2021-10-11T19:00:00.000",
    "request_status": "Closed",
    "responsible_agency": "Department of Sanitation",
    "final_address": "2500 BLK N Johnson St",
    "address_councildis": "D",
    "status": "Resolved",
    "rowid": "832574",
    "final_x": "3687118.14476",
    "final_y": "539806.965777",
    "longitude": "-90.05003722412778",
    "latitude": "29.978110177150892",
    "geocoded_column": {
      "latitude": "29.978110177150892",
      "longitude": "-90.05003722412778"
    }
  },
  {
    "service_request": "2021-832570",
    "request_type": "Trash/Recycling",
    "request_reason": "Illegal Dumping",
    "date_created": "2021-10-12T14:25:02.000",
    "date_modified": "2021-10-12T14:25:36.000",
    "case_close_date": "2021-10-12T09:25:36.000",
    "request_status": "Closed",
    "responsible_agency": "Department of Sanitation",
    "final_address": "3400 BLK Second St",
    "address_councildis": "B",
    "status": "Resolved",
    "rowid": "832570",
    "final_x": "3673092.8047",
    "final_y": "528501.741341",
    "longitude": "-90.09472028829207",
    "latitude": "29.947449054225284",
    "geocoded_column": {
      "latitude": "29.947449054225284",
      "longitude": "-90.09472028829207"
    }
  },
  {
    "service_request": "2021-832569",
    "request_type": "Trash/Recycling",
    "request_reason": "Request a Large Item Pick Up",
    "date_created": "2021-10-12T14:24:55.000",
    "date_modified": "2021-10-12T14:24:55.000",
    "request_status": "Pending",
    "responsible_agency": "Department of Sanitation",
    "final_address": "1482 Granada Dr",
    "address_councildis": "D",
    "status": "Assigned to Contractor",
    "contractor": "Metro Disposal",
    "rowid": "832569",
    "final_x": "3678421.07259",
    "final_y": "550528.50978",
    "longitude": "-90.0771344384201",
    "latitude": "30.00785561415326",
    "geocoded_column": {
      "latitude": "30.00785561415326",
      "longitude": "-90.0771344384201"
    }
  },
  {
    "service_request": "2021-832566",
    "request_type": "Trash/Recycling",
    "request_reason": "Illegal Dumping",
    "date_created": "2021-10-12T14:23:21.000",
    "date_modified": "2021-10-12T14:23:47.000",
    "case_close_date": "2021-10-12T09:23:47.000",
    "request_status": "Closed",
    "responsible_agency": "Department of Sanitation",
    "final_address": "3421 Third St",
    "address_councildis": "B",
    "status": "Resolved",
    "rowid": "832566",
    "final_x": "3672828.83233",
    "final_y": "528393.864512",
    "longitude": "-90.09555743174624",
    "latitude": "29.947160271808688",
    "geocoded_column": {
      "latitude": "29.947160271808688",
      "longitude": "-90.09555743174624"
    }
  },
  {
    "service_request": "2021-832564",
    "request_type": "Trash/Recycling",
    "request_reason": "Illegal Dumping",
    "date_created": "2021-10-12T14:22:04.000",
    "date_modified": "2021-10-12T14:22:22.000",
    "case_close_date": "2021-10-12T09:22:22.000",
    "request_status": "Closed",
    "responsible_agency": "Department of Sanitation",
    "final_address": "2700 BLK N Johnson St",
    "address_councildis": "D",
    "status": "Resolved",
    "rowid": "832564",
    "final_x": "3688430.60014",
    "final_y": "539733.497748",
    "longitude": "-90.04589464214258",
    "latitude": "29.977867683704876",
    "geocoded_column": {
      "latitude": "29.977867683704876",
      "longitude": "-90.04589464214258"
    }
  },
  {
    "service_request": "2021-832563",
    "request_type": "Trash/Recycling",
    "request_reason": "Illegal Dumping",
    "date_created": "2021-10-12T14:21:54.000",
    "date_modified": "2021-10-12T14:21:54.000",
    "request_status": "Pending",
    "responsible_agency": "Department of Code Enforcement",
    "final_address": "2700 BLK N Johnson St",
    "address_councildis": "D",
    "status": "Pending",
    "rowid": "832563",
    "final_x": "3688430.60014",
    "final_y": "539733.497748",
    "longitude": "-90.04589464214258",
    "latitude": "29.977867683704876",
    "geocoded_column": {
      "latitude": "29.977867683704876",
      "longitude": "-90.04589464214258"
    }
  },
  {
    "service_request": "2021-832561",
    "request_type": "Trash/Recycling",
    "request_reason": "Illegal Dumping",
    "date_created": "2021-10-12T14:19:51.000",
    "date_modified": "2021-10-12T14:20:09.000",
    "case_close_date": "2021-10-12T09:20:09.000",
    "request_status": "Closed",
    "responsible_agency": "Department of Sanitation",
    "final_address": "2700 BLK N Johnson St",
    "address_councildis": "D",
    "status": "Resolved",
    "rowid": "832561",
    "final_x": "3688430.60014",
    "final_y": "539733.497748",
    "longitude": "-90.04589464214258",
    "latitude": "29.977867683704876",
    "geocoded_column": {
      "latitude": "29.977867683704876",
      "longitude": "-90.04589464214258"
    }
  },
  {
    "service_request": "2021-832560",
    "request_type": "Trash/Recycling",
    "request_reason": "Illegal Dumping",
    "date_created": "2021-10-12T14:19:32.000",
    "date_modified": "2021-10-12T14:19:32.000",
    "request_status": "Pending",
    "responsible_agency": "Department of Code Enforcement",
    "final_address": "2700 BLK N Johnson St",
    "address_councildis": "D",
    "status": "Pending",
    "rowid": "832560",
    "final_x": "3688430.60014",
    "final_y": "539733.497748",
    "longitude": "-90.04589464214258",
    "latitude": "29.977867683704876",
    "geocoded_column": {
      "latitude": "29.977867683704876",
      "longitude": "-90.04589464214258"
    }
  },
  {
    "service_request": "2021-832559",
    "request_type": "Roads/Drainage",
    "request_reason": "Pothole",
    "date_created": "2021-10-12T14:18:50.000",
    "date_modified": "2021-10-12T14:18:50.000",
    "request_status": "Pending",
    "responsible_agency": "Department of Public Works",
    "final_address": "Lake Marina Ave, New Orleans, Louisiana, 70124",
    "address_councildis": "A",
    "status": "Pending",
    "rowid": "832559",
    "final_x": "3666338.38061",
    "final_y": "555319.007513",
    "longitude": "-90.11514650149904",
    "latitude": "30.021386497075557",
    "geocoded_column": {
      "latitude": "30.021386497075557",
      "longitude": "-90.11514650149904"
    }
  },
  {
    "service_request": "2021-832558",
    "request_type": "Trash/Recycling",
    "request_reason": "Illegal Dumping",
    "date_created": "2021-10-12T14:17:53.000",
    "date_modified": "2021-10-12T14:18:18.000",
    "case_close_date": "2021-10-12T09:18:18.000",
    "request_status": "Closed",
    "responsible_agency": "Department of Sanitation",
    "final_address": "WASHINGTON AVE & S GALVEZ ST",
    "address_councildis": "B",
    "status": "Resolved",
    "rowid": "832558",
    "final_x": "3672195.3",
    "final_y": "528164.78",
    "longitude": "-90.0975655365685",
    "latitude": "29.94654916707521",
    "geocoded_column": {
      "latitude": "29.94654916707521",
      "longitude": "-90.0975655365685"
    }
  },
  {
    "service_request": "2021-832557",
    "request_type": "Trash/Recycling",
    "request_reason": "Illegal Dumping",
    "date_created": "2021-10-12T14:15:54.000",
    "date_modified": "2021-10-12T14:16:25.000",
    "case_close_date": "2021-10-12T09:16:25.000",
    "request_status": "Closed",
    "responsible_agency": "Department of Sanitation",
    "final_address": "S GALVEZ ST & 4TH ST",
    "address_councildis": "B",
    "status": "Resolved",
    "rowid": "832557",
    "final_x": "3672497.0",
    "final_y": "528287.88",
    "longitude": "-90.09660876510146",
    "latitude": "29.946878701401545",
    "geocoded_column": {
      "latitude": "29.946878701401545",
      "longitude": "-90.09660876510146"
    }
  },
  {
    "service_request": "2021-832556",
    "request_type": "Trash/Recycling",
    "request_reason": "Illegal Dumping",
    "date_created": "2021-10-12T14:15:53.000",
    "date_modified": "2021-10-12T14:15:53.000",
    "request_status": "Pending",
    "responsible_agency": "Department of Sanitation",
    "final_address": "ST PETER ST & N RAMPART ST",
    "address_councildis": "C",
    "status": "Pending",
    "rowid": "832556",
    "final_x": "3681380.9",
    "final_y": "533322.38",
    "longitude": "-90.06838356751864",
    "latitude": "29.960455230728186",
    "geocoded_column": {
      "latitude": "29.960455230728186",
      "longitude": "-90.06838356751864"
    }
  },