[
  {
    "service_request": "2025-1189655",
    "request_type": "General Services",
    "request_reason": "General Service Request",
    "date_created": "2025-05-05T22:55:37.000",
    "date_modified": "2025-05-05T22:55:38.000",
    "request_status": "Pending",
    "responsible_agency": "Orleans Parish Communication District",
    "final_address": "7144 Dorian St",
    "address_councildis": "D",
    "status": "Pending",
    "rowid": "1189655",
    "final_x": "3696017.15203",
    "final_y": "556996.639578",
    "longitude": "-90.02130949271981",
    "latitude": "30.025098373201804",
    "geocoded_column": {
      "latitude": "30.025098373201804",
      "longitude": "-90.02130949271981"
    }
  },
  {
    "service_request": "2025-1189654",
    "request_type": "Roads and Streets",
    "request_reason": "Debris in Driving Lanes",
    "date_created": "2025-05-05T21:26:00.000",
    "date_modified": "2025-05-05T21:26:03.000",
    "request_status": "Pending",
    "responsible_agency": "Department of Public Works",
    "final_address": "6046 Pines Blvd",
    "address_councildis": "D",
    "status": "Pending",
    "rowid": "1189654",
    "final_x": "3696179.09315",
    "final_y": "556071.181913",
    "longitude": "-90.02083128310183",
    "latitude": "30.022548616501496",
    "geocoded_column": {
      "latitude": "30.022548616501496",
      "longitude": "-90.02083128310183"
    }
  },
  {
    "service_request": "2025-1189653",
    "request_type": "Roads and Streets",
    "request_reason": "Pothole",
    "date_created": "2025-05-05T21:20:50.000",
    "date_modified": "2025-05-05T21:20:51.000",
    "request_status": "Pending",
    "responsible_agency": "Department of Public Works",
    "final_address": "7200 BLK Foch Rd",
    "address_councildis": "D",
    "status": "Pending",
    "rowid": "1189653",
    "final_x": "3696248.83975",
    "final_y": "557593.539456",
    "longitude": "-90.02055579065363",
    "latitude": "30.02673232407998",
    "geocoded_column": {
      "latitude": "30.02673232407998",
      "longitude": "-90.02055579065363"
    }
  },
  {
    "service_request": "2025-1189652",
    "request_type": "Street and Traffic Signs",
    "request_reason": "Street Name Sign Damaged or Missing",
    "date_created": "2025-05-05T21:16:00.000",
    "date_modified": "2025-05-05T21:16:02.000",
    "request_status": "Pending",
    "responsible_agency": "Department of Public Works",
    "final_address": "FOUCHER ST & S SARATOGA ST",
    "address_councildis": "B",
    "status": "Pending",
    "rowid": "1189652",
    "final_x": "3672911.0",
    "final_y": "522963.68",
    "longitude": "-90.09548321581893",
    "latitude": "29.93222659393353",
    "geocoded_column": {
      "latitude": "29.93222659393353",
      "longitude": "-90.09548321581893"
    }
  },
  {
    "service_request": "2025-1189651",
    "request_type": "General Services",
    "request_reason": "General Service Request",
    "date_created": "2025-05-05T21:12:16.000",
    "date_modified": "2025-05-05T21:12:18.000",
    "request_status": "Pending",
    "responsible_agency": "Orleans Parish Communication District",
    "final_address": "8932 Jeannette St",
    "address_councildis": "A",
    "status": "Pending",
    "rowid": "1189651",
    "final_x": "3660346.34618",
    "final_y": "531215.946306",
    "longitude": "-90.13487636064391",
    "latitude": "29.955284955671363",
    "geocoded_column": {
      "latitude": "29.955284955671363",
      "longitude": "-90.13487636064391"
    }
  },
  {
    "service_request": "2025-1189650",
    "request_type": "Safety & Permits",
    "request_reason": "Zoning Enforcement",
    "date_created": "2025-05-05T19:41:02.000",
    "date_modified": "2025-05-05T19:41:04.000",
    "request_status": "Pending",
    "responsible_agency": "Safety and Permits",
    "final_address": "3033 Boyd St",
    "address_councildis": "C",
    "status": "Pending",
    "rowid": "1189650",
    "final_x": "3708064.02264",
    "final_y": "519446.230647",
    "longitude": "-89.98464018968025",
    "latitude": "29.921463828865505",
    "geocoded_column": {
      "latitude": "29.921463828865505",
      "longitude": "-89.98464018968025"
    }
  },
  {
    "service_request": "2025-1189649",
    "request_type": "Safety & Permits",
    "request_reason": "Licenses & Permits",
    "date_created": "2025-05-05T19:28:26.000",
    "date_modified": "2025-05-05T19:28:27.000",
    "request_status": "Pending",
    "responsible_agency": "Safety and Permits",
    "final_address": "6910 Mayo Rd",
    "address_councildis": "E",
    "status": "Pending",
    "rowid": "1189649",
    "final_x": "3701715.83569",
    "final_y": "558179.472155",
    "longitude": "-90.00325928403285",
    "latitude": "30.02817005717279",
    "geocoded_column": {
      "latitude": "30.02817005717279",
      "longitude": "-90.00325928403285"
    }
  },
  {
    "service_request": "2025-1189648",
    "request_type": "Trash/Recycling",
    "request_reason": "Request a Large Item Pick Up",
    "date_created": "2025-05-05T19:24:22.000",
    "date_modified": "2025-05-05T19:25:40.000",
    "request_status": "Pending",
    "responsible_agency": "Department of Sanitation",
    "final_address": "7807 Means Ave",
    "address_councildis": "E",
    "status": "Pending",
    "rowid": "1189648",
    "final_x": "3707815.53156",
    "final_y": "565285.324258",
    "longitude": "-89.98372030639842",
    "latitude": "30.04751223877482",
    "geocoded_column": {
      "latitude": "30.04751223877482",
      "longitude": "-89.98372030639842"
    }
  },
  {
    "service_request": "2025-1189647",
    "request_type": "Health Related Request",
    "request_reason": "Noise Ordinance Complaint",
    "date_created": "2025-05-05T19:23:08.000",
    "date_modified": "2025-05-05T19:23:10.000",
    "request_status": "Pending",
    "responsible_agency": "Health Department",
    "final_address": "316 Chartres St, New Orleans, Louisiana, 70130",
    "address_councildis": "C",
    "status": "Pending",
    "rowid": "1189647",
    "final_x": "3682048.77532",
    "final_y": "531162.123394",
    "longitude": "-90.06634998337161",
    "latitude": "29.954494970034958",
    "geocoded_column": {
      "latitude": "29.954494970034958",
      "longitude": "-90.06634998337161"
    }
  },
  {
    "service_request": "2025-1189646",
    "request_type": "New Orleans Recreation Development Commission (NORDC)",
    "request_reason": "Facilities and Parks Maintenance/Clean Up",
    "date_created": "2025-05-05T19:17:21.000",
    "date_modified": "2025-05-05T19:17:23.000",
    "request_status": "Pending",
    "responsible_agency": "New Orleans Recreation Development Commission",
    "final_address": "5700 Chatham Dr",
    "address_councildis": "D",
    "status": "Pending",
    "rowid": "1189646",
    "final_x": "3679585.78197",
    "final_y": "553585.352407",
    "longitude": "-90.07334858028067",
    "latitude": "30.016225668220518",
    "geocoded_column": {
      "latitude": "30.016225668220518",
      "longitude": "-90.07334858028067"
    }
  },
  {
    "service_request": "2025-1189645",
    "request_type": "Trash/Recycling",
    "request_reason": "Request a Large Item Pick Up",
    "date_created": "2025-05-05T19:15:08.000",
    "date_modified": "2025-05-05T19:15:11.000",
    "request_status": "Pending",
    "responsible_agency": "Department of Sanitation",
    "final_address": "1622 King Dr",
    "address_councildis": "D",
    "status": "Assigned to Contractor",
    "contractor": "IV Waste",
    "rowid": "1189645",
    "final_x": "3680145.86082",
    "final_y": "549966.630164",
    "longitude": "-90.07170486605632",
    "latitude": "30.006258540902817",
    "geocoded_column": {
      "latitude": "30.006258540902817",
      "longitude": "-90.07170486605632"
    }
  },
  {
    "service_request": "2025-1189644",
    "request_type": "Streetlights",
    "request_reason": "Streetlight Knocked Down/Leaning",
    "date_created": "2025-05-05T19:11:07.000",
    "date_modified": "2025-05-05T19:11:09.000",
    "request_status": "Pending",
    "responsible_agency": "Department of Public Works",
    "final_address": "721 St Philip St",
    "address_councildis": "C",
    "status": "Pending",
    "contractor": "Legacy Professional Services",
    "rowid": "1189644",
    "final_x": "3683099.19112",
    "final_y": "533510.613188",
    "longitude": "-90.06295096960736",
    "latitude": "29.960920537200373",
    "geocoded_column": {
      "latitude": "29.960920537200373",
      "longitude": "-90.06295096960736"
    }
  },
  {
    "service_request": "2025-1189643",
    "request_type": "Street and Traffic Signs",
    "request_reason": "Street Name Sign Damaged or Missing",
    "date_created": "2025-05-05T19:07:04.000",
    "date_modified": "2025-05-05T19:07:08.000",
    "request_status": "Pending",
    "responsible_agency": "Department of Public Works",
    "final_address": "1240 S Saratoga St",
    "address_councildis": "B",
    "status": "Pending",
    "rowid": "1189643",
    "final_x": "3677915.88661",
    "final_y": "527114.729535",
    "longitude": "-90.07953987344547",
    "latitude": "29.943490995249125",
    "geocoded_column": {
      "latitude": "29.943490995249125",
      "longitude": "-90.07953987344547"
    }
  },
  {
    "service_request": "2025-1189642",
    "request_type": "Parks & Parkways",
    "request_reason": "Tree Stump (removal, grind)",
    "date_created": "2025-05-05T19:00:03.000",
    "date_modified": "2025-05-05T19:00:05.000",
    "request_status": "Pending",
    "responsible_agency": "Department of Parks & Parkway",
    "final_address": "2019 N Rampart St",
    "address_councildis": "C",
    "status": "Pending",
    "rowid": "1189642",
    "final_x": "3684450.35733",
    "final_y": "535922.005895",
    "longitude": "-90.05859953533704",
    "latitude": "29.967509775631353",
    "geocoded_column": {
      "latitude": "29.967509775631353",
      "longitude": "-90.05859953533704"
    }
  },
  {
    "service_request": "2025-1189641",
    "request_type": "Trash/Recycling",
    "request_reason": "Missed Trash Pick-Up",
    "date_created": "2025-05-05T18:51:48.000",
    "date_modified": "2025-05-05T18:51:51.000",
    "request_status": "Pending",
    "responsible_agency": "Department of Sanitation",
    "final_address": "1641 Sauvage St",
    "address_councildis": "A",
    "status": "Assigned to Contractor",
    "contractor": "IV Waste",
    "rowid": "1189641",
    "final_x": "3677139.41179",
    "final_y": "540892.773067",
    "longitude": "-90.08151616591678",
    "latitude": "29.981399294490334",
    "geocoded_column": {
      "latitude": "29.981399294490334",
      "longitude": "-90.08151616591678"
    }
  },
  {
    "service_request": "2025-1189640",
    "request_type": "Graffiti Removal",
    "request_reason": "Graffiti Removal",
    "date_created": "2025-05-05T18:39:05.000",
    "date_modified": "2025-05-05T18:39:07.000",
    "request_status": "Pending",
    "responsible_agency": "Department of Code Enforcement",
    "final_address": "3401 S Galvez St",
    "address_councildis": "B",
    "status": "Pending",
    "rowid": "1189640",
    "final_x": "3671593.19502",
    "final_y": "527792.694335",
    "longitude": "-90.09947925165686",
    "latitude": "29.94554389477277",
    "geocoded_column": {
      "latitude": "29.94554389477277",
      "longitude": "-90.09947925165686"
    }
  },
  {
    "service_request": "2025-1189639",
    "request_type": "Drainage",
    "request_reason": "Catch Basin Clogged",
    "date_created": "2025-05-05T18:36:58.000",
    "date_modified": "2025-05-05T18:37:00.000",
    "request_status": "Pending",
    "responsible_agency": "Sewerage & Water Board",
    "final_address": "6744 Foch Rd",
    "address_councildis": "D",
    "status": "Pending",
    "rowid": "1189639",
    "final_x": "3696611.27901",
    "final_y": "556192.58025",
    "longitude": "-90.01946128717911",
    "latitude": "30.022868796797415",
    "geocoded_column": {
      "latitude": "30.022868796797415",
      "longitude": "-90.01946128717911"
    }
  },
  {
    "service_request": "2025-1189638",
    "request_type": "Trash/Recycling",
    "request_reason": "Illegal Dumping",
    "date_created": "2025-05-05T18:28:55.000",
    "date_modified": "2025-05-05T18:28:56.000",
    "request_status": "Pending",
    "responsible_agency": "Department of Sanitation",
    "final_address": "3203 Third St",
    "address_councildis": "B",
    "status": "Pending",
    "rowid": "1189638",
    "final_x": "3673275.41032",
    "final_y": "527714.237439",
    "longitude": "-90.09417062058478",
    "latitude": "29.945278248592384",
    "geocoded_column": {
      "latitude": "29.945278248592384",
      "longitude": "-90.09417062058478"
    }
  },
  {
    "service_request": "2025-1189637",
    "request_type": "Trash/Recycling",
    "request_reason": "Illegal Dumping",
    "date_created": "2025-05-05T18:09:27.000",
    "date_modified": "2025-05-05T18:09:28.000",
    "request_status": "Pending",
    "responsible_agency": "Department of Sanitation",
    "final_address": "3200 BLK First St",
    "address_councildis": "B",
    "status": "Pending",
    "rowid": "1189637",
    "final_x": "3673641.40235",
    "final_y": "528218.177275",
    "longitude": "-90.09299784279747",
    "latitude": "29.94665302910592",
    "geocoded_column": {
      "latitude": "29.94665302910592",
      "longitude": "-90.09299784279747"
    }
  },
  {
    "service_request": "2025-1189636",
    "request_type": "Drainage",
    "request_reason": "Ditch and Culvert Maintenance",
    "date_created": "2025-05-05T18:06:56.000",
    "date_modified": "2025-05-05T18:06:58.000",
    "request_status": "Pending",
    "responsible_agency": "Department of Public Works",
    "final_address": "6145 Colbert St",
    "address_councildis": "A",
    "status": "Pending",
    "rowid": "1189636",
    "final_x": "3667598.89524",
    "final_y": "548372.452306",
    "longitude": "-90.11139767543654",
    "latitude": "30.002248997271558",
    "geocoded_column": {
      "latitude": "30.002248997271558",
      "longitude": "-90.11139767543654"
    }
  },
  {
    "service_request": "2025-1189635",
    "request_type": "Streetlights",
    "request_reason": "Streetlight Outage/Malfunction",
    "date_created": "2025-05-05T17:52:29.000",
    "date_modified": "2025-05-05T17:52:31.000",
    "request_status": "Pending",
    "responsible_agency": "Department of Public Works",
    "final_address": "1636 Tita St",
    "address_councildis": "C",
    "status": "Pending",
    "contractor": "Legacy Professional Services",
    "rowid": "1189635",
    "final_x": "3695677.05802",
    "final_y": "525212.875133",
    "longitude": "-90.0235321566172",
    "latitude": "29.937715218543257",
    "geocoded_column": {
      "latitude": "29.937715218543257",
      "longitude": "-90.0235321566172"
    }
  },
  {
    "service_request": "2025-1189634",
    "request_type": "Trash/Recycling",
    "request_reason": "Request a Large Item Pick Up",
    "date_created": "2025-05-05T17:17:41.000",
    "date_modified": "2025-05-05T17:17:43.000",
    "request_status": "Pending",
    "responsible_agency": "Department of Sanitation",
    "final_address": "1904 Broadway St",
    "address_councildis": "A",
    "status": "Assigned to Contractor",
    "contractor": "IV Waste",
    "rowid": "1189634",
    "final_x": "3665542.91476",
    "final_y": "528637.769792",
    "longitude": "-90.11855374357985",
    "latitude": "29.948045334061227",
    "geocoded_column": {
      "latitude": "29.948045334061227",
      "longitude": "-90.11855374357985"
    }
  },
  {
    "service_request": "2025-1189633",
    "request_type": "Trash/Recycling",
    "request_reason": "Repair Recycling Cart",
    "date_created": "2025-05-05T17:16:14.000",
    "date_modified": "2025-05-05T17:16:16.000",
    "request_status": "Pending",
    "responsible_agency": "Department of Sanitation",
    "final_address": "6101 Kingston Ct",
    "address_councildis": "C",
    "status": "Pending",
    "rowid": "1189633",
    "final_x": "3706523.09111",
    "final_y": "517689.952566",
    "longitude": "-89.98956921011201",
    "latitude": "29.916684455616814",
    "geocoded_column": {
      "latitude": "29.916684455616814",
      "longitude": "-89.98956921011201"
    }
  },
  {
    "service_request": "2025-1189632",
    "request_type": "Roads and Streets",
    "request_reason": "Sidewalk Damaged or Missing",
    "date_created": "2025-05-05T17:01:28.000",
    "date_modified": "2025-05-05T17:01:29.000",
    "request_status": "Pending",
    "responsible_agency": "Department of Public Works",
    "final_address": "230 S Telemachus St",
    "address_councildis": "B",
    "status": "Pending",
    "rowid": "1189632",
    "final_x": "3672022.10164",
    "final_y": "536831.011784",
    "longitude": "-90.09781734839905",
    "latitude": "29.970383558768784",
    "geocoded_column": {
      "latitude": "29.970383558768784",
      "longitude": "-90.09781734839905"
    }
  },
  {
    "service_request": "2025-1189631",
    "request_type": "Traffic Signals",
    "request_reason": "Traffic Signal Malfunctioning or Damaged",
    "date_created": "2025-05-05T16:56:58.000",
    "date_modified": "2025-05-05T16:57:00.000",
    "request_status": "Pending",
    "responsible_agency": "Department of Public Works",
    "final_address": "8701 Aberdeen Rd",
    "address_councildis": "E",
    "status": "Pending",
    "rowid": "1189631",
    "final_x": "3704581.75108",
    "final_y": "562309.915871",
    "longitude": "-89.9940506785556",
    "latitude": "30.039435376576918",
    "geocoded_column": {
      "latitude": "30.039435376576918",
      "longitude": "-89.9940506785556"
    }
  },
  {
    "service_request": "2025-1189630",
    "request_type": "Trash/Recycling",
    "request_reason": "Request a Large Item Pick Up",
    "date_created": "2025-05-05T16:52:52.000",
    "date_modified": "2025-05-05T16:52:53.000",
    "request_status": "Pending",
    "responsible_agency": "Department of Sanitation",
    "final_address": "9706 W Wheaton Cir",
    "address_councildis": "E",
    "status": "Assigned to Contractor",
    "contractor": "Waste Pro",
    "rowid": "1189630",
    "final_x": "3708555.56824",
    "final_y": "562082.603807",
    "longitude": "-89.98150082269372",
    "latitude": "30.038682048877615",
    "geocoded_column": {
      "latitude": "30.038682048877615",
      "longitude": "-89.98150082269372"
    }
  },
  {
    "service_request": "2025-1189629",
    "request_type": "Trash/Recycling",
    "request_reason": "Request a Large Item Pick Up",
    "date_created": "2025-05-05T16:52:10.000",
    "date_modified": "2025-05-05T16:53:00.000",
    "request_status": "Pending",
    "responsible_agency": "Department of Sanitation",
    "final_address": "4535 Longfellow Dr",
    "address_councildis": "E",
    "status": "Assigned to Contractor",
    "contractor": "Waste Pro",
    "rowid": "1189629",
    "final_x": "3709801.13982",
    "final_y": "554704.682968",
    "longitude": "-89.97784033575496",
    "latitude": "30.01835520822851",
    "geocoded_column": {
      "latitude": "30.01835520822851",
      "longitude": "-89.97784033575496"
    }
  },
  {
    "service_request": "2025-1189628",
    "request_type": "Trash/Recycling",
    "request_reason": "Request a Large Item Pick Up",
    "date_created": "2025-05-05T16:50:43.000",
    "date_modified": "2025-05-05T16:50:46.000",
    "request_status": "Pending",
    "responsible_agency": "Department of Sanitation",
    "final_address": "9405 Dinkins St",
    "address_councildis": "E",
    "status": "Assigned to Contractor",
    "contractor": "Waste Pro",
    "rowid": "1189628",
    "final_x": "3706003.40503",
    "final_y": "564225.868321",
    "longitude": "-89.98948685315621",
    "latitude": "30.044657720061736",
    "geocoded_column": {
      "latitude": "30.044657720061736",
      "longitude": "-89.98948685315621"
    }
  },
  {
    "service_request": "2025-1189627",
    "request_type": "Streetlights",
    "request_reason": "Streetlight Outage/Malfunction",
    "date_created": "2025-05-05T16:49:44.000",
    "date_modified": "2025-05-05T16:49:46.000",
    "request_status": "Pending",
    "responsible_agency": "Department of Public Works",
    "final_address": "7000 Warfield St",
    "address_councildis": "E",
    "status": "Pending",
    "contractor": "Legacy Professional Services",
    "rowid": "1189627",
    "final_x": "3700979.76842",
    "final_y": "552731.125142",
    "longitude": "-90.00578466361962",
    "latitude": "30.01321266005098",
    "geocoded_column": {
      "latitude": "30.01321266005098",
      "longitude": "-90.00578466361962"
    }
  },
  {
    "service_request": "2025-1189626",
    "request_type": "Drainage",
    "request_reason": "Catch Basin Damaged",
    "date_created": "2025-05-05T16:47:36.000",
    "date_modified": "2025-05-05T16:47:38.000",
    "request_status": "Pending",
    "responsible_agency": "Sewerage & Water Board",
    "final_address": "Dante Street & South Claiborne Avenue",
    "address_councildis": "A",
    "status": "Pending",
    "rowid": "1189626",
    "final_x": "3664268.66855",
    "final_y": "531985.565827",
    "longitude": "-90.12246536930701",
    "latitude": "29.957287772868202",
    "geocoded_column": {
      "latitude": "29.957287772868202",
      "longitude": "-90.12246536930701"
    }
  },
  {
    "service_request": "2025-1189625",
    "request_type": "Trash/Recycling",
    "request_reason": "Request a Large Item Pick Up",
    "date_created": "2025-05-05T16:37:38.000",
    "date_modified": "2025-05-05T16:37:40.000",
    "request_status": "Pending",
    "responsible_agency": "Department of Sanitation",
    "final_address": "3030 Royal St",
    "address_councildis": "C",
    "status": "Assigned to Contractor",
    "contractor": "IV Waste",
    "rowid": "1189625",
    "final_x": "3688302.01097",
    "final_y": "534554.231877",
    "longitude": "-90.04648447966903",
    "latitude": "29.963630491376254",
    "geocoded_column": {
      "latitude": "29.963630491376254",
      "longitude": "-90.04648447966903"
    }
  },
  {
    "service_request": "2025-1189624",
    "request_type": "Trash/Recycling",
    "request_reason": "Request a Large Item Pick Up",
    "date_created": "2025-05-05T16:34:16.000",
    "date_modified": "2025-05-05T16:34:18.000",
    "request_status": "Pending",
    "responsible_agency": "Department of Sanitation",
    "final_address": "4618 Cardenas Dr",
    "address_councildis": "E",
    "status": "Assigned to Contractor",
    "contractor": "Waste Pro",
    "rowid": "1189624",
    "final_x": "3713682.30047",
    "final_y": "555661.887833",
    "longitude": "-89.965541335007",
    "latitude": "30.020860330598527",
    "geocoded_column": {
      "latitude": "30.020860330598527",
      "longitude": "-89.965541335007"
    }
  },
  {
    "service_request": "2025-1189623",
    "request_type": "Trash/Recycling",
    "request_reason": "Request a Large Item Pick Up",
    "date_created": "2025-05-05T16:33:16.000",
    "date_modified": "2025-05-05T16:33:18.000",
    "request_status": "Pending",
    "responsible_agency": "Department of Sanitation",
    "final_address": "10940 Harrow Rd",
    "address_councildis": "E",
    "status": "Assigned to Contractor",
    "contractor": "Waste Pro",
    "rowid": "1189623",
    "final_x": "3711778.88235",
    "final_y": "563817.623201",
    "longitude": "-89.97124919197346",
    "latitude": "30.043347700071017",
    "geocoded_column": {
      "latitude": "30.043347700071017",
      "longitude": "-89.97124919197346"
    }
  },
  {
    "service_request": "2025-1189622",
    "request_type": "Abandoned Vehicles",
    "request_reason": "Abandoned/Junk Vehicles",
    "date_created": "2025-05-05T16:32:36.000",
    "date_modified": "2025-05-05T16:33:35.000",
    "request_status": "Pending",
    "responsible_agency": "Department of Public Works",
    "final_address": "N VILLERE ST & DESLONDE ST",
    "address_councildis": "E",
    "status": "Pending",
    "rowid": "1189622",
    "final_x": "3695691.6",
    "final_y": "535517.78",
    "longitude": "-90.02311424216062",
    "latitude": "29.966049645039423",
    "geocoded_column": {
      "latitude": "29.966049645039423",
      "longitude": "-90.02311424216062"
    }
  },
  {
    "service_request": "2025-1189621",
    "request_type": "Trash/Recycling",
    "request_reason": "Repair Trash Cart",
    "date_created": "2025-05-05T16:29:41.000",
    "date_modified": "2025-05-05T16:29:43.000",
    "request_status": "Pending",
    "responsible_agency": "Department of Sanitation",
    "final_address": "1230 Treme St",
    "address_councildis": "C",
    "status": "Assigned to Contractor",
    "contractor": "IV Waste",
    "rowid": "1189621",
    "final_x": "3682133.78684",
    "final_y": "535483.755782",
    "longitude": "-90.0659306132949",
    "latitude": "29.96637539824197",
    "geocoded_column": {
      "latitude": "29.96637539824197",
      "longitude": "-90.0659306132949"
    }
  },
  {
    "service_request": "2025-1189620",
    "request_type": "Roads and Streets",
    "request_reason": "Push-up/Pavement Expansion",
    "date_created": "2025-05-05T16:29:29.000",
    "date_modified": "2025-05-05T16:29:30.000",
    "request_status": "Pending",
    "responsible_agency": "Department of Public Works",
    "final_address": "6005 Canal Blvd",
    "address_councildis": "A",
    "status": "Pending",
    "rowid": "1189620",
    "final_x": "3668646.76756",
    "final_y": "547317.931793",
    "longitude": "-90.10812293181935",
    "latitude": "29.999318663598146",
    "geocoded_column": {
      "latitude": "29.999318663598146",
      "longitude": "-90.10812293181935"
    }
  },
  {
    "service_request": "2025-1189619",
    "request_type": "Trash/Recycling",
    "request_reason": "Request a Large Item Pick Up",
    "date_created": "2025-05-05T16:28:56.000",
    "date_modified": "2025-05-05T16:29:01.000",
    "request_status": "Pending",
    "responsible_agency": "Department of Sanitation",
    "final_address": "11200 Morrison Rd",
    "address_councildis": "E",
    "status": "Assigned to Contractor",
    "contractor": "Waste Pro",
    "rowid": "1189619",
    "final_x": "3711852.75493",
    "final_y": "565315.630818",
    "longitude": "-89.97095943603192",
    "latitude": "30.047464202046733",
    "geocoded_column": {
      "latitude": "30.047464202046733",
      "longitude": "-89.97095943603192"
    }
  },
  {
    "service_request": "2025-1189618",
    "request_type": "Roads and Streets",
    "request_reason": "ADA Ramps Damaged or Missing",
    "date_created": "2025-05-05T16:27:01.000",
    "date_modified": "2025-05-05T16:27:02.000",
    "request_status": "Pending",
    "responsible_agency": "Department of Public Works",
    "final_address": "6005 Canal Blvd",
    "address_councildis": "A",
    "status": "Pending",
    "rowid": "1189618",
    "final_x": "3668646.76756",
    "final_y": "547317.931793",
    "longitude": "-90.10812293181935",
    "latitude": "29.999318663598146",
    "geocoded_column": {
      "latitude": "29.999318663598146",
      "longitude": "-90.10812293181935"
    }
  },
  {
    "service_request": "2025-1189617",
    "request_type": "Trash/Recycling",
    "request_reason": "Request a Large Item Pick Up",
    "date_created": "2025-05-05T16:26:59.000",
    "date_modified": "2025-05-05T16:27:00.000",
    "request_status": "Pending",
    "responsible_agency": "Department of Sanitation",
    "final_address": "329 Diana St",
    "address_councildis": "C",
    "status": "Assigned to Contractor",
    "contractor": "Richards Disposal",
    "rowid": "1189617",
    "final_x": "3686485.60534",
    "final_y": "527486.260095",
    "longitude": "-90.05246998985923",
    "latitude": "29.9442519574268",
    "geocoded_column": {
      "latitude": "29.9442519574268",
      "longitude": "-90.05246998985923"
    }
  },
  {
    "service_request": "2025-1189616",
    "request_type": "Drainage",
    "request_reason": "Catch Basin Clogged",
    "date_created": "2025-05-05T16:21:08.000",
    "date_modified": "2025-05-05T16:21:09.000",
    "request_status": "Pending",
    "responsible_agency": "Sewerage & Water Board",
    "final_address": "1305 Jackson Ave",
    "address_councildis": "B",
    "status": "Pending",
    "rowid": "1189616",
    "final_x": "3678418.5636",
    "final_y": "522746.000954",
    "longitude": "-90.07810389102258",
    "latitude": "29.931463298502134",
    "geocoded_column": {
      "latitude": "29.931463298502134",
      "longitude": "-90.07810389102258"
    }
  },
  {
    "service_request": "2025-1189615",
    "request_type": "Drainage",
    "request_reason": "Catch Basin Clogged",
    "date_created": "2025-05-05T16:20:47.000",
    "date_modified": "2025-05-05T16:20:49.000",
    "request_status": "Pending",
    "responsible_agency": "Sewerage & Water Board",
    "final_address": "1426 Esplanade Ave",
    "address_councildis": "C",
    "status": "Pending",
    "rowid": "1189615",
    "final_x": "3681582.55221",
    "final_y": "536227.812295",
    "longitude": "-90.06764544744539",
    "latitude": "29.968438051428883",
    "geocoded_column": {
      "latitude": "29.968438051428883",
      "longitude": "-90.06764544744539"
    }
  },
  {
    "service_request": "2025-1189614",
    "request_type": "Trash/Recycling",
    "request_reason": "Request a Large Item Pick Up",
    "date_created": "2025-05-05T16:20:45.000",
    "date_modified": "2025-05-05T16:20:47.000",
    "request_status": "Pending",
    "responsible_agency": "Department of Sanitation",
    "final_address": "821 Allen Toussaint Blvd",
    "address_councildis": "D",
    "status": "Assigned to Contractor",
    "contractor": "IV Waste",
    "rowid": "1189614",
    "final_x": "3670101.46983",
    "final_y": "554725.867288",
    "longitude": "-90.10327625671898",
    "latitude": "30.019645031589",
    "geocoded_column": {
      "latitude": "30.019645031589",
      "longitude": "-90.10327625671898"
    }
  },
  {
    "service_request": "2025-1189613",
    "request_type": "Trash/Recycling",
    "request_reason": "Request a Large Item Pick Up",
    "date_created": "2025-05-05T16:18:55.000",
    "date_modified": "2025-05-05T16:18:58.000",
    "request_status": "Pending",
    "responsible_agency": "Department of Sanitation",
    "final_address": "2730 Mithra St",
    "address_councildis": "D",
    "status": "Assigned to Contractor",
    "contractor": "IV Waste",
    "rowid": "1189613",
    "final_x": "3687599.18441",
    "final_y": "552932.160855",
    "longitude": "-90.048052947531",
    "latitude": "30.014184908993947",
    "geocoded_column": {
      "latitude": "30.014184908993947",
      "longitude": "-90.048052947531"
    }
  },
  {
    "service_request": "2025-1189612",
    "request_type": "Trash/Recycling",
    "request_reason": "Request a Large Item Pick Up",
    "date_created": "2025-05-05T16:14:11.000",
    "date_modified": "2025-05-05T16:14:13.000",
    "request_status": "Pending",
    "responsible_agency": "Department of Sanitation",
    "final_address": "4920 Camp St",
    "address_councildis": "B",
    "status": "Assigned to Contractor",
    "contractor": "IV Waste",
    "rowid": "1189612",
    "final_x": "3668829.47758",
    "final_y": "518888.438583",
    "longitude": "-90.10850574963433",
    "latitude": "29.921141585271084",
    "geocoded_column": {
      "latitude": "29.921141585271084",
      "longitude": "-90.10850574963433"
    }
  },
  {
    "service_request": "2025-1189611",
    "request_type": "Abandoned Vehicles",
    "request_reason": "Abandoned/Junk Vehicles",
    "date_created": "2025-05-05T16:11:43.000",
    "date_modified": "2025-05-05T16:11:45.000",
    "request_status": "Pending",
    "responsible_agency": "Department of Public Works",
    "final_address": "2934 Grand-Route St John St",
    "address_councildis": "A",
    "status": "Pending",
    "rowid": "1189611",
    "final_x": "3677389.546",
    "final_y": "540250.658187",
    "longitude": "-90.08074829693389",
    "latitude": "29.97962618411389",
    "geocoded_column": {
      "latitude": "29.97962618411389",
      "longitude": "-90.08074829693389"
    }
  },
  {
    "service_request": "2025-1189610",
    "request_type": "Drainage",
    "request_reason": "Catch Basin Clogged",
    "date_created": "2025-05-05T16:11:18.000",
    "date_modified": "2025-05-05T16:11:19.000",
    "request_status": "Pending",
    "responsible_agency": "Sewerage & Water Board",
    "final_address": "1500 BLK Mandolin St",
    "address_councildis": "D",
    "status": "Pending",
    "rowid": "1189610",
    "final_x": "3678911.15953",
    "final_y": "548044.659276",
    "longitude": "-90.07567223802786",
    "latitude": "30.001011128601498",
    "geocoded_column": {
      "latitude": "30.001011128601498",
      "longitude": "-90.07567223802786"
    }
  },
  {
    "service_request": "2025-1189609",
    "request_type": "Abandoned Vehicles",
    "request_reason": "Abandoned/Junk Vehicles",
    "date_created": "2025-05-05T16:10:47.000",
    "date_modified": "2025-05-05T16:10:49.000",
    "request_status": "Pending",
    "responsible_agency": "Department of Public Works",
    "final_address": "1723 Prytania St",
    "address_councildis": "B",
    "status": "Pending",
    "rowid": "1189609",
    "final_x": "3679185.01493",
    "final_y": "524595.861308",
    "longitude": "-90.07562019693249",
    "latitude": "29.936526696596268",
    "geocoded_column": {
      "latitude": "29.936526696596268",
      "longitude": "-90.07562019693249"
    }
  },
  {
    "service_request": "2025-1189608",
    "request_type": "Trash/Recycling",
    "request_reason": "Request a Large Item Pick Up",
    "date_created": "2025-05-05T16:09:39.000",
    "date_modified": "2025-05-05T16:09:40.000",
    "request_status": "Pending",
    "responsible_agency": "Department of Sanitation",
    "final_address": "1319 Filmore Ave",
    "address_councildis": "D",
    "status": "Assigned to Contractor",
    "contractor": "IV Waste",
    "rowid": "1189608",
    "final_x": "3677355.0708",
    "final_y": "551867.921046",
    "longitude": "-90.08045598820462",
    "latitude": "30.01157060728262",
    "geocoded_column": {
      "latitude": "30.01157060728262",
      "longitude": "-90.08045598820462"
    }
  },
  {
    "service_request": "2025-1189607",
    "request_type": "Trash/Recycling",
    "request_reason": "Replace Trash Cart",
    "date_created": "2025-05-05T16:08:50.000",
    "date_modified": "2025-05-05T16:08:52.000",
    "request_status": "Pending",
    "responsible_agency": "Department of Sanitation",
    "final_address": "13935 Tu Do Dr",
    "address_councildis": "E",
    "status": "Assigned to Contractor",
    "contractor": "Waste Pro",
    "rowid": "1189607",
    "final_x": "3727843.48563",
    "final_y": "563051.98704",
    "longitude": "-89.92050889223746",
    "latitude": "30.040707658326205",
    "geocoded_column": {
      "latitude": "30.040707658326205",
      "longitude": "-89.92050889223746"
    }
  },
  {
    "service_request": "2025-1189606",
    "request_type": "Abandoned Vehicles",
    "request_reason": "Abandoned/Junk Vehicles",
    "date_created": "2025-05-05T16:08:04.000",
    "date_modified": "2025-05-05T16:08:06.000",
    "request_status": "Pending",
    "responsible_agency": "Department of Public Works",
    "final_address": "1723 Prytania St",
    "address_councildis": "B",
    "status": "Pending",
    "rowid": "1189606",
    "final_x": "3679185.01493",
    "final_y": "524595.861308",
    "longitude": "-90.07562019693249",
    "latitude": "29.936526696596268",
    "geocoded_column": {
      "latitude": "29.936526696596268",
      "longitude": "-90.07562019693249"
    }
  },
  {
    "service_request": "2025-1189605",
    "request_type": "Drainage",
    "request_reason": "Catch Basin Clogged",
    "date_created": "2025-05-05T16:07:03.000",
    "date_modified": "2025-05-05T16:07:05.000",
    "request_status": "Pending",
    "responsible_agency": "Sewerage & Water Board",
    "final_address": "2212 Easter Ln",
    "address_councildis": "C",
    "status": "Pending",
    "rowid": "1189605",
    "final_x": "3699373.23786",
    "final_y": "523063.711547",
    "longitude": "-90.0119413494678",
    "latitude": "29.931689070635876",
    "geocoded_column": {
      "latitude": "29.931689070635876",
      "longitude": "-90.0119413494678"
    }
  },
  {
    "service_request": "2025-1189604",
    "request_type": "Streetlights",
    "request_reason": "Streetlight Outage/Malfunction",
    "date_created": "2025-05-05T16:06:29.000",
    "date_modified": "2025-05-05T16:06:31.000",
    "request_status": "Pending",
    "responsible_agency": "Department of Public Works",
    "final_address": "4021 Odin St",
    "address_councildis": "D",
    "status": "Pending",
    "contractor": "Legacy Professional Services",
    "rowid": "1189604",
    "final_x": "3688939.98652",
    "final_y": "553945.880344",
    "longitude": "-90.04378065316696",
    "latitude": "30.016930840828664",
    "geocoded_column": {
      "latitude": "30.016930840828664",
      "longitude": "-90.04378065316696"
    }
  },
  {
    "service_request": "2025-1189603",
    "request_type": "Trash/Recycling",
    "request_reason": "Request a Large Item Pick Up",
    "date_created": "2025-05-05T16:06:14.000",
    "date_modified": "2025-05-05T16:06:16.000",
    "request_status": "Pending",
    "responsible_agency": "Department of Sanitation",
    "final_address": "8930 Lake Forest Blvd",
    "address_councildis": "E",
    "status": "Assigned to Contractor",
    "contractor": "Waste Pro",
    "rowid": "1189603",
    "final_x": "3707347.51736",
    "final_y": "558289.881628",
    "longitude": "-89.98545955476317",
    "latitude": "30.028292689837787",
    "geocoded_column": {
      "latitude": "30.028292689837787",
      "longitude": "-89.98545955476317"
    }
  },
  {
    "service_request": "2025-1189602",
    "request_type": "Trash/Recycling",
    "request_reason": "Request a Large Item Pick Up",
    "date_created": "2025-05-05T16:06:09.000",
    "date_modified": "2025-05-05T16:06:12.000",
    "request_status": "Pending",
    "responsible_agency": "Department of Sanitation",
    "final_address": "1034 St Philip St",
    "address_councildis": "C",
    "status": "Assigned to Contractor",
    "contractor": "IV Waste",
    "rowid": "1189602",
    "final_x": "3682102.45596",
    "final_y": "534124.543237",
    "longitude": "-90.06607702762929",
    "latitude": "29.962638982904668",
    "geocoded_column": {
      "latitude": "29.962638982904668",
      "longitude": "-90.06607702762929"
    }
  },
  {
    "service_request": "2025-1189601",
    "request_type": "Drainage",
    "request_reason": "Catch Basin Clogged",
    "date_created": "2025-05-05T16:05:44.000",
    "date_modified": "2025-05-05T16:05:46.000",
    "request_status": "Pending",
    "responsible_agency": "Sewerage & Water Board",
    "final_address": "2424 Gladiolus St",
    "address_councildis": "D",
    "status": "Pending",
    "rowid": "1189601",
    "final_x": "3685819.14722",
    "final_y": "547358.521873",
    "longitude": "-90.05387359443881",
    "latitude": "29.998914207880503",
    "geocoded_column": {
      "latitude": "29.998914207880503",
      "longitude": "-90.05387359443881"
    }
  },
  {
    "service_request": "2025-1189600",
    "request_type": "Drainage",
    "request_reason": "Catch Basin Clogged",
    "date_created": "2025-05-05T16:05:32.000",
    "date_modified": "2025-05-05T16:05:34.000",
    "request_status": "Pending",
    "responsible_agency": "Sewerage & Water Board",
    "final_address": "3400 Touro St",
    "address_councildis": "D",
    "status": "Pending",
    "rowid": "1189600",
    "final_x": "3683473.27362",
    "final_y": "545123.721295",
    "longitude": "-90.06136260194431",
    "latitude": "29.992841120388324",
    "geocoded_column": {
      "latitude": "29.992841120388324",
      "longitude": "-90.06136260194431"
    }
  },
  {
    "service_request": "2025-1189599",
    "request_type": "Trash/Recycling",
    "request_reason": "Replace Trash Cart",
    "date_created": "2025-05-05T16:05:25.000",
    "date_modified": "2025-05-05T16:05:28.000",
    "request_status": "Pending",
    "responsible_agency": "Department of Sanitation",
    "final_address": "2212 Easter Ln",
    "address_councildis": "C",
    "status": "Assigned to Contractor",
    "contractor": "Richards Disposal",
    "rowid": "1189599",
    "final_x": "3699373.23786",
    "final_y": "523063.711547",
    "longitude": "-90.0119413494678",
    "latitude": "29.931689070635876",
    "geocoded_column": {
      "latitude": "29.931689070635876",
      "longitude": "-90.0119413494678"
    }
  },
  {
    "service_request": "2025-1189598",
    "request_type": "Drainage",
    "request_reason": "Catch Basin Clogged",
    "date_created": "2025-05-05T16:05:09.000",
    "date_modified": "2025-05-05T16:05:16.000",
    "request_status": "Pending",
    "responsible_agency": "Sewerage & Water Board",
    "final_address": "1300 BLK Elysian Fields Ave",
    "address_councildis": "C",
    "status": "Pending",
    "rowid": "1189598",
    "final_x": "3684887.30506",
    "final_y": "537220.043786",
    "longitude": "-90.05717399361248",
    "latitude": "29.971065555742346",
    "geocoded_column": {
      "latitude": "29.971065555742346",
      "longitude": "-90.05717399361248"
    }
  },
  {
    "service_request": "2025-1189597",
    "request_type": "Street and Traffic Signs",
    "request_reason": "Stop Sign Missing or Damaged",
    "date_created": "2025-05-05T16:02:01.000",
    "date_modified": "2025-05-05T16:02:03.000",
    "request_status": "Pending",
    "responsible_agency": "Department of Public Works",
    "final_address": "6232 Franklin Ave",
    "address_councildis": "D",
    "status": "Pending",
    "rowid": "1189597",
    "final_x": "3686249.92585",
    "final_y": "556276.823066",
    "longitude": "-90.05219776604393",
    "latitude": "30.023423041186682",
    "geocoded_column": {
      "latitude": "30.023423041186682",
      "longitude": "-90.05219776604393"
    }
  },
  {
    "service_request": "2025-1189596",
    "request_type": "Trash/Recycling",
    "request_reason": "Missed Trash Pick-Up",
    "date_created": "2025-05-05T16:01:36.000",
    "date_modified": "2025-05-05T17:08:34.000",
    "case_close_date": "2025-05-05T12:08:33.000",
    "request_status": "Closed",
    "responsible_agency": "Department of Sanitation",
    "final_address": "4019 Virgil Blvd",
    "address_councildis": "D",
    "status": "Invalid Request",
    "contractor": "IV Waste",
    "contractor_action": "Invalid",
    "rowid": "1189596",
    "final_x": "3679871.93135",
    "final_y": "547311.059665",
    "longitude": "-90.07266258038165",
    "latitude": "29.99896495967069",
    "geocoded_column": {
      "latitude": "29.99896495967069",
      "longitude": "-90.07266258038165"
    }
  },
  {
    "service_request": "2025-1189595",
    "request_type": "Parks & Parkways",
    "request_reason": "Request Tree Service (Right of Way/Public Property)",
    "date_created": "2025-05-05T15:59:54.000",
    "date_modified": "2025-05-05T15:59:56.000",
    "request_status": "Pending",
    "responsible_agency": "Department of Parks & Parkway",
    "final_address": "6601 Elysian Fields Ave",
    "address_councildis": "D",
    "status": "Pending",
    "rowid": "1189595",
    "final_x": "3683409.43887",
    "final_y": "557839.829339",
    "longitude": "-90.06111826410576",
    "latitude": "30.027807749775178",
    "geocoded_column": {
      "latitude": "30.027807749775178",
      "longitude": "-90.06111826410576"
    }
  },
  {
    "service_request": "2025-1189593",
    "request_type": "Trash/Recycling",
    "request_reason": "Repair Recycling Cart",
    "date_created": "2025-05-05T15:59:32.000",
    "date_modified": "2025-05-05T15:59:33.000",
    "request_status": "Pending",
    "responsible_agency": "Department of Sanitation",
    "final_address": "339 N St Patrick St",
    "address_councildis": "A",
    "status": "Pending",
    "rowid": "1189593",
    "final_x": "3669763.47284",
    "final_y": "540765.632971",
    "longitude": "-90.10481714347598",
    "latitude": "29.981269211266383",
    "geocoded_column": {
      "latitude": "29.981269211266383",
      "longitude": "-90.10481714347598"
    }
  },
  {
    "service_request": "2025-1189594",
    "request_type": "Property Maintenance",
    "request_reason": "Property Maintenance",
    "date_created": "2025-05-05T15:59:32.000",
    "date_modified": "2025-05-05T15:59:34.000",
    "request_status": "Pending",
    "responsible_agency": "Department of Code Enforcement",
    "final_address": "100 Berkley Dr",
    "address_councildis": "C",
    "status": "Pending",
    "rowid": "1189594",
    "final_x": "3705581.19825",
    "final_y": "518235.600822",
    "longitude": "-89.9925220344475",
    "latitude": "29.918215138528716",
    "geocoded_column": {
      "latitude": "29.918215138528716",
      "longitude": "-89.9925220344475"
    }
  },
  {
    "service_request": "2025-1189592",
    "request_type": "Trash/Recycling",
    "request_reason": "Request a Large Item Pick Up",
    "date_created": "2025-05-05T15:58:18.000",
    "date_modified": "2025-05-05T15:58:19.000",
    "request_status": "Pending",
    "responsible_agency": "Department of Sanitation",
    "final_address": "7815 Means Ave",
    "address_councildis": "E",
    "status": "Assigned to Contractor",
    "contractor": "Waste Pro",
    "rowid": "1189592",
    "final_x": "3707797.6963",
    "final_y": "565314.973602",
    "longitude": "-89.98377557151363",
    "latitude": "30.047594340190887",
    "geocoded_column": {
      "latitude": "30.047594340190887",
      "longitude": "-89.98377557151363"
    }
  },
  {
    "service_request": "2025-1189591",
    "request_type": "Trash/Recycling",
    "request_reason": "Order Trash Cart",
    "date_created": "2025-05-05T15:57:04.000",
    "date_modified": "2025-05-05T15:57:06.000",
    "request_status": "Pending",
    "responsible_agency": "Department of Sanitation",
    "final_address": "3411 Short St",
    "address_councildis": "B",
    "status": "Assigned to Contractor",
    "contractor": "IV Waste",
    "rowid": "1189591",
    "final_x": "3667697.13652",
    "final_y": "533939.578501",
    "longitude": "-90.11157348051682",
    "latitude": "29.96256059729237",
    "geocoded_column": {
      "latitude": "29.96256059729237",
      "longitude": "-90.11157348051682"
    }
  },
  {
    "service_request": "2025-1189590",
    "request_type": "Trash/Recycling",
    "request_reason": "Order Trash Cart",
    "date_created": "2025-05-05T15:56:35.000",
    "date_modified": "2025-05-05T15:56:38.000",
    "request_status": "Pending",
    "responsible_agency": "Department of Sanitation",
    "final_address": "3409 Short St",
    "address_councildis": "B",
    "status": "Assigned to Contractor",
    "contractor": "IV Waste",
    "rowid": "1189590",
    "final_x": "3667687.57165",
    "final_y": "533929.614981",
    "longitude": "-90.11160402064698",
    "latitude": "29.962533481328578",
    "geocoded_column": {
      "latitude": "29.962533481328578",
      "longitude": "-90.11160402064698"
    }
  },
  {
    "service_request": "2025-1189589",
    "request_type": "Trash/Recycling",
    "request_reason": "Request a Large Item Pick Up",
    "date_created": "2025-05-05T15:54:57.000",
    "date_modified": "2025-05-05T15:54:58.000",
    "request_status": "Pending",
    "responsible_agency": "Department of Sanitation",
    "final_address": "1712 Cambronne St",
    "address_councildis": "A",
    "status": "Assigned to Contractor",
    "contractor": "IV Waste",
    "rowid": "1189589",
    "final_x": "3662400.06951",
    "final_y": "530521.705986",
    "longitude": "-90.12841447516294",
    "latitude": "29.95331679556777",
    "geocoded_column": {
      "latitude": "29.95331679556777",
      "longitude": "-90.12841447516294"
    }
  },
  {
    "service_request": "2025-1189588",
    "request_type": "Trash/Recycling",
    "request_reason": "Illegal Dumping",
    "date_created": "2025-05-05T15:54:29.000",
    "date_modified": "2025-05-05T15:54:31.000",
    "request_status": "Pending",
    "responsible_agency": "Department of Code Enforcement",
    "final_address": "3000 BLK Rue Parc Fontaine",
    "address_councildis": "C",
    "status": "Pending",
    "rowid": "1189588",
    "final_x": "3700179.05203",
    "final_y": "519428.286719",
    "longitude": "-90.00953009239862",
    "latitude": "29.921667327849818",
    "geocoded_column": {
      "latitude": "29.921667327849818",
      "longitude": "-90.00953009239862"
    }
  },
  {
    "service_request": "2025-1189587",
    "request_type": "Trash/Recycling",
    "request_reason": "Repair Trash Cart",
    "date_created": "2025-05-05T15:53:43.000",
    "date_modified": "2025-05-05T15:53:45.000",
    "request_status": "Pending",
    "responsible_agency": "Department of Sanitation",
    "final_address": "739 St Andrew St",
    "address_councildis": "B",
    "status": "Assigned to Contractor",
    "contractor": "IV Waste",
    "rowid": "1189587",
    "final_x": "3680411.16213",
    "final_y": "521598.077561",
    "longitude": "-90.07185339528417",
    "latitude": "29.928246715500233",
    "geocoded_column": {
      "latitude": "29.928246715500233",
      "longitude": "-90.07185339528417"
    }
  },
  {
    "service_request": "2025-1189586",
    "request_type": "Trash/Recycling",
    "request_reason": "Request a Large Item Pick Up",
    "date_created": "2025-05-05T15:52:24.000",
    "date_modified": "2025-05-05T15:52:31.000",
    "request_status": "Pending",
    "responsible_agency": "Department of Sanitation",
    "final_address": "2237 Felicity St",
    "address_councildis": "B",
    "status": "Assigned to Contractor",
    "contractor": "IV Waste",
    "rowid": "1189586",
    "final_x": "3676417.01288",
    "final_y": "526695.025598",
    "longitude": "-90.0842866563452",
    "latitude": "29.94238195981299",
    "geocoded_column": {
      "latitude": "29.94238195981299",
      "longitude": "-90.0842866563452"
    }
  },
  {
    "service_request": "2025-1189585",
    "request_type": "Trash/Recycling",
    "request_reason": "Order Recycling Cart",
    "date_created": "2025-05-05T15:49:20.000",
    "date_modified": "2025-05-05T15:49:22.000",
    "request_status": "Pending",
    "responsible_agency": "Department of Sanitation",
    "final_address": "2324 Lapeyrouse St",
    "address_councildis": "D",
    "status": "Pending",
    "rowid": "1189585",
    "final_x": "3680018.082",
    "final_y": "539402.744586",
    "longitude": "-90.07247579007964",
    "latitude": "29.97721544525716",
    "geocoded_column": {
      "latitude": "29.97721544525716",
      "longitude": "-90.07247579007964"
    }
  },
  {
    "service_request": "2025-1189584",
    "request_type": "Trash/Recycling",
    "request_reason": "Request a Large Item Pick Up",
    "date_created": "2025-05-05T15:48:56.000",
    "date_modified": "2025-05-05T17:36:00.000",
    "case_close_date": "2025-05-05T12:35:58.000",
    "request_status": "Closed",
    "responsible_agency": "Department of Sanitation",
    "final_address": "11205 Morrison Rd",
    "address_councildis": "E",
    "status": "Duplicate Request",
    "contractor": "Waste Pro",
    "contractor_action": "Duplicate",
    "rowid": "1189584",
    "final_x": "3711656.24773",
    "final_y": "565444.51613",
    "longitude": "-89.97157565995117",
    "latitude": "30.04782500734524",
    "geocoded_column": {
      "latitude": "30.04782500734524",
      "longitude": "-89.97157565995117"
    }
  },
  {
    "service_request": "2025-1189583",
    "request_type": "Trash/Recycling",
    "request_reason": "Replace Trash Cart",
    "date_created": "2025-05-05T15:47:54.000",
    "date_modified": "2025-05-05T15:47:56.000",
    "request_status": "Pending",
    "responsible_agency": "Department of Sanitation",
    "final_address": "1405 Marigny St",
    "address_councildis": "C",
    "status": "Assigned to Contractor",
    "contractor": "IV Waste",
    "rowid": "1189583",
    "final_x": "3685360.64482",
    "final_y": "537517.949768",
    "longitude": "-90.05566863603903",
    "latitude": "29.971870189407994",
    "geocoded_column": {
      "latitude": "29.971870189407994",
      "longitude": "-90.05566863603903"
    }
  },
  {
    "service_request": "2025-1189582",
    "request_type": "Safety & Permits",
    "request_reason": "Zoning Enforcement",
    "date_created": "2025-05-05T15:46:52.000",
    "date_modified": "2025-05-05T16:08:29.000",
    "case_close_date": "2025-05-05T11:08:28.000",
    "request_status": "Closed",
    "responsible_agency": "Safety and Permits",
    "final_address": "857 Wilson Dr",
    "address_councildis": "A",
    "status": "Resolved",
    "rowid": "1189582",
    "final_x": "3674033.71771",
    "final_y": "539692.351626",
    "longitude": "-90.09136648650885",
    "latitude": "29.97819147504569",
    "geocoded_column": {
      "latitude": "29.97819147504569",
      "longitude": "-90.09136648650885"
    }
  },
  {
    "service_request": "2025-1189581",
    "request_type": "Parks & Parkways",
    "request_reason": "Request Tree Service (Right of Way/Public Property)",
    "date_created": "2025-05-05T15:46:29.000",
    "date_modified": "2025-05-05T15:46:31.000",
    "request_status": "Pending",
    "responsible_agency": "Department of Parks & Parkway",
    "final_address": "2019 N Rampart St",
    "address_councildis": "C",
    "status": "Pending",
    "rowid": "1189581",
    "final_x": "3684450.35733",
    "final_y": "535922.005895",
    "longitude": "-90.05859953533704",
    "latitude": "29.967509775631353",
    "geocoded_column": {
      "latitude": "29.967509775631353",
      "longitude": "-90.05859953533704"
    }
  },
  {
    "service_request": "2025-1189580",
    "request_type": "Streetlights",
    "request_reason": "Streetlight Outage/Malfunction",
    "date_created": "2025-05-05T15:44:27.000",
    "date_modified": "2025-05-05T15:44:28.000",
    "request_status": "Pending",
    "responsible_agency": "Department of Public Works",
    "final_address": "5726 Burgundy St",
    "address_councildis": "E",
    "status": "Pending",
    "contractor": "Legacy Professional Services",
    "rowid": "1189580",
    "final_x": "3698350.484",
    "final_y": "532801.779716",
    "longitude": "-90.01481630157073",
    "latitude": "29.9584977452603",
    "geocoded_column": {
      "latitude": "29.9584977452603",
      "longitude": "-90.01481630157073"
    }
  },
  {
    "service_request": "2025-1189579",
    "request_type": "Trash/Recycling",
    "request_reason": "Request a Large Item Pick Up",
    "date_created": "2025-05-05T15:42:50.000",
    "date_modified": "2025-05-05T15:42:52.000",
    "request_status": "Pending",
    "responsible_agency": "Department of Sanitation",
    "final_address": "7301 Vanderkloot Ave",
    "address_councildis": "E",
    "status": "Assigned to Contractor",
    "contractor": "Waste Pro",
    "rowid": "1189579",
    "final_x": "3706452.41662",
    "final_y": "562395.451295",
    "longitude": "-89.98813569482301",
    "latitude": "30.039610312725838",
    "geocoded_column": {
      "latitude": "30.039610312725838",
      "longitude": "-89.98813569482301"
    }
  },
  {
    "service_request": "2025-1189578",
    "request_type": "Trash/Recycling",
    "request_reason": "Request a Large Item Pick Up",
    "date_created": "2025-05-05T15:40:52.000",
    "date_modified": "2025-05-05T15:40:55.000",
    "request_status": "Pending",
    "responsible_agency": "Department of Sanitation",
    "final_address": "4112 Hollygrove St",
    "address_councildis": "A",
    "status": "Assigned to Contractor",
    "contractor": "IV Waste",
    "rowid": "1189578",
    "final_x": "3666598.07373",
    "final_y": "538239.786825",
    "longitude": "-90.1148997857593",
    "latitude": "29.97441692000006",
    "geocoded_column": {
      "latitude": "29.97441692000006",
      "longitude": "-90.1148997857593"
    }
  },
  {
    "service_request": "2025-1189577",
    "request_type": "Trash/Recycling",
    "request_reason": "Repair Recycling Cart",
    "date_created": "2025-05-05T15:40:40.000",
    "date_modified": "2025-05-05T15:40:43.000",
    "request_status": "Pending",
    "responsible_agency": "Department of Sanitation",
    "final_address": "7923 Dorsett Dr",
    "address_councildis": "E",
    "status": "Pending",
    "rowid": "1189577",
    "final_x": "3712261.49739",
    "final_y": "568270.446053",
    "longitude": "-89.96955644708531",
    "latitude": "30.055575373666244",
    "geocoded_column": {
      "latitude": "30.055575373666244",
      "longitude": "-89.96955644708531"
    }
  },
  {
    "service_request": "2025-1189576",
    "request_type": "Trash/Recycling",
    "request_reason": "Repair Trash Cart",
    "date_created": "2025-05-05T15:38:05.000",
    "date_modified": "2025-05-05T15:38:08.000",
    "request_status": "Pending",
    "responsible_agency": "Department of Sanitation",
    "final_address": "2640 St Philip St",
    "address_councildis": "D",
    "status": "Assigned to Contractor",
    "contractor": "IV Waste",
    "rowid": "1189576",
    "final_x": "3677555.34088",
    "final_y": "537686.041992",
    "longitude": "-90.08031322713474",
    "latitude": "29.9725693869573",
    "geocoded_column": {
      "latitude": "29.9725693869573",
      "longitude": "-90.08031322713474"
    }
  },
  {
    "service_request": "2025-1189575",
    "request_type": "Abandoned Vehicles",
    "request_reason": "Abandoned/Junk Vehicles",
    "date_created": "2025-05-05T15:36:09.000",
    "date_modified": "2025-05-05T15:36:10.000",
    "request_status": "Pending",
    "responsible_agency": "Department of Public Works",
    "final_address": "SAGE ST & FRANKLIN AVE",
    "address_councildis": "D",
    "status": "Pending",
    "rowid": "1189575",
    "final_x": "3687178.9",
    "final_y": "545484.28",
    "longitude": "-90.04964445677479",
    "latitude": "29.993718899466817",
    "geocoded_column": {
      "latitude": "29.993718899466817",
      "longitude": "-90.04964445677479"
    }
  },
  {
    "service_request": "2025-1189574",
    "request_type": "Streetlights",
    "request_reason": "Streetlight Outage/Malfunction",
    "date_created": "2025-05-05T15:36:02.000",
    "date_modified": "2025-05-05T15:36:04.000",
    "request_status": "Pending",
    "responsible_agency": "Department of Public Works",
    "final_address": "Apricot Street & Cambronne Street",
    "address_councildis": "A",
    "status": "Pending",
    "contractor": "Legacy Professional Services",
    "rowid": "1189574",
    "final_x": "3665033.22208",
    "final_y": "533346.63226",
    "longitude": "-90.12000562132783",
    "latitude": "29.961008022637316",
    "geocoded_column": {
      "latitude": "29.961008022637316",
      "longitude": "-90.12000562132783"
    }
  },
  {
    "service_request": "2025-1189573",
    "request_type": "Abandoned Vehicles",
    "request_reason": "Abandoned/Junk Vehicles",
    "date_created": "2025-05-05T15:34:36.000",
    "date_modified": "2025-05-05T15:34:37.000",
    "request_status": "Pending",
    "responsible_agency": "Department of Public Works",
    "final_address": "145 Pinewood Ct",
    "address_councildis": "C",
    "status": "Pending",
    "rowid": "1189573",
    "final_x": "3695834.54787",
    "final_y": "523401.953147",
    "longitude": "-90.02310032605288",
    "latitude": "29.93273085444177",
    "geocoded_column": {
      "latitude": "29.93273085444177",
      "longitude": "-90.02310032605288"
    }
  },
  {
    "service_request": "2025-1189572",
    "request_type": "Trash/Recycling",
    "request_reason": "Request a Large Item Pick Up",
    "date_created": "2025-05-05T15:33:17.000",
    "date_modified": "2025-05-05T17:37:32.000",
    "case_close_date": "2025-05-05T12:37:30.000",
    "request_status": "Closed",
    "responsible_agency": "Department of Sanitation",
    "final_address": "1605 Chimney Wood Ln",
    "address_councildis": "E",
    "status": "Invalid Request",
    "contractor": "Waste Pro",
    "contractor_action": "Invalid Pick-Up",
    "rowid": "1189572",
    "final_x": "3695810.07626",
    "final_y": "557902.339483",
    "longitude": "-90.02193106268923",
    "latitude": "30.027595221248376",
    "geocoded_column": {
      "latitude": "30.027595221248376",
      "longitude": "-90.02193106268923"
    }
  },
  {
    "service_request": "2025-1189571",
    "request_type": "Alley Ways",
    "request_reason": "Alley Way Regrading",
    "date_created": "2025-05-05T15:26:08.000",
    "date_modified": "2025-05-05T15:26:10.000",
    "request_status": "Pending",
    "responsible_agency": "Department of Public Works",
    "final_address": "3400 Plymouth Pl",
    "address_councildis": "C",
    "status": "Pending",
    "rowid": "1189571",
    "final_x": "3702856.89886",
    "final_y": "518654.746423",
    "longitude": "-90.00110573300731",
    "latitude": "29.91945501911085",
    "geocoded_column": {
      "latitude": "29.91945501911085",
      "longitude": "-90.00110573300731"
    }
  },
  {
    "service_request": "2025-1189570",
    "request_type": "Trash/Recycling",
    "request_reason": "Repair Trash Cart",
    "date_created": "2025-05-05T15:25:07.000",
    "date_modified": "2025-05-05T15:25:09.000",
    "request_status": "Pending",
    "responsible_agency": "Department of Sanitation",
    "final_address": "1228 N Rendon St",
    "address_councildis": "A",
    "status": "Assigned to Contractor",
    "contractor": "IV Waste",
    "rowid": "1189570",
    "final_x": "3676061.83925",
    "final_y": "539765.39169",
    "longitude": "-90.08495843287199",
    "latitude": "29.978331709583653",
    "geocoded_column": {
      "latitude": "29.978331709583653",
      "longitude": "-90.08495843287199"
    }
  },
  {
    "service_request": "2025-1189569",
    "request_type": "Streetlights",
    "request_reason": "Streetlight Knocked Down/Leaning",
    "date_created": "2025-05-05T15:24:02.000",
    "date_modified": "2025-05-05T15:24:06.000",
    "request_status": "Pending",
    "responsible_agency": "Department of Public Works",
    "final_address": "1725 Sixth St",
    "address_councildis": "B",
    "status": "Pending",
    "contractor": "Legacy Professional Services",
    "rowid": "1189569",
    "final_x": "3675187.11131",
    "final_y": "522769.339578",
    "longitude": "-90.08830440886994",
    "latitude": "29.931624413537506",
    "geocoded_column": {
      "latitude": "29.931624413537506",
      "longitude": "-90.08830440886994"
    }
  },
  {
    "service_request": "2025-1189568",
    "request_type": "Trash/Recycling",
    "request_reason": "Missed Trash Pick-Up",
    "date_created": "2025-05-05T15:23:53.000",
    "date_modified": "2025-05-05T15:23:55.000",
    "request_status": "Pending",
    "responsible_agency": "Department of Sanitation",
    "final_address": "7331 Newcastle St",
    "address_councildis": "E",
    "status": "Assigned to Contractor",
    "contractor": "Waste Pro",
    "rowid": "1189568",
    "final_x": "3697569.61859",
    "final_y": "558551.415708",
    "longitude": "-90.01634750256771",
    "latitude": "30.029324443489713",
    "geocoded_column": {
      "latitude": "30.029324443489713",
      "longitude": "-90.01634750256771"
    }
  },
  {
    "service_request": "2025-1189567",
    "request_type": "Streetlights",
    "request_reason": "Streetlight Outage/Malfunction",
    "date_created": "2025-05-05T15:23:24.000",
    "date_modified": "2025-05-05T15:23:26.000",
    "request_status": "Pending",
    "responsible_agency": "Department of Public Works",
    "final_address": "1108 General Taylor St",
    "address_councildis": "B",
    "status": "Pending",
    "contractor": "Legacy Professional Services",
    "rowid": "1189567",
    "final_x": "3672889.85",
    "final_y": "519801.804984",
    "longitude": "-90.09565780188899",
    "latitude": "29.923533083045537",
    "geocoded_column": {
      "latitude": "29.923533083045537",
      "longitude": "-90.09565780188899"
    }
  },
  {
    "service_request": "2025-1189566",
    "request_type": "Abandoned Vehicles",
    "request_reason": "Abandoned/Junk Vehicles",
    "date_created": "2025-05-05T15:22:30.000",
    "date_modified": "2025-05-05T15:22:32.000",
    "request_status": "Pending",
    "responsible_agency": "Department of Public Works",
    "final_address": "145 Pinewood Ct",
    "address_councildis": "C",
    "status": "Pending",
    "rowid": "1189566",
    "final_x": "3695834.54787",
    "final_y": "523401.953147",
    "longitude": "-90.02310032605288",
    "latitude": "29.93273085444177",
    "geocoded_column": {
      "latitude": "29.93273085444177",
      "longitude": "-90.02310032605288"
    }
  },
  {
    "service_request": "2025-1189565",
    "request_type": "Trash/Recycling",
    "request_reason": "Request a Large Item Pick Up",
    "date_created": "2025-05-05T15:21:01.000",
    "date_modified": "2025-05-05T15:21:03.000",
    "request_status": "Pending",
    "responsible_agency": "Department of Sanitation",
    "final_address": "2201 Burdette St",
    "address_councildis": "A",
    "status": "Assigned to Contractor",
    "contractor": "IV Waste",
    "rowid": "1189565",
    "final_x": "3665254.1161",
    "final_y": "530191.652481",
    "longitude": "-90.11941362402243",
    "latitude": "29.95232642401367",
    "geocoded_column": {
      "latitude": "29.95232642401367",
      "longitude": "-90.11941362402243"
    }
  },
  {
    "service_request": "2025-1189564",
    "request_type": "Trash/Recycling",
    "request_reason": "Request a Large Item Pick Up",
    "date_created": "2025-05-05T15:19:12.000",
    "date_modified": "2025-05-05T15:19:15.000",
    "request_status": "Pending",
    "responsible_agency": "Department of Sanitation",
    "final_address": "7320 Trapier Ave",
    "address_councildis": "E",
    "status": "Assigned to Contractor",
    "contractor": "Waste Pro",
    "rowid": "1189564",
    "final_x": "3706922.1795",
    "final_y": "562794.31696",
    "longitude": "-89.98663629944649",
    "latitude": "30.0406918627945",
    "geocoded_column": {
      "latitude": "30.0406918627945",
      "longitude": "-89.98663629944649"
    }
  },
  {
    "service_request": "2025-1189563",
    "request_type": "Trash/Recycling",
    "request_reason": "Missed Trash Pick-Up",
    "date_created": "2025-05-05T15:17:31.000",
    "date_modified": "2025-05-05T15:20:30.000",
    "request_status": "Pending",
    "responsible_agency": "Department of Sanitation",
    "final_address": "7310 Newcastle St",
    "address_councildis": "E",
    "status": "Assigned to Contractor",
    "contractor": "Waste Pro",
    "rowid": "1189563",
    "final_x": "3697439.61847",
    "final_y": "558377.809628",
    "longitude": "-90.01676460101568",
    "latitude": "30.02885120106973",
    "geocoded_column": {
      "latitude": "30.02885120106973",
      "longitude": "-90.01676460101568"
    }
  },
  {
    "service_request": "2025-1189562",
    "request_type": "Abandoned Vehicles",
    "request_reason": "Abandoned/Junk Vehicles",
    "date_created": "2025-05-05T15:17:30.000",
    "date_modified": "2025-05-05T15:17:32.000",
    "request_status": "Pending",
    "responsible_agency": "Department of Public Works",
    "final_address": "9431 Colapissa St A",
    "address_councildis": "A",
    "status": "Pending",
    "rowid": "1189562",
    "final_x": "3662999.02976",
    "final_y": "536671.180295",
    "longitude": "-90.12631866570726",
    "latitude": "29.970208510690266",
    "geocoded_column": {
      "latitude": "29.970208510690266",
      "longitude": "-90.12631866570726"
    }
  },
  {
    "service_request": "2025-1189561",
    "request_type": "Drainage",
    "request_reason": "Street Flooding",
    "date_created": "2025-05-05T15:15:25.000",
    "date_modified": "2025-05-05T15:15:27.000",
    "request_status": "Pending",
    "responsible_agency": "Sewerage & Water Board",
    "final_address": "3400 Plymouth Pl",
    "address_councildis": "C",
    "status": "Pending",
    "rowid": "1189561",
    "final_x": "3702856.89886",
    "final_y": "518654.746423",
    "longitude": "-90.00110573300731",
    "latitude": "29.91945501911085",
    "geocoded_column": {
      "latitude": "29.91945501911085",
      "longitude": "-90.00110573300731"
    }
  },
  {
    "service_request": "2025-1189560",
    "request_type": "Trash/Recycling",
    "request_reason": "Request a Large Item Pick Up",
    "date_created": "2025-05-05T15:15:04.000",
    "date_modified": "2025-05-05T15:15:06.000",
    "request_status": "Pending",
    "responsible_agency": "Department of Sanitation",
    "final_address": "7717 Edward St",
    "address_councildis": "E",
    "status": "Assigned to Contractor",
    "contractor": "Waste Pro",
    "rowid": "1189560",
    "final_x": "3700993.3265",
    "final_y": "561272.282974",
    "longitude": "-90.00542909566802",
    "latitude": "30.03669712824314",
    "geocoded_column": {
      "latitude": "30.03669712824314",
      "longitude": "-90.00542909566802"
    }
  },
  {
    "service_request": "2025-1189559",
    "request_type": "Property Maintenance",
    "request_reason": "Property Maintenance",
    "date_created": "2025-05-05T15:14:21.000",
    "date_modified": "2025-05-05T15:14:23.000",
    "request_status": "Pending",
    "responsible_agency": "Department of Code Enforcement",
    "final_address": "1801 Lapeyrouse St",
    "address_councildis": "D",
    "status": "Pending",
    "rowid": "1189559",
    "final_x": "3681591.16098",
    "final_y": "538266.297161",
    "longitude": "-90.06754714533103",
    "latitude": "29.974042919454615",
    "geocoded_column": {
      "latitude": "29.974042919454615",
      "longitude": "-90.06754714533103"
    }
  },
  {
    "service_request": "2025-1189558",
    "request_type": "Property Maintenance",
    "request_reason": "Property Maintenance",
    "date_created": "2025-05-05T15:12:03.000",
    "date_modified": "2025-05-05T15:12:05.000",
    "request_status": "Pending",
    "responsible_agency": "Department of Code Enforcement",
    "final_address": "1810 Lapeyrouse St",
    "address_councildis": "D",
    "status": "Pending",
    "rowid": "1189558",
    "final_x": "3681487.96143",
    "final_y": "538263.002313",
    "longitude": "-90.06787318761853",
    "latitude": "29.974036994032822",
    "geocoded_column": {
      "latitude": "29.974036994032822",
      "longitude": "-90.06787318761853"
    }
  },
  {
    "service_request": "2025-1189557",
    "request_type": "Traffic Signals",
    "request_reason": "Traffic Signal Malfunctioning or Damaged",
    "date_created": "2025-05-05T15:10:50.000",
    "date_modified": "2025-05-05T15:10:52.000",
    "request_status": "Pending",
    "responsible_agency": "Department of Public Works",
    "final_address": "2200 BLK Broadway St",
    "address_councildis": "A",
    "status": "Pending",
    "rowid": "1189557",
    "final_x": "3666217.37652",
    "final_y": "529572.214593",
    "longitude": "-90.11639285198277",
    "latitude": "29.950595075848106",
    "geocoded_column": {
      "latitude": "29.950595075848106",
      "longitude": "-90.11639285198277"
    }
  },
  {
    "service_request": "2025-1189556",
    "request_type": "Parks & Parkways",
    "request_reason": "Request Tree Service (Right of Way/Public Property)",
    "date_created": "2025-05-05T15:09:03.000",
    "date_modified": "2025-05-05T15:09:05.000",
    "request_status": "Pending",
    "responsible_agency": "Department of Parks & Parkway",
    "final_address": "2500 Gentilly Blvd",
    "address_councildis": "D",
    "status": "Pending",
    "rowid": "1189556",
    "final_x": "3681737.48245",
    "final_y": "545064.885519",
    "longitude": "-90.06684770726106",
    "latitude": "29.99273221053106",
    "geocoded_column": {
      "latitude": "29.99273221053106",
      "longitude": "-90.06684770726106"
    }
  },
  {
    "service_request": "2025-1189555",
    "request_type": "Traffic Signals",
    "request_reason": "Traffic Signal Malfunctioning or Damaged",
    "date_created": "2025-05-05T15:07:09.000",
    "date_modified": "2025-05-05T15:07:11.000",
    "request_status": "Pending",
    "responsible_agency": "Department of Public Works",
    "final_address": "5402 S Claiborne Ave",
    "address_councildis": "A",
    "status": "Pending",
    "rowid": "1189555",
    "final_x": "3668326.26535",
    "final_y": "526195.272958",
    "longitude": "-90.10984789757504",
    "latitude": "29.94124782843077",
    "geocoded_column": {
      "latitude": "29.94124782843077",
      "longitude": "-90.10984789757504"
    }
  },
  {
    "service_request": "2025-1189554",
    "request_type": "Trash/Recycling",
    "request_reason": "Order Recycling Cart",
    "date_created": "2025-05-05T15:05:45.000",
    "date_modified": "2025-05-05T15:05:47.000",
    "request_status": "Pending",
    "responsible_agency": "Department of Sanitation",
    "final_address": "1342 Bartholomew St",
    "address_councildis": "D",
    "status": "Pending",
    "rowid": "1189554",
    "final_x": "3692029.99235",
    "final_y": "536397.506631",
    "longitude": "-90.03464597048867",
    "latitude": "29.96858320007045",
    "geocoded_column": {
      "latitude": "29.96858320007045",
      "longitude": "-90.03464597048867"
    }
  },
  {
    "service_request": "2025-1189553",
    "request_type": "Property Maintenance",
    "request_reason": "Property Maintenance",
    "date_created": "2025-05-05T15:04:57.000",
    "date_modified": "2025-05-05T15:05:00.000",
    "request_status": "Pending",
    "responsible_agency": "Department of Code Enforcement",
    "final_address": "3618 Buchanan St",
    "address_councildis": "D",
    "status": "Pending",
    "rowid": "1189553",
    "final_x": "3677379.87182",
    "final_y": "545467.133072",
    "longitude": "-90.08059872452723",
    "latitude": "29.9939699651577",
    "geocoded_column": {
      "latitude": "29.9939699651577",
      "longitude": "-90.08059872452723"
    }
  },
  {
    "service_request": "2025-1189552",
    "request_type": "Trash/Recycling",
    "request_reason": "Replace Trash Cart",
    "date_created": "2025-05-05T15:02:44.000",
    "date_modified": "2025-05-05T15:02:47.000",
    "request_status": "Pending",
    "responsible_agency": "Department of Sanitation",
    "final_address": "1426 N Rampart St",
    "address_councildis": "C",
    "status": "Assigned to Contractor",
    "contractor": "IV Waste",
    "rowid": "1189552",
    "final_x": "3683067.55119",
    "final_y": "535479.819014",
    "longitude": "-90.06298194153956",
    "latitude": "29.966336141229856",
    "geocoded_column": {
      "latitude": "29.966336141229856",
      "longitude": "-90.06298194153956"
    }
  },
  {
    "service_request": "2025-1189551",
    "request_type": "Parks & Parkways",
    "request_reason": "Park Maintenance/Clean Up",
    "date_created": "2025-05-05T14:59:13.000",
    "date_modified": "2025-05-05T14:59:16.000",
    "request_status": "Pending",
    "responsible_agency": "Department of Parks & Parkway",
    "final_address": "700 Elysian Fields Ave",
    "address_councildis": "C",
    "status": "Pending",
    "rowid": "1189551",
    "final_x": "3684896.73922",
    "final_y": "535043.69127",
    "longitude": "-90.05722074563434",
    "latitude": "29.965081052222402",
    "geocoded_column": {
      "latitude": "29.965081052222402",
      "longitude": "-90.05722074563434"
    }
  },
  {
    "service_request": "2025-1189550",
    "request_type": "Health Related Request",
    "request_reason": "Noise Ordinance Complaint",
    "date_created": "2025-05-05T14:54:26.000",
    "date_modified": "2025-05-05T14:54:27.000",
    "request_status": "Pending",
    "responsible_agency": "Health Department",
    "final_address": "1205 Elysian Fields Ave",
    "address_councildis": "C",
    "status": "Pending",
    "rowid": "1189550",
    "final_x": "3685092.35637",
    "final_y": "536725.209799",
    "longitude": "-90.0565438289897",
    "latitude": "29.96969865338815",
    "geocoded_column": {
      "latitude": "29.96969865338815",
      "longitude": "-90.0565438289897"
    }
  },
  {
    "service_request": "2025-1189549",
    "request_type": "Parks & Parkways",
    "request_reason": "Request Tree Service (Right of Way/Public Property)",
    "date_created": "2025-05-05T14:52:36.000",
    "date_modified": "2025-05-05T14:54:27.000",
    "request_status": "Pending",
    "responsible_agency": "Department of Parks & Parkway",
    "final_address": "4610 Camelot Dr",
    "address_councildis": "E",
    "status": "Pending",
    "rowid": "1189549",
    "final_x": "3708382.50462",
    "final_y": "554784.71356",
    "longitude": "-89.98231967573038",
    "latitude": "30.0186213292772",
    "geocoded_column": {
      "latitude": "30.0186213292772",
      "longitude": "-89.98231967573038"
    }
  },
  {
    "service_request": "2025-1189548",
    "request_type": "Health Related Request",
    "request_reason": "Noise Ordinance Complaint",
    "date_created": "2025-05-05T14:51:22.000",
    "date_modified": "2025-05-05T14:51:23.000",
    "request_status": "Pending",
    "responsible_agency": "Health Department",
    "final_address": "3010 St Peter St",
    "address_councildis": "A",
    "status": "Pending",
    "rowid": "1189548",
    "final_x": "3675546.82721",
    "final_y": "537648.980936",
    "longitude": "-90.08665775574183",
    "latitude": "29.97252772189861",
    "geocoded_column": {
      "latitude": "29.97252772189861",
      "longitude": "-90.08665775574183"
    }
  },
  {
    "service_request": "2025-1189547",
    "request_type": "Property Maintenance",
    "request_reason": "Property Maintenance",
    "date_created": "2025-05-05T14:51:15.000",
    "date_modified": "2025-05-05T14:51:17.000",
    "request_status": "Pending",
    "responsible_agency": "Department of Code Enforcement",
    "final_address": "2700 Cadiz St",
    "address_councildis": "B",
    "status": "Pending",
    "rowid": "1189547",
    "final_x": "3669544.81575",
    "final_y": "524702.231868",
    "longitude": "-90.10605118091698",
    "latitude": "29.937106614974653",
    "geocoded_column": {
      "latitude": "29.937106614974653",
      "longitude": "-90.10605118091698"
    }
  },
  {
    "service_request": "2025-1189546",
    "request_type": "Drainage",
    "request_reason": "Catch Basin Clogged",
    "date_created": "2025-05-05T14:47:36.000",
    "date_modified": "2025-05-05T14:47:38.000",
    "request_status": "Pending",
    "responsible_agency": "Sewerage & Water Board",
    "final_address": "318 Delaronde St",
    "address_councildis": "C",
    "status": "Pending",
    "rowid": "1189546",
    "final_x": "3686383.81257",
    "final_y": "530911.627266",
    "longitude": "-90.05267050434477",
    "latitude": "29.95367367847893",
    "geocoded_column": {
      "latitude": "29.95367367847893",
      "longitude": "-90.05267050434477"
    }
  },
  {
    "service_request": "2025-1189545",
    "request_type": "Abandoned Vehicles",
    "request_reason": "Abandoned/Junk Vehicles",
    "date_created": "2025-05-05T14:45:40.000",
    "date_modified": "2025-05-05T14:51:28.000",
    "request_status": "Pending",
    "responsible_agency": "Department of Public Works",
    "final_address": "6070 Oxford Pl",
    "address_councildis": "C",
    "status": "Pending",
    "rowid": "1189545",
    "final_x": "3706532.31268",
    "final_y": "519855.278008",
    "longitude": "-89.98945994473256",
    "latitude": "29.922638050821504",
    "geocoded_column": {
      "latitude": "29.922638050821504",
      "longitude": "-89.98945994473256"
    }
  },
  {
    "service_request": "2025-1189544",
    "request_type": "Trash/Recycling",
    "request_reason": "Repair Trash Cart",
    "date_created": "2025-05-05T14:45:25.000",
    "date_modified": "2025-05-05T14:45:28.000",
    "request_status": "Pending",
    "responsible_agency": "Department of Sanitation",
    "final_address": "9021 Bunker Hill Rd",
    "address_councildis": "E",
    "status": "Assigned to Contractor",
    "contractor": "Waste Pro",
    "rowid": "1189544",
    "final_x": "3706238.23083",
    "final_y": "561853.372511",
    "longitude": "-89.98883268264953",
    "latitude": "30.038126722567913",
    "geocoded_column": {
      "latitude": "30.038126722567913",
      "longitude": "-89.98883268264953"
    }
  },
  {
    "service_request": "2025-1189543",
    "request_type": "Trash/Recycling",
    "request_reason": "Order Recycling Cart",
    "date_created": "2025-05-05T14:45:24.000",
    "date_modified": "2025-05-05T14:45:26.000",
    "request_status": "Pending",
    "responsible_agency": "Department of Sanitation",
    "final_address": "318 Delaronde St",
    "address_councildis": "C",
    "status": "Pending",
    "rowid": "1189543",
    "final_x": "3686383.81257",
    "final_y": "530911.627266",
    "longitude": "-90.05267050434477",
    "latitude": "29.95367367847893",
    "geocoded_column": {
      "latitude": "29.95367367847893",
      "longitude": "-90.05267050434477"
    }
  },
  {
    "service_request": "2025-1189542",
    "request_type": "Trash/Recycling",
    "request_reason": "Request a Large Item Pick Up",
    "date_created": "2025-05-05T14:43:40.000",
    "date_modified": "2025-05-05T14:43:42.000",
    "request_status": "Pending",
    "responsible_agency": "Department of Sanitation",
    "final_address": "9021 Bunker Hill Rd",
    "address_councildis": "E",
    "status": "Assigned to Contractor",
    "contractor": "Waste Pro",
    "rowid": "1189542",
    "final_x": "3706238.23083",
    "final_y": "561853.372511",
    "longitude": "-89.98883268264953",
    "latitude": "30.038126722567913",
    "geocoded_column": {
      "latitude": "30.038126722567913",
      "longitude": "-89.98883268264953"
    }
  },
  {
    "service_request": "2025-1189541",
    "request_type": "Safety & Permits",
    "request_reason": "Zoning Enforcement",
    "date_created": "2025-05-05T14:42:43.000",
    "date_modified": "2025-05-05T15:59:37.000",
    "case_close_date": "2025-05-05T10:59:36.000",
    "request_status": "Closed",
    "responsible_agency": "Safety and Permits",
    "final_address": "3724 Banks St",
    "address_councildis": "B",
    "status": "Resolved",
    "rowid": "1189541",
    "final_x": "3671402.32718",
    "final_y": "536506.201415",
    "longitude": "-90.09978571260238",
    "latitude": "29.969508800351328",
    "geocoded_column": {
      "latitude": "29.969508800351328",
      "longitude": "-90.09978571260238"
    }
  },
  {
    "service_request": "2025-1189540",
    "request_type": "Roads and Streets",
    "request_reason": "Pothole",
    "date_created": "2025-05-05T14:42:04.000",
    "date_modified": "2025-05-05T14:43:04.000",
    "request_status": "Pending",
    "responsible_agency": "Department of Public Works",
    "final_address": "2120 Philip St",
    "address_councildis": "B",
    "status": "Pending",
    "rowid": "1189540",
    "final_x": "3676027.93307",
    "final_y": "524969.019901",
    "longitude": "-90.08557441098043",
    "latitude": "29.937647667773895",
    "geocoded_column": {
      "latitude": "29.937647667773895",
      "longitude": "-90.08557441098043"
    }
  },
  {
    "service_request": "2025-1189539",
    "request_type": "General Services",
    "request_reason": "General Service Request",
    "date_created": "2025-05-05T14:41:26.000",
    "date_modified": "2025-05-05T16:03:16.000",
    "case_close_date": "2025-05-05T11:03:14.000",
    "request_status": "Closed",
    "responsible_agency": "Orleans Parish Communication District",
    "final_address": "New Orleans,LA",
    "address_councildis": "A",
    "status": "Resolved",
    "rowid": "1189539",
    "final_x": "3665569.341",
    "final_y": "544233.44443",
    "longitude": "-90.11794799923442",
    "latitude": "29.990927498646133",
    "geocoded_column": {
      "latitude": "29.990927498646133",
      "longitude": "-90.11794799923442"
    }
  },
  {
    "service_request": "2025-1189538",
    "request_type": "Trash/Recycling",
    "request_reason": "Illegal Dumping",
    "date_created": "2025-05-05T14:39:39.000",
    "date_modified": "2025-05-05T14:39:40.000",
    "request_status": "Pending",
    "responsible_agency": "Department of Sanitation",
    "final_address": "2000 BLK Jourdan Ave",
    "address_councildis": "E",
    "status": "Pending",
    "rowid": "1189538",
    "final_x": "3696038.52521",
    "final_y": "538044.19929",
    "longitude": "-90.02192735546512",
    "latitude": "29.97298548406666",
    "geocoded_column": {
      "latitude": "29.97298548406666",
      "longitude": "-90.02192735546512"
    }
  },
  {
    "service_request": "2025-1189537",
    "request_type": "Trash/Recycling",
    "request_reason": "Request a Large Item Pick Up",
    "date_created": "2025-05-05T14:38:58.000",
    "date_modified": "2025-05-05T14:39:00.000",
    "request_status": "Pending",
    "responsible_agency": "Department of Sanitation",
    "final_address": "6422 N Robertson St",
    "address_councildis": "E",
    "status": "Assigned to Contractor",
    "contractor": "Waste Pro",
    "rowid": "1189537",
    "final_x": "3701190.82116",
    "final_y": "534223.785669",
    "longitude": "-90.00579530774483",
    "latitude": "29.962317578138975",
    "geocoded_column": {
      "latitude": "29.962317578138975",
      "longitude": "-90.00579530774483"
    }
  },
  {
    "service_request": "2025-1189536",
    "request_type": "Trash/Recycling",
    "request_reason": "Return Trash Cart",
    "date_created": "2025-05-05T14:36:53.000",
    "date_modified": "2025-05-05T14:36:58.000",
    "request_status": "Pending",
    "responsible_agency": "Department of Sanitation",
    "final_address": "3322 Iberville St",
    "address_councildis": "B",
    "status": "Assigned to Contractor",
    "contractor": "IV Waste",
    "rowid": "1189536",
    "final_x": "3673706.64648",
    "final_y": "536856.537096",
    "longitude": "-90.09249648699655",
    "latitude": "29.970403692949912",
    "geocoded_column": {
      "latitude": "29.970403692949912",
      "longitude": "-90.09249648699655"
    }
  },
  {
    "service_request": "2025-1189535",
    "request_type": "Roads and Streets",
    "request_reason": "Road Shoulder Damage",
    "date_created": "2025-05-05T14:36:13.000",
    "date_modified": "2025-05-05T14:36:14.000",
    "request_status": "Pending",
    "responsible_agency": "Department of Public Works",
    "final_address": "2525 Cadiz St",
    "address_councildis": "B",
    "status": "Pending",
    "rowid": "1189535",
    "final_x": "3669838.02881",
    "final_y": "524172.227196",
    "longitude": "-90.10514342275037",
    "latitude": "29.935640634245676",
    "geocoded_column": {
      "latitude": "29.935640634245676",
      "longitude": "-90.10514342275037"
    }
  },
  {
    "service_request": "2025-1189534",
    "request_type": "Property Maintenance",
    "request_reason": "Property Maintenance",
    "date_created": "2025-05-05T14:32:11.000",
    "date_modified": "2025-05-05T14:33:22.000",
    "request_status": "Pending",
    "responsible_agency": "Department of Code Enforcement",
    "final_address": "5152 Pauline Dr",
    "address_councildis": "D",
    "status": "Pending",
    "rowid": "1189534",
    "final_x": "3692355.68873",
    "final_y": "553156.910871",
    "longitude": "-90.03301678421654",
    "latitude": "30.014655327937046",
    "geocoded_column": {
      "latitude": "30.014655327937046",
      "longitude": "-90.03301678421654"
    }
  },
  {
    "service_request": "2025-1189533",
    "request_type": "Trash/Recycling",
    "request_reason": "Request a Large Item Pick Up",
    "date_created": "2025-05-05T14:31:46.000",
    "date_modified": "2025-05-05T14:31:48.000",
    "request_status": "Pending",
    "responsible_agency": "Department of Sanitation",
    "final_address": "11248 Winrock Dr",
    "address_councildis": "E",
    "status": "Assigned to Contractor",
    "contractor": "Waste Pro",
    "rowid": "1189533",
    "final_x": "3716388.74213",
    "final_y": "561368.96771",
    "longitude": "-89.9567732307602",
    "latitude": "30.036463408725588",
    "geocoded_column": {
      "latitude": "30.036463408725588",
      "longitude": "-89.9567732307602"
    }
  },
  {
    "service_request": "2025-1189532",
    "request_type": "Trash/Recycling",
    "request_reason": "Replace Recycling Cart",
    "date_created": "2025-05-05T14:31:10.000",
    "date_modified": "2025-05-05T14:31:11.000",
    "request_status": "Pending",
    "responsible_agency": "Department of Sanitation",
    "final_address": "723 Navarre St",
    "address_councildis": "A",
    "status": "Pending",
    "rowid": "1189532",
    "final_x": "3668460.82676",
    "final_y": "543902.575246",
    "longitude": "-90.10882562519566",
    "latitude": "29.989933073478188",
    "geocoded_column": {
      "latitude": "29.989933073478188",
      "longitude": "-90.10882562519566"
    }
  },
  {
    "service_request": "2025-1189531",
    "request_type": "Property Maintenance",
    "request_reason": "Property Maintenance",
    "date_created": "2025-05-05T14:25:39.000",
    "date_modified": "2025-05-05T14:25:41.000",
    "request_status": "Pending",
    "responsible_agency": "Department of Code Enforcement",
    "final_address": "4518 S Robertson St",
    "address_councildis": "B",
    "status": "Pending",
    "rowid": "1189531",
    "final_x": "3669936.53985",
    "final_y": "524301.264444",
    "longitude": "-90.10482805375682",
    "latitude": "29.935992541335494",
    "geocoded_column": {
      "latitude": "29.935992541335494",
      "longitude": "-90.10482805375682"
    }
  },
  {
    "service_request": "2025-1189530",
    "request_type": "Abandoned Vehicles",
    "request_reason": "Abandoned/Junk Vehicles",
    "date_created": "2025-05-05T14:23:40.000",
    "date_modified": "2025-05-05T14:23:41.000",
    "request_status": "Pending",
    "responsible_agency": "Department of Public Works",
    "final_address": "5179 De Montluzin St",
    "address_councildis": "D",
    "status": "Pending",
    "rowid": "1189530",
    "final_x": "3687096.15894",
    "final_y": "551753.854677",
    "longitude": "-90.04968395762869",
    "latitude": "30.010960504454975",
    "geocoded_column": {
      "latitude": "30.010960504454975",
      "longitude": "-90.04968395762869"
    }
  },
  {
    "service_request": "2025-1189529",
    "request_type": "Trash/Recycling",
    "request_reason": "Order Recycling Cart",
    "date_created": "2025-05-05T14:20:38.000",
    "date_modified": "2025-05-05T14:20:40.000",
    "request_status": "Pending",
    "responsible_agency": "Department of Sanitation",
    "final_address": "7540 Ligustrum Dr",
    "address_councildis": "E",
    "status": "Pending",
    "rowid": "1189529",
    "final_x": "3701508.27255",
    "final_y": "560958.916638",
    "longitude": "-90.00381325912241",
    "latitude": "30.03581907414187",
    "geocoded_column": {
      "latitude": "30.03581907414187",
      "longitude": "-90.00381325912241"
    }
  },
  {
    "service_request": "2025-1189528",
    "request_type": "Trash/Recycling",
    "request_reason": "Request a Large Item Pick Up",
    "date_created": "2025-05-05T14:18:38.000",
    "date_modified": "2025-05-05T14:18:40.000",
    "request_status": "Pending",
    "responsible_agency": "Department of Sanitation",
    "final_address": "6230 Eastover Dr",
    "address_councildis": "E",
    "status": "Assigned to Contractor",
    "contractor": "Waste Pro",
    "rowid": "1189528",
    "final_x": "3717349.5717",
    "final_y": "564569.102177",
    "longitude": "-89.95361507810354",
    "latitude": "30.045230704714314",
    "geocoded_column": {
      "latitude": "30.045230704714314",
      "longitude": "-89.95361507810354"
    }
  },
  {
    "service_request": "2025-1189527",
    "request_type": "Roads and Streets",
    "request_reason": "Debris in Driving Lanes",
    "date_created": "2025-05-05T14:13:15.000",
    "date_modified": "2025-05-05T14:13:16.000",
    "request_status": "Pending",
    "responsible_agency": "Department of Public Works",
    "final_address": "TULLIS DR & LENNOX BLVD",
    "address_councildis": "C",
    "status": "Pending",
    "rowid": "1189527",
    "final_x": "3700726.4",
    "final_y": "512045.48",
    "longitude": "-90.00807189563612",
    "latitude": "29.90134971681044",
    "geocoded_column": {
      "latitude": "29.90134971681044",
      "longitude": "-90.00807189563612"
    }
  },
  {
    "service_request": "2025-1189526",
    "request_type": "Trash/Recycling",
    "request_reason": "Request a Large Item Pick Up",
    "date_created": "2025-05-05T14:11:55.000",
    "date_modified": "2025-05-05T14:11:56.000",
    "request_status": "Pending",
    "responsible_agency": "Department of Sanitation",
    "final_address": "4843 Perelli Dr",
    "address_councildis": "E",
    "status": "Assigned to Contractor",
    "contractor": "Waste Pro",
    "rowid": "1189526",
    "final_x": "3711737.12882",
    "final_y": "556666.698394",
    "longitude": "-89.97164971965289",
    "latitude": "30.023686866546228",
    "geocoded_column": {
      "latitude": "30.023686866546228",
      "longitude": "-89.97164971965289"
    }
  },
  {
    "service_request": "2025-1189525",
    "request_type": "Trash/Recycling",
    "request_reason": "Request a Large Item Pick Up",
    "date_created": "2025-05-05T14:10:53.000",
    "date_modified": "2025-05-05T14:10:56.000",
    "request_status": "Pending",
    "responsible_agency": "Department of Sanitation",
    "final_address": "308 Broadway St",
    "address_councildis": "A",
    "status": "Assigned to Contractor",
    "contractor": "IV Waste",
    "rowid": "1189525",
    "final_x": "3661481.74003",
    "final_y": "522576.892218",
    "longitude": "-90.1315772863345",
    "latitude": "29.931497603794973",
    "geocoded_column": {
      "latitude": "29.931497603794973",
      "longitude": "-90.1315772863345"
    }
  },
  {
    "service_request": "2025-1189524",
    "request_type": "Trash/Recycling",
    "request_reason": "Request a Large Item Pick Up",
    "date_created": "2025-05-05T14:08:59.000",
    "date_modified": "2025-05-05T14:09:00.000",
    "request_status": "Pending",
    "responsible_agency": "Department of Sanitation",
    "final_address": "4673 Warren Dr",
    "address_councildis": "E",
    "status": "Assigned to Contractor",
    "contractor": "Waste Pro",
    "rowid": "1189524",
    "final_x": "3713566.8533",
    "final_y": "555907.156761",
    "longitude": "-89.96589686206588",
    "latitude": "30.021538512250128",
    "geocoded_column": {
      "latitude": "30.021538512250128",
      "longitude": "-89.96589686206588"
    }
  },
  {
    "service_request": "2025-1189523",
    "request_type": "Trash/Recycling",
    "request_reason": "Request a Large Item Pick Up",
    "date_created": "2025-05-05T14:08:11.000",
    "date_modified": "2025-05-05T14:08:13.000",
    "request_status": "Pending",
    "responsible_agency": "Department of Sanitation",
    "final_address": "5230 Laurel St",
    "address_councildis": "B",
    "status": "Assigned to Contractor",
    "contractor": "IV Waste",
    "rowid": "1189523",
    "final_x": "3667769.40756",
    "final_y": "517827.236598",
    "longitude": "-90.11188763622705",
    "latitude": "29.9182547289633",
    "geocoded_column": {
      "latitude": "29.9182547289633",
      "longitude": "-90.11188763622705"
    }
  },
  {
    "service_request": "2025-1189522",
    "request_type": "Trash/Recycling",
    "request_reason": "Request a Large Item Pick Up",
    "date_created": "2025-05-05T14:07:27.000",
    "date_modified": "2025-05-05T14:08:23.000",
    "request_status": "Pending",
    "responsible_agency": "Department of Sanitation",
    "final_address": "7563 Avalon Way",
    "address_councildis": "E",
    "status": "Assigned to Contractor",
    "contractor": "Waste Pro",
    "rowid": "1189522",
    "final_x": "3709196.02341",
    "final_y": "564368.800737",
    "longitude": "-89.97939145633315",
    "latitude": "30.044947386062912",
    "geocoded_column": {
      "latitude": "30.044947386062912",
      "longitude": "-89.97939145633315"
    }
  },
  {
    "service_request": "2025-1189521",
    "request_type": "Parks & Parkways",
    "request_reason": "Request Tree Service (Right of Way/Public Property)",
    "date_created": "2025-05-05T14:07:19.000",
    "date_modified": "2025-05-05T14:07:21.000",
    "request_status": "Pending",
    "responsible_agency": "Department of Parks & Parkway",
    "final_address": "911 Opelousas Ave",
    "address_councildis": "C",
    "status": "Pending",
    "rowid": "1189521",
    "final_x": "3688271.9414",
    "final_y": "528941.25568",
    "longitude": "-90.04677845521766",
    "latitude": "29.948197671637747",
    "geocoded_column": {
      "latitude": "29.948197671637747",
      "longitude": "-90.04677845521766"
    }
  },
  {
    "service_request": "2025-1189520",
    "request_type": "Trash/Recycling",
    "request_reason": "Request a Large Item Pick Up",
    "date_created": "2025-05-05T14:05:35.000",
    "date_modified": "2025-05-05T14:05:36.000",
    "request_status": "Pending",
    "responsible_agency": "Department of Sanitation",
    "final_address": "5600 Maple Ridge Dr",
    "address_councildis": "E",
    "status": "Assigned to Contractor",
    "contractor": "Waste Pro",
    "rowid": "1189520",
    "final_x": "3724354.34726",
    "final_y": "564187.658977",
    "longitude": "-89.93149168123658",
    "latitude": "30.043948116641438",
    "geocoded_column": {
      "latitude": "30.043948116641438",
      "longitude": "-89.93149168123658"
    }
  },
  {
    "service_request": "2025-1189519",
    "request_type": "Trash/Recycling",
    "request_reason": "Request a Large Item Pick Up",
    "date_created": "2025-05-05T14:05:29.000",
    "date_modified": "2025-05-05T17:43:03.000",
    "case_close_date": "2025-05-05T12:43:01.000",
    "request_status": "Closed",
    "responsible_agency": "Department of Sanitation",
    "final_address": "4726 Arthur Dr",
    "address_councildis": "E",
    "status": "Duplicate Request",
    "contractor": "Waste Pro",
    "contractor_action": "Duplicate",
    "rowid": "1189519",
    "final_x": "3707627.04644",
    "final_y": "555390.749465",
    "longitude": "-89.98468409153244",
    "latitude": "30.020312163045695",
    "geocoded_column": {
      "latitude": "30.020312163045695",
      "longitude": "-89.98468409153244"
    }
  },
  {
    "service_request": "2025-1189518",
    "request_type": "Trash/Recycling",
    "request_reason": "Missed Trash Pick-Up",
    "date_created": "2025-05-05T14:03:56.000",
    "date_modified": "2025-05-05T14:03:58.000",
    "request_status": "Pending",
    "responsible_agency": "Department of Sanitation",
    "final_address": "6920 W Laverne St",
    "address_councildis": "D",
    "status": "Assigned to Contractor",
    "contractor": "Waste Pro",
    "rowid": "1189518",
    "final_x": "3695988.98032",
    "final_y": "556246.184026",
    "longitude": "-90.02142566040584",
    "latitude": "30.023035792313607",
    "geocoded_column": {
      "latitude": "30.023035792313607",
      "longitude": "-90.02142566040584"
    }
  },
  {
    "service_request": "2025-1189517",
    "request_type": "Trash/Recycling",
    "request_reason": "Request a Large Item Pick Up",
    "date_created": "2025-05-05T14:03:43.000",
    "date_modified": "2025-05-05T14:03:45.000",
    "request_status": "Pending",
    "responsible_agency": "Department of Sanitation",
    "final_address": "70 Hawk St",
    "address_councildis": "D",
    "status": "Assigned to Contractor",
    "contractor": "IV Waste",
    "rowid": "1189517",
    "final_x": "3672888.04148",
    "final_y": "555595.366873",
    "longitude": "-90.09444188606945",
    "latitude": "30.021953297044817",
    "geocoded_column": {
      "latitude": "30.021953297044817",
      "longitude": "-90.09444188606945"
    }
  },