[
  {
    "service_request": "2023-972956",
    "request_type": "Trash/Recycling",
    "request_reason": "Replace Recycling Cart",
    "date_created": "2023-02-05T00:58:18.000",
    "date_modified": "2023-02-05T00:58:18.000",
    "request_status": "Pending",
    "responsible_agency": "Department of Sanitation",
    "final_address": "7160 E Tamaron Blvd",
    "address_councildis": "E",
    "status": "Pending",
    "rowid": "972956",
    "final_x": "3718289.69036",
    "final_y": "569196.475238",
    "longitude": "-89.9504673882969",
    "latitude": "30.05792291461093",
    "geocoded_column": {
      "latitude": "30.05792291461093",
      "longitude": "-89.9504673882969"
    }
  },
  {
    "service_request": "2023-972955",
    "request_type": "Traffic Signals/Signs/Striping/Streetlights",
    "request_reason": "Street Light Outage/Malfunction",
    "date_created": "2023-02-05T00:36:51.000",
    "date_modified": "2023-02-05T00:36:52.000",
    "request_status": "Pending",
    "responsible_agency": "Department of Public Works",
    "final_address": "2630 N Rocheblave St",
    "address_councildis": "D",
    "status": "Assigned to Contractor",
    "contractor": "Legacy Professional Services",
    "rowid": "972955",
    "final_x": "3686731.36809",
    "final_y": "541223.70766",
    "longitude": "-90.05120873189392",
    "latitude": "29.9820176221143",
    "geocoded_column": {
      "latitude": "29.9820176221143",
      "longitude": "-90.05120873189392"
    }
  },
  {
    "service_request": "2023-972954",
    "request_type": "Health Related Request",
    "request_reason": "Noise Ordinance Complaint",
    "date_created": "2023-02-04T23:29:11.000",
    "date_modified": "2023-02-04T23:29:12.000",
    "request_status": "Pending",
    "responsible_agency": "Health Department",
    "final_address": "2301 Chartres St",
    "address_councildis": "C",
    "status": "Pending",
    "rowid": "972954",
    "final_x": "3685589.39062",
    "final_y": "534573.053637",
    "longitude": "-90.05504997644546",
    "latitude": "29.963765732527133",
    "geocoded_column": {
      "latitude": "29.963765732527133",
      "longitude": "-90.05504997644546"
    }
  },
  {
    "service_request": "2023-972953",
    "request_type": "Health Related Request",
    "request_reason": "Noise Ordinance Complaint",
    "date_created": "2023-02-04T23:15:32.000",
    "date_modified": "2023-02-04T23:15:32.000",
    "request_status": "Pending",
    "responsible_agency": "Health Department",
    "final_address": "1705 Joseph Guillaume Pl",
    "address_councildis": "C",
    "status": "Pending",
    "rowid": "972953",
    "final_x": "3683262.71234",
    "final_y": "535963.646791",
    "longitude": "-90.06234867879266",
    "latitude": "29.96766054986212",
    "geocoded_column": {
      "latitude": "29.96766054986212",
      "longitude": "-90.06234867879266"
    }
  },
  {
    "service_request": "2023-972952",
    "request_type": "Health Related Request",
    "request_reason": "Noise Ordinance Complaint",
    "date_created": "2023-02-04T23:12:36.000",
    "date_modified": "2023-02-04T23:12:36.000",
    "request_status": "Pending",
    "responsible_agency": "Health Department",
    "final_address": "1717 Joseph Guillaume Pl",
    "address_councildis": "C",
    "status": "Pending",
    "rowid": "972952",
    "final_x": "3683300.91599",
    "final_y": "535984.264327",
    "longitude": "-90.06222730857968",
    "latitude": "29.967716075713543",
    "geocoded_column": {
      "latitude": "29.967716075713543",
      "longitude": "-90.06222730857968"
    }
  },
  {
    "service_request": "2023-972951",
    "request_type": "Health Related Request",
    "request_reason": "Noise Ordinance Complaint",
    "date_created": "2023-02-04T23:09:58.000",
    "date_modified": "2023-02-04T23:09:58.000",
    "request_status": "Pending",
    "responsible_agency": "Health Department",
    "final_address": "1705 Joseph Guillaume Pl",
    "address_councildis": "C",
    "status": "Pending",
    "rowid": "972951",
    "final_x": "3683262.71234",
    "final_y": "535963.646791",
    "longitude": "-90.06234867879266",
    "latitude": "29.96766054986212",
    "geocoded_column": {
      "latitude": "29.96766054986212",
      "longitude": "-90.06234867879266"
    }
  },
  {
    "service_request": "2023-972950",
    "request_type": "Health Related Request",
    "request_reason": "Noise Ordinance Complaint",
    "date_created": "2023-02-04T23:07:33.000",
    "date_modified": "2023-02-04T23:07:33.000",
    "request_status": "Pending",
    "responsible_agency": "Health Department",
    "final_address": "1717 Joseph Guillaume Pl",
    "address_councildis": "C",
    "status": "Pending",
    "rowid": "972950",
    "final_x": "3683300.91599",
    "final_y": "535984.264327",
    "longitude": "-90.06222730857968",
    "latitude": "29.967716075713543",
    "geocoded_column": {
      "latitude": "29.967716075713543",
      "longitude": "-90.06222730857968"
    }
  },
  {
    "service_request": "2023-972949",
    "request_type": "Health Related Request",
    "request_reason": "Noise Ordinance Complaint",
    "date_created": "2023-02-04T23:05:34.000",
    "date_modified": "2023-02-04T23:05:34.000",
    "request_status": "Pending",
    "responsible_agency": "Health Department",
    "final_address": "1700 Joseph Guillaume Pl",
    "address_councildis": "C",
    "status": "Pending",
    "rowid": "972949",
    "final_x": "3683386.28796",
    "final_y": "535897.179015",
    "longitude": "-90.06196075343972",
    "latitude": "29.967474016842644",
    "geocoded_column": {
      "latitude": "29.967474016842644",
      "longitude": "-90.06196075343972"
    }
  },
  {
    "service_request": "2023-972948",
    "request_type": "Mayor's Request",
    "request_reason": "Requests to the Mayor",
    "date_created": "2023-02-04T23:03:50.000",
    "date_modified": "2023-02-04T23:03:50.000",
    "request_status": "Pending",
    "responsible_agency": "Executive Office of the Mayor",
    "final_address": "2124 Burgundy St",
    "address_councildis": "C",
    "status": "Pending",
    "rowid": "972948",
    "final_x": "3684875.93609",
    "final_y": "535540.749062",
    "longitude": "-90.05726895990139",
    "latitude": "29.96644842625025",
    "geocoded_column": {
      "latitude": "29.96644842625025",
      "longitude": "-90.05726895990139"
    }
  },
  {
    "service_request": "2023-972947",
    "request_type": "Traffic Signals/Signs/Striping/Streetlights",
    "request_reason": "Street Light Outage/Malfunction",
    "date_created": "2023-02-04T23:00:09.000",
    "date_modified": "2023-02-04T23:00:09.000",
    "request_status": "Pending",
    "responsible_agency": "Department of Public Works",
    "final_address": "3706 Carondelet St",
    "address_councildis": "B",
    "status": "Assigned to Contractor",
    "contractor": "Legacy Professional Services",
    "rowid": "972947",
    "final_x": "3672944.28769",
    "final_y": "521472.880121",
    "longitude": "-90.0954289740758",
    "latitude": "29.92812638630955",
    "geocoded_column": {
      "latitude": "29.92812638630955",
      "longitude": "-90.0954289740758"
    }
  },
  {
    "service_request": "2023-972946",
    "request_type": "Traffic Signals/Signs/Striping/Streetlights",
    "request_reason": "Traffic Sign Missing/Damaged",
    "date_created": "2023-02-04T21:32:00.000",
    "date_modified": "2023-02-04T21:32:00.000",
    "request_status": "Pending",
    "responsible_agency": "Department of Public Works",
    "final_address": "3601 Nashville Ave",
    "address_councildis": "A",
    "status": "Pending",
    "rowid": "972946",
    "final_x": "3668331.55188",
    "final_y": "528788.204672",
    "longitude": "-90.1097437883665",
    "latitude": "29.948377394799227",
    "geocoded_column": {
      "latitude": "29.948377394799227",
      "longitude": "-90.1097437883665"
    }
  },
  {
    "service_request": "2023-972945",
    "request_type": "Abandoned Vehicles",
    "request_reason": "Abandoned/Junk Vehicles",
    "date_created": "2023-02-04T20:42:06.000",
    "date_modified": "2023-02-04T20:42:06.000",
    "request_status": "Pending",
    "responsible_agency": "Department of Public Works",
    "final_address": "2214 Robert St",
    "address_councildis": "B",
    "status": "Pending",
    "rowid": "972945",
    "final_x": "3668737.68852",
    "final_y": "523681.907899",
    "longitude": "-90.10863376566114",
    "latitude": "29.934324797843676",
    "geocoded_column": {
      "latitude": "29.934324797843676",
      "longitude": "-90.10863376566114"
    }
  },
  {
    "service_request": "2023-972944",
    "request_type": "Safety & Permits",
    "request_reason": "Licenses & Permits",
    "date_created": "2023-02-04T20:23:15.000",
    "date_modified": "2023-02-04T20:23:16.000",
    "request_status": "Pending",
    "responsible_agency": "Safety and Permits",
    "final_address": "8000 BLK Hickory St",
    "address_councildis": "A",
    "status": "Pending",
    "rowid": "972944",
    "final_x": "3663592.99988",
    "final_y": "529738.948512",
    "longitude": "-90.12467376660436",
    "latitude": "29.951129918723797",
    "geocoded_column": {
      "latitude": "29.951129918723797",
      "longitude": "-90.12467376660436"
    }
  },
  {
    "service_request": "2023-972943",
    "request_type": "Trash/Recycling",
    "request_reason": "Missed Trash Pick-Up",
    "date_created": "2023-02-04T20:09:43.000",
    "date_modified": "2023-02-04T20:09:44.000",
    "request_status": "Pending",
    "responsible_agency": "Department of Sanitation",
    "final_address": "7924 S Claiborne Ave",
    "address_councildis": "A",
    "status": "Assigned to Contractor",
    "contractor": "Richards Disposal",
    "rowid": "972943",
    "final_x": "3665233.25901",
    "final_y": "531047.467714",
    "longitude": "-90.11945085398385",
    "latitude": "29.954680245335663",
    "geocoded_column": {
      "latitude": "29.954680245335663",
      "longitude": "-90.11945085398385"
    }
  },
  {
    "service_request": "2023-972942",
    "request_type": "Trash/Recycling",
    "request_reason": "Request a Large Item Pick Up",
    "date_created": "2023-02-04T20:01:44.000",
    "date_modified": "2023-02-04T20:01:44.000",
    "request_status": "Pending",
    "responsible_agency": "Department of Sanitation",
    "final_address": "1674 N Miro St",
    "address_councildis": "D",
    "status": "Assigned to Contractor",
    "contractor": "IV Waste",
    "rowid": "972942",
    "final_x": "3680908.70088",
    "final_y": "539564.54849",
    "longitude": "-90.0696572897941",
    "latitude": "29.97763337267232",
    "geocoded_column": {
      "latitude": "29.97763337267232",
      "longitude": "-90.0696572897941"
    }
  },
  {
    "service_request": "2023-972941",
    "request_type": "Traffic Signals/Signs/Striping/Streetlights",
    "request_reason": "Street Light Outage/Malfunction",
    "date_created": "2023-02-04T19:26:37.000",
    "date_modified": "2023-02-04T19:26:37.000",
    "request_status": "Pending",
    "responsible_agency": "Department of Public Works",
    "final_address": "5680 Tullis Dr",
    "address_councildis": "C",
    "status": "Assigned to Contractor",
    "contractor": "Legacy Professional Services",
    "rowid": "972941",
    "final_x": "3704969.82443",
    "final_y": "512636.909041",
    "longitude": "-89.99465825684972",
    "latitude": "29.902840312997704",
    "geocoded_column": {
      "latitude": "29.902840312997704",
      "longitude": "-89.99465825684972"
    }
  },
  {
    "service_request": "2023-972940",
    "request_type": "Abandoned Vehicles",
    "request_reason": "Abandoned/Junk Vehicles",
    "date_created": "2023-02-04T19:14:19.000",
    "date_modified": "2023-02-04T19:14:19.000",
    "request_status": "Pending",
    "responsible_agency": "Department of Public Works",
    "final_address": "2340 St Thomas St",
    "address_councildis": "B",
    "status": "Pending",
    "rowid": "972940",
    "final_x": "3679403.95912",
    "final_y": "520172.5742",
    "longitude": "-90.07508232597426",
    "latitude": "29.924357498047712",
    "geocoded_column": {
      "latitude": "29.924357498047712",
      "longitude": "-90.07508232597426"
    }
  },
  {
    "service_request": "2023-972939",
    "request_type": "Traffic Signals/Signs/Striping/Streetlights",
    "request_reason": "Street Light Outage/Malfunction",
    "date_created": "2023-02-04T19:04:28.000",
    "date_modified": "2023-02-04T19:04:29.000",
    "request_status": "Pending",
    "responsible_agency": "Department of Public Works",
    "final_address": "5688 Tullis Dr",
    "address_councildis": "C",
    "status": "Assigned to Contractor",
    "contractor": "Legacy Professional Services",
    "rowid": "972939",
    "final_x": "3704997.4979",
    "final_y": "512660.246449",
    "longitude": "-89.99457006025399",
    "latitude": "29.90290359391107",
    "geocoded_column": {
      "latitude": "29.90290359391107",
      "longitude": "-89.99457006025399"
    }
  },
  {
    "service_request": "2023-972938",
    "request_type": "Abandoned Vehicles",
    "request_reason": "Vehicle Blocking Your Driveway",
    "date_created": "2023-02-04T18:50:13.000",
    "date_modified": "2023-02-04T18:50:34.000",
    "request_status": "Pending",
    "responsible_agency": "Department of Public Works",
    "final_address": "1011 Frenchmen St",
    "address_councildis": "C",
    "status": "Pending",
    "rowid": "972938",
    "final_x": "3684644.04482",
    "final_y": "536035.603655",
    "longitude": "-90.05798387445755",
    "latitude": "29.96781620387111",
    "geocoded_column": {
      "latitude": "29.96781620387111",
      "longitude": "-90.05798387445755"
    }
  },
  {
    "service_request": "2023-972937",
    "request_type": "Trash/Recycling",
    "request_reason": "Request a Large Item Pick Up",
    "date_created": "2023-02-04T18:32:40.000",
    "date_modified": "2023-02-04T18:32:41.000",
    "request_status": "Pending",
    "responsible_agency": "Department of Sanitation",
    "final_address": "4332 S Prieur St",
    "address_councildis": "B",
    "status": "Assigned to Contractor",
    "contractor": "Richards Disposal",
    "rowid": "972937",
    "final_x": "3670478.83041",
    "final_y": "526858.922942",
    "longitude": "-90.10302932760075",
    "latitude": "29.943009275512352",
    "geocoded_column": {
      "latitude": "29.943009275512352",
      "longitude": "-90.10302932760075"
    }
  },
  {
    "service_request": "2023-972936",
    "request_type": "Trash/Recycling",
    "request_reason": "MIssed Recycling Pick-Up",
    "date_created": "2023-02-04T18:31:21.000",
    "date_modified": "2023-02-04T18:31:22.000",
    "request_status": "Pending",
    "responsible_agency": "Department of Sanitation",
    "final_address": "3801 Mistletoe St",
    "address_councildis": "A",
    "status": "Assigned to Contractor",
    "contractor": "Richards Disposal",
    "rowid": "972936",
    "final_x": "3665458.65978",
    "final_y": "537873.847561",
    "longitude": "-90.11851059474131",
    "latitude": "29.973443974601388",
    "geocoded_column": {
      "latitude": "29.973443974601388",
      "longitude": "-90.11851059474131"
    }
  },
  {
    "service_request": "2023-972935",
    "request_type": "Trash/Recycling",
    "request_reason": "Replace Trash Cart",
    "date_created": "2023-02-04T18:30:00.000",
    "date_modified": "2023-02-04T18:30:01.000",
    "request_status": "Pending",
    "responsible_agency": "Department of Sanitation",
    "final_address": "3700 S Liberty St",
    "address_councildis": "B",
    "status": "Assigned to Contractor",
    "contractor": "Richards Disposal",
    "rowid": "972935",
    "final_x": "3672505.96673",
    "final_y": "523552.462267",
    "longitude": "-90.09674181003618",
    "latitude": "29.933857580015424",
    "geocoded_column": {
      "latitude": "29.933857580015424",
      "longitude": "-90.09674181003618"
    }
  },
  {
    "service_request": "2023-972934",
    "request_type": "Trash/Recycling",
    "request_reason": "Repair Trash Cart",
    "date_created": "2023-02-04T18:29:59.000",
    "date_modified": "2023-02-04T18:30:00.000",
    "request_status": "Pending",
    "responsible_agency": "Department of Sanitation",
    "final_address": "4332 S Prieur St",
    "address_councildis": "B",
    "status": "Assigned to Contractor",
    "contractor": "Richards Disposal",
    "rowid": "972934",
    "final_x": "3670478.83041",
    "final_y": "526858.922942",
    "longitude": "-90.10302932760075",
    "latitude": "29.943009275512352",
    "geocoded_column": {
      "latitude": "29.943009275512352",
      "longitude": "-90.10302932760075"
    }
  },
  {
    "service_request": "2023-972932",
    "request_type": "Abandoned Vehicles",
    "request_reason": "Abandoned/Junk Vehicles",
    "date_created": "2023-02-04T18:25:56.000",
    "date_modified": "2023-02-04T18:25:56.000",
    "request_status": "Pending",
    "responsible_agency": "Department of Public Works",
    "final_address": "500 Wallace Dr",
    "address_councildis": "D",
    "status": "Pending",
    "rowid": "972932",
    "final_x": "3681554.26517",
    "final_y": "548516.24469",
    "longitude": "-90.06730599953283",
    "latitude": "30.002227786683438",
    "geocoded_column": {
      "latitude": "30.002227786683438",
      "longitude": "-90.06730599953283"
    }
  },
  {
    "service_request": "2023-972931",
    "request_type": "Trash/Recycling",
    "request_reason": "Request a Large Item Pick Up",
    "date_created": "2023-02-04T18:18:49.000",
    "date_modified": "2023-02-04T18:18:50.000",
    "request_status": "Pending",
    "responsible_agency": "Department of Sanitation",
    "final_address": "9037 Edinburgh St",
    "address_councildis": "A",
    "status": "Assigned to Contractor",
    "contractor": "Richards Disposal",
    "rowid": "972931",
    "final_x": "3664930.67348",
    "final_y": "536809.049864",
    "longitude": "-90.1202136954389",
    "latitude": "29.97053151565013",
    "geocoded_column": {
      "latitude": "29.97053151565013",
      "longitude": "-90.1202136954389"
    }
  },
  {
    "service_request": "2023-972930",
    "request_type": "Tax and Revenue",
    "request_reason": "General Tax Question",
    "date_created": "2023-02-04T18:13:01.000",
    "date_modified": "2023-02-04T18:13:01.000",
    "request_status": "Pending",
    "responsible_agency": "Bureau of Revenue",
    "status": "Pending",
    "rowid": "972930",
    "longitude": "0.0",
    "latitude": "0.0",
    "geocoded_column": {
      "latitude": "0.0",
      "longitude": "0.0"
    }
  },
  {
    "service_request": "2023-972929",
    "request_type": "Property Maintenance",
    "request_reason": "Property Maintenance",
    "date_created": "2023-02-04T18:09:05.000",
    "date_modified": "2023-02-04T18:09:05.000",
    "request_status": "Pending",
    "responsible_agency": "Department of Code Enforcement",
    "final_address": "1910 Stephen Girard St",
    "address_councildis": "D",
    "status": "Pending",
    "rowid": "972929",
    "final_x": "3681950.91669",
    "final_y": "548617.424019",
    "longitude": "-90.06604939597744",
    "latitude": "30.002493937135732",
    "geocoded_column": {
      "latitude": "30.002493937135732",
      "longitude": "-90.06604939597744"
    }
  },
  {
    "service_request": "2023-972928",
    "request_type": "Property Maintenance",
    "request_reason": "Property Maintenance",
    "date_created": "2023-02-04T18:09:04.000",
    "date_modified": "2023-02-04T18:09:04.000",
    "request_status": "Pending",
    "responsible_agency": "Department of Code Enforcement",
    "final_address": "1910 Stephen Girard St",
    "address_councildis": "D",
    "status": "Pending",
    "rowid": "972928",
    "final_x": "3681950.91669",
    "final_y": "548617.424019",
    "longitude": "-90.06604939597744",
    "latitude": "30.002493937135732",
    "geocoded_column": {
      "latitude": "30.002493937135732",
      "longitude": "-90.06604939597744"
    }
  },
  {
    "service_request": "2023-972927",
    "request_type": "Trash/Recycling",
    "request_reason": "Order Recycling Cart",
    "date_created": "2023-02-04T18:02:11.000",
    "date_modified": "2023-02-04T18:02:11.000",
    "request_status": "Pending",
    "responsible_agency": "Department of Sanitation",
    "final_address": "2520 Prytania St",
    "address_councildis": "B",
    "status": "Pending",
    "rowid": "972927",
    "final_x": "3676876.08801",
    "final_y": "522438.88665",
    "longitude": "-90.08298388379328",
    "latitude": "29.930665206235744",
    "geocoded_column": {
      "latitude": "29.930665206235744",
      "longitude": "-90.08298388379328"
    }
  },
  {
    "service_request": "2023-972926",
    "request_type": "Trash/Recycling",
    "request_reason": "Repair Trash Cart",
    "date_created": "2023-02-04T18:00:18.000",
    "date_modified": "2023-02-04T18:00:19.000",
    "request_status": "Pending",
    "responsible_agency": "Department of Sanitation",
    "final_address": "2520 Prytania St",
    "address_councildis": "B",
    "status": "Assigned to Contractor",
    "contractor": "Richards Disposal",
    "rowid": "972926",
    "final_x": "3676876.08801",
    "final_y": "522438.88665",
    "longitude": "-90.08298388379328",
    "latitude": "29.930665206235744",
    "geocoded_column": {
      "latitude": "29.930665206235744",
      "longitude": "-90.08298388379328"
    }
  },
  {
    "service_request": "2023-972924",
    "request_type": "Trash/Recycling",
    "request_reason": "Request a Large Item Pick Up",
    "date_created": "2023-02-04T17:36:17.000",
    "date_modified": "2023-02-04T17:36:23.000",
    "request_status": "Pending",
    "responsible_agency": "Department of Sanitation",
    "final_address": "2431 Dreux Ave",
    "address_councildis": "D",
    "status": "Assigned to Contractor",
    "contractor": "IV Waste",
    "rowid": "972924",
    "final_x": "3685536.4463",
    "final_y": "552184.492758",
    "longitude": "-90.05459651419716",
    "latitude": "30.012192554007722",
    "geocoded_column": {
      "latitude": "30.012192554007722",
      "longitude": "-90.05459651419716"
    }
  },
  {
    "service_request": "2023-972923",
    "request_type": "Roads/Drainage",
    "request_reason": "Pothole",
    "date_created": "2023-02-04T17:28:17.000",
    "date_modified": "2023-02-04T17:28:17.000",
    "request_status": "Pending",
    "responsible_agency": "Department of Public Works",
    "final_address": "7038 Milne Blvd",
    "address_councildis": "A",
    "status": "Pending",
    "rowid": "972923",
    "final_x": "3667599.45057",
    "final_y": "554356.155928",
    "longitude": "-90.1111943012857",
    "latitude": "30.01870207170555",
    "geocoded_column": {
      "latitude": "30.01870207170555",
      "longitude": "-90.1111943012857"
    }
  },
  {
    "service_request": "2023-972922",
    "request_type": "Trash/Recycling",
    "request_reason": "MIssed Recycling Pick-Up",
    "date_created": "2023-02-04T17:23:28.000",
    "date_modified": "2023-02-04T17:23:28.000",
    "request_status": "Pending",
    "responsible_agency": "Department of Sanitation",
    "final_address": "4935 Eunice Dr",
    "address_councildis": "E",
    "status": "Assigned to Contractor",
    "contractor": "Waste Pro",
    "rowid": "972922",
    "final_x": "3710491.94718",
    "final_y": "556991.430746",
    "longitude": "-89.9755720460466",
    "latitude": "30.024620381506185",
    "geocoded_column": {
      "latitude": "30.024620381506185",
      "longitude": "-89.9755720460466"
    }
  },
  {
    "service_request": "2023-972921",
    "request_type": "Roads/Drainage",
    "request_reason": "WaterMain Break",
    "date_created": "2023-02-04T17:18:10.000",
    "date_modified": "2023-02-04T17:18:11.000",
    "request_status": "Pending",
    "responsible_agency": "Department of Public Works",
    "final_address": "1453 N Miro St",
    "address_councildis": "D",
    "status": "Pending",
    "rowid": "972921",
    "final_x": "3679863.43925",
    "final_y": "538319.391945",
    "longitude": "-90.07300183702625",
    "latitude": "29.97424127800173",
    "geocoded_column": {
      "latitude": "29.97424127800173",
      "longitude": "-90.07300183702625"
    }
  },
  {
    "service_request": "2023-972920",
    "request_type": "Trash/Recycling",
    "request_reason": "Order Trash Cart",
    "date_created": "2023-02-04T16:46:50.000",
    "date_modified": "2023-02-04T16:46:51.000",
    "request_status": "Pending",
    "responsible_agency": "Department of Sanitation",
    "final_address": "2681 N Rocheblave St",
    "address_councildis": "D",
    "status": "Assigned to Contractor",
    "contractor": "IV Waste",
    "rowid": "972920",
    "final_x": "3687129.63785",
    "final_y": "541336.084236",
    "longitude": "-90.04994683269092",
    "latitude": "29.982314358346947",
    "geocoded_column": {
      "latitude": "29.982314358346947",
      "longitude": "-90.04994683269092"
    }
  },
  {
    "service_request": "2023-972919",
    "request_type": "Abandoned Vehicles",
    "request_reason": "Abandoned/Junk Vehicles",
    "date_created": "2023-02-04T16:43:12.000",
    "date_modified": "2023-02-04T16:43:13.000",
    "request_status": "Pending",
    "responsible_agency": "Department of Public Works",
    "final_address": "8600 Lake Forest Blvd",
    "address_councildis": "E",
    "status": "Pending",
    "rowid": "972919",
    "final_x": "3706233.01867",
    "final_y": "557882.382491",
    "longitude": "-89.98899638685525",
    "latitude": "30.027208226926486",
    "geocoded_column": {
      "latitude": "30.027208226926486",
      "longitude": "-89.98899638685525"
    }
  },
  {
    "service_request": "2023-972918",
    "request_type": "Abandoned Vehicles",
    "request_reason": "Vehicle Blocking Your Driveway",
    "date_created": "2023-02-04T16:38:52.000",
    "date_modified": "2023-02-04T16:38:53.000",
    "request_status": "Pending",
    "responsible_agency": "Department of Public Works",
    "final_address": "634 Esplanade Ave",
    "address_councildis": "C",
    "status": "Pending",
    "rowid": "972918",
    "final_x": "3684061.84425",
    "final_y": "534324.601541",
    "longitude": "-90.05988253008874",
    "latitude": "29.963129343568745",
    "geocoded_column": {
      "latitude": "29.963129343568745",
      "longitude": "-90.05988253008874"
    }
  },
  {
    "service_request": "2023-972917",
    "request_type": "Trash/Recycling",
    "request_reason": "Missed Trash Pick-Up",
    "date_created": "2023-02-04T16:25:54.000",
    "date_modified": "2023-02-04T16:25:55.000",
    "request_status": "Pending",
    "responsible_agency": "Department of Sanitation",
    "final_address": "125 N Hennessey St",
    "address_councildis": "A",
    "status": "Assigned to Contractor",
    "contractor": "Richards Disposal",
    "rowid": "972917",
    "final_x": "3670405.74004",
    "final_y": "539206.81697",
    "longitude": "-90.10284143754075",
    "latitude": "29.97696404602751",
    "geocoded_column": {
      "latitude": "29.97696404602751",
      "longitude": "-90.10284143754075"
    }
  },
  {
    "service_request": "2023-972916",
    "request_type": "Trash/Recycling",
    "request_reason": "Request a Large Item Pick Up",
    "date_created": "2023-02-04T16:00:23.000",
    "date_modified": "2023-02-04T16:00:24.000",
    "request_status": "Pending",
    "responsible_agency": "Department of Sanitation",
    "final_address": "14121 Knightway Dr",
    "address_councildis": "E",
    "status": "Assigned to Contractor",
    "contractor": "Waste Pro",
    "rowid": "972916",
    "final_x": "3718609.47071",
    "final_y": "570525.455911",
    "longitude": "-89.94940587651615",
    "latitude": "30.06156644296811",
    "geocoded_column": {
      "latitude": "30.06156644296811",
      "longitude": "-89.94940587651615"
    }
  },
  {
    "service_request": "2023-972915",
    "request_type": "Roads/Drainage",
    "request_reason": "Man hole cover issue",
    "date_created": "2023-02-04T15:27:40.000",
    "date_modified": "2023-02-04T15:27:41.000",
    "request_status": "Pending",
    "responsible_agency": "Department of Public Works",
    "final_address": "70 Neron Pl",
    "address_councildis": "A",
    "status": "Pending",
    "rowid": "972915",
    "final_x": "3665851.05588",
    "final_y": "529959.802945",
    "longitude": "-90.11753652322378",
    "latitude": "29.951671510540944",
    "geocoded_column": {
      "latitude": "29.951671510540944",
      "longitude": "-90.11753652322378"
    }
  },
  {
    "service_request": "2023-972914",
    "request_type": "Trash/Recycling",
    "request_reason": "Missed Trash Pick-Up",
    "date_created": "2023-02-04T14:58:13.000",
    "date_modified": "2023-02-04T14:58:13.000",
    "request_status": "Pending",
    "responsible_agency": "Department of Sanitation",
    "final_address": "3320 Short St",
    "address_councildis": "B",
    "status": "Assigned to Contractor",
    "contractor": "Richards Disposal",
    "rowid": "972914",
    "final_x": "3667425.92276",
    "final_y": "533758.928389",
    "longitude": "-90.11243601791662",
    "latitude": "29.962071817908797",
    "geocoded_column": {
      "latitude": "29.962071817908797",
      "longitude": "-90.11243601791662"
    }
  },
  {
    "service_request": "2023-972913",
    "request_type": "Trash/Recycling",
    "request_reason": "Missed Trash Pick-Up",
    "date_created": "2023-02-04T14:56:34.000",
    "date_modified": "2023-02-04T14:56:34.000",
    "request_status": "Pending",
    "responsible_agency": "Department of Sanitation",
    "final_address": "2527 Eagle St",
    "address_councildis": "A",
    "status": "Assigned to Contractor",
    "contractor": "Richards Disposal",
    "rowid": "972913",
    "final_x": "3663464.16557",
    "final_y": "533648.775237",
    "longitude": "-90.124950371683",
    "latitude": "29.961884408713747",
    "geocoded_column": {
      "latitude": "29.961884408713747",
      "longitude": "-90.124950371683"
    }
  },
  {
    "service_request": "2023-972912",
    "request_type": "Abandoned Vehicles",
    "request_reason": "Vehicle Blocking Your Driveway",
    "date_created": "2023-02-04T14:36:21.000",
    "date_modified": "2023-02-04T14:36:21.000",
    "request_status": "Pending",
    "responsible_agency": "Department of Public Works",
    "final_address": "825 Lafayette St",
    "address_councildis": "B",
    "status": "Pending",
    "rowid": "972912",
    "final_x": "3680023.26549",
    "final_y": "529078.1024",
    "longitude": "-90.07281813930165",
    "latitude": "29.94882604087949",
    "geocoded_column": {
      "latitude": "29.94882604087949",
      "longitude": "-90.07281813930165"
    }
  },
  {
    "service_request": "2023-972911",
    "request_type": "Trash/Recycling",
    "request_reason": "Order Recycling Cart",
    "date_created": "2023-02-04T14:28:34.000",
    "date_modified": "2023-02-04T14:28:34.000",
    "request_status": "Pending",
    "responsible_agency": "Department of Sanitation",
    "final_address": "1139 Royal St Unit D",
    "address_councildis": "C",
    "status": "Pending",
    "rowid": "972911",
    "final_x": "3683572.21404",
    "final_y": "533901.338245",
    "longitude": "-90.06144355870101",
    "latitude": "29.961980468361737",
    "geocoded_column": {
      "latitude": "29.961980468361737",
      "longitude": "-90.06144355870101"
    }
  },
  {
    "service_request": "2023-972910",
    "request_type": "Trash/Recycling",
    "request_reason": "MIssed Recycling Pick-Up",
    "date_created": "2023-02-04T14:16:50.000",
    "date_modified": "2023-02-04T14:16:51.000",
    "request_status": "Pending",
    "responsible_agency": "Department of Sanitation",
    "final_address": "3122 Hamilton St",
    "address_councildis": "A",
    "status": "Assigned to Contractor",
    "contractor": "Richards Disposal",
    "rowid": "972910",
    "final_x": "3664036.48359",
    "final_y": "535942.806919",
    "longitude": "-90.12306655849386",
    "latitude": "29.96817563412154",
    "geocoded_column": {
      "latitude": "29.96817563412154",
      "longitude": "-90.12306655849386"
    }
  },
  {
    "service_request": "2023-972909",
    "request_type": "Parks & Parkways",
    "request_reason": "Request Tree Service (Right of Way/Public Property)",
    "date_created": "2023-02-04T14:07:33.000",
    "date_modified": "2023-02-04T14:07:33.000",
    "request_status": "Pending",
    "responsible_agency": "Department of Parks & Parkway",
    "final_address": "3709 Delgado Dr",
    "address_councildis": "A",
    "status": "Pending",
    "rowid": "972909",
    "final_x": "3674226.93236",
    "final_y": "540593.509131",
    "longitude": "-90.09072537909883",
    "latitude": "29.980663589728863",
    "geocoded_column": {
      "latitude": "29.980663589728863",
      "longitude": "-90.09072537909883"
    }
  },
  {
    "service_request": "2023-972908",
    "request_type": "Traffic Signals/Signs/Striping/Streetlights",
    "request_reason": "Traffic Signal Malfunctioning/Damaged",
    "date_created": "2023-02-04T13:47:02.000",
    "date_modified": "2023-02-04T13:47:02.000",
    "request_status": "Pending",
    "responsible_agency": "Department of Public Works",
    "final_address": "1723 General De Gaulle Dr",
    "address_councildis": "C",
    "status": "Pending",
    "rowid": "972908",
    "final_x": "3690417.13795",
    "final_y": "522480.26137",
    "longitude": "-90.0402354322304",
    "latitude": "29.9303657336621",
    "geocoded_column": {
      "latitude": "29.9303657336621",
      "longitude": "-90.0402354322304"
    }
  },
  {
    "service_request": "2023-972907",
    "request_type": "Traffic Signals/Signs/Striping/Streetlights",
    "request_reason": "Traffic Sign Missing/Damaged",
    "date_created": "2023-02-04T13:41:16.000",
    "date_modified": "2023-02-04T13:41:16.000",
    "request_status": "Pending",
    "responsible_agency": "Department of Public Works",
    "final_address": "DUBLIN ST & WILLOW ST",
    "address_councildis": "A",
    "status": "Pending",
    "rowid": "972907",
    "final_x": "3662182.1",
    "final_y": "529126.58",
    "longitude": "-90.12914902804255",
    "latitude": "29.949486948638548",
    "geocoded_column": {
      "latitude": "29.949486948638548",
      "longitude": "-90.12914902804255"
    }
  },
  {
    "service_request": "2023-972906",
    "request_type": "Trash/Recycling",
    "request_reason": "Request a Large Item Pick Up",
    "date_created": "2023-02-04T13:33:14.000",
    "date_modified": "2023-02-04T13:33:15.000",
    "request_status": "Pending",
    "responsible_agency": "Department of Sanitation",
    "final_address": "6027 Memphis St",
    "address_councildis": "A",
    "status": "Assigned to Contractor",
    "contractor": "IV Waste",
    "rowid": "972906",
    "final_x": "3669300.14554",
    "final_y": "547434.948881",
    "longitude": "-90.10605492761229",
    "latitude": "29.99962119380741",
    "geocoded_column": {
      "latitude": "29.99962119380741",
      "longitude": "-90.10605492761229"
    }
  },
  {
    "service_request": "2023-972905",
    "request_type": "Trash/Recycling",
    "request_reason": "Request a Large Item Pick Up",
    "date_created": "2023-02-04T13:12:29.000",
    "date_modified": "2023-02-04T13:12:30.000",
    "request_status": "Pending",
    "responsible_agency": "Department of Sanitation",
    "final_address": "2749 Verbena St",
    "address_councildis": "D",
    "status": "Assigned to Contractor",
    "contractor": "IV Waste",
    "rowid": "972905",
    "final_x": "3688084.73379",
    "final_y": "547923.978002",
    "longitude": "-90.04669653576595",
    "latitude": "30.000399252791393",
    "geocoded_column": {
      "latitude": "30.000399252791393",
      "longitude": "-90.04669653576595"
    }
  },
  {
    "service_request": "2023-972904",
    "request_type": "Trash/Recycling",
    "request_reason": "MIssed Recycling Pick-Up",
    "date_created": "2023-02-04T12:53:11.000",
    "date_modified": "2023-02-04T12:53:11.000",
    "request_status": "Pending",
    "responsible_agency": "Department of Sanitation",
    "final_address": "4520 S Saratoga St",
    "address_councildis": "B",
    "status": "Assigned to Contractor",
    "contractor": "Richards Disposal",
    "rowid": "972904",
    "final_x": "3670086.98586",
    "final_y": "522548.54137",
    "longitude": "-90.1044124369227",
    "latitude": "29.931168680267056",
    "geocoded_column": {
      "latitude": "29.931168680267056",
      "longitude": "-90.1044124369227"
    }
  },
  {
    "service_request": "2023-972903",
    "request_type": "Trash/Recycling",
    "request_reason": "Illegal Dumping",
    "date_created": "2023-02-04T12:27:26.000",
    "date_modified": "2023-02-04T12:27:27.000",
    "request_status": "Pending",
    "responsible_agency": "Department of Code Enforcement",
    "final_address": "811 Bourbon St",
    "address_councildis": "C",
    "status": "Pending",
    "rowid": "972903",
    "final_x": "3682543.06274",
    "final_y": "533079.760772",
    "longitude": "-90.0647221797152",
    "latitude": "29.95975278230669",
    "geocoded_column": {
      "latitude": "29.95975278230669",
      "longitude": "-90.0647221797152"
    }
  },
  {
    "service_request": "2023-972902",
    "request_type": "Trash/Recycling",
    "request_reason": "MIssed Recycling Pick-Up",
    "date_created": "2023-02-04T12:08:35.000",
    "date_modified": "2023-02-04T12:08:35.000",
    "request_status": "Pending",
    "responsible_agency": "Department of Sanitation",
    "final_address": "1607 Pine St",
    "address_councildis": "A",
    "status": "Assigned to Contractor",
    "contractor": "Richards Disposal",
    "rowid": "972902",
    "final_x": "3664824.95968",
    "final_y": "527862.477375",
    "longitude": "-90.12084653058926",
    "latitude": "29.945934439308413",
    "geocoded_column": {
      "latitude": "29.945934439308413",
      "longitude": "-90.12084653058926"
    }
  },
  {
    "service_request": "2023-972901",
    "request_type": "Trash/Recycling",
    "request_reason": "Dead Animal Pick Up",
    "date_created": "2023-02-04T11:54:20.000",
    "date_modified": "2023-02-04T11:54:20.000",
    "request_status": "Pending",
    "responsible_agency": "Department of Sanitation",
    "final_address": "9700 BLK Chef Menteur Hwy",
    "address_councildis": "E",
    "status": "Assigned to Contractor",
    "contractor": "Waste Pro",
    "rowid": "972901",
    "final_x": "3711759.78543",
    "final_y": "554435.136324",
    "longitude": "-89.97166192447942",
    "latitude": "30.017550205588506",
    "geocoded_column": {
      "latitude": "30.017550205588506",
      "longitude": "-89.97166192447942"
    }
  },
  {
    "service_request": "2023-972900",
    "request_type": "Trash/Recycling",
    "request_reason": "MIssed Recycling Pick-Up",
    "date_created": "2023-02-04T11:41:37.000",
    "date_modified": "2023-02-04T11:41:38.000",
    "request_status": "Pending",
    "responsible_agency": "Department of Sanitation",
    "final_address": "2332 Burdette St",
    "address_councildis": "A",
    "status": "Assigned to Contractor",
    "contractor": "Richards Disposal",
    "rowid": "972900",
    "final_x": "3665546.20212",
    "final_y": "530691.749122",
    "longitude": "-90.11847460518739",
    "latitude": "29.95369301541521",
    "geocoded_column": {
      "latitude": "29.95369301541521",
      "longitude": "-90.11847460518739"
    }
  },
  {
    "service_request": "2023-972899",
    "request_type": "Property Maintenance",
    "request_reason": "Property Maintenance",
    "date_created": "2023-02-04T11:37:22.000",
    "date_modified": "2023-02-04T11:37:24.000",
    "request_status": "Pending",
    "responsible_agency": "Department of Code Enforcement",
    "final_address": "2124 Thalia St",
    "address_councildis": "B",
    "status": "Pending",
    "rowid": "972899",
    "final_x": "3677520.14139",
    "final_y": "526925.154366",
    "longitude": "-90.08079588739855",
    "latitude": "29.942981627250102",
    "geocoded_column": {
      "latitude": "29.942981627250102",
      "longitude": "-90.08079588739855"
    }
  },
  {
    "service_request": "2023-972898",
    "request_type": "Abandoned Vehicles",
    "request_reason": "Vehicle Blocking Your Driveway",
    "date_created": "2023-02-04T11:34:51.000",
    "date_modified": "2023-02-04T16:56:33.000",
    "request_status": "Pending",
    "responsible_agency": "Department of Public Works",
    "final_address": "2030 Saint Claude Ave, New Orleans, Louisiana, 70116",
    "address_councildis": "C",
    "status": "Pending",
    "rowid": "972898",
    "final_x": "3684497.24565",
    "final_y": "536192.891783",
    "longitude": "-90.05844194322374",
    "latitude": "29.96825318360731",
    "geocoded_column": {
      "latitude": "29.96825318360731",
      "longitude": "-90.05844194322374"
    }
  },
  {
    "service_request": "2023-972897",
    "request_type": "Abandoned Vehicles",
    "request_reason": "Abandoned/Junk Vehicles",
    "date_created": "2023-02-04T11:27:41.000",
    "date_modified": "2023-02-04T11:27:42.000",
    "request_status": "Pending",
    "responsible_agency": "Department of Public Works",
    "final_address": "MARIGNY ST & MEXICO ST",
    "address_councildis": "D",
    "status": "Pending",
    "rowid": "972897",
    "final_x": "3683822.5",
    "final_y": "556174.48",
    "longitude": "-90.0598715068219",
    "latitude": "30.0232160383869",
    "geocoded_column": {
      "latitude": "30.0232160383869",
      "longitude": "-90.0598715068219"
    }
  },
  {
    "service_request": "2023-972896",
    "request_type": "Mosquito, Termite & Rodent Control",
    "request_reason": "Non-Rodent Complaint (Mice, Possums, Snakes)",
    "date_created": "2023-02-04T11:22:53.000",
    "date_modified": "2023-02-04T11:22:53.000",
    "request_status": "Pending",
    "responsible_agency": "Mosquito, Termite & Rodent Control Board",
    "final_address": "1210 N Miro St",
    "address_councildis": "D",
    "status": "Pending",
    "rowid": "972896",
    "final_x": "3679286.99765",
    "final_y": "537428.43924",
    "longitude": "-90.07485327840406",
    "latitude": "29.971808885921693",
    "geocoded_column": {
      "latitude": "29.971808885921693",
      "longitude": "-90.07485327840406"
    }
  },
  {
    "service_request": "2023-972895",
    "request_type": "Property Maintenance",
    "request_reason": "Property Maintenance",
    "date_created": "2023-02-04T11:20:32.000",
    "date_modified": "2023-02-04T11:20:32.000",
    "request_status": "Pending",
    "responsible_agency": "Department of Code Enforcement",
    "final_address": "2117 Annunciation St",
    "address_councildis": "B",
    "status": "Pending",
    "rowid": "972895",
    "final_x": "3679712.52507",
    "final_y": "521390.546425",
    "longitude": "-90.07406603682357",
    "latitude": "29.92769720327693",
    "geocoded_column": {
      "latitude": "29.92769720327693",
      "longitude": "-90.07406603682357"
    }
  },
  {
    "service_request": "2023-972894",
    "request_type": "Trash/Recycling",
    "request_reason": "Missed Trash Pick-Up",
    "date_created": "2023-02-04T11:20:20.000",
    "date_modified": "2023-02-04T11:20:20.000",
    "request_status": "Pending",
    "responsible_agency": "Department of Sanitation",
    "final_address": "1311 S Gayoso St",
    "address_councildis": "B",
    "status": "Assigned to Contractor",
    "contractor": "Richards Disposal",
    "rowid": "972894",
    "final_x": "3671000.4962",
    "final_y": "531198.921474",
    "longitude": "-90.10123495736056",
    "latitude": "29.954927436514144",
    "geocoded_column": {
      "latitude": "29.954927436514144",
      "longitude": "-90.10123495736056"
    }
  },
  {
    "service_request": "2023-972893",
    "request_type": "Trash/Recycling",
    "request_reason": "Illegal Dumping",
    "date_created": "2023-02-04T11:18:58.000",
    "date_modified": "2023-02-04T11:18:58.000",
    "request_status": "Pending",
    "responsible_agency": "Department of Sanitation",
    "final_address": "1401 S Gayoso St",
    "address_councildis": "B",
    "status": "Pending",
    "rowid": "972893",
    "final_x": "3670883.90881",
    "final_y": "531063.941186",
    "longitude": "-90.10160767881328",
    "latitude": "29.95455973184467",
    "geocoded_column": {
      "latitude": "29.95455973184467",
      "longitude": "-90.10160767881328"
    }
  },
  {
    "service_request": "2023-972892",
    "request_type": "Traffic Signals/Signs/Striping/Streetlights",
    "request_reason": "Additional signage",
    "date_created": "2023-02-04T10:52:43.000",
    "date_modified": "2023-02-04T10:52:43.000",
    "request_status": "Pending",
    "responsible_agency": "Department of Public Works",
    "final_address": "11612 Pressburg St",
    "address_councildis": "E",
    "status": "Pending",
    "rowid": "972892",
    "final_x": "3718449.66668",
    "final_y": "557679.566683",
    "longitude": "-89.95040108692298",
    "latitude": "30.02625080373204",
    "geocoded_column": {
      "latitude": "30.02625080373204",
      "longitude": "-89.95040108692298"
    }
  },
  {
    "service_request": "2023-972891",
    "request_type": "Abandoned Vehicles",
    "request_reason": "Abandoned/Junk Vehicles",
    "date_created": "2023-02-04T10:52:05.000",
    "date_modified": "2023-02-04T10:52:05.000",
    "request_status": "Pending",
    "responsible_agency": "Department of Public Works",
    "final_address": "2100 St Thomas St Apt 105",
    "address_councildis": "B",
    "status": "Pending",
    "rowid": "972891",
    "final_x": "3680246.33647",
    "final_y": "520698.197305",
    "longitude": "-90.0724049735616",
    "latitude": "29.925777327999906",
    "geocoded_column": {
      "latitude": "29.925777327999906",
      "longitude": "-90.0724049735616"
    }
  },
  {
    "service_request": "2023-972890",
    "request_type": "Trash/Recycling",
    "request_reason": "MIssed Recycling Pick-Up",
    "date_created": "2023-02-04T10:47:54.000",
    "date_modified": "2023-02-04T10:47:55.000",
    "request_status": "Pending",
    "responsible_agency": "Department of Sanitation",
    "final_address": "6821 Norwood Ct",
    "address_councildis": "E",
    "status": "Assigned to Contractor",
    "contractor": "Waste Pro",
    "rowid": "972890",
    "final_x": "3701225.94129",
    "final_y": "557080.137114",
    "longitude": "-90.00484758635716",
    "latitude": "30.02516293650539",
    "geocoded_column": {
      "latitude": "30.02516293650539",
      "longitude": "-90.00484758635716"
    }
  },
  {
    "service_request": "2023-972889",
    "request_type": "Roads/Drainage",
    "request_reason": "Pothole",
    "date_created": "2023-02-04T10:42:52.000",
    "date_modified": "2023-02-04T10:42:52.000",
    "request_status": "Pending",
    "responsible_agency": "Department of Public Works",
    "final_address": "2112 Dublin St",
    "address_councildis": "A",
    "status": "Pending",
    "rowid": "972889",
    "final_x": "3663874.11923",
    "final_y": "531056.444866",
    "longitude": "-90.12374221320748",
    "latitude": "29.954744450628773",
    "geocoded_column": {
      "latitude": "29.954744450628773",
      "longitude": "-90.12374221320748"
    }
  },
  {
    "service_request": "2023-972888",
    "request_type": "Trash/Recycling",
    "request_reason": "Repair Trash Cart",
    "date_created": "2023-02-04T10:41:26.000",
    "date_modified": "2023-02-04T10:41:26.000",
    "request_status": "Pending",
    "responsible_agency": "Department of Sanitation",
    "final_address": "2928 Cambronne St",
    "address_councildis": "A",
    "status": "Assigned to Contractor",
    "contractor": "Richards Disposal",
    "rowid": "972888",
    "final_x": "3665401.0802",
    "final_y": "533807.525317",
    "longitude": "-90.11882856259626",
    "latitude": "29.962264611525086",
    "geocoded_column": {
      "latitude": "29.962264611525086",
      "longitude": "-90.11882856259626"
    }
  },
  {
    "service_request": "2023-972887",
    "request_type": "Trash/Recycling",
    "request_reason": "MIssed Recycling Pick-Up",
    "date_created": "2023-02-04T10:40:56.000",
    "date_modified": "2023-02-04T10:40:56.000",
    "request_status": "Pending",
    "responsible_agency": "Department of Sanitation",
    "final_address": "7200 Thornley Dr",
    "address_councildis": "E",
    "status": "Assigned to Contractor",
    "contractor": "Waste Pro",
    "rowid": "972887",
    "final_x": "3702890.17514",
    "final_y": "559749.937757",
    "longitude": "-89.99949070006933",
    "latitude": "30.0324506934833",
    "geocoded_column": {
      "latitude": "30.0324506934833",
      "longitude": "-89.99949070006933"
    }
  },
  {
    "service_request": "2023-972886",
    "request_type": "Trash/Recycling",
    "request_reason": "Request a Large Item Pick Up",
    "date_created": "2023-02-04T10:40:54.000",
    "date_modified": "2023-02-04T10:40:55.000",
    "request_status": "Pending",
    "responsible_agency": "Department of Sanitation",
    "final_address": "7929 Freret St",
    "address_councildis": "A",
    "status": "Assigned to Contractor",
    "contractor": "Richards Disposal",
    "rowid": "972886",
    "final_x": "3661926.85114",
    "final_y": "527522.518655",
    "longitude": "-90.13000815603785",
    "latitude": "29.9450836666227",
    "geocoded_column": {
      "latitude": "29.9450836666227",
      "longitude": "-90.13000815603785"
    }
  },
  {
    "service_request": "2023-972885",
    "request_type": "Trash/Recycling",
    "request_reason": "MIssed Recycling Pick-Up",
    "date_created": "2023-02-04T10:27:56.000",
    "date_modified": "2023-02-04T10:27:57.000",
    "request_status": "Pending",
    "responsible_agency": "Department of Sanitation",
    "final_address": "2219 Burdette St",
    "address_councildis": "A",
    "status": "Assigned to Contractor",
    "contractor": "Richards Disposal",
    "rowid": "972885",
    "final_x": "3665349.0224",
    "final_y": "530294.324929",
    "longitude": "-90.11911051698317",
    "latitude": "29.952605974912668",
    "geocoded_column": {
      "latitude": "29.952605974912668",
      "longitude": "-90.11911051698317"
    }
  },
  {
    "service_request": "2023-972884",
    "request_type": "Traffic Signals/Signs/Striping/Streetlights",
    "request_reason": "Street Light Knocked Down/Leaning",
    "date_created": "2023-02-04T10:27:02.000",
    "date_modified": "2023-02-04T10:27:03.000",
    "request_status": "Pending",
    "responsible_agency": "Department of Public Works",
    "final_address": "11612 Pressburg St",
    "address_councildis": "E",
    "status": "Pending",
    "contractor": "Legacy Professional Services",
    "rowid": "972884",
    "final_x": "3718449.66668",
    "final_y": "557679.566683",
    "longitude": "-89.95040108692298",
    "latitude": "30.02625080373204",
    "geocoded_column": {
      "latitude": "30.02625080373204",
      "longitude": "-89.95040108692298"
    }
  },
  {
    "service_request": "2023-972883",
    "request_type": "Abandoned Vehicles",
    "request_reason": "Abandoned/Junk Vehicles",
    "date_created": "2023-02-04T10:24:23.000",
    "date_modified": "2023-02-04T10:24:23.000",
    "request_status": "Pending",
    "responsible_agency": "Department of Public Works",
    "final_address": "700 BLK N Claiborne Ave",
    "address_councildis": "D",
    "status": "Pending",
    "rowid": "972883",
    "final_x": "3679875.95977",
    "final_y": "534847.395316",
    "longitude": "-90.07308289677074",
    "latitude": "29.96469410006223",
    "geocoded_column": {
      "latitude": "29.96469410006223",
      "longitude": "-90.07308289677074"
    }
  },
  {
    "service_request": "2023-972882",
    "request_type": "Abandoned Vehicles",
    "request_reason": "Abandoned/Junk Vehicles",
    "date_created": "2023-02-04T10:16:44.000",
    "date_modified": "2023-02-04T10:17:14.000",
    "request_status": "Pending",
    "responsible_agency": "Department of Public Works",
    "final_address": "1100 BLK L. B. Landry Ave",
    "address_councildis": "C",
    "status": "Inspected",
    "rowid": "972882",
    "final_x": "3690116.33823",
    "final_y": "527278.643393",
    "longitude": "-90.04101416568518",
    "latitude": "29.943568986085136",
    "geocoded_column": {
      "latitude": "29.943568986085136",
      "longitude": "-90.04101416568518"
    }
  },
  {
    "service_request": "2023-972881",
    "request_type": "Trash/Recycling",
    "request_reason": "Missed Trash Pick-Up",
    "date_created": "2023-02-04T10:06:41.000",
    "date_modified": "2023-02-04T10:06:42.000",
    "request_status": "Pending",
    "responsible_agency": "Department of Sanitation",
    "final_address": "3660 Laurel St",
    "address_councildis": "B",
    "status": "Assigned to Contractor",
    "contractor": "Richards Disposal",
    "rowid": "972881",
    "final_x": "3673914.16091",
    "final_y": "518399.04415",
    "longitude": "-90.09247237927659",
    "latitude": "29.91964547771596",
    "geocoded_column": {
      "latitude": "29.91964547771596",
      "longitude": "-90.09247237927659"
    }
  },
  {
    "service_request": "2023-972880",
    "request_type": "Trash/Recycling",
    "request_reason": "Illegal Dumping",
    "date_created": "2023-02-04T10:00:41.000",
    "date_modified": "2023-02-04T10:00:41.000",
    "request_status": "Pending",
    "responsible_agency": "Department of Sanitation",
    "final_address": "JOURDAN AVE & N CLAIBORNE AVE",
    "address_councildis": "E",
    "status": "Pending",
    "rowid": "972880",
    "final_x": "3695476.6",
    "final_y": "536253.18",
    "longitude": "-90.02376666105422",
    "latitude": "29.968078491709978",
    "geocoded_column": {
      "latitude": "29.968078491709978",
      "longitude": "-90.02376666105422"
    }
  },
  {
    "service_request": "2023-972879",
    "request_type": "Taxi Issues",
    "request_reason": "Taxi Lost & Found Item",
    "date_created": "2023-02-04T09:29:06.000",
    "date_modified": "2023-02-04T09:29:07.000",
    "request_status": "Pending",
    "responsible_agency": "Ground Transportation Bureau",
    "final_address": "701 Convention Center Blvd",
    "address_councildis": "B",
    "status": "Pending",
    "rowid": "972879",
    "final_x": "3682549.2685",
    "final_y": "527937.079423",
    "longitude": "-90.06488235454897",
    "latitude": "29.94561196249168",
    "geocoded_column": {
      "latitude": "29.94561196249168",
      "longitude": "-90.06488235454897"
    }
  },
  {
    "service_request": "2023-972878",
    "request_type": "Trash/Recycling",
    "request_reason": "Order Trash Cart",
    "date_created": "2023-02-04T09:23:07.000",
    "date_modified": "2023-02-04T09:23:07.000",
    "request_status": "Pending",
    "responsible_agency": "Department of Sanitation",
    "final_address": "4937 S Miro St",
    "address_councildis": "B",
    "status": "Assigned to Contractor",
    "contractor": "Richards Disposal",
    "rowid": "972878",
    "final_x": "3668997.33134",
    "final_y": "527737.033215",
    "longitude": "-90.10767714188556",
    "latitude": "29.945467449784115",
    "geocoded_column": {
      "latitude": "29.945467449784115",
      "longitude": "-90.10767714188556"
    }
  },
  {
    "service_request": "2023-972877",
    "request_type": "Roads/Drainage",
    "request_reason": "Accessibility Ramps, Curbs and Sidewalk Repair",
    "date_created": "2023-02-04T09:19:36.000",
    "date_modified": "2023-02-04T09:19:36.000",
    "request_status": "Pending",
    "responsible_agency": "Department of Public Works",
    "final_address": "5712 S Claiborne Ave",
    "address_councildis": "A",
    "status": "Pending",
    "rowid": "972877",
    "final_x": "3667316.37121",
    "final_y": "526228.279486",
    "longitude": "-90.11303522589489",
    "latitude": "29.94136819756626",
    "geocoded_column": {
      "latitude": "29.94136819756626",
      "longitude": "-90.11303522589489"
    }
  },
  {
    "service_request": "2023-972876",
    "request_type": "Trash/Recycling",
    "request_reason": "Order Recycling Cart",
    "date_created": "2023-02-04T09:18:26.000",
    "date_modified": "2023-02-04T09:18:27.000",
    "request_status": "Pending",
    "responsible_agency": "Department of Sanitation",
    "final_address": "1112 Constantinople St",
    "address_councildis": "B",
    "status": "Pending",
    "rowid": "972876",
    "final_x": "3672348.95259",
    "final_y": "519796.384952",
    "longitude": "-90.09736540233975",
    "latitude": "29.923534233550217",
    "geocoded_column": {
      "latitude": "29.923534233550217",
      "longitude": "-90.09736540233975"
    }
  },
  {
    "service_request": "2023-972875",
    "request_type": "Trash/Recycling",
    "request_reason": "Replace Trash Cart",
    "date_created": "2023-02-04T09:08:26.000",
    "date_modified": "2023-02-04T09:08:27.000",
    "request_status": "Pending",
    "responsible_agency": "Department of Sanitation",
    "final_address": "5311 Carlisle Ct",
    "address_councildis": "C",
    "status": "Assigned to Contractor",
    "contractor": "Richards Disposal",
    "rowid": "972875",
    "final_x": "3703408.42174",
    "final_y": "516540.700469",
    "longitude": "-89.99944254525212",
    "latitude": "29.913624475754304",
    "geocoded_column": {
      "latitude": "29.913624475754304",
      "longitude": "-89.99944254525212"
    }
  },
  {
    "service_request": "2023-972874",
    "request_type": "Trash/Recycling",
    "request_reason": "MIssed Recycling Pick-Up",
    "date_created": "2023-02-04T08:58:24.000",
    "date_modified": "2023-02-04T08:58:24.000",
    "request_status": "Pending",
    "responsible_agency": "Department of Sanitation",
    "final_address": "7930 Sycamore St",
    "address_councildis": "A",
    "status": "Assigned to Contractor",
    "contractor": "Richards Disposal",
    "rowid": "972874",
    "final_x": "3664709.90784",
    "final_y": "530572.133186",
    "longitude": "-90.12111928080861",
    "latitude": "29.953388464323652",
    "geocoded_column": {
      "latitude": "29.953388464323652",
      "longitude": "-90.12111928080861"
    }
  },
  {
    "service_request": "2023-972873",
    "request_type": "Trash/Recycling",
    "request_reason": "Request a Large Item Pick Up",
    "date_created": "2023-02-04T08:50:30.000",
    "date_modified": "2023-02-04T08:50:30.000",
    "request_status": "Pending",
    "responsible_agency": "Department of Sanitation",
    "final_address": "214 N Anthony St",
    "address_councildis": "A",
    "status": "Assigned to Contractor",
    "contractor": "Richards Disposal",
    "rowid": "972873",
    "final_x": "3668930.70074",
    "final_y": "540702.445963",
    "longitude": "-90.10744956041795",
    "latitude": "29.9811199926707",
    "geocoded_column": {
      "latitude": "29.9811199926707",
      "longitude": "-90.10744956041795"
    }
  },
  {
    "service_request": "2023-972872",
    "request_type": "Trash/Recycling",
    "request_reason": "Order Recycling Cart",
    "date_created": "2023-02-04T08:49:58.000",
    "date_modified": "2023-02-04T08:49:59.000",
    "request_status": "Pending",
    "responsible_agency": "Department of Sanitation",
    "final_address": "2317 Fourth St",
    "address_councildis": "B",
    "status": "Pending",
    "rowid": "972872",
    "final_x": "3674753.87893",
    "final_y": "524927.12518",
    "longitude": "-90.08959813683603",
    "latitude": "29.937570557783204",
    "geocoded_column": {
      "latitude": "29.937570557783204",
      "longitude": "-90.08959813683603"
    }
  },
  {
    "service_request": "2023-972871",
    "request_type": "Trash/Recycling",
    "request_reason": "Order Trash Cart",
    "date_created": "2023-02-04T08:49:37.000",
    "date_modified": "2023-02-04T08:49:38.000",
    "request_status": "Pending",
    "responsible_agency": "Department of Sanitation",
    "final_address": "2317 Fourth St",
    "address_councildis": "B",
    "status": "Assigned to Contractor",
    "contractor": "Richards Disposal",
    "rowid": "972871",
    "final_x": "3674753.87893",
    "final_y": "524927.12518",
    "longitude": "-90.08959813683603",
    "latitude": "29.937570557783204",
    "geocoded_column": {
      "latitude": "29.937570557783204",
      "longitude": "-90.08959813683603"
    }
  },
  {
    "service_request": "2023-972870",
    "request_type": "Trash/Recycling",
    "request_reason": "Missed Trash Pick-Up",
    "date_created": "2023-02-04T08:46:44.000",
    "date_modified": "2023-02-04T08:46:45.000",
    "request_status": "Pending",
    "responsible_agency": "Department of Sanitation",
    "final_address": "1303 S White St",
    "address_councildis": "B",
    "status": "Assigned to Contractor",
    "contractor": "Richards Disposal",
    "rowid": "972870",
    "final_x": "3671594.42785",
    "final_y": "530876.362754",
    "longitude": "-90.09937050998123",
    "latitude": "29.954022932749588",
    "geocoded_column": {
      "latitude": "29.954022932749588",
      "longitude": "-90.09937050998123"
    }
  },
  {
    "service_request": "2023-972869",
    "request_type": "Trash/Recycling",
    "request_reason": "Order Recycling Cart",
    "date_created": "2023-02-04T08:43:50.000",
    "date_modified": "2023-02-04T08:43:50.000",
    "request_status": "Pending",
    "responsible_agency": "Department of Sanitation",
    "final_address": "4811 Deanne St",
    "address_councildis": "D",
    "status": "Pending",
    "rowid": "972869",
    "final_x": "3696429.26",
    "final_y": "554440.369176",
    "longitude": "-90.02009987694122",
    "latitude": "30.018056617083992",
    "geocoded_column": {
      "latitude": "30.018056617083992",
      "longitude": "-90.02009987694122"
    }
  },
  {
    "service_request": "2023-972868",
    "request_type": "Trash/Recycling",
    "request_reason": "Repair Trash Cart",
    "date_created": "2023-02-04T08:42:39.000",
    "date_modified": "2023-02-04T08:42:40.000",
    "request_status": "Pending",
    "responsible_agency": "Department of Sanitation",
    "final_address": "4811 Deanne St",
    "address_councildis": "D",
    "status": "Assigned to Contractor",
    "contractor": "Waste Pro",
    "rowid": "972868",
    "final_x": "3696429.26",
    "final_y": "554440.369176",
    "longitude": "-90.02009987694122",
    "latitude": "30.018056617083992",
    "geocoded_column": {
      "latitude": "30.018056617083992",
      "longitude": "-90.02009987694122"
    }
  },
  {
    "service_request": "2023-972867",
    "request_type": "Trash/Recycling",
    "request_reason": "Repair Trash Cart",
    "date_created": "2023-02-04T08:29:07.000",
    "date_modified": "2023-02-04T08:29:08.000",
    "request_status": "Pending",
    "responsible_agency": "Department of Sanitation",
    "final_address": "629 St Charles Ave",
    "address_councildis": "B",
    "status": "Assigned to Contractor",
    "contractor": "Empire Services",
    "rowid": "972867",
    "final_x": "3680506.04751",
    "final_y": "528667.334656",
    "longitude": "-90.07130807479345",
    "latitude": "29.947681955136012",
    "geocoded_column": {
      "latitude": "29.947681955136012",
      "longitude": "-90.07130807479345"
    }
  },
  {
    "service_request": "2023-972866",
    "request_type": "Traffic Signals/Signs/Striping/Streetlights",
    "request_reason": "Traffic Signal Malfunctioning/Damaged",
    "date_created": "2023-02-04T08:28:36.000",
    "date_modified": "2023-02-04T08:28:37.000",
    "request_status": "Pending",
    "responsible_agency": "Department of Public Works",
    "final_address": "CHEF MENTEUR HWY & MICHOUD BLVD",
    "address_councildis": "E",
    "status": "Pending",
    "rowid": "972866",
    "final_x": "3725588.8",
    "final_y": "559495.18",
    "longitude": "-89.92777224107155",
    "latitude": "30.03100415036799",
    "geocoded_column": {
      "latitude": "30.03100415036799",
      "longitude": "-89.92777224107155"
    }
  },
  {
    "service_request": "2023-972865",
    "request_type": "Abandoned Vehicles",
    "request_reason": "Abandoned/Junk Vehicles",
    "date_created": "2023-02-04T07:56:08.000",
    "date_modified": "2023-02-04T07:56:08.000",
    "request_status": "Pending",
    "responsible_agency": "Department of Public Works",
    "final_address": "19701 Chef Menteur Hwy",
    "address_councildis": "E",
    "status": "Pending",
    "rowid": "972865",
    "final_x": "3751140.84328",
    "final_y": "576783.986477",
    "longitude": "-89.84631991769882",
    "latitude": "30.077654097928832",
    "geocoded_column": {
      "latitude": "30.077654097928832",
      "longitude": "-89.84631991769882"
    }
  },
  {
    "service_request": "2023-972864",
    "request_type": "Trash/Recycling",
    "request_reason": "Request a Large Item Pick Up",
    "date_created": "2023-02-04T07:14:24.000",
    "date_modified": "2023-02-04T07:14:24.000",
    "request_status": "Pending",
    "responsible_agency": "Department of Sanitation",
    "final_address": "327 Diana St",
    "address_councildis": "C",
    "status": "Assigned to Contractor",
    "contractor": "Richards Disposal",
    "rowid": "972864",
    "final_x": "3686462.51318",
    "final_y": "527484.832959",
    "longitude": "-90.05254294857454",
    "latitude": "29.94424874304515",
    "geocoded_column": {
      "latitude": "29.94424874304515",
      "longitude": "-90.05254294857454"
    }
  },
  {
    "service_request": "2023-972863",
    "request_type": "Taxi Issues",
    "request_reason": "Taxi Complaint",
    "date_created": "2023-02-04T05:36:05.000",
    "date_modified": "2023-02-04T05:36:06.000",
    "request_status": "Pending",
    "responsible_agency": "Ground Transportation Bureau",
    "final_address": "601 Loyola Ave",
    "address_councildis": "B",
    "status": "Pending",
    "rowid": "972863",
    "final_x": "3678884.56987",
    "final_y": "529323.933185",
    "longitude": "-90.07640497564194",
    "latitude": "29.949536388012802",
    "geocoded_column": {
      "latitude": "29.949536388012802",
      "longitude": "-90.07640497564194"
    }
  },
  {
    "service_request": "2023-972862",
    "request_type": "Traffic Signals/Signs/Striping/Streetlights",
    "request_reason": "Street Light Outage/Malfunction",
    "date_created": "2023-02-04T00:05:06.000",
    "date_modified": "2023-02-04T00:05:06.000",
    "request_status": "Pending",
    "responsible_agency": "Department of Public Works",
    "final_address": "5661 Catina St",
    "address_councildis": "A",
    "status": "Assigned to Contractor",
    "contractor": "Legacy Professional Services",
    "rowid": "972862",
    "final_x": "3666704.69473",
    "final_y": "545226.211919",
    "longitude": "-90.11432831278773",
    "latitude": "29.993624108255926",
    "geocoded_column": {
      "latitude": "29.993624108255926",
      "longitude": "-90.11432831278773"
    }
  },
  {
    "service_request": "2023-972861",
    "request_type": "Health Related Request",
    "request_reason": "Noise Ordinance Complaint",
    "date_created": "2023-02-03T22:23:59.000",
    "date_modified": "2023-02-03T22:29:37.000",
    "case_close_date": "2023-02-03T16:29:37.000",
    "request_status": "Closed",
    "responsible_agency": "Health Department",
    "final_address": "2615 Dante St",
    "address_councildis": "A",
    "status": "Invalid Request",
    "rowid": "972861",
    "final_x": "3664932.4656",
    "final_y": "532658.096452",
    "longitude": "-90.1203468097667",
    "latitude": "29.95911770775208",
    "geocoded_column": {
      "latitude": "29.95911770775208",
      "longitude": "-90.1203468097667"
    }
  },
  {
    "service_request": "2023-972859",
    "request_type": "Trash/Recycling",
    "request_reason": "Illegal Dumping",
    "date_created": "2023-02-03T21:36:09.000",
    "date_modified": "2023-02-03T21:36:09.000",
    "request_status": "Pending",
    "responsible_agency": "Department of Sanitation",
    "final_address": "811 Bourbon St",
    "address_councildis": "C",
    "status": "Pending",
    "rowid": "972859",
    "final_x": "3682543.06274",
    "final_y": "533079.760772",
    "longitude": "-90.0647221797152",
    "latitude": "29.95975278230669",
    "geocoded_column": {
      "latitude": "29.95975278230669",
      "longitude": "-90.0647221797152"
    }
  },
  {
    "service_request": "2023-972858",
    "request_type": "Trash/Recycling",
    "request_reason": "Replace Trash Cart",
    "date_created": "2023-02-03T20:54:05.000",
    "date_modified": "2023-02-03T20:54:06.000",
    "request_status": "Pending",
    "responsible_agency": "Department of Sanitation",
    "final_address": "7563 Avalon Way",
    "address_councildis": "E",
    "status": "Assigned to Contractor",
    "contractor": "Waste Pro",
    "rowid": "972858",
    "final_x": "3709196.02341",
    "final_y": "564368.800737",
    "longitude": "-89.97939145633315",
    "latitude": "30.044947386062912",
    "geocoded_column": {
      "latitude": "30.044947386062912",
      "longitude": "-89.97939145633315"
    }
  },
  {
    "service_request": "2023-972857",
    "request_type": "Trash/Recycling",
    "request_reason": "Replace Trash Cart",
    "date_created": "2023-02-03T19:51:29.000",
    "date_modified": "2023-02-03T19:51:30.000",
    "request_status": "Pending",
    "responsible_agency": "Department of Sanitation",
    "final_address": "1715 N Dorgenois St",
    "address_councildis": "D",
    "status": "Assigned to Contractor",
    "contractor": "IV Waste",
    "rowid": "972857",
    "final_x": "3680050.89263",
    "final_y": "540530.086091",
    "longitude": "-90.07233297986018",
    "latitude": "29.98031425041185",
    "geocoded_column": {
      "latitude": "29.98031425041185",
      "longitude": "-90.07233297986018"
    }
  },
  {
    "service_request": "2023-972856",
    "request_type": "Roads/Drainage",
    "request_reason": "Street Flooding / Drainage",
    "date_created": "2023-02-03T19:49:23.000",
    "date_modified": "2023-02-03T19:49:23.000",
    "request_status": "Pending",
    "responsible_agency": "Department of Public Works",
    "final_address": "444 Audubon St",
    "address_councildis": "A",
    "status": "Pending",
    "rowid": "972856",
    "final_x": "3662295.23987",
    "final_y": "523227.254331",
    "longitude": "-90.12898757200293",
    "latitude": "29.933262409653565",
    "geocoded_column": {
      "latitude": "29.933262409653565",
      "longitude": "-90.12898757200293"
    }
  },
  {
    "service_request": "2023-972855",
    "request_type": "Traffic Signals/Signs/Striping/Streetlights",
    "request_reason": "Street Light Outage/Malfunction",
    "date_created": "2023-02-03T19:32:26.000",
    "date_modified": "2023-02-03T19:32:26.000",
    "request_status": "Pending",
    "responsible_agency": "Department of Public Works",
    "final_address": "2020 Royal St",
    "address_councildis": "C",
    "status": "Assigned to Contractor",
    "contractor": "Legacy Professional Services",
    "rowid": "972855",
    "final_x": "3684383.18089",
    "final_y": "534781.372102",
    "longitude": "-90.05885174502613",
    "latitude": "29.96437548158009",
    "geocoded_column": {
      "latitude": "29.96437548158009",
      "longitude": "-90.05885174502613"
    }
  },
  {
    "service_request": "2023-972854",
    "request_type": "Trash/Recycling",
    "request_reason": "Replace Recycling Cart",
    "date_created": "2023-02-03T19:03:23.000",
    "date_modified": "2023-02-03T19:03:23.000",
    "request_status": "Pending",
    "responsible_agency": "Department of Sanitation",
    "final_address": "2221 Calhoun St",
    "address_councildis": "A",
    "status": "Pending",
    "rowid": "972854",
    "final_x": "3665900.00122",
    "final_y": "525225.147837",
    "longitude": "-90.11754060127387",
    "latitude": "29.93865130723436",
    "geocoded_column": {
      "latitude": "29.93865130723436",
      "longitude": "-90.11754060127387"
    }
  },
  {
    "service_request": "2023-972853",
    "request_type": "Trash/Recycling",
    "request_reason": "Replace Trash Cart",
    "date_created": "2023-02-03T18:58:42.000",
    "date_modified": "2023-02-03T18:58:42.000",
    "request_status": "Pending",
    "responsible_agency": "Department of Sanitation",
    "final_address": "2221 Calhoun St",
    "address_councildis": "A",
    "status": "Assigned to Contractor",
    "contractor": "Richards Disposal",
    "rowid": "972853",
    "final_x": "3665900.00122",
    "final_y": "525225.147837",
    "longitude": "-90.11754060127387",
    "latitude": "29.93865130723436",
    "geocoded_column": {
      "latitude": "29.93865130723436",
      "longitude": "-90.11754060127387"
    }
  },
  {
    "service_request": "2023-972852",
    "request_type": "Roads/Drainage",
    "request_reason": "Damaged Sidewalk",
    "date_created": "2023-02-03T18:55:19.000",
    "date_modified": "2023-02-03T18:55:20.000",
    "request_status": "Pending",
    "responsible_agency": "Department of Public Works",
    "final_address": "4526 Hickerson Dr",
    "address_councildis": "E",
    "status": "Pending",
    "rowid": "972852",
    "final_x": "3710423.06033",
    "final_y": "554395.760088",
    "longitude": "-89.975886879641",
    "latitude": "30.017485546694548",
    "geocoded_column": {
      "latitude": "30.017485546694548",
      "longitude": "-89.975886879641"
    }
  },
  {
    "service_request": "2023-972849",
    "request_type": "Parks & Parkways",
    "request_reason": "Request Tree Service (Right of Way/Public Property)",
    "date_created": "2023-02-03T18:54:04.000",
    "date_modified": "2023-02-03T18:54:05.000",
    "request_status": "Pending",
    "responsible_agency": "Department of Parks & Parkway",
    "final_address": "4526 Hickerson Dr",
    "address_councildis": "E",
    "status": "Pending",
    "rowid": "972849",
    "final_x": "3710423.06033",
    "final_y": "554395.760088",
    "longitude": "-89.975886879641",
    "latitude": "30.017485546694548",
    "geocoded_column": {
      "latitude": "30.017485546694548",
      "longitude": "-89.975886879641"
    }
  },
  {
    "service_request": "2023-972848",
    "request_type": "Traffic Signals/Signs/Striping/Streetlights",
    "request_reason": "Street Light Outage/Malfunction",
    "date_created": "2023-02-03T18:48:32.000",
    "date_modified": "2023-02-03T18:48:33.000",
    "request_status": "Pending",
    "responsible_agency": "Department of Public Works",
    "final_address": "144 18Th St",
    "address_councildis": "A",
    "status": "Assigned to Contractor",
    "contractor": "Legacy Professional Services",
    "rowid": "972848",
    "final_x": "3665737.09485",
    "final_y": "548648.305747",
    "longitude": "-90.11727010110681",
    "latitude": "30.003061960300787",
    "geocoded_column": {
      "latitude": "30.003061960300787",
      "longitude": "-90.11727010110681"
    }
  },
  {
    "service_request": "2023-972847",
    "request_type": "Trash/Recycling",
    "request_reason": "MIssed Recycling Pick-Up",
    "date_created": "2023-02-03T18:40:57.000",
    "date_modified": "2023-02-03T18:40:58.000",
    "request_status": "Pending",
    "responsible_agency": "Department of Sanitation",
    "final_address": "6924 Lake Willow Dr",
    "address_councildis": "E",
    "status": "Assigned to Contractor",
    "contractor": "Waste Pro",
    "rowid": "972847",
    "final_x": "3702916.177",
    "final_y": "558553.447836",
    "longitude": "-89.99945254757935",
    "latitude": "30.029159979060744",
    "geocoded_column": {
      "latitude": "30.029159979060744",
      "longitude": "-89.99945254757935"
    }
  },
  {
    "service_request": "2023-972845",
    "request_type": "Trash/Recycling",
    "request_reason": "Illegal Dumping",
    "date_created": "2023-02-03T18:18:32.000",
    "date_modified": "2023-02-03T18:18:33.000",
    "request_status": "Pending",
    "responsible_agency": "Department of Sanitation",
    "final_address": "1300 BLK Columbus St",
    "address_councildis": "C",
    "status": "Pending",
    "rowid": "972845",
    "final_x": "3682492.46339",
    "final_y": "536584.033575",
    "longitude": "-90.06475945118969",
    "latitude": "29.969389869329543",
    "geocoded_column": {
      "latitude": "29.969389869329543",
      "longitude": "-90.06475945118969"
    }
  },
  {
    "service_request": "2023-972844",
    "request_type": "Traffic Signals/Signs/Striping/Streetlights",
    "request_reason": "Traffic Sign Missing/Damaged",
    "date_created": "2023-02-03T18:16:06.000",
    "date_modified": "2023-02-03T18:16:06.000",
    "request_status": "Pending",
    "responsible_agency": "Department of Public Works",
    "final_address": "2550 N Derbigny St",
    "address_councildis": "D",
    "status": "Pending",
    "rowid": "972844",
    "final_x": "3687528.25212",
    "final_y": "538700.763273",
    "longitude": "-90.0487811297724",
    "latitude": "29.975055874490717",
    "geocoded_column": {
      "latitude": "29.975055874490717",
      "longitude": "-90.0487811297724"
    }
  },
  {
    "service_request": "2023-972843",
    "request_type": "Trash/Recycling",
    "request_reason": "Missed Trash Pick-Up",
    "date_created": "2023-02-03T18:08:14.000",
    "date_modified": "2023-02-03T18:08:15.000",
    "request_status": "Pending",
    "responsible_agency": "Department of Sanitation",
    "final_address": "7520 E Oak Ridge Ct",
    "address_councildis": "E",
    "status": "Assigned to Contractor",
    "contractor": "Waste Pro",
    "rowid": "972843",
    "final_x": "3713794.75013",
    "final_y": "568038.740709",
    "longitude": "-89.96471892753779",
    "latitude": "30.054888012799623",
    "geocoded_column": {
      "latitude": "30.054888012799623",
      "longitude": "-89.96471892753779"
    }
  },
  {
    "service_request": "2023-972842",
    "request_type": "Trash/Recycling",
    "request_reason": "Repair Trash Cart",
    "date_created": "2023-02-03T18:06:25.000",
    "date_modified": "2023-02-03T18:06:26.000",
    "request_status": "Pending",
    "responsible_agency": "Department of Sanitation",
    "final_address": "2812 Hudson Pl",
    "address_councildis": "C",
    "status": "Assigned to Contractor",
    "contractor": "Richards Disposal",
    "rowid": "972842",
    "final_x": "3703417.07249",
    "final_y": "520349.41868",
    "longitude": "-89.99927527941595",
    "latitude": "29.924096862061976",
    "geocoded_column": {
      "latitude": "29.924096862061976",
      "longitude": "-89.99927527941595"
    }
  },
  {
    "service_request": "2023-972841",
    "request_type": "Abandoned Vehicles",
    "request_reason": "Abandoned/Junk Vehicles",
    "date_created": "2023-02-03T18:05:24.000",
    "date_modified": "2023-02-04T13:48:55.000",
    "request_status": "Pending",
    "responsible_agency": "Department of Public Works",
    "final_address": "733 Whitney Ave",
    "address_councildis": "C",
    "status": "Inspected",
    "rowid": "972841",
    "final_x": "3690120.99913",
    "final_y": "528713.008384",
    "longitude": "-90.04094837160913",
    "latitude": "29.94751285385595",
    "geocoded_column": {
      "latitude": "29.94751285385595",
      "longitude": "-90.04094837160913"
    }
  },
  {
    "service_request": "2023-972840",
    "request_type": "Trash/Recycling",
    "request_reason": "Replace Trash Cart",
    "date_created": "2023-02-03T17:58:31.000",
    "date_modified": "2023-02-03T17:58:32.000",
    "request_status": "Pending",
    "responsible_agency": "Department of Sanitation",
    "final_address": "5125 Montegut Dr",
    "address_councildis": "D",
    "status": "Assigned to Contractor",
    "contractor": "IV Waste",
    "rowid": "972840",
    "final_x": "3689745.32201",
    "final_y": "552215.38959",
    "longitude": "-90.04129778774801",
    "latitude": "30.012147686132735",
    "geocoded_column": {
      "latitude": "30.012147686132735",
      "longitude": "-90.04129778774801"
    }
  },
  {
    "service_request": "2023-972839",
    "request_type": "Trash/Recycling",
    "request_reason": "Request a Large Item Pick Up",
    "date_created": "2023-02-03T17:38:42.000",
    "date_modified": "2023-02-03T17:38:42.000",
    "request_status": "Pending",
    "responsible_agency": "Department of Sanitation",
    "final_address": "816 Cadiz St",
    "address_councildis": "B",
    "status": "Assigned to Contractor",
    "contractor": "Richards Disposal",
    "rowid": "972839",
    "final_x": "3670274.893",
    "final_y": "518477.598262",
    "longitude": "-90.1039571205126",
    "latitude": "29.919969341479757",
    "geocoded_column": {
      "latitude": "29.919969341479757",
      "longitude": "-90.1039571205126"
    }
  },
  {
    "service_request": "2023-972838",
    "request_type": "Trash/Recycling",
    "request_reason": "Missed Trash Pick-Up",
    "date_created": "2023-02-03T17:25:43.000",
    "date_modified": "2023-02-03T17:25:44.000",
    "request_status": "Pending",
    "responsible_agency": "Department of Sanitation",
    "final_address": "1305 S Gayoso St",
    "address_councildis": "B",
    "status": "Assigned to Contractor",
    "contractor": "Richards Disposal",
    "rowid": "972838",
    "final_x": "3671038.94177",
    "final_y": "531258.59661",
    "longitude": "-90.10111153411962",
    "latitude": "29.95509038667018",
    "geocoded_column": {
      "latitude": "29.95509038667018",
      "longitude": "-90.10111153411962"
    }
  },
  {
    "service_request": "2023-972837",
    "request_type": "Roads/Drainage",
    "request_reason": "Damaged Sidewalk",
    "date_created": "2023-02-03T17:25:28.000",
    "date_modified": "2023-02-03T17:25:28.000",
    "request_status": "Pending",
    "responsible_agency": "Department of Public Works",
    "final_address": "4675 Spain St",
    "address_councildis": "D",
    "status": "Pending",
    "rowid": "972837",
    "final_x": "3685110.04873",
    "final_y": "550066.831316",
    "longitude": "-90.056018270088",
    "latitude": "30.006382833088804",
    "geocoded_column": {
      "latitude": "30.006382833088804",
      "longitude": "-90.056018270088"
    }
  },
  {
    "service_request": "2023-972836",
    "request_type": "Roads/Drainage",
    "request_reason": "Pothole",
    "date_created": "2023-02-03T17:17:15.000",
    "date_modified": "2023-02-03T17:17:16.000",
    "request_status": "Pending",
    "responsible_agency": "Department of Public Works",
    "final_address": "1711 S Salcedo St",
    "address_councildis": "B",
    "status": "Pending",
    "rowid": "972836",
    "final_x": "3670104.99655",
    "final_y": "530409.491906",
    "longitude": "-90.10408935601829",
    "latitude": "29.95278321145088",
    "geocoded_column": {
      "latitude": "29.95278321145088",
      "longitude": "-90.10408935601829"
    }
  },
  {
    "service_request": "2023-972835",
    "request_type": "Traffic Signals/Signs/Striping/Streetlights",
    "request_reason": "Traffic Sign Missing/Damaged",
    "date_created": "2023-02-03T17:15:32.000",
    "date_modified": "2023-02-03T17:15:32.000",
    "request_status": "Pending",
    "responsible_agency": "Department of Public Works",
    "final_address": "208 Walnut St",
    "address_councildis": "A",
    "status": "Pending",
    "rowid": "972835",
    "final_x": "3661188.63885",
    "final_y": "521103.599225",
    "longitude": "-90.13255131702888",
    "latitude": "29.92745495833491",
    "geocoded_column": {
      "latitude": "29.92745495833491",
      "longitude": "-90.13255131702888"
    }
  },
  {
    "service_request": "2023-972834",
    "request_type": "Trash/Recycling",
    "request_reason": "Missed Trash Pick-Up",
    "date_created": "2023-02-03T17:14:47.000",
    "date_modified": "2023-02-03T17:14:47.000",
    "request_status": "Pending",
    "responsible_agency": "Department of Sanitation",
    "final_address": "4630 Gallatin St",
    "address_councildis": "C",
    "status": "Assigned to Contractor",
    "contractor": "Richards Disposal",
    "rowid": "972834",
    "final_x": "3702322.35844",
    "final_y": "522387.795066",
    "longitude": "-90.00265615643877",
    "latitude": "29.929736691186637",
    "geocoded_column": {
      "latitude": "29.929736691186637",
      "longitude": "-90.00265615643877"
    }
  },
  {
    "service_request": "2023-972833",
    "request_type": "Abandoned Vehicles",
    "request_reason": "Abandoned/Junk Vehicles",
    "date_created": "2023-02-03T17:13:52.000",
    "date_modified": "2023-02-03T17:16:31.000",
    "request_status": "Pending",
    "responsible_agency": "Department of Public Works",
    "final_address": "5121 Lakeview Ct",
    "address_councildis": "E",
    "status": "Pending",
    "rowid": "972833",
    "final_x": "3698927.33405",
    "final_y": "556161.956506",
    "longitude": "-90.01214423926045",
    "latitude": "30.02271136810901",
    "geocoded_column": {
      "latitude": "30.02271136810901",
      "longitude": "-90.01214423926045"
    }
  },
  {
    "service_request": "2023-972832",
    "request_type": "Trash/Recycling",
    "request_reason": "Order Trash Cart",
    "date_created": "2023-02-03T17:04:37.000",
    "date_modified": "2023-02-03T17:18:11.000",
    "request_status": "Pending",
    "responsible_agency": "Department of Sanitation",
    "final_address": "6912 Dorian St 70126",
    "address_councildis": "D",
    "status": "Assigned to Contractor",
    "rowid": "972832",
    "final_x": "3696252.13066",
    "final_y": "556267.278234",
    "longitude": "-90.02059340441767",
    "latitude": "30.02308550642582",
    "geocoded_column": {
      "latitude": "30.02308550642582",
      "longitude": "-90.02059340441767"
    }
  },
  {
    "service_request": "2023-972831",
    "request_type": "Abandoned Vehicles",
    "request_reason": "Vehicle Blocking Your Driveway",
    "date_created": "2023-02-03T16:57:03.000",
    "date_modified": "2023-02-03T17:00:30.000",
    "request_status": "Pending",
    "responsible_agency": "Department of Public Works",
    "final_address": "3461 Catalina Dr",
    "address_councildis": "C",
    "status": "Pending",
    "rowid": "972831",
    "final_x": "3696923.73123",
    "final_y": "524317.461052",
    "longitude": "-90.01962874455387",
    "latitude": "29.935213895506198",
    "geocoded_column": {
      "latitude": "29.935213895506198",
      "longitude": "-90.01962874455387"
    }
  },
  {
    "service_request": "2023-972830",
    "request_type": "Trash/Recycling",
    "request_reason": "MIssed Recycling Pick-Up",
    "date_created": "2023-02-03T16:56:02.000",
    "date_modified": "2023-02-03T16:56:03.000",
    "request_status": "Pending",
    "responsible_agency": "Department of Sanitation",
    "final_address": "7818 Sycamore St",
    "address_councildis": "A",
    "status": "Assigned to Contractor",
    "contractor": "Richards Disposal",
    "rowid": "972830",
    "final_x": "3665009.51437",
    "final_y": "530303.865218",
    "longitude": "-90.1201822156307",
    "latitude": "29.95264209570945",
    "geocoded_column": {
      "latitude": "29.95264209570945",
      "longitude": "-90.1201822156307"
    }
  },
  {
    "service_request": "2023-972829",
    "request_type": "Trash/Recycling",
    "request_reason": "Replace Trash Cart",
    "date_created": "2023-02-03T16:46:45.000",
    "date_modified": "2023-02-03T16:46:45.000",
    "request_status": "Pending",
    "responsible_agency": "Department of Sanitation",
    "final_address": "7410 Devine Ave",
    "address_councildis": "E",
    "status": "Assigned to Contractor",
    "contractor": "Waste Pro",
    "rowid": "972829",
    "final_x": "3705906.00286",
    "final_y": "562462.677215",
    "longitude": "-89.98986002280172",
    "latitude": "30.039812784382832",
    "geocoded_column": {
      "latitude": "30.039812784382832",
      "longitude": "-89.98986002280172"
    }
  },
  {
    "service_request": "2023-972828",
    "request_type": "Trash/Recycling",
    "request_reason": "Start Trash Service",
    "date_created": "2023-02-03T16:46:42.000",
    "date_modified": "2023-02-03T16:46:43.000",
    "request_status": "Pending",
    "responsible_agency": "Department of Sanitation",
    "final_address": "2106 Timoleon St",
    "address_councildis": "D",
    "status": "Assigned to Contractor",
    "contractor": "IV Waste",
    "rowid": "972828",
    "final_x": "3683123.21736",
    "final_y": "551018.535125",
    "longitude": "-90.06226180854296",
    "latitude": "30.009060423875617",
    "geocoded_column": {
      "latitude": "30.009060423875617",
      "longitude": "-90.06226180854296"
    }
  },
  {
    "service_request": "2023-972827",
    "request_type": "Trash/Recycling",
    "request_reason": "Illegal Dumping",
    "date_created": "2023-02-03T16:46:34.000",
    "date_modified": "2023-02-03T16:46:34.000",
    "request_status": "Pending",
    "responsible_agency": "Department of Sanitation",
    "final_address": "9200 Morrison Rd",
    "address_councildis": "E",
    "status": "Pending",
    "rowid": "972827",
    "final_x": "3706638.78475",
    "final_y": "562136.046047",
    "longitude": "-89.98755634843394",
    "latitude": "30.03889103368737",
    "geocoded_column": {
      "latitude": "30.03889103368737",
      "longitude": "-89.98755634843394"
    }
  },
  {
    "service_request": "2023-972826",
    "request_type": "Trash/Recycling",
    "request_reason": "Illegal Dumping",
    "date_created": "2023-02-03T16:39:54.000",
    "date_modified": "2023-02-03T16:39:55.000",
    "request_status": "Pending",
    "responsible_agency": "Department of Sanitation",
    "final_address": "JACKSON AVE & BARONNE ST",
    "address_councildis": "B",
    "status": "Pending",
    "rowid": "972826",
    "final_x": "3677012.9",
    "final_y": "524497.98",
    "longitude": "-90.0824810281453",
    "latitude": "29.936322933672926",
    "geocoded_column": {
      "latitude": "29.936322933672926",
      "longitude": "-90.0824810281453"
    }
  },
  {
    "service_request": "2023-972825",
    "request_type": "Property Maintenance",
    "request_reason": "Property Maintenance",
    "date_created": "2023-02-03T16:24:42.000",
    "date_modified": "2023-02-03T16:24:42.000",
    "request_status": "Pending",
    "responsible_agency": "Department of Code Enforcement",
    "final_address": "1331 Monticello Ave",
    "address_councildis": "A",
    "status": "Pending",
    "rowid": "972825",
    "final_x": "3660053.12006",
    "final_y": "530916.50093",
    "longitude": "-90.1358121482934",
    "latitude": "29.954470006848446",
    "geocoded_column": {
      "latitude": "29.954470006848446",
      "longitude": "-90.1358121482934"
    }
  },
  {
    "service_request": "2023-972824",
    "request_type": "Trash/Recycling",
    "request_reason": "MIssed Recycling Pick-Up",
    "date_created": "2023-02-03T16:23:35.000",
    "date_modified": "2023-02-03T16:23:36.000",
    "request_status": "Pending",
    "responsible_agency": "Department of Sanitation",
    "final_address": "13135 Cherbourg St",
    "address_councildis": "E",
    "status": "Assigned to Contractor",
    "contractor": "Waste Pro",
    "rowid": "972824",
    "final_x": "3724712.84761",
    "final_y": "561284.82275",
    "longitude": "-89.93047099899937",
    "latitude": "30.03595445023929",
    "geocoded_column": {
      "latitude": "30.03595445023929",
      "longitude": "-89.93047099899937"
    }
  },
  {
    "service_request": "2023-972823",
    "request_type": "Property Maintenance",
    "request_reason": "Property Maintenance",
    "date_created": "2023-02-03T16:21:25.000",
    "date_modified": "2023-02-03T16:21:25.000",
    "request_status": "Pending",
    "responsible_agency": "Department of Code Enforcement",
    "final_address": "8202 Hickory St",
    "address_councildis": "A",
    "status": "Pending",
    "rowid": "972823",
    "final_x": "3663057.52557",
    "final_y": "530172.541249",
    "longitude": "-90.12635011451106",
    "latitude": "29.952337679002483",
    "geocoded_column": {
      "latitude": "29.952337679002483",
      "longitude": "-90.12635011451106"
    }
  },
  {
    "service_request": "2023-972822",
    "request_type": "Abandoned Vehicles",
    "request_reason": "Abandoned/Junk Vehicles",
    "date_created": "2023-02-03T16:17:30.000",
    "date_modified": "2023-02-04T11:19:38.000",
    "request_status": "Closed",
    "responsible_agency": "Department of Public Works",
    "final_address": "3601 General De Gaulle Dr",
    "address_councildis": "C",
    "status": "Inspected",
    "rowid": "972822",
    "final_x": "3696412.83325",
    "final_y": "520435.727544",
    "longitude": "-90.02138195142473",
    "latitude": "29.92455655300626",
    "geocoded_column": {
      "latitude": "29.92455655300626",
      "longitude": "-90.02138195142473"
    }
  },
  {
    "service_request": "2023-972821",
    "request_type": "Traffic Signals/Signs/Striping/Streetlights",
    "request_reason": "Striping/Road Surface Markings",
    "date_created": "2023-02-03T16:15:26.000",
    "date_modified": "2023-02-03T16:15:26.000",
    "request_status": "Pending",
    "responsible_agency": "Department of Public Works",
    "final_address": "3600 Palmyra St",
    "address_councildis": "B",
    "status": "Pending",
    "rowid": "972821",
    "final_x": "3672052.04295",
    "final_y": "536558.964615",
    "longitude": "-90.09773205480246",
    "latitude": "29.969634632961814",
    "geocoded_column": {
      "latitude": "29.969634632961814",
      "longitude": "-90.09773205480246"
    }
  },
  {
    "service_request": "2023-972820",
    "request_type": "Property Maintenance",
    "request_reason": "Property Maintenance",
    "date_created": "2023-02-03T16:10:43.000",
    "date_modified": "2023-02-03T16:10:44.000",
    "request_status": "Pending",
    "responsible_agency": "Department of Code Enforcement",
    "final_address": "2658 Banks St",
    "address_councildis": "B",
    "status": "Pending",
    "rowid": "972820",
    "final_x": "3674605.49684",
    "final_y": "533977.957829",
    "longitude": "-90.0897564762308",
    "latitude": "29.962461776809356",
    "geocoded_column": {
      "latitude": "29.962461776809356",
      "longitude": "-90.0897564762308"
    }
  },
  {
    "service_request": "2023-972819",
    "request_type": "Trash/Recycling",
    "request_reason": "Return Trash Cart",
    "date_created": "2023-02-03T16:08:00.000",
    "date_modified": "2023-02-03T16:08:01.000",
    "request_status": "Pending",
    "responsible_agency": "Department of Sanitation",
    "final_address": "4957 Corinne St",
    "address_councildis": "E",
    "status": "Assigned to Contractor",
    "contractor": "Waste Pro",
    "rowid": "972819",
    "final_x": "3715009.80434",
    "final_y": "557851.752987",
    "longitude": "-89.96126400177687",
    "latitude": "30.026837952926996",
    "geocoded_column": {
      "latitude": "30.026837952926996",
      "longitude": "-89.96126400177687"
    }
  },
  {
    "service_request": "2023-972818",
    "request_type": "Abandoned Vehicles",
    "request_reason": "Abandoned/Junk Vehicles",
    "date_created": "2023-02-03T16:01:39.000",
    "date_modified": "2023-02-03T16:01:39.000",
    "request_status": "Pending",
    "responsible_agency": "Department of Public Works",
    "final_address": "1318 Ursulines Ave",
    "address_councildis": "C",
    "status": "Pending",
    "rowid": "972818",
    "final_x": "3681552.65954",
    "final_y": "535047.92935",
    "longitude": "-90.06778100406544",
    "latitude": "29.96519468652391",
    "geocoded_column": {
      "latitude": "29.96519468652391",
      "longitude": "-90.06778100406544"
    }
  },
  {
    "service_request": "2023-972817",
    "request_type": "Trash/Recycling",
    "request_reason": "Illegal Dumping",
    "date_created": "2023-02-03T15:58:32.000",
    "date_modified": "2023-02-03T15:58:32.000",
    "request_status": "Pending",
    "responsible_agency": "Department of Sanitation",
    "final_address": "4700 N Robertson St",
    "address_councildis": "E",
    "status": "Pending",
    "rowid": "972817",
    "final_x": "3695085.61194",
    "final_y": "535959.333703",
    "longitude": "-90.02501200582611",
    "latitude": "29.967282800000856",
    "geocoded_column": {
      "latitude": "29.967282800000856",
      "longitude": "-90.02501200582611"
    }
  },
  {
    "service_request": "2023-972816",
    "request_type": "Trash/Recycling",
    "request_reason": "Order Trash Cart",
    "date_created": "2023-02-03T15:57:54.000",
    "date_modified": "2023-02-03T15:57:55.000",
    "request_status": "Pending",
    "responsible_agency": "Department of Sanitation",
    "final_address": "2401 S Johnson St",
    "address_councildis": "B",
    "status": "Assigned to Contractor",
    "contractor": "Richards Disposal",
    "rowid": "972816",
    "final_x": "3673377.74401",
    "final_y": "528557.079808",
    "longitude": "-90.09381873343408",
    "latitude": "29.94759274447721",
    "geocoded_column": {
      "latitude": "29.94759274447721",
      "longitude": "-90.09381873343408"
    }
  },
  {
    "service_request": "2023-972815",
    "request_type": "Trash/Recycling",
    "request_reason": "Request a Large Item Pick Up",
    "date_created": "2023-02-03T15:57:09.000",
    "date_modified": "2023-02-03T15:57:09.000",
    "request_status": "Pending",
    "responsible_agency": "Department of Sanitation",
    "final_address": "718 Independence St",
    "address_councildis": "C",
    "status": "Assigned to Contractor",
    "contractor": "IV Waste",
    "rowid": "972815",
    "final_x": "3690593.56048",
    "final_y": "534177.949061",
    "longitude": "-90.03926144670407",
    "latitude": "29.962524882453497",
    "geocoded_column": {
      "latitude": "29.962524882453497",
      "longitude": "-90.03926144670407"
    }
  },
  {
    "service_request": "2023-972814",
    "request_type": "Abandoned Vehicles",
    "request_reason": "Abandoned/Junk Vehicles",
    "date_created": "2023-02-03T15:57:02.000",
    "date_modified": "2023-02-03T15:57:02.000",
    "request_status": "Pending",
    "responsible_agency": "Department of Public Works",
    "final_address": "1318 Ursulines Ave",
    "address_councildis": "C",
    "status": "Pending",
    "rowid": "972814",
    "final_x": "3681552.65954",
    "final_y": "535047.92935",
    "longitude": "-90.06778100406544",
    "latitude": "29.96519468652391",
    "geocoded_column": {
      "latitude": "29.96519468652391",
      "longitude": "-90.06778100406544"
    }
  },
  {
    "service_request": "2023-972813",
    "request_type": "Trash/Recycling",
    "request_reason": "Request a Large Item Pick Up",
    "date_created": "2023-02-03T15:56:27.000",
    "date_modified": "2023-02-03T15:56:27.000",
    "request_status": "Pending",
    "responsible_agency": "Department of Sanitation",
    "final_address": "4618 Conti St",
    "address_councildis": "A",
    "status": "Assigned to Contractor",
    "contractor": "Richards Disposal",
    "rowid": "972813",
    "final_x": "3669947.59585",
    "final_y": "540607.791435",
    "longitude": "-90.10424094508438",
    "latitude": "29.980829771323073",
    "geocoded_column": {
      "latitude": "29.980829771323073",
      "longitude": "-90.10424094508438"
    }
  },
  {
    "service_request": "2023-972812",
    "request_type": "Trash/Recycling",
    "request_reason": "Illegal Dumping",
    "date_created": "2023-02-03T15:55:26.000",
    "date_modified": "2023-02-03T15:55:26.000",
    "request_status": "Pending",
    "responsible_agency": "Department of Sanitation",
    "final_address": "1403 Jourdan Ave",
    "address_councildis": "E",
    "status": "Pending",
    "rowid": "972812",
    "final_x": "3695402.65206",
    "final_y": "535639.94279",
    "longitude": "-90.02402231940037",
    "latitude": "29.96639463101407",
    "geocoded_column": {
      "latitude": "29.96639463101407",
      "longitude": "-90.02402231940037"
    }
  },