[
  {
    "service_request": "2023-1041196",
    "request_type": "Roads/Drainage",
    "request_reason": "Pothole",
    "date_created": "2023-10-06T00:34:32.000",
    "date_modified": "2023-10-06T00:34:32.000",
    "request_status": "Pending",
    "responsible_agency": "Department of Public Works",
    "final_address": "3930 Perrier St",
    "address_councildis": "B",
    "status": "Pending",
    "rowid": "1041196",
    "final_x": "3672516.81671",
    "final_y": "520195.171",
    "longitude": "-90.0968219322253",
    "latitude": "29.924625787717115",
    "geocoded_column": {
      "latitude": "29.924625787717115",
      "longitude": "-90.0968219322253"
    }
  },
  {
    "service_request": "2023-1041195",
    "request_type": "Traffic Signals/Signs/Striping/Streetlights",
    "request_reason": "Request for Stop Sign",
    "date_created": "2023-10-05T23:41:08.000",
    "date_modified": "2023-10-05T23:41:08.000",
    "request_status": "Pending",
    "responsible_agency": "Department of Public Works",
    "final_address": "729 Burdette St",
    "address_councildis": "A",
    "status": "Pending",
    "rowid": "1041195",
    "final_x": "3661819.38419",
    "final_y": "526494.189822",
    "longitude": "-90.1303815501614",
    "latitude": "29.942259192702362",
    "geocoded_column": {
      "latitude": "29.942259192702362",
      "longitude": "-90.1303815501614"
    }
  },
  {
    "service_request": "2023-1041194",
    "request_type": "Roads/Drainage",
    "request_reason": "Debris in Roadway",
    "date_created": "2023-10-05T23:16:05.000",
    "date_modified": "2023-10-05T23:16:05.000",
    "request_status": "Pending",
    "responsible_agency": "Department of Public Works",
    "final_address": "3930 Perrier St",
    "address_councildis": "B",
    "status": "Pending",
    "rowid": "1041194",
    "final_x": "3672516.81671",
    "final_y": "520195.171",
    "longitude": "-90.0968219322253",
    "latitude": "29.924625787717115",
    "geocoded_column": {
      "latitude": "29.924625787717115",
      "longitude": "-90.0968219322253"
    }
  },
  {
    "service_request": "2023-1041193",
    "request_type": "Abandoned Vehicles",
    "request_reason": "Abandoned/Junk Vehicles",
    "date_created": "2023-10-05T22:35:55.000",
    "date_modified": "2023-10-05T22:35:55.000",
    "request_status": "Pending",
    "responsible_agency": "Department of Public Works",
    "final_address": "DANTE ST & SYCAMORE ST",
    "address_councildis": "A",
    "status": "Pending",
    "rowid": "1041193",
    "final_x": "3663787.6",
    "final_y": "531462.88",
    "longitude": "-90.12400186417834",
    "latitude": "29.955864526419294",
    "geocoded_column": {
      "latitude": "29.955864526419294",
      "longitude": "-90.12400186417834"
    }
  },
  {
    "service_request": "2023-1041192",
    "request_type": "Traffic Signals/Signs/Striping/Streetlights",
    "request_reason": "Street Light Outage/Malfunction",
    "date_created": "2023-10-05T22:34:02.000",
    "date_modified": "2023-10-05T22:34:03.000",
    "request_status": "Pending",
    "responsible_agency": "Department of Public Works",
    "final_address": "8610 Belfast St",
    "address_councildis": "A",
    "status": "Assigned to Contractor",
    "contractor": "Legacy Professional Services",
    "rowid": "1041192",
    "final_x": "3664178.62445",
    "final_y": "533599.274053",
    "longitude": "-90.12269586488321",
    "latitude": "29.961727559818147",
    "geocoded_column": {
      "latitude": "29.961727559818147",
      "longitude": "-90.12269586488321"
    }
  },
  {
    "service_request": "2023-1041191",
    "request_type": "Trash/Recycling",
    "request_reason": "Order Trash Cart",
    "date_created": "2023-10-05T22:29:26.000",
    "date_modified": "2023-10-05T22:29:27.000",
    "request_status": "Pending",
    "responsible_agency": "Department of Sanitation",
    "final_address": "8612 Belfast St",
    "address_councildis": "A",
    "status": "Assigned to Contractor",
    "contractor": "Richards Disposal",
    "rowid": "1041191",
    "final_x": "3664162.19732",
    "final_y": "533613.953285",
    "longitude": "-90.1227472495758",
    "latitude": "29.96176840012542",
    "geocoded_column": {
      "latitude": "29.96176840012542",
      "longitude": "-90.1227472495758"
    }
  },
  {
    "service_request": "2023-1041190",
    "request_type": "Trash/Recycling",
    "request_reason": "Order Trash Cart",
    "date_created": "2023-10-05T22:17:36.000",
    "date_modified": "2023-10-05T22:17:36.000",
    "request_status": "Pending",
    "responsible_agency": "Department of Sanitation",
    "final_address": "4517 Skyview Dr",
    "address_councildis": "D",
    "status": "Assigned to Contractor",
    "contractor": "Waste Pro",
    "rowid": "1041190",
    "final_x": "3696863.15472",
    "final_y": "552998.888727",
    "longitude": "-90.01878119295208",
    "latitude": "30.014079408676494",
    "geocoded_column": {
      "latitude": "30.014079408676494",
      "longitude": "-90.01878119295208"
    }
  },
  {
    "service_request": "2023-1041189",
    "request_type": "Roads/Drainage",
    "request_reason": "Street Flooding / Drainage",
    "date_created": "2023-10-05T22:10:10.000",
    "date_modified": "2023-10-05T22:10:10.000",
    "request_status": "Pending",
    "responsible_agency": "Department of Public Works",
    "final_address": "5225 Conti St",
    "address_councildis": "A",
    "status": "Pending",
    "rowid": "1041189",
    "final_x": "3668468.30094",
    "final_y": "541857.402188",
    "longitude": "-90.10887105040258",
    "latitude": "29.984309325121014",
    "geocoded_column": {
      "latitude": "29.984309325121014",
      "longitude": "-90.10887105040258"
    }
  },
  {
    "service_request": "2023-1041188",
    "request_type": "Roads/Drainage",
    "request_reason": "Pothole",
    "date_created": "2023-10-05T21:39:43.000",
    "date_modified": "2023-10-05T21:39:43.000",
    "request_status": "Pending",
    "responsible_agency": "Department of Public Works",
    "final_address": "6019 Chestnut St",
    "address_councildis": "A",
    "status": "Pending",
    "rowid": "1041188",
    "final_x": "3664762.62535",
    "final_y": "519948.884408",
    "longitude": "-90.12130763332809",
    "latitude": "29.92417638659354",
    "geocoded_column": {
      "latitude": "29.92417638659354",
      "longitude": "-90.12130763332809"
    }
  },
  {
    "service_request": "2023-1041187",
    "request_type": "Roads/Drainage",
    "request_reason": "Road Shoulder Repair",
    "date_created": "2023-10-05T21:38:16.000",
    "date_modified": "2023-10-05T21:38:16.000",
    "request_status": "Pending",
    "responsible_agency": "Department of Public Works",
    "final_address": "3600 BLK Coliseum St",
    "address_councildis": "B",
    "status": "Pending",
    "rowid": "1041187",
    "final_x": "3673679.77859",
    "final_y": "520234.645014",
    "longitude": "-90.09314949821882",
    "latitude": "29.924699769259288",
    "geocoded_column": {
      "latitude": "29.924699769259288",
      "longitude": "-90.09314949821882"
    }
  },
  {
    "service_request": "2023-1041186",
    "request_type": "Roads/Drainage",
    "request_reason": "Pothole",
    "date_created": "2023-10-05T21:35:02.000",
    "date_modified": "2023-10-05T21:35:02.000",
    "request_status": "Pending",
    "responsible_agency": "Department of Public Works",
    "final_address": "6055 Magazine St",
    "address_councildis": "A",
    "status": "Pending",
    "rowid": "1041186",
    "final_x": "3664283.34631",
    "final_y": "519425.232439",
    "longitude": "-90.12283801843486",
    "latitude": "29.92275043880775",
    "geocoded_column": {
      "latitude": "29.92275043880775",
      "longitude": "-90.12283801843486"
    }
  },
  {
    "service_request": "2023-1041185",
    "request_type": "Roads/Drainage",
    "request_reason": "Pothole",
    "date_created": "2023-10-05T21:30:25.000",
    "date_modified": "2023-10-05T21:30:25.000",
    "request_status": "Pending",
    "responsible_agency": "Department of Public Works",
    "final_address": "6045 Chestnut St",
    "address_councildis": "A",
    "status": "Pending",
    "rowid": "1041185",
    "final_x": "3664553.41741",
    "final_y": "520093.265144",
    "longitude": "-90.12196321403881",
    "latitude": "29.924579471488517",
    "geocoded_column": {
      "latitude": "29.924579471488517",
      "longitude": "-90.12196321403881"
    }
  },
  {
    "service_request": "2023-1041184",
    "request_type": "Trash/Recycling",
    "request_reason": "Order Recycling Cart",
    "date_created": "2023-10-05T21:28:42.000",
    "date_modified": "2023-10-05T21:28:42.000",
    "request_status": "Pending",
    "responsible_agency": "Department of Sanitation",
    "final_address": "4220 LaSalle St",
    "address_councildis": "B",
    "status": "Pending",
    "rowid": "1041184",
    "final_x": "3671165.37518",
    "final_y": "523715.971131",
    "longitude": "-90.10096845626039",
    "latitude": "29.934346889935707",
    "geocoded_column": {
      "latitude": "29.934346889935707",
      "longitude": "-90.10096845626039"
    }
  },
  {
    "service_request": "2023-1041183",
    "request_type": "Roads/Drainage",
    "request_reason": "Pothole",
    "date_created": "2023-10-05T21:25:10.000",
    "date_modified": "2023-10-05T21:25:10.000",
    "request_status": "Pending",
    "responsible_agency": "Department of Public Works",
    "final_address": "4200 BLK Perrier St",
    "address_councildis": "B",
    "status": "Pending",
    "rowid": "1041183",
    "final_x": "3671500.64253",
    "final_y": "520125.882108",
    "longitude": "-90.1000320136845",
    "latitude": "29.924465378806524",
    "geocoded_column": {
      "latitude": "29.924465378806524",
      "longitude": "-90.1000320136845"
    }
  },
  {
    "service_request": "2023-1041182",
    "request_type": "Mosquito, Termite & Rodent Control",
    "request_reason": "Mosquito Complaint",
    "date_created": "2023-10-05T20:34:24.000",
    "date_modified": "2023-10-05T20:34:24.000",
    "request_status": "Pending",
    "responsible_agency": "Mosquito, Termite & Rodent Control Board",
    "final_address": "4610 Lennox Blvd",
    "address_councildis": "C",
    "status": "Pending",
    "rowid": "1041182",
    "final_x": "3700851.62321",
    "final_y": "513751.210866",
    "longitude": "-90.007614420725",
    "latitude": "29.906035919005962",
    "geocoded_column": {
      "latitude": "29.906035919005962",
      "longitude": "-90.007614420725"
    }
  },
  {
    "service_request": "2023-1041181",
    "request_type": "Roads/Drainage",
    "request_reason": "Pothole",
    "date_created": "2023-10-05T20:24:14.000",
    "date_modified": "2023-10-05T20:24:14.000",
    "request_status": "Pending",
    "responsible_agency": "Department of Public Works",
    "final_address": "2700 BLK Canal St",
    "address_councildis": "B",
    "status": "Pending",
    "rowid": "1041181",
    "final_x": "3675268.33742",
    "final_y": "535227.438191",
    "longitude": "-90.08762041982943",
    "latitude": "29.96587762928198",
    "geocoded_column": {
      "latitude": "29.96587762928198",
      "longitude": "-90.08762041982943"
    }
  },
  {
    "service_request": "2023-1041180",
    "request_type": "Trash/Recycling",
    "request_reason": "Order Trash Cart",
    "date_created": "2023-10-05T19:52:53.000",
    "date_modified": "2023-10-05T19:52:54.000",
    "request_status": "Pending",
    "responsible_agency": "Department of Sanitation",
    "final_address": "4800 Bergerac St",
    "address_councildis": "E",
    "status": "Assigned to Contractor",
    "contractor": "Waste Pro",
    "rowid": "1041180",
    "final_x": "3726131.89049",
    "final_y": "561059.84035",
    "longitude": "-89.92599535696336",
    "latitude": "30.035287994621907",
    "geocoded_column": {
      "latitude": "30.035287994621907",
      "longitude": "-89.92599535696336"
    }
  },
  {
    "service_request": "2023-1041179",
    "request_type": "Roads/Drainage",
    "request_reason": "Street Flooding / Drainage",
    "date_created": "2023-10-05T19:43:19.000",
    "date_modified": "2023-10-05T19:43:19.000",
    "request_status": "Pending",
    "responsible_agency": "Department of Public Works",
    "final_address": "2532 Port St",
    "address_councildis": "D",
    "status": "Pending",
    "rowid": "1041179",
    "final_x": "3688776.60796",
    "final_y": "541915.156748",
    "longitude": "-90.04472434267012",
    "latitude": "29.983855776738697",
    "geocoded_column": {
      "latitude": "29.983855776738697",
      "longitude": "-90.04472434267012"
    }
  },
  {
    "service_request": "2023-1041178",
    "request_type": "Trash/Recycling",
    "request_reason": "Repair Trash Cart",
    "date_created": "2023-10-05T18:57:14.000",
    "date_modified": "2023-10-05T18:57:14.000",
    "request_status": "Pending",
    "responsible_agency": "Department of Sanitation",
    "final_address": "1911 Frenchmen St",
    "address_councildis": "D",
    "status": "Assigned to Contractor",
    "contractor": "IV Waste",
    "rowid": "1041178",
    "final_x": "3684374.38313",
    "final_y": "539337.575818",
    "longitude": "-90.05871947652376",
    "latitude": "29.97690372803001",
    "geocoded_column": {
      "latitude": "29.97690372803001",
      "longitude": "-90.05871947652376"
    }
  },
  {
    "service_request": "2023-1041177",
    "request_type": "Trash/Recycling",
    "request_reason": "Order Trash Cart",
    "date_created": "2023-10-05T18:54:49.000",
    "date_modified": "2023-10-05T18:54:50.000",
    "request_status": "Pending",
    "responsible_agency": "Department of Sanitation",
    "final_address": "1909 Frenchmen St",
    "address_councildis": "D",
    "status": "Assigned to Contractor",
    "contractor": "IV Waste",
    "rowid": "1041177",
    "final_x": "3684375.68617",
    "final_y": "539320.70945",
    "longitude": "-90.05871595367697",
    "latitude": "29.97685731156357",
    "geocoded_column": {
      "latitude": "29.97685731156357",
      "longitude": "-90.05871595367697"
    }
  },
  {
    "service_request": "2023-1041176",
    "request_type": "Trash/Recycling",
    "request_reason": "Request a Large Item Pick Up",
    "date_created": "2023-10-05T18:48:47.000",
    "date_modified": "2023-10-05T18:48:48.000",
    "request_status": "Pending",
    "responsible_agency": "Department of Sanitation",
    "final_address": "3321 Octavia St",
    "address_councildis": "A",
    "status": "Assigned to Contractor",
    "contractor": "Richards Disposal",
    "rowid": "1041176",
    "final_x": "3668488.36302",
    "final_y": "527870.476991",
    "longitude": "-90.10927962337377",
    "latitude": "29.94584933682395",
    "geocoded_column": {
      "latitude": "29.94584933682395",
      "longitude": "-90.10927962337377"
    }
  },
  {
    "service_request": "2023-1041175",
    "request_type": "Trash/Recycling",
    "request_reason": "Order Recycling Cart",
    "date_created": "2023-10-05T18:37:12.000",
    "date_modified": "2023-10-05T18:37:12.000",
    "request_status": "Pending",
    "responsible_agency": "Department of Sanitation",
    "final_address": "2247 Oretha Castle Haley Blvd",
    "address_councildis": "B",
    "status": "Pending",
    "rowid": "1041175",
    "final_x": "3676484.88923",
    "final_y": "524538.115132",
    "longitude": "-90.08414659577234",
    "latitude": "29.936449130697834",
    "geocoded_column": {
      "latitude": "29.936449130697834",
      "longitude": "-90.08414659577234"
    }
  },
  {
    "service_request": "2023-1041174",
    "request_type": "Trash/Recycling",
    "request_reason": "Order Trash Cart",
    "date_created": "2023-10-05T18:25:22.000",
    "date_modified": "2023-10-05T18:25:23.000",
    "request_status": "Pending",
    "responsible_agency": "Department of Sanitation",
    "final_address": "2327 Soniat St",
    "address_councildis": "B",
    "status": "Assigned to Contractor",
    "contractor": "Richards Disposal",
    "rowid": "1041174",
    "final_x": "3668554.42266",
    "final_y": "524135.03046",
    "longitude": "-90.10919704992955",
    "latitude": "29.935576124304852",
    "geocoded_column": {
      "latitude": "29.935576124304852",
      "longitude": "-90.10919704992955"
    }
  },
  {
    "service_request": "2023-1041173",
    "request_type": "Trash/Recycling",
    "request_reason": "Order Recycling Cart",
    "date_created": "2023-10-05T18:05:26.000",
    "date_modified": "2023-10-05T18:05:26.000",
    "request_status": "Pending",
    "responsible_agency": "Department of Sanitation",
    "final_address": "4637 Nottingham Dr",
    "address_councildis": "E",
    "status": "Pending",
    "rowid": "1041173",
    "final_x": "3716532.94808",
    "final_y": "556321.181082",
    "longitude": "-89.95650919237788",
    "latitude": "30.02257925236181",
    "geocoded_column": {
      "latitude": "30.02257925236181",
      "longitude": "-89.95650919237788"
    }
  },
  {
    "service_request": "2023-1041172",
    "request_type": "Trash/Recycling",
    "request_reason": "Repair Trash Cart",
    "date_created": "2023-10-05T17:59:47.000",
    "date_modified": "2023-10-05T17:59:48.000",
    "request_status": "Pending",
    "responsible_agency": "Department of Sanitation",
    "final_address": "8 Rosa Park",
    "address_councildis": "A",
    "status": "Assigned to Contractor",
    "contractor": "Richards Disposal",
    "rowid": "1041172",
    "final_x": "3666047.54458",
    "final_y": "522668.591738",
    "longitude": "-90.11716045682009",
    "latitude": "29.93161728747805",
    "geocoded_column": {
      "latitude": "29.93161728747805",
      "longitude": "-90.11716045682009"
    }
  },
  {
    "service_request": "2023-1041171",
    "request_type": "Trash/Recycling",
    "request_reason": "Request a Large Item Pick Up",
    "date_created": "2023-10-05T17:59:04.000",
    "date_modified": "2023-10-05T17:59:04.000",
    "request_status": "Pending",
    "responsible_agency": "Department of Sanitation",
    "final_address": "3420 LaSalle St",
    "address_councildis": "B",
    "status": "Assigned to Contractor",
    "contractor": "Richards Disposal",
    "rowid": "1041171",
    "final_x": "3672935.33614",
    "final_y": "523967.492284",
    "longitude": "-90.09537215172007",
    "latitude": "29.9349860297531",
    "geocoded_column": {
      "latitude": "29.9349860297531",
      "longitude": "-90.09537215172007"
    }
  },
  {
    "service_request": "2023-1041170",
    "request_type": "Trash/Recycling",
    "request_reason": "Order Trash Cart",
    "date_created": "2023-10-05T17:24:52.000",
    "date_modified": "2023-10-05T17:24:53.000",
    "request_status": "Pending",
    "responsible_agency": "Department of Sanitation",
    "final_address": "1424 Sixth St",
    "address_councildis": "B",
    "status": "Assigned to Contractor",
    "contractor": "Richards Disposal",
    "rowid": "1041170",
    "final_x": "3675899.00865",
    "final_y": "521564.442873",
    "longitude": "-90.08609843184546",
    "latitude": "29.9282900505667",
    "geocoded_column": {
      "latitude": "29.9282900505667",
      "longitude": "-90.08609843184546"
    }
  },
  {
    "service_request": "2023-1041169",
    "request_type": "Abandoned Vehicles",
    "request_reason": "Abandoned/Junk Vehicles",
    "date_created": "2023-10-05T17:23:25.000",
    "date_modified": "2023-10-05T17:23:25.000",
    "request_status": "Pending",
    "responsible_agency": "Department of Public Works",
    "final_address": "3320 Albert St",
    "address_councildis": "C",
    "status": "Pending",
    "rowid": "1041169",
    "final_x": "3712027.80325",
    "final_y": "518240.172982",
    "longitude": "-89.97217361752251",
    "latitude": "29.91801871443237",
    "geocoded_column": {
      "latitude": "29.91801871443237",
      "longitude": "-89.97217361752251"
    }
  },
  {
    "service_request": "2023-1041168",
    "request_type": "Trash/Recycling",
    "request_reason": "Replace Trash Cart",
    "date_created": "2023-10-05T17:21:29.000",
    "date_modified": "2023-10-05T17:21:30.000",
    "request_status": "Pending",
    "responsible_agency": "Department of Sanitation",
    "final_address": "2200 Hyman Pl",
    "address_councildis": "C",
    "status": "Assigned to Contractor",
    "contractor": "Richards Disposal",
    "rowid": "1041168",
    "final_x": "3701156.04637",
    "final_y": "522814.823419",
    "longitude": "-90.00632236257051",
    "latitude": "29.930948062524138",
    "geocoded_column": {
      "latitude": "29.930948062524138",
      "longitude": "-90.00632236257051"
    }
  },
  {
    "service_request": "2023-1041167",
    "request_type": "Trash/Recycling",
    "request_reason": "Illegal Dumping",
    "date_created": "2023-10-05T17:20:17.000",
    "date_modified": "2023-10-05T17:20:17.000",
    "request_status": "Pending",
    "responsible_agency": "Department of Sanitation",
    "final_address": "139 S Gayoso St",
    "address_councildis": "B",
    "status": "Pending",
    "rowid": "1041167",
    "final_x": "3674078.90107",
    "final_y": "535591.797766",
    "longitude": "-90.09136415638366",
    "latitude": "29.966914997750848",
    "geocoded_column": {
      "latitude": "29.966914997750848",
      "longitude": "-90.09136415638366"
    }
  },
  {
    "service_request": "2023-1041166",
    "request_type": "Trash/Recycling",
    "request_reason": "Repair Trash Cart",
    "date_created": "2023-10-05T17:19:53.000",
    "date_modified": "2023-10-05T17:19:54.000",
    "request_status": "Pending",
    "responsible_agency": "Department of Sanitation",
    "final_address": "6310 Oxford St",
    "address_councildis": "C",
    "status": "Assigned to Contractor",
    "contractor": "Richards Disposal",
    "rowid": "1041166",
    "final_x": "3707502.63761",
    "final_y": "519798.380152",
    "longitude": "-89.98639915485467",
    "latitude": "29.9224502740684",
    "geocoded_column": {
      "latitude": "29.9224502740684",
      "longitude": "-89.98639915485467"
    }
  },
  {
    "service_request": "2023-1041165",
    "request_type": "Abandoned Vehicles",
    "request_reason": "Abandoned/Junk Vehicles",
    "date_created": "2023-10-05T17:19:01.000",
    "date_modified": "2023-10-05T17:19:01.000",
    "request_status": "Pending",
    "responsible_agency": "Department of Public Works",
    "final_address": "3320 Albert St",
    "address_councildis": "C",
    "status": "Pending",
    "rowid": "1041165",
    "final_x": "3712027.80325",
    "final_y": "518240.172982",
    "longitude": "-89.97217361752251",
    "latitude": "29.91801871443237",
    "geocoded_column": {
      "latitude": "29.91801871443237",
      "longitude": "-89.97217361752251"
    }
  },
  {
    "service_request": "2023-1041164",
    "request_type": "Trash/Recycling",
    "request_reason": "Replace Trash Cart",
    "date_created": "2023-10-05T17:18:20.000",
    "date_modified": "2023-10-05T17:18:20.000",
    "request_status": "Pending",
    "responsible_agency": "Department of Sanitation",
    "final_address": "2200 Hyman Pl",
    "address_councildis": "C",
    "status": "Assigned to Contractor",
    "contractor": "Richards Disposal",
    "rowid": "1041164",
    "final_x": "3701156.04637",
    "final_y": "522814.823419",
    "longitude": "-90.00632236257051",
    "latitude": "29.930948062524138",
    "geocoded_column": {
      "latitude": "29.930948062524138",
      "longitude": "-90.00632236257051"
    }
  },
  {
    "service_request": "2023-1041163",
    "request_type": "Property Maintenance",
    "request_reason": "Property Maintenance",
    "date_created": "2023-10-05T17:15:28.000",
    "date_modified": "2023-10-05T17:15:28.000",
    "request_status": "Pending",
    "responsible_agency": "Department of Code Enforcement",
    "final_address": "91 Versailles Blvd",
    "address_councildis": "B",
    "status": "Pending",
    "rowid": "1041163",
    "final_x": "3668088.14868",
    "final_y": "530905.55693",
    "longitude": "-90.11044096651796",
    "latitude": "29.954206566971017",
    "geocoded_column": {
      "latitude": "29.954206566971017",
      "longitude": "-90.11044096651796"
    }
  },
  {
    "service_request": "2023-1041162",
    "request_type": "Property Maintenance",
    "request_reason": "Property Maintenance",
    "date_created": "2023-10-05T17:08:18.000",
    "date_modified": "2023-10-05T17:08:18.000",
    "request_status": "Pending",
    "responsible_agency": "Department of Code Enforcement",
    "final_address": "5655 Woodlawn Pl",
    "address_councildis": "A",
    "status": "Pending",
    "rowid": "1041162",
    "final_x": "3667605.97575",
    "final_y": "545117.768463",
    "longitude": "-90.11148494707139",
    "latitude": "29.993299530663293",
    "geocoded_column": {
      "latitude": "29.993299530663293",
      "longitude": "-90.11148494707139"
    }
  },
  {
    "service_request": "2023-1041161",
    "request_type": "Trash/Recycling",
    "request_reason": "Order Trash Cart",
    "date_created": "2023-10-05T17:07:06.000",
    "date_modified": "2023-10-05T17:07:07.000",
    "request_status": "Pending",
    "responsible_agency": "Department of Sanitation",
    "final_address": "3316 Johnny Jackson Jr Blvd",
    "address_councildis": "D",
    "status": "Assigned to Contractor",
    "contractor": "IV Waste",
    "rowid": "1041161",
    "final_x": "3691730.41308",
    "final_y": "544718.016463",
    "longitude": "-90.03529438610262",
    "latitude": "29.99147096090832",
    "geocoded_column": {
      "latitude": "29.99147096090832",
      "longitude": "-90.03529438610262"
    }
  },
  {
    "service_request": "2023-1041160",
    "request_type": "Trash/Recycling",
    "request_reason": "Order Recycling Cart",
    "date_created": "2023-10-05T17:07:00.000",
    "date_modified": "2023-10-05T17:07:00.000",
    "request_status": "Pending",
    "responsible_agency": "Department of Sanitation",
    "final_address": "3418 S Robertson St",
    "address_councildis": "B",
    "status": "Pending",
    "rowid": "1041160",
    "final_x": "3672625.18395",
    "final_y": "524687.269372",
    "longitude": "-90.09632677011002",
    "latitude": "29.936974393386233",
    "geocoded_column": {
      "latitude": "29.936974393386233",
      "longitude": "-90.09632677011002"
    }
  },
  {
    "service_request": "2023-1041159",
    "request_type": "Trash/Recycling",
    "request_reason": "Illegal Dumping",
    "date_created": "2023-10-05T17:00:38.000",
    "date_modified": "2023-10-05T17:00:39.000",
    "request_status": "Pending",
    "responsible_agency": "Department of Sanitation",
    "final_address": "5922 Marigny St",
    "address_councildis": "D",
    "status": "Pending",
    "rowid": "1041159",
    "final_x": "3683892.45333",
    "final_y": "554827.015896",
    "longitude": "-90.05969779524123",
    "latitude": "30.01950887030705",
    "geocoded_column": {
      "latitude": "30.01950887030705",
      "longitude": "-90.05969779524123"
    }
  },
  {
    "service_request": "2023-1041158",
    "request_type": "Trash/Recycling",
    "request_reason": "Order Recycling Cart",
    "date_created": "2023-10-05T16:59:40.000",
    "date_modified": "2023-10-05T16:59:41.000",
    "request_status": "Pending",
    "responsible_agency": "Department of Sanitation",
    "final_address": "3605 Octavia St",
    "address_councildis": "A",
    "status": "Pending",
    "rowid": "1041158",
    "final_x": "3668687.11745",
    "final_y": "528793.363264",
    "longitude": "-90.10862094279862",
    "latitude": "29.94838113418921",
    "geocoded_column": {
      "latitude": "29.94838113418921",
      "longitude": "-90.10862094279862"
    }
  },
  {
    "service_request": "2023-1041157",
    "request_type": "Traffic Signals/Signs/Striping/Streetlights",
    "request_reason": "Traffic Sign Missing/Damaged",
    "date_created": "2023-10-05T16:43:40.000",
    "date_modified": "2023-10-05T16:43:41.000",
    "request_status": "Pending",
    "responsible_agency": "Department of Public Works",
    "final_address": "MAPLE ST & BURDETTE ST",
    "address_councildis": "A",
    "status": "Pending",
    "rowid": "1041157",
    "final_x": "3661847.5",
    "final_y": "526574.98",
    "longitude": "-90.13029010380914",
    "latitude": "29.94248052833829",
    "geocoded_column": {
      "latitude": "29.94248052833829",
      "longitude": "-90.13029010380914"
    }
  },
  {
    "service_request": "2023-1041155",
    "request_type": "Parks & Parkways",
    "request_reason": "Request Tree Service (Right of Way/Public Property)",
    "date_created": "2023-10-05T16:40:25.000",
    "date_modified": "2023-10-05T16:40:25.000",
    "request_status": "Pending",
    "responsible_agency": "Department of Parks & Parkway",
    "final_address": "420 Audubon Blvd",
    "address_councildis": "B",
    "status": "Pending",
    "rowid": "1041155",
    "final_x": "3667410.05498",
    "final_y": "530461.35053",
    "longitude": "-90.11259706519068",
    "latitude": "29.95300502622495",
    "geocoded_column": {
      "latitude": "29.95300502622495",
      "longitude": "-90.11259706519068"
    }
  },
  {
    "service_request": "2023-1041154",
    "request_type": "Trash/Recycling",
    "request_reason": "Missed Trash Pick-Up",
    "date_created": "2023-10-05T16:38:15.000",
    "date_modified": "2023-10-05T16:38:15.000",
    "request_status": "Pending",
    "responsible_agency": "Department of Sanitation",
    "final_address": "4407 Eastview Dr",
    "address_councildis": "E",
    "status": "Assigned to Contractor",
    "contractor": "Waste Pro",
    "rowid": "1041154",
    "final_x": "3705411.14206",
    "final_y": "553355.341015",
    "longitude": "-89.99176090805146",
    "latitude": "30.014787100887844",
    "geocoded_column": {
      "latitude": "30.014787100887844",
      "longitude": "-89.99176090805146"
    }
  },
  {
    "service_request": "2023-1041153",
    "request_type": "Trash/Recycling",
    "request_reason": "Missed Trash Pick-Up",
    "date_created": "2023-10-05T16:35:30.000",
    "date_modified": "2023-10-05T16:35:31.000",
    "request_status": "Pending",
    "responsible_agency": "Department of Sanitation",
    "final_address": "6433 N Miro St",
    "address_councildis": "E",
    "status": "Assigned to Contractor",
    "contractor": "Waste Pro",
    "rowid": "1041153",
    "final_x": "3702263.31287",
    "final_y": "536707.466183",
    "longitude": "-90.00231745215099",
    "latitude": "29.969112593648134",
    "geocoded_column": {
      "latitude": "29.969112593648134",
      "longitude": "-90.00231745215099"
    }
  },
  {
    "service_request": "2023-1041151",
    "request_type": "Trash/Recycling",
    "request_reason": "Request a Large Item Pick Up",
    "date_created": "2023-10-05T16:30:34.000",
    "date_modified": "2023-10-05T16:30:34.000",
    "request_status": "Pending",
    "responsible_agency": "Department of Sanitation",
    "final_address": "4421 Laine Ave",
    "address_councildis": "E",
    "status": "Assigned to Contractor",
    "contractor": "Waste Pro",
    "rowid": "1041151",
    "final_x": "3705985.96945",
    "final_y": "553516.305623",
    "longitude": "-89.98993878381756",
    "latitude": "30.015211173596796",
    "geocoded_column": {
      "latitude": "30.015211173596796",
      "longitude": "-89.98993878381756"
    }
  },
  {
    "service_request": "2023-1041150",
    "request_type": "Trash/Recycling",
    "request_reason": "Repair Trash Cart",
    "date_created": "2023-10-05T16:27:03.000",
    "date_modified": "2023-10-05T16:27:03.000",
    "request_status": "Pending",
    "responsible_agency": "Department of Sanitation",
    "final_address": "4226 Banks St",
    "address_councildis": "A",
    "status": "Assigned to Contractor",
    "contractor": "Richards Disposal",
    "rowid": "1041150",
    "final_x": "3669656.70036",
    "final_y": "537843.340361",
    "longitude": "-90.10525330452327",
    "latitude": "29.973237041171664",
    "geocoded_column": {
      "latitude": "29.973237041171664",
      "longitude": "-90.10525330452327"
    }
  },
  {
    "service_request": "2023-1041149",
    "request_type": "Trash/Recycling",
    "request_reason": "Repair Trash Cart",
    "date_created": "2023-10-05T16:26:32.000",
    "date_modified": "2023-10-05T16:26:33.000",
    "request_status": "Pending",
    "responsible_agency": "Department of Sanitation",
    "final_address": "3620 Banks St",
    "address_councildis": "B",
    "status": "Assigned to Contractor",
    "contractor": "Richards Disposal",
    "rowid": "1041149",
    "final_x": "3671681.64577",
    "final_y": "536301.325639",
    "longitude": "-90.09891056956772",
    "latitude": "29.968937189719835",
    "geocoded_column": {
      "latitude": "29.968937189719835",
      "longitude": "-90.09891056956772"
    }
  },
  {
    "service_request": "2023-1041148",
    "request_type": "Traffic Signals/Signs/Striping/Streetlights",
    "request_reason": "Street Light Outage/Malfunction",
    "date_created": "2023-10-05T16:25:06.000",
    "date_modified": "2023-10-05T16:25:07.000",
    "request_status": "Pending",
    "responsible_agency": "Department of Public Works",
    "final_address": "8008 Brevard Ave",
    "address_councildis": "E",
    "status": "Assigned to Contractor",
    "contractor": "Legacy Professional Services",
    "rowid": "1041148",
    "final_x": "3705721.62129",
    "final_y": "564523.608993",
    "longitude": "-89.99036638420274",
    "latitude": "30.045485472343625",
    "geocoded_column": {
      "latitude": "30.045485472343625",
      "longitude": "-89.99036638420274"
    }
  },
  {
    "service_request": "2023-1041147",
    "request_type": "Trash/Recycling",
    "request_reason": "Request a Large Item Pick Up",
    "date_created": "2023-10-05T16:23:46.000",
    "date_modified": "2023-10-05T16:23:46.000",
    "request_status": "Pending",
    "responsible_agency": "Department of Sanitation",
    "final_address": "2613 Danneel St",
    "address_councildis": "B",
    "status": "Assigned to Contractor",
    "contractor": "Richards Disposal",
    "rowid": "1041147",
    "final_x": "3675521.86907",
    "final_y": "524027.726588",
    "longitude": "-90.08720441322534",
    "latitude": "29.9350745620008",
    "geocoded_column": {
      "latitude": "29.9350745620008",
      "longitude": "-90.08720441322534"
    }
  },
  {
    "service_request": "2023-1041146",
    "request_type": "Abandoned Vehicles",
    "request_reason": "Abandoned/Junk Vehicles",
    "date_created": "2023-10-05T16:23:32.000",
    "date_modified": "2023-10-05T16:26:38.000",
    "request_status": "Pending",
    "responsible_agency": "Department of Public Works",
    "final_address": "3833 Louisiana Avenue Prkwy",
    "address_councildis": "B",
    "status": "Pending",
    "rowid": "1041146",
    "final_x": "3671257.7778",
    "final_y": "528999.608896",
    "longitude": "-90.10049727597938",
    "latitude": "29.948872441600248",
    "geocoded_column": {
      "latitude": "29.948872441600248",
      "longitude": "-90.10049727597938"
    }
  },
  {
    "service_request": "2023-1041145",
    "request_type": "Property Maintenance",
    "request_reason": "Property Maintenance",
    "date_created": "2023-10-05T16:20:41.000",
    "date_modified": "2023-10-05T16:20:41.000",
    "request_status": "Pending",
    "responsible_agency": "Department of Code Enforcement",
    "final_address": "1717 Canal St",
    "address_councildis": "B",
    "status": "Pending",
    "rowid": "1041145",
    "final_x": "3678269.8877",
    "final_y": "533011.431428",
    "longitude": "-90.07821827064988",
    "latitude": "29.959694294950538",
    "geocoded_column": {
      "latitude": "29.959694294950538",
      "longitude": "-90.07821827064988"
    }
  },
  {
    "service_request": "2023-1041144",
    "request_type": "Parks & Parkways",
    "request_reason": "Request Tree Service (Right of Way/Public Property)",
    "date_created": "2023-10-05T16:19:06.000",
    "date_modified": "2023-10-05T16:19:07.000",
    "request_status": "Pending",
    "responsible_agency": "Department of Parks & Parkway",
    "final_address": "1801 N Broad St",
    "address_councildis": "D",
    "status": "Pending",
    "rowid": "1041144",
    "final_x": "3679928.41947",
    "final_y": "541436.347852",
    "longitude": "-90.07268831064353",
    "latitude": "29.982809860304386",
    "geocoded_column": {
      "latitude": "29.982809860304386",
      "longitude": "-90.07268831064353"
    }
  },
  {
    "service_request": "2023-1041143",
    "request_type": "Trash/Recycling",
    "request_reason": "MIssed Recycling Pick-Up",
    "date_created": "2023-10-05T16:18:12.000",
    "date_modified": "2023-10-05T16:18:13.000",
    "request_status": "Pending",
    "responsible_agency": "Department of Sanitation",
    "final_address": "10120 Flossmoor Dr",
    "address_councildis": "E",
    "status": "Assigned to Contractor",
    "contractor": "Waste Pro",
    "rowid": "1041143",
    "final_x": "3709609.34027",
    "final_y": "563477.206816",
    "longitude": "-89.97811851955562",
    "latitude": "30.04248242482003",
    "geocoded_column": {
      "latitude": "30.04248242482003",
      "longitude": "-89.97811851955562"
    }
  },
  {
    "service_request": "2023-1041142",
    "request_type": "Trash/Recycling",
    "request_reason": "Request a Large Item Pick Up",
    "date_created": "2023-10-05T16:15:24.000",
    "date_modified": "2023-10-05T16:15:25.000",
    "request_status": "Pending",
    "responsible_agency": "Department of Sanitation",
    "final_address": "1317 Lesseps St",
    "address_councildis": "D",
    "status": "Assigned to Contractor",
    "contractor": "IV Waste",
    "rowid": "1041142",
    "final_x": "3692952.13059",
    "final_y": "535968.260871",
    "longitude": "-90.03174921870644",
    "latitude": "29.967374155943745",
    "geocoded_column": {
      "latitude": "29.967374155943745",
      "longitude": "-90.03174921870644"
    }
  },
  {
    "service_request": "2023-1041141",
    "request_type": "Trash/Recycling",
    "request_reason": "Missed Trash Pick-Up",
    "date_created": "2023-10-05T16:11:39.000",
    "date_modified": "2023-10-05T16:11:39.000",
    "request_status": "Pending",
    "responsible_agency": "Department of Sanitation",
    "final_address": "2228 Delachaise St",
    "address_councildis": "B",
    "status": "Assigned to Contractor",
    "contractor": "Richards Disposal",
    "rowid": "1041141",
    "final_x": "3672856.44219",
    "final_y": "523548.383739",
    "longitude": "-90.09563551161291",
    "latitude": "29.93383596055463",
    "geocoded_column": {
      "latitude": "29.93383596055463",
      "longitude": "-90.09563551161291"
    }
  },
  {
    "service_request": "2023-1041140",
    "request_type": "Roads/Drainage",
    "request_reason": "Pothole",
    "date_created": "2023-10-05T16:08:01.000",
    "date_modified": "2023-10-05T16:08:01.000",
    "request_status": "Pending",
    "responsible_agency": "Department of Public Works",
    "final_address": "800 BLK Decatur St",
    "address_councildis": "C",
    "status": "Pending",
    "rowid": "1041140",
    "final_x": "3683565.1079",
    "final_y": "532507.748092",
    "longitude": "-90.06151484449919",
    "latitude": "29.958148789736473",
    "geocoded_column": {
      "latitude": "29.958148789736473",
      "longitude": "-90.06151484449919"
    }
  },
  {
    "service_request": "2023-1041139",
    "request_type": "Traffic Signals/Signs/Striping/Streetlights",
    "request_reason": "Traffic Sign Missing/Damaged",
    "date_created": "2023-10-05T16:03:02.000",
    "date_modified": "2023-10-05T16:03:03.000",
    "request_status": "Pending",
    "responsible_agency": "Department of Public Works",
    "final_address": "S CARROLLTON AVE & TULANE AVE",
    "address_councildis": "A",
    "status": "Pending",
    "rowid": "1041139",
    "final_x": "3669337.8",
    "final_y": "536308.78",
    "longitude": "-90.10631235722039",
    "latitude": "29.96902690865695",
    "geocoded_column": {
      "latitude": "29.96902690865695",
      "longitude": "-90.10631235722039"
    }
  },
  {
    "service_request": "2023-1041138",
    "request_type": "Trash/Recycling",
    "request_reason": "Missed Trash Pick-Up",
    "date_created": "2023-10-05T16:01:13.000",
    "date_modified": "2023-10-05T16:01:14.000",
    "request_status": "Pending",
    "responsible_agency": "Department of Sanitation",
    "final_address": "6040 Burgundy St",
    "address_councildis": "E",
    "status": "Assigned to Contractor",
    "contractor": "Waste Pro",
    "rowid": "1041138",
    "final_x": "3699133.00375",
    "final_y": "532536.7097",
    "longitude": "-90.01235497646901",
    "latitude": "29.95774411453584",
    "geocoded_column": {
      "latitude": "29.95774411453584",
      "longitude": "-90.01235497646901"
    }
  },
  {
    "service_request": "2023-1041137",
    "request_type": "Trash/Recycling",
    "request_reason": "Dead Animal Pick Up",
    "date_created": "2023-10-05T15:59:34.000",
    "date_modified": "2023-10-05T15:59:35.000",
    "request_status": "Pending",
    "responsible_agency": "Department of Sanitation",
    "final_address": "1301 Simon Bolivar Ave",
    "address_councildis": "B",
    "status": "Assigned to Contractor",
    "contractor": "Richards Disposal",
    "rowid": "1041137",
    "final_x": "3677558.27246",
    "final_y": "527277.501503",
    "longitude": "-90.08066333662578",
    "latitude": "29.943949318997994",
    "geocoded_column": {
      "latitude": "29.943949318997994",
      "longitude": "-90.08066333662578"
    }
  },
  {
    "service_request": "2023-1041136",
    "request_type": "Trash/Recycling",
    "request_reason": "Request a Large Item Pick Up",
    "date_created": "2023-10-05T15:55:36.000",
    "date_modified": "2023-10-05T15:55:36.000",
    "request_status": "Pending",
    "responsible_agency": "Department of Sanitation",
    "final_address": "1724 Frenchmen St",
    "address_councildis": "D",
    "status": "Assigned to Contractor",
    "contractor": "IV Waste",
    "rowid": "1041136",
    "final_x": "3684365.27644",
    "final_y": "538688.057481",
    "longitude": "-90.05877105662731",
    "latitude": "29.975118058168416",
    "geocoded_column": {
      "latitude": "29.975118058168416",
      "longitude": "-90.05877105662731"
    }
  },
  {
    "service_request": "2023-1041135",
    "request_type": "Traffic Signals/Signs/Striping/Streetlights",
    "request_reason": "Road Surface Marking Maintenance-Traffic Control",
    "date_created": "2023-10-05T15:46:15.000",
    "date_modified": "2023-10-05T15:46:15.000",
    "request_status": "Pending",
    "responsible_agency": "Department of Public Works",
    "final_address": "6030 Hayne Blvd",
    "address_councildis": "E",
    "status": "Pending",
    "rowid": "1041135",
    "final_x": "3694994.7793",
    "final_y": "560001.076445",
    "longitude": "-90.02443156966852",
    "latitude": "30.033391578359915",
    "geocoded_column": {
      "latitude": "30.033391578359915",
      "longitude": "-90.02443156966852"
    }
  },
  {
    "service_request": "2023-1041133",
    "request_type": "Property Maintenance",
    "request_reason": "Property Maintenance",
    "date_created": "2023-10-05T15:38:19.000",
    "date_modified": "2023-10-05T15:38:19.000",
    "request_status": "Pending",
    "responsible_agency": "Department of Code Enforcement",
    "final_address": "2544 Abundance St",
    "address_councildis": "D",
    "status": "Pending",
    "rowid": "1041133",
    "final_x": "3687095.02422",
    "final_y": "543842.21083",
    "longitude": "-90.04996750315013",
    "latitude": "29.9892063807954",
    "geocoded_column": {
      "latitude": "29.9892063807954",
      "longitude": "-90.04996750315013"
    }
  },
  {
    "service_request": "2023-1041132",
    "request_type": "Trash/Recycling",
    "request_reason": "Repair Trash Cart",
    "date_created": "2023-10-05T15:33:19.000",
    "date_modified": "2023-10-05T15:33:20.000",
    "request_status": "Pending",
    "responsible_agency": "Department of Sanitation",
    "final_address": "5531 Burgundy St",
    "address_councildis": "E",
    "status": "Assigned to Contractor",
    "contractor": "Waste Pro",
    "rowid": "1041132",
    "final_x": "3697765.892",
    "final_y": "533057.055236",
    "longitude": "-90.0166530147609",
    "latitude": "29.959218146197905",
    "geocoded_column": {
      "latitude": "29.959218146197905",
      "longitude": "-90.0166530147609"
    }
  },
  {
    "service_request": "2023-1041131",
    "request_type": "Trash/Recycling",
    "request_reason": "Repair Trash Cart",
    "date_created": "2023-10-05T15:32:44.000",
    "date_modified": "2023-10-05T15:32:45.000",
    "request_status": "Pending",
    "responsible_agency": "Department of Sanitation",
    "final_address": "4414 Ray Ave",
    "address_councildis": "E",
    "status": "Assigned to Contractor",
    "contractor": "Waste Pro",
    "rowid": "1041131",
    "final_x": "3698860.92138",
    "final_y": "552609.319702",
    "longitude": "-90.01248348667475",
    "latitude": "30.01294507039856",
    "geocoded_column": {
      "latitude": "30.01294507039856",
      "longitude": "-90.01248348667475"
    }
  },
  {
    "service_request": "2023-1041130",
    "request_type": "Trash/Recycling",
    "request_reason": "Missed Trash Pick-Up",
    "date_created": "2023-10-05T15:30:10.000",
    "date_modified": "2023-10-05T15:30:11.000",
    "request_status": "Pending",
    "responsible_agency": "Department of Sanitation",
    "final_address": "5436 N Derbigny St",
    "address_councildis": "E",
    "status": "Assigned to Contractor",
    "contractor": "Waste Pro",
    "rowid": "1041130",
    "final_x": "3698099.97181",
    "final_y": "536078.119367",
    "longitude": "-90.01548835981241",
    "latitude": "29.967514436265095",
    "geocoded_column": {
      "latitude": "29.967514436265095",
      "longitude": "-90.01548835981241"
    }
  },
  {
    "service_request": "2023-1041129",
    "request_type": "Traffic Signals/Signs/Striping/Streetlights",
    "request_reason": "Request for Stop Sign",
    "date_created": "2023-10-05T15:22:36.000",
    "date_modified": "2023-10-05T15:22:37.000",
    "request_status": "Pending",
    "responsible_agency": "Department of Public Works",
    "final_address": "MONROE ST & PALMETTO ST",
    "address_councildis": "A",
    "status": "Pending",
    "rowid": "1041129",
    "final_x": "3666646.28",
    "final_y": "536672.16",
    "longitude": "-90.11480018864499",
    "latitude": "29.9701050593412",
    "geocoded_column": {
      "latitude": "29.9701050593412",
      "longitude": "-90.11480018864499"
    }
  },
  {
    "service_request": "2023-1041128",
    "request_type": "Property Maintenance",
    "request_reason": "Property Maintenance",
    "date_created": "2023-10-05T15:19:21.000",
    "date_modified": "2023-10-05T15:19:22.000",
    "request_status": "Pending",
    "responsible_agency": "Department of Code Enforcement",
    "final_address": "3118 Washington Ave",
    "address_councildis": "B",
    "status": "Pending",
    "rowid": "1041128",
    "final_x": "3672792.91579",
    "final_y": "527146.800511",
    "longitude": "-90.09571336233945",
    "latitude": "29.943732321702132",
    "geocoded_column": {
      "latitude": "29.943732321702132",
      "longitude": "-90.09571336233945"
    }
  },
  {
    "service_request": "2023-1041127",
    "request_type": "Trash/Recycling",
    "request_reason": "Order Recycling Cart",
    "date_created": "2023-10-05T15:15:39.000",
    "date_modified": "2023-10-05T15:15:39.000",
    "request_status": "Pending",
    "responsible_agency": "Department of Sanitation",
    "final_address": "1327 Broadway St",
    "address_councildis": "A",
    "status": "Pending",
    "rowid": "1041127",
    "final_x": "3664549.8985",
    "final_y": "526960.263934",
    "longitude": "-90.12174511579637",
    "latitude": "29.943461642376416",
    "geocoded_column": {
      "latitude": "29.943461642376416",
      "longitude": "-90.12174511579637"
    }
  },
  {
    "service_request": "2023-1041126",
    "request_type": "Mosquito, Termite & Rodent Control",
    "request_reason": "Non-Rodent Complaint (Mice, Possums, Snakes)",
    "date_created": "2023-10-05T15:14:12.000",
    "date_modified": "2023-10-05T15:14:12.000",
    "request_status": "Pending",
    "responsible_agency": "Mosquito, Termite & Rodent Control Board",
    "final_address": "114 Lark St",
    "address_councildis": "D",
    "status": "Pending",
    "rowid": "1041126",
    "final_x": "3674615.85672",
    "final_y": "556343.09705",
    "longitude": "-90.0889567663995",
    "latitude": "30.02395780511709",
    "geocoded_column": {
      "latitude": "30.02395780511709",
      "longitude": "-90.0889567663995"
    }
  },
  {
    "service_request": "2023-1041123",
    "request_type": "Trash/Recycling",
    "request_reason": "Missed Trash Pick-Up",
    "date_created": "2023-10-05T15:12:52.000",
    "date_modified": "2023-10-05T15:12:53.000",
    "request_status": "Pending",
    "responsible_agency": "Department of Sanitation",
    "final_address": "2417 Delery St",
    "address_councildis": "E",
    "status": "Assigned to Contractor",
    "contractor": "Waste Pro",
    "rowid": "1041123",
    "final_x": "3702414.91236",
    "final_y": "537702.181832",
    "longitude": "-90.0018021891436",
    "latitude": "29.971842857742445",
    "geocoded_column": {
      "latitude": "29.971842857742445",
      "longitude": "-90.0018021891436"
    }
  },
  {
    "service_request": "2023-1041122",
    "request_type": "Mosquito, Termite & Rodent Control",
    "request_reason": "Non-Rodent Complaint (Mice, Possums, Snakes)",
    "date_created": "2023-10-05T15:11:54.000",
    "date_modified": "2023-10-05T15:11:54.000",
    "request_status": "Pending",
    "responsible_agency": "Mosquito, Termite & Rodent Control Board",
    "final_address": "114 Lark St",
    "address_councildis": "D",
    "status": "Pending",
    "rowid": "1041122",
    "final_x": "3674615.85672",
    "final_y": "556343.09705",
    "longitude": "-90.0889567663995",
    "latitude": "30.02395780511709",
    "geocoded_column": {
      "latitude": "30.02395780511709",
      "longitude": "-90.0889567663995"
    }
  },
  {
    "service_request": "2023-1041121",
    "request_type": "Roads/Drainage",
    "request_reason": "Damaged Sidewalk",
    "date_created": "2023-10-05T15:09:10.000",
    "date_modified": "2023-10-05T15:09:11.000",
    "request_status": "Pending",
    "responsible_agency": "Department of Public Works",
    "final_address": "1019 Marengo St",
    "address_councildis": "B",
    "status": "Pending",
    "rowid": "1041121",
    "final_x": "3672162.97351",
    "final_y": "519447.224759",
    "longitude": "-90.09796435338693",
    "latitude": "29.922579669279838",
    "geocoded_column": {
      "latitude": "29.922579669279838",
      "longitude": "-90.09796435338693"
    }
  },
  {
    "service_request": "2023-1041118",
    "request_type": "Parks & Parkways",
    "request_reason": "Request Tree Service (Right of Way/Public Property)",
    "date_created": "2023-10-05T15:05:36.000",
    "date_modified": "2023-10-05T15:05:36.000",
    "request_status": "Pending",
    "responsible_agency": "Department of Parks & Parkway",
    "final_address": "605 Austerlitz St",
    "address_councildis": "B",
    "status": "Pending",
    "rowid": "1041118",
    "final_x": "3673000.56699",
    "final_y": "517996.317302",
    "longitude": "-90.0953698834408",
    "latitude": "29.918565279680546",
    "geocoded_column": {
      "latitude": "29.918565279680546",
      "longitude": "-90.0953698834408"
    }
  },
  {
    "service_request": "2023-1041117",
    "request_type": "Trash/Recycling",
    "request_reason": "Request a Large Item Pick Up",
    "date_created": "2023-10-05T15:01:40.000",
    "date_modified": "2023-10-05T15:01:41.000",
    "request_status": "Pending",
    "responsible_agency": "Department of Sanitation",
    "final_address": "5707 Lafaye St",
    "address_councildis": "D",
    "status": "Assigned to Contractor",
    "contractor": "IV Waste",
    "rowid": "1041117",
    "final_x": "3687266.29564",
    "final_y": "554239.62812",
    "longitude": "-90.049058406181",
    "latitude": "30.017790224853744",
    "geocoded_column": {
      "latitude": "30.017790224853744",
      "longitude": "-90.049058406181"
    }
  },
  {
    "service_request": "2023-1041116",
    "request_type": "Trash/Recycling",
    "request_reason": "Repair Recycling Cart",
    "date_created": "2023-10-05T14:55:43.000",
    "date_modified": "2023-10-05T14:55:44.000",
    "request_status": "Pending",
    "responsible_agency": "Department of Sanitation",
    "final_address": "7535 Plum St",
    "address_councildis": "A",
    "status": "Pending",
    "rowid": "1041116",
    "final_x": "3663743.38419",
    "final_y": "527368.977663",
    "longitude": "-90.12427788609618",
    "latitude": "29.94460889858001",
    "geocoded_column": {
      "latitude": "29.94460889858001",
      "longitude": "-90.12427788609618"
    }
  },
  {
    "service_request": "2023-1041115",
    "request_type": "Traffic Signals/Signs/Striping/Streetlights",
    "request_reason": "Street Light Outage/Malfunction",
    "date_created": "2023-10-05T14:55:22.000",
    "date_modified": "2023-10-05T14:55:23.000",
    "request_status": "Pending",
    "responsible_agency": "Department of Public Works",
    "final_address": "6615 Louis Xiv St",
    "address_councildis": "A",
    "status": "Assigned to Contractor",
    "contractor": "Legacy Professional Services",
    "rowid": "1041115",
    "final_x": "3668560.40046",
    "final_y": "551596.811477",
    "longitude": "-90.1082512496993",
    "latitude": "30.01108663048943",
    "geocoded_column": {
      "latitude": "30.01108663048943",
      "longitude": "-90.1082512496993"
    }
  },
  {
    "service_request": "2023-1041114",
    "request_type": "Trash/Recycling",
    "request_reason": "Repair Trash Cart",
    "date_created": "2023-10-05T14:55:05.000",
    "date_modified": "2023-10-05T14:55:05.000",
    "request_status": "Pending",
    "responsible_agency": "Department of Sanitation",
    "final_address": "7531 Plum St",
    "address_councildis": "A",
    "status": "Assigned to Contractor",
    "contractor": "Richards Disposal",
    "rowid": "1041114",
    "final_x": "3663764.11987",
    "final_y": "527350.758399",
    "longitude": "-90.1242130241325",
    "latitude": "29.94455819980751",
    "geocoded_column": {
      "latitude": "29.94455819980751",
      "longitude": "-90.1242130241325"
    }
  },
  {
    "service_request": "2023-1041113",
    "request_type": "Trash/Recycling",
    "request_reason": "Repair Trash Cart",
    "date_created": "2023-10-05T14:54:29.000",
    "date_modified": "2023-10-05T14:54:30.000",
    "request_status": "Pending",
    "responsible_agency": "Department of Sanitation",
    "final_address": "7535 Plum St",
    "address_councildis": "A",
    "status": "Assigned to Contractor",
    "contractor": "Richards Disposal",
    "rowid": "1041113",
    "final_x": "3663743.38419",
    "final_y": "527368.977663",
    "longitude": "-90.12427788609618",
    "latitude": "29.94460889858001",
    "geocoded_column": {
      "latitude": "29.94460889858001",
      "longitude": "-90.12427788609618"
    }
  },
  {
    "service_request": "2023-1041112",
    "request_type": "Trash/Recycling",
    "request_reason": "Request a Large Item Pick Up",
    "date_created": "2023-10-05T14:50:15.000",
    "date_modified": "2023-10-05T14:50:16.000",
    "request_status": "Pending",
    "responsible_agency": "Department of Sanitation",
    "final_address": "1662 Abundance St",
    "address_councildis": "D",
    "status": "Assigned to Contractor",
    "contractor": "IV Waste",
    "rowid": "1041112",
    "final_x": "3680434.6525",
    "final_y": "543303.392334",
    "longitude": "-90.07102440727711",
    "latitude": "29.987928255139828",
    "geocoded_column": {
      "latitude": "29.987928255139828",
      "longitude": "-90.07102440727711"
    }
  },
  {
    "service_request": "2023-1041111",
    "request_type": "Health Related Request",
    "request_reason": "Noise Ordinance Complaint",
    "date_created": "2023-10-05T14:45:46.000",
    "date_modified": "2023-10-05T14:45:46.000",
    "request_status": "Pending",
    "responsible_agency": "Health Department",
    "status": "Pending",
    "rowid": "1041111",
    "longitude": "0.0",
    "latitude": "0.0",
    "geocoded_column": {
      "latitude": "0.0",
      "longitude": "0.0"
    }
  },
  {
    "service_request": "2023-1041110",
    "request_type": "Trash/Recycling",
    "request_reason": "Order Trash Cart",
    "date_created": "2023-10-05T14:45:39.000",
    "date_modified": "2023-10-05T14:45:39.000",
    "request_status": "Pending",
    "responsible_agency": "Department of Sanitation",
    "final_address": "3027 St Roch Ave",
    "address_councildis": "D",
    "status": "Assigned to Contractor",
    "contractor": "IV Waste",
    "rowid": "1041110",
    "final_x": "3685975.99836",
    "final_y": "544010.085326",
    "longitude": "-90.05349624779302",
    "latitude": "29.98970239061388",
    "geocoded_column": {
      "latitude": "29.98970239061388",
      "longitude": "-90.05349624779302"
    }
  },
  {
    "service_request": "2023-1041109",
    "request_type": "Trash/Recycling",
    "request_reason": "Order Trash Cart",
    "date_created": "2023-10-05T14:44:55.000",
    "date_modified": "2023-10-05T14:44:56.000",
    "request_status": "Pending",
    "responsible_agency": "Department of Sanitation",
    "final_address": "3025 St Roch Ave",
    "address_councildis": "D",
    "status": "Assigned to Contractor",
    "contractor": "IV Waste",
    "rowid": "1041109",
    "final_x": "3685977.05154",
    "final_y": "543992.004174",
    "longitude": "-90.05349355902013",
    "latitude": "29.9896526415455",
    "geocoded_column": {
      "latitude": "29.9896526415455",
      "longitude": "-90.05349355902013"
    }
  },
  {
    "service_request": "2023-1041108",
    "request_type": "Abandoned Vehicles",
    "request_reason": "Abandoned/Junk Vehicles",
    "date_created": "2023-10-05T14:37:35.000",
    "date_modified": "2023-10-05T14:41:56.000",
    "request_status": "Pending",
    "responsible_agency": "Department of Public Works",
    "final_address": "6066 Wildair Dr",
    "address_councildis": "D",
    "status": "Pending",
    "rowid": "1041108",
    "final_x": "3681358.75413",
    "final_y": "555430.136281",
    "longitude": "-90.0676823857096",
    "latitude": "30.0212444249657",
    "geocoded_column": {
      "latitude": "30.0212444249657",
      "longitude": "-90.0676823857096"
    }
  },
  {
    "service_request": "2023-1041107",
    "request_type": "Abandoned Vehicles",
    "request_reason": "Abandoned/Junk Vehicles",
    "date_created": "2023-10-05T14:37:07.000",
    "date_modified": "2023-10-05T14:37:07.000",
    "request_status": "Pending",
    "responsible_agency": "Department of Public Works",
    "final_address": "3147 Lamarque St",
    "address_councildis": "C",
    "status": "Pending",
    "rowid": "1041107",
    "final_x": "3695767.50608",
    "final_y": "526605.933758",
    "longitude": "-90.02319632062789",
    "latitude": "29.941542805602005",
    "geocoded_column": {
      "latitude": "29.941542805602005",
      "longitude": "-90.02319632062789"
    }
  },
  {
    "service_request": "2023-1041106",
    "request_type": "Trash/Recycling",
    "request_reason": "Replace Trash Cart",
    "date_created": "2023-10-05T14:37:04.000",
    "date_modified": "2023-10-05T14:37:04.000",
    "request_status": "Pending",
    "responsible_agency": "Department of Sanitation",
    "final_address": "1124 City Park Ave",
    "address_councildis": "A",
    "status": "Assigned to Contractor",
    "contractor": "Richards Disposal",
    "rowid": "1041106",
    "final_x": "3673182.29166",
    "final_y": "541465.592396",
    "longitude": "-90.09399502456372",
    "latitude": "29.98309262836054",
    "geocoded_column": {
      "latitude": "29.98309262836054",
      "longitude": "-90.09399502456372"
    }
  },
  {
    "service_request": "2023-1041105",
    "request_type": "Trash/Recycling",
    "request_reason": "Repair Trash Cart",
    "date_created": "2023-10-05T14:35:35.000",
    "date_modified": "2023-10-05T14:35:36.000",
    "request_status": "Pending",
    "responsible_agency": "Department of Sanitation",
    "final_address": "1930 Annunciation St Unit M",
    "address_councildis": "B",
    "status": "Assigned to Contractor",
    "contractor": "Richards Disposal",
    "rowid": "1041105",
    "final_x": "3680581.53455",
    "final_y": "521734.415034",
    "longitude": "-90.07131082734999",
    "latitude": "29.928616440231863",
    "geocoded_column": {
      "latitude": "29.928616440231863",
      "longitude": "-90.07131082734999"
    }
  },
  {
    "service_request": "2023-1041104",
    "request_type": "Abandoned Vehicles",
    "request_reason": "Abandoned/Junk Vehicles",
    "date_created": "2023-10-05T14:35:28.000",
    "date_modified": "2023-10-05T14:35:28.000",
    "request_status": "Pending",
    "responsible_agency": "Department of Public Works",
    "final_address": "3147 Lamarque St",
    "address_councildis": "C",
    "status": "Pending",
    "rowid": "1041104",
    "final_x": "3695767.50608",
    "final_y": "526605.933758",
    "longitude": "-90.02319632062789",
    "latitude": "29.941542805602005",
    "geocoded_column": {
      "latitude": "29.941542805602005",
      "longitude": "-90.02319632062789"
    }
  },
  {
    "service_request": "2023-1041103",
    "request_type": "Abandoned Vehicles",
    "request_reason": "Abandoned/Junk Vehicles",
    "date_created": "2023-10-05T14:34:39.000",
    "date_modified": "2023-10-05T14:34:39.000",
    "request_status": "Pending",
    "responsible_agency": "Department of Public Works",
    "final_address": "3147 Lamarque St",
    "address_councildis": "C",
    "status": "Pending",
    "rowid": "1041103",
    "final_x": "3695767.50608",
    "final_y": "526605.933758",
    "longitude": "-90.02319632062789",
    "latitude": "29.941542805602005",
    "geocoded_column": {
      "latitude": "29.941542805602005",
      "longitude": "-90.02319632062789"
    }
  },
  {
    "service_request": "2023-1041102",
    "request_type": "Abandoned Vehicles",
    "request_reason": "Abandoned/Junk Vehicles",
    "date_created": "2023-10-05T14:30:53.000",
    "date_modified": "2023-10-05T14:30:53.000",
    "request_status": "Pending",
    "responsible_agency": "Department of Public Works",
    "final_address": "3147 Lamarque St",
    "address_councildis": "C",
    "status": "Pending",
    "rowid": "1041102",
    "final_x": "3695767.50608",
    "final_y": "526605.933758",
    "longitude": "-90.02319632062789",
    "latitude": "29.941542805602005",
    "geocoded_column": {
      "latitude": "29.941542805602005",
      "longitude": "-90.02319632062789"
    }
  },
  {
    "service_request": "2023-1041101",
    "request_type": "Trash/Recycling",
    "request_reason": "Order Trash Cart",
    "date_created": "2023-10-05T14:28:52.000",
    "date_modified": "2023-10-05T14:28:53.000",
    "request_status": "Pending",
    "responsible_agency": "Department of Sanitation",
    "final_address": "3331 Loyola Ave",
    "address_councildis": "B",
    "status": "Assigned to Contractor",
    "contractor": "Richards Disposal",
    "rowid": "1041101",
    "final_x": "3673480.11137",
    "final_y": "523602.124603",
    "longitude": "-90.09366477736995",
    "latitude": "29.933965192151607",
    "geocoded_column": {
      "latitude": "29.933965192151607",
      "longitude": "-90.09366477736995"
    }
  },
  {
    "service_request": "2023-1041100",
    "request_type": "Abandoned Vehicles",
    "request_reason": "Abandoned/Junk Vehicles",
    "date_created": "2023-10-05T14:27:00.000",
    "date_modified": "2023-10-05T14:27:00.000",
    "request_status": "Pending",
    "responsible_agency": "Department of Public Works",
    "final_address": "3147 Lamarque St",
    "address_councildis": "C",
    "status": "Pending",
    "rowid": "1041100",
    "final_x": "3695767.50608",
    "final_y": "526605.933758",
    "longitude": "-90.02319632062789",
    "latitude": "29.941542805602005",
    "geocoded_column": {
      "latitude": "29.941542805602005",
      "longitude": "-90.02319632062789"
    }
  },
  {
    "service_request": "2023-1041099",
    "request_type": "Trash/Recycling",
    "request_reason": "Request a Large Item Pick Up",
    "date_created": "2023-10-05T14:26:49.000",
    "date_modified": "2023-10-05T14:26:50.000",
    "request_status": "Pending",
    "responsible_agency": "Department of Sanitation",
    "final_address": "10141 Chevy Chase Dr",
    "address_councildis": "E",
    "status": "Assigned to Contractor",
    "contractor": "Waste Pro",
    "rowid": "1041099",
    "final_x": "3709900.59544",
    "final_y": "563203.30768",
    "longitude": "-89.9772082920235",
    "latitude": "30.041719836816217",
    "geocoded_column": {
      "latitude": "30.041719836816217",
      "longitude": "-89.9772082920235"
    }
  },
  {
    "service_request": "2023-1041098",
    "request_type": "Abandoned Vehicles",
    "request_reason": "Abandoned/Junk Vehicles",
    "date_created": "2023-10-05T14:26:42.000",
    "date_modified": "2023-10-05T14:26:42.000",
    "request_status": "Pending",
    "responsible_agency": "Department of Public Works",
    "final_address": "4821 Iberville St",
    "address_councildis": "A",
    "status": "Pending",
    "rowid": "1041098",
    "final_x": "3668978.5931",
    "final_y": "540625.347595",
    "longitude": "-90.10730089982735",
    "latitude": "29.980906589327905",
    "geocoded_column": {
      "latitude": "29.980906589327905",
      "longitude": "-90.10730089982735"
    }
  },
  {
    "service_request": "2023-1041096",
    "request_type": "Trash/Recycling",
    "request_reason": "Order Recycling Cart",
    "date_created": "2023-10-05T14:20:17.000",
    "date_modified": "2023-10-05T14:20:17.000",
    "request_status": "Pending",
    "responsible_agency": "Department of Sanitation",
    "final_address": "0 BLK Allard Blvd",
    "address_councildis": "A",
    "status": "Pending",
    "rowid": "1041096",
    "final_x": "3672821.79572",
    "final_y": "540498.945693",
    "longitude": "-90.09516664976555",
    "latitude": "29.98044539706053",
    "geocoded_column": {
      "latitude": "29.98044539706053",
      "longitude": "-90.09516664976555"
    }
  },
  {
    "service_request": "2023-1041095",
    "request_type": "Traffic Signals/Signs/Striping/Streetlights",
    "request_reason": "Additional signage",
    "date_created": "2023-10-05T14:19:15.000",
    "date_modified": "2023-10-05T14:19:16.000",
    "request_status": "Pending",
    "responsible_agency": "Department of Public Works",
    "final_address": "1500 BLK Virginia Marie St",
    "address_councildis": "D",
    "status": "Pending",
    "rowid": "1041095",
    "final_x": "3679078.93905",
    "final_y": "548794.788353",
    "longitude": "-90.07511618770977",
    "latitude": "30.003068652045553",
    "geocoded_column": {
      "latitude": "30.003068652045553",
      "longitude": "-90.07511618770977"
    }
  },
  {
    "service_request": "2023-1041094",
    "request_type": "Abandoned Vehicles",
    "request_reason": "Abandoned/Junk Vehicles",
    "date_created": "2023-10-05T14:18:10.000",
    "date_modified": "2023-10-05T14:18:10.000",
    "request_status": "Pending",
    "responsible_agency": "Department of Public Works",
    "final_address": "4821 Iberville St",
    "address_councildis": "A",
    "status": "Pending",
    "rowid": "1041094",
    "final_x": "3668978.5931",
    "final_y": "540625.347595",
    "longitude": "-90.10730089982735",
    "latitude": "29.980906589327905",
    "geocoded_column": {
      "latitude": "29.980906589327905",
      "longitude": "-90.10730089982735"
    }
  },
  {
    "service_request": "2023-1041093",
    "request_type": "Safety & Permits",
    "request_reason": "Licenses & Permits",
    "date_created": "2023-10-05T14:15:25.000",
    "date_modified": "2023-10-05T14:15:26.000",
    "request_status": "Pending",
    "responsible_agency": "Safety and Permits",
    "final_address": "2240 St Claude Ave",
    "address_councildis": "C",
    "status": "Pending",
    "rowid": "1041093",
    "final_x": "3685380.17858",
    "final_y": "536300.819271",
    "longitude": "-90.0556498072011",
    "latitude": "29.96852290527007",
    "geocoded_column": {
      "latitude": "29.96852290527007",
      "longitude": "-90.0556498072011"
    }
  },
  {
    "service_request": "2023-1041092",
    "request_type": "Property Maintenance",
    "request_reason": "Property Maintenance",
    "date_created": "2023-10-05T14:14:37.000",
    "date_modified": "2023-10-05T14:14:37.000",
    "request_status": "Pending",
    "responsible_agency": "Department of Code Enforcement",
    "final_address": "1814 Louisa St",
    "address_councildis": "D",
    "status": "Pending",
    "rowid": "1041092",
    "final_x": "3690213.38486",
    "final_y": "538623.384969",
    "longitude": "-90.04030357167984",
    "latitude": "29.974760068675412",
    "geocoded_column": {
      "latitude": "29.974760068675412",
      "longitude": "-90.04030357167984"
    }
  },
  {
    "service_request": "2023-1041091",
    "request_type": "Roads/Drainage",
    "request_reason": "Pothole",
    "date_created": "2023-10-05T14:14:33.000",
    "date_modified": "2023-10-05T14:14:33.000",
    "request_status": "Pending",
    "responsible_agency": "Department of Public Works",
    "final_address": "S NORMAN C FRANCIS PKWY & EDEN ST",
    "address_councildis": "B",
    "status": "Pending",
    "rowid": "1041091",
    "final_x": "3669353.9",
    "final_y": "531015.88",
    "longitude": "-90.10644048952992",
    "latitude": "29.95447271413749",
    "geocoded_column": {
      "latitude": "29.95447271413749",
      "longitude": "-90.10644048952992"
    }
  },
  {
    "service_request": "2023-1041090",
    "request_type": "Abandoned Vehicles",
    "request_reason": "Abandoned/Junk Vehicles",
    "date_created": "2023-10-05T14:13:22.000",
    "date_modified": "2023-10-05T14:13:22.000",
    "request_status": "Pending",
    "responsible_agency": "Department of Public Works",
    "final_address": "5902 Marshal Foch St",
    "address_councildis": "A",
    "status": "Pending",
    "rowid": "1041090",
    "final_x": "3669674.05025",
    "final_y": "546565.222929",
    "longitude": "-90.10490320086377",
    "latitude": "29.997218731775796",
    "geocoded_column": {
      "latitude": "29.997218731775796",
      "longitude": "-90.10490320086377"
    }
  },
  {
    "service_request": "2023-1041089",
    "request_type": "Trash/Recycling",
    "request_reason": "Missed Trash Pick-Up",
    "date_created": "2023-10-05T14:12:16.000",
    "date_modified": "2023-10-05T14:12:17.000",
    "request_status": "Pending",
    "responsible_agency": "Department of Sanitation",
    "final_address": "1636 Broadway St",
    "address_councildis": "A",
    "status": "Assigned to Contractor",
    "contractor": "Richards Disposal",
    "rowid": "1041089",
    "final_x": "3665093.39424",
    "final_y": "527963.461439",
    "longitude": "-90.1199956123294",
    "latitude": "29.946204299856205",
    "geocoded_column": {
      "latitude": "29.946204299856205",
      "longitude": "-90.1199956123294"
    }
  },
  {
    "service_request": "2023-1041088",
    "request_type": "Traffic Signals/Signs/Striping/Streetlights",
    "request_reason": "Additional signage",
    "date_created": "2023-10-05T14:11:20.000",
    "date_modified": "2023-10-05T14:11:20.000",
    "request_status": "Pending",
    "responsible_agency": "Department of Public Works",
    "final_address": "North Alexander Street & Saint Peter Street",
    "address_councildis": "A",
    "status": "Pending",
    "rowid": "1041088",
    "final_x": "3671294.25492",
    "final_y": "540888.340811",
    "longitude": "-90.0999780530688",
    "latitude": "29.981561398965976",
    "geocoded_column": {
      "latitude": "29.981561398965976",
      "longitude": "-90.0999780530688"
    }
  },
  {
    "service_request": "2023-1041087",
    "request_type": "Trash/Recycling",
    "request_reason": "Order Trash Cart",
    "date_created": "2023-10-05T14:06:45.000",
    "date_modified": "2023-10-05T14:06:45.000",
    "request_status": "Pending",
    "responsible_agency": "Department of Sanitation",
    "final_address": "8525 Apple St",
    "address_councildis": "A",
    "status": "Assigned to Contractor",
    "contractor": "Richards Disposal",
    "rowid": "1041087",
    "final_x": "3664155.54829",
    "final_y": "533244.298948",
    "longitude": "-90.12278057858401",
    "latitude": "29.96075216476889",
    "geocoded_column": {
      "latitude": "29.96075216476889",
      "longitude": "-90.12278057858401"
    }
  },
  {
    "service_request": "2023-1041085",
    "request_type": "Roads/Drainage",
    "request_reason": "Street Subsidence (Sinking)",
    "date_created": "2023-10-05T14:05:15.000",
    "date_modified": "2023-10-05T14:05:16.000",
    "request_status": "Pending",
    "responsible_agency": "Department of Public Works",
    "final_address": "WALES ST & FLOUNDER ST",
    "address_councildis": "E",
    "status": "Pending",
    "rowid": "1041085",
    "final_x": "3699812.2",
    "final_y": "561221.48",
    "longitude": "-90.0091635364239",
    "latitude": "30.03659502366877",
    "geocoded_column": {
      "latitude": "30.03659502366877",
      "longitude": "-90.0091635364239"
    }
  },
  {
    "service_request": "2023-1041084",
    "request_type": "Trash/Recycling",
    "request_reason": "Order Trash Cart",
    "date_created": "2023-10-05T14:04:36.000",
    "date_modified": "2023-10-05T14:05:37.000",
    "request_status": "Pending",
    "responsible_agency": "Department of Sanitation",
    "final_address": "8523 Apple St",
    "address_councildis": "A",
    "status": "Assigned to Contractor",
    "contractor": "Richards Disposal",
    "rowid": "1041084",
    "final_x": "3664168.48628",
    "final_y": "533233.032132",
    "longitude": "-90.12274009862672",
    "latitude": "29.96072080885908",
    "geocoded_column": {
      "latitude": "29.96072080885908",
      "longitude": "-90.12274009862672"
    }
  },
  {
    "service_request": "2023-1041082",
    "request_type": "Traffic Signals/Signs/Striping/Streetlights",
    "request_reason": "Street Name Sign Damaged or Missing",
    "date_created": "2023-10-05T13:59:28.000",
    "date_modified": "2023-10-05T13:59:28.000",
    "request_status": "Pending",
    "responsible_agency": "Department of Public Works",
    "final_address": "BIENVILLE ST & N HENNESSEY ST",
    "address_councildis": "A",
    "status": "Pending",
    "rowid": "1041082",
    "final_x": "3670754.16",
    "final_y": "539564.65",
    "longitude": "-90.1017288658447",
    "latitude": "29.977937672895912",
    "geocoded_column": {
      "latitude": "29.977937672895912",
      "longitude": "-90.1017288658447"
    }
  },
  {
    "service_request": "2023-1041081",
    "request_type": "Trash/Recycling",
    "request_reason": "Replace Trash Cart",
    "date_created": "2023-10-05T13:59:25.000",
    "date_modified": "2023-10-05T13:59:25.000",
    "request_status": "Pending",
    "responsible_agency": "Department of Sanitation",
    "final_address": "209 14Th St",
    "address_councildis": "A",
    "status": "Assigned to Contractor",
    "contractor": "IV Waste",
    "rowid": "1041081",
    "final_x": "3665528.38221",
    "final_y": "548161.380562",
    "longitude": "-90.11794577378018",
    "latitude": "30.001729172885227",
    "geocoded_column": {
      "latitude": "30.001729172885227",
      "longitude": "-90.11794577378018"
    }
  },
  {
    "service_request": "2023-1041079",
    "request_type": "Trash/Recycling",
    "request_reason": "Repair Trash Cart",
    "date_created": "2023-10-05T13:58:14.000",
    "date_modified": "2023-10-05T13:58:15.000",
    "request_status": "Pending",
    "responsible_agency": "Department of Sanitation",
    "final_address": "3903 Packard St",
    "address_councildis": "D",
    "status": "Assigned to Contractor",
    "contractor": "IV Waste",
    "rowid": "1041079",
    "final_x": "3688742.96387",
    "final_y": "547538.475602",
    "longitude": "-90.04463084925464",
    "latitude": "29.999318921814737",
    "geocoded_column": {
      "latitude": "29.999318921814737",
      "longitude": "-90.04463084925464"
    }
  },
  {
    "service_request": "2023-1041078",
    "request_type": "Roads/Drainage",
    "request_reason": "Pothole",
    "date_created": "2023-10-05T13:57:54.000",
    "date_modified": "2023-10-05T13:57:54.000",
    "request_status": "Pending",
    "responsible_agency": "Department of Public Works",
    "final_address": "4500 BLK Freret St",
    "address_councildis": "B",
    "status": "Pending",
    "rowid": "1041078",
    "final_x": "3669960.19351",
    "final_y": "523984.301885",
    "longitude": "-90.10476410746094",
    "latitude": "29.93512029904851",
    "geocoded_column": {
      "latitude": "29.93512029904851",
      "longitude": "-90.10476410746094"
    }
  },
  {
    "service_request": "2023-1041077",
    "request_type": "Trash/Recycling",
    "request_reason": "Repair Trash Cart",
    "date_created": "2023-10-05T13:49:35.000",
    "date_modified": "2023-10-05T13:49:36.000",
    "request_status": "Pending",
    "responsible_agency": "Department of Sanitation",
    "final_address": "8404 Palm St",
    "address_councildis": "A",
    "status": "Assigned to Contractor",
    "contractor": "Richards Disposal",
    "rowid": "1041077",
    "final_x": "3666851.93895",
    "final_y": "535422.500038",
    "longitude": "-90.1141926844918",
    "latitude": "29.966662894122965",
    "geocoded_column": {
      "latitude": "29.966662894122965",
      "longitude": "-90.1141926844918"
    }
  },
  {
    "service_request": "2023-1041076",
    "request_type": "Traffic Signals/Signs/Striping/Streetlights",
    "request_reason": "Disabled Parking Sign ",
    "date_created": "2023-10-05T13:46:01.000",
    "date_modified": "2023-10-05T13:46:02.000",
    "request_status": "Pending",
    "responsible_agency": "Department of Public Works",
    "final_address": "858 Hidalgo St",
    "address_councildis": "A",
    "status": "Pending",
    "rowid": "1041076",
    "final_x": "3669191.88871",
    "final_y": "543989.33531",
    "longitude": "-90.10651345683146",
    "latitude": "29.990150131936698",
    "geocoded_column": {
      "latitude": "29.990150131936698",
      "longitude": "-90.10651345683146"
    }
  },
  {
    "service_request": "2023-1041075",
    "request_type": "Abandoned Vehicles",
    "request_reason": "Abandoned/Junk Vehicles",
    "date_created": "2023-10-05T13:45:02.000",
    "date_modified": "2023-10-05T13:45:02.000",
    "request_status": "Pending",
    "responsible_agency": "Department of Public Works",
    "final_address": "8100 BLK Hampson St",
    "address_councildis": "A",
    "status": "Pending",
    "rowid": "1041075",
    "final_x": "3660699.64576",
    "final_y": "527180.184929",
    "longitude": "-90.13389415979455",
    "latitude": "29.94417773769125",
    "geocoded_column": {
      "latitude": "29.94417773769125",
      "longitude": "-90.13389415979455"
    }
  },
  {
    "service_request": "2023-1041074",
    "request_type": "Trash/Recycling",
    "request_reason": "Request a Large Item Pick Up",
    "date_created": "2023-10-05T13:42:50.000",
    "date_modified": "2023-10-05T13:42:51.000",
    "request_status": "Pending",
    "responsible_agency": "Department of Sanitation",
    "final_address": "4744 Music St",
    "address_councildis": "D",
    "status": "Assigned to Contractor",
    "contractor": "IV Waste",
    "rowid": "1041074",
    "final_x": "3685541.25481",
    "final_y": "550592.420436",
    "longitude": "-90.05463745463811",
    "latitude": "30.007814788078424",
    "geocoded_column": {
      "latitude": "30.007814788078424",
      "longitude": "-90.05463745463811"
    }
  },
  {
    "service_request": "2023-1041073",
    "request_type": "Abandoned Vehicles",
    "request_reason": "Abandoned/Junk Vehicles",
    "date_created": "2023-10-05T13:40:50.000",
    "date_modified": "2023-10-05T13:40:50.000",
    "request_status": "Pending",
    "responsible_agency": "Department of Public Works",
    "final_address": "8100 BLK Hampson St",
    "address_councildis": "A",
    "status": "Pending",
    "rowid": "1041073",
    "final_x": "3660699.64576",
    "final_y": "527180.184929",
    "longitude": "-90.13389415979455",
    "latitude": "29.94417773769125",
    "geocoded_column": {
      "latitude": "29.94417773769125",
      "longitude": "-90.13389415979455"
    }
  },
  {
    "service_request": "2023-1041072",
    "request_type": "Traffic Signals/Signs/Striping/Streetlights",
    "request_reason": "Request for Stop Sign",
    "date_created": "2023-10-05T13:40:21.000",
    "date_modified": "2023-10-05T13:40:21.000",
    "request_status": "Pending",
    "responsible_agency": "Department of Public Works",
    "final_address": "PHILIP ST & CARONDELET ST",
    "address_councildis": "B",
    "status": "Pending",
    "rowid": "1041072",
    "final_x": "3676927.5",
    "final_y": "523661.78",
    "longitude": "-90.08277945060132",
    "latitude": "29.934026220814",
    "geocoded_column": {
      "latitude": "29.934026220814",
      "longitude": "-90.08277945060132"
    }
  },
  {
    "service_request": "2023-1041070",
    "request_type": "Property Maintenance",
    "request_reason": "Property Maintenance",
    "date_created": "2023-10-05T13:30:16.000",
    "date_modified": "2023-10-05T13:30:17.000",
    "request_status": "Pending",
    "responsible_agency": "Department of Code Enforcement",
    "final_address": "2822 General Taylor St",
    "address_councildis": "B",
    "status": "Pending",
    "rowid": "1041070",
    "final_x": "3671567.70868",
    "final_y": "525390.059389",
    "longitude": "-90.09964139565912",
    "latitude": "29.938938186214894",
    "geocoded_column": {
      "latitude": "29.938938186214894",
      "longitude": "-90.09964139565912"
    }
  },
  {
    "service_request": "2023-1041069",
    "request_type": "Abandoned Vehicles",
    "request_reason": "Abandoned/Junk Vehicles",
    "date_created": "2023-10-05T13:29:05.000",
    "date_modified": "2023-10-05T13:44:31.000",
    "request_status": "Pending",
    "responsible_agency": "Department of Public Works",
    "final_address": "3801 Toulouse St",
    "address_councildis": "A",
    "rowid": "1041069",
    "final_x": "3673148.7554",
    "final_y": "539129.170698",
    "longitude": "-90.09418075535412",
    "latitude": "29.976669264518517",
    "geocoded_column": {
      "latitude": "29.976669264518517",
      "longitude": "-90.09418075535412"
    }
  },
  {
    "service_request": "2023-1041068",
    "request_type": "Trash/Recycling",
    "request_reason": "Request a Large Item Pick Up",
    "date_created": "2023-10-05T13:24:50.000",
    "date_modified": "2023-10-05T13:24:50.000",
    "request_status": "Pending",
    "responsible_agency": "Department of Sanitation",
    "final_address": "1419 N Villere St",
    "address_councildis": "C",
    "status": "Assigned to Contractor",
    "contractor": "IV Waste",
    "rowid": "1041068",
    "final_x": "3681899.24738",
    "final_y": "536326.596871",
    "longitude": "-90.06664186055764",
    "latitude": "29.968700052347216",
    "geocoded_column": {
      "latitude": "29.968700052347216",
      "longitude": "-90.06664186055764"
    }
  },
  {
    "service_request": "2023-1041067",
    "request_type": "Roads/Drainage",
    "request_reason": "Street Flooding / Drainage",
    "date_created": "2023-10-05T13:21:41.000",
    "date_modified": "2023-10-05T13:21:41.000",
    "request_status": "Pending",
    "responsible_agency": "Department of Public Works",
    "final_address": "6343 Catina St",
    "address_councildis": "A",
    "status": "Pending",
    "rowid": "1041067",
    "final_x": "3667017.76122",
    "final_y": "549832.248084",
    "longitude": "-90.1131844467084",
    "latitude": "30.006279956816567",
    "geocoded_column": {
      "latitude": "30.006279956816567",
      "longitude": "-90.1131844467084"
    }
  },
  {
    "service_request": "2023-1041066",
    "request_type": "Abandoned Vehicles",
    "request_reason": "Abandoned/Junk Vehicles",
    "date_created": "2023-10-05T13:21:17.000",
    "date_modified": "2023-10-05T13:21:18.000",
    "request_status": "Pending",
    "responsible_agency": "Department of Public Works",
    "final_address": "600 BLK Saint Ferdinand St",
    "address_councildis": "C",
    "status": "Pending",
    "rowid": "1041066",
    "final_x": "3687268.84163",
    "final_y": "534561.162621",
    "longitude": "-90.04974686913731",
    "latitude": "29.963681412683147",
    "geocoded_column": {
      "latitude": "29.963681412683147",
      "longitude": "-90.04974686913731"
    }
  },
  {
    "service_request": "2023-1041065",
    "request_type": "Parks & Parkways",
    "request_reason": "Request Tree Service (Right of Way/Public Property)",
    "date_created": "2023-10-05T13:20:31.000",
    "date_modified": "2023-10-05T13:20:31.000",
    "request_status": "Pending",
    "responsible_agency": "Department of Parks & Parkway",
    "final_address": "1936 Valence St",
    "address_councildis": "B",
    "status": "Pending",
    "rowid": "1041065",
    "final_x": "3669551.74625",
    "final_y": "522132.023226",
    "longitude": "-90.10611620663462",
    "latitude": "29.93003916223354",
    "geocoded_column": {
      "latitude": "29.93003916223354",
      "longitude": "-90.10611620663462"
    }
  },
  {
    "service_request": "2023-1041063",
    "request_type": "Parks & Parkways",
    "request_reason": "Request Tree Service (Right of Way/Public Property)",
    "date_created": "2023-10-05T13:17:49.000",
    "date_modified": "2023-10-05T15:13:25.000",
    "case_close_date": "2023-10-05T10:13:25.000",
    "request_status": "Closed",
    "responsible_agency": "Department of Parks & Parkway",
    "final_address": "6347 Catina St",
    "address_councildis": "A",
    "status": "Duplicate Request",
    "rowid": "1041063",
    "final_x": "3667025.40109",
    "final_y": "549946.257812",
    "longitude": "-90.11315647485546",
    "latitude": "30.00659322022235",
    "geocoded_column": {
      "latitude": "30.00659322022235",
      "longitude": "-90.11315647485546"
    }
  },
  {
    "service_request": "2023-1041062",
    "request_type": "Trash/Recycling",
    "request_reason": "Return Recycling Cart",
    "date_created": "2023-10-05T13:17:30.000",
    "date_modified": "2023-10-05T13:17:31.000",
    "request_status": "Pending",
    "responsible_agency": "Department of Sanitation",
    "final_address": "1933 Audubon St",
    "address_councildis": "A",
    "status": "Pending",
    "rowid": "1041062",
    "final_x": "3665998.26138",
    "final_y": "528618.188352",
    "longitude": "-90.11711668084762",
    "latitude": "29.94797820976154",
    "geocoded_column": {
      "latitude": "29.94797820976154",
      "longitude": "-90.11711668084762"
    }
  },
  {
    "service_request": "2023-1041061",
    "request_type": "Trash/Recycling",
    "request_reason": "Return Trash Cart",
    "date_created": "2023-10-05T13:16:05.000",
    "date_modified": "2023-10-05T13:16:06.000",
    "request_status": "Pending",
    "responsible_agency": "Department of Sanitation",
    "final_address": "2352 Annunciation St",
    "address_councildis": "B",
    "status": "Assigned to Contractor",
    "contractor": "Richards Disposal",
    "rowid": "1041061",
    "final_x": "3678835.92315",
    "final_y": "520647.370553",
    "longitude": "-90.07685898495332",
    "latitude": "29.92568017264135",
    "geocoded_column": {
      "latitude": "29.92568017264135",
      "longitude": "-90.07685898495332"
    }
  },
  {
    "service_request": "2023-1041060",
    "request_type": "Trash/Recycling",
    "request_reason": "Return Trash Cart",
    "date_created": "2023-10-05T13:15:20.000",
    "date_modified": "2023-10-05T13:15:21.000",
    "request_status": "Pending",
    "responsible_agency": "Department of Sanitation",
    "final_address": "2350 Annunciation St",
    "address_councildis": "B",
    "status": "Assigned to Contractor",
    "contractor": "Richards Disposal",
    "rowid": "1041060",
    "final_x": "3678866.37058",
    "final_y": "520654.608825",
    "longitude": "-90.07676262106813",
    "latitude": "29.92569915745636",
    "geocoded_column": {
      "latitude": "29.92569915745636",
      "longitude": "-90.07676262106813"
    }
  },
  {
    "service_request": "2023-1041058",
    "request_type": "Parks & Parkways",
    "request_reason": "Request Tree Service (Right of Way/Public Property)",
    "date_created": "2023-10-05T13:13:57.000",
    "date_modified": "2023-10-05T13:13:57.000",
    "request_status": "Pending",
    "responsible_agency": "Department of Parks & Parkway",
    "final_address": "6347 Catina St",
    "address_councildis": "A",
    "status": "Pending",
    "rowid": "1041058",
    "final_x": "3667025.40109",
    "final_y": "549946.257812",
    "longitude": "-90.11315647485546",
    "latitude": "30.00659322022235",
    "geocoded_column": {
      "latitude": "30.00659322022235",
      "longitude": "-90.11315647485546"
    }
  },
  {
    "service_request": "2023-1041057",
    "request_type": "Trash/Recycling",
    "request_reason": "Return Trash Cart",
    "date_created": "2023-10-05T13:13:23.000",
    "date_modified": "2023-10-05T13:13:24.000",
    "request_status": "Pending",
    "responsible_agency": "Department of Sanitation",
    "final_address": "417 Seattle St",
    "address_councildis": "A",
    "status": "Assigned to Contractor",
    "contractor": "IV Waste",
    "rowid": "1041057",
    "final_x": "3664814.66509",
    "final_y": "552221.980502",
    "longitude": "-90.12006466218736",
    "latitude": "30.012915212667792",
    "geocoded_column": {
      "latitude": "30.012915212667792",
      "longitude": "-90.12006466218736"
    }
  },
  {
    "service_request": "2023-1041056",
    "request_type": "Trash/Recycling",
    "request_reason": "Request a Large Item Pick Up",
    "date_created": "2023-10-05T13:12:38.000",
    "date_modified": "2023-10-05T13:12:39.000",
    "request_status": "Pending",
    "responsible_agency": "Department of Sanitation",
    "final_address": "924 Kentucky St",
    "address_councildis": "C",
    "status": "Assigned to Contractor",
    "contractor": "IV Waste",
    "rowid": "1041056",
    "final_x": "3693141.86717",
    "final_y": "534360.892357",
    "longitude": "-90.03120771448968",
    "latitude": "29.9629485318874",
    "geocoded_column": {
      "latitude": "29.9629485318874",
      "longitude": "-90.03120771448968"
    }
  },
  {
    "service_request": "2023-1041055",
    "request_type": "Trash/Recycling",
    "request_reason": "Order Recycling Cart",
    "date_created": "2023-10-05T13:11:53.000",
    "date_modified": "2023-10-05T13:11:54.000",
    "request_status": "Pending",
    "responsible_agency": "Department of Sanitation",
    "final_address": "7555 Mackenzie St",
    "address_councildis": "E",
    "status": "Pending",
    "rowid": "1041055",
    "final_x": "3711318.19282",
    "final_y": "565703.940706",
    "longitude": "-89.97263435660972",
    "latitude": "30.048549362505145",
    "geocoded_column": {
      "latitude": "30.048549362505145",
      "longitude": "-89.97263435660972"
    }
  },
  {
    "service_request": "2023-1041054",
    "request_type": "Trash/Recycling",
    "request_reason": "Missed Trash Pick-Up",
    "date_created": "2023-10-05T13:11:32.000",
    "date_modified": "2023-10-05T13:11:33.000",
    "request_status": "Pending",
    "responsible_agency": "Department of Sanitation",
    "final_address": "4935 Baccich St",
    "address_councildis": "D",
    "status": "Assigned to Contractor",
    "contractor": "IV Waste",
    "rowid": "1041054",
    "final_x": "3687727.86179",
    "final_y": "551311.071317",
    "longitude": "-90.0477038593834",
    "latitude": "30.00972353886432",
    "geocoded_column": {
      "latitude": "30.00972353886432",
      "longitude": "-90.0477038593834"
    }
  },
  {
    "service_request": "2023-1041053",
    "request_type": "Trash/Recycling",
    "request_reason": "Order Trash Cart",
    "date_created": "2023-10-05T13:10:40.000",
    "date_modified": "2023-10-05T13:10:41.000",
    "request_status": "Pending",
    "responsible_agency": "Department of Sanitation",
    "final_address": "6343 Catina St",
    "address_councildis": "A",
    "status": "Assigned to Contractor",
    "contractor": "IV Waste",
    "rowid": "1041053",
    "final_x": "3667017.76122",
    "final_y": "549832.248084",
    "longitude": "-90.1131844467084",
    "latitude": "30.006279956816567",
    "geocoded_column": {
      "latitude": "30.006279956816567",
      "longitude": "-90.1131844467084"
    }
  },
  {
    "service_request": "2023-1041052",
    "request_type": "Traffic Signals/Signs/Striping/Streetlights",
    "request_reason": "Street Light Outage/Malfunction",
    "date_created": "2023-10-05T13:09:00.000",
    "date_modified": "2023-10-05T13:09:00.000",
    "request_status": "Pending",
    "responsible_agency": "Department of Public Works",
    "final_address": "4672 Painters St",
    "address_councildis": "D",
    "status": "Assigned to Contractor",
    "contractor": "Legacy Professional Services",
    "rowid": "1041052",
    "final_x": "3686154.58607",
    "final_y": "550197.10786",
    "longitude": "-90.05271372173601",
    "latitude": "30.00670898835742",
    "geocoded_column": {
      "latitude": "30.00670898835742",
      "longitude": "-90.05271372173601"
    }
  },
  {
    "service_request": "2023-1041050",
    "request_type": "Roads/Drainage",
    "request_reason": "Pothole",
    "date_created": "2023-10-05T13:01:18.000",
    "date_modified": "2023-10-05T13:01:18.000",
    "request_status": "Pending",
    "responsible_agency": "Department of Public Works",
    "final_address": "7630 Mayo Rd",
    "address_councildis": "E",
    "status": "Pending",
    "rowid": "1041050",
    "final_x": "3700660.78986",
    "final_y": "560813.697566",
    "longitude": "-90.00649675612365",
    "latitude": "30.035446788956406",
    "geocoded_column": {
      "latitude": "30.035446788956406",
      "longitude": "-90.00649675612365"
    }
  },
  {
    "service_request": "2023-1041049",
    "request_type": "Roads/Drainage",
    "request_reason": "Damaged Sidewalk",
    "date_created": "2023-10-05T13:00:46.000",
    "date_modified": "2023-10-05T13:00:47.000",
    "request_status": "Pending",
    "responsible_agency": "Department of Public Works",
    "final_address": "4806 Virgilian St",
    "address_councildis": "D",
    "status": "Pending",
    "rowid": "1041049",
    "final_x": "3697370.26122",
    "final_y": "554063.422744",
    "longitude": "-90.01714036751348",
    "latitude": "30.016990469369716",
    "geocoded_column": {
      "latitude": "30.016990469369716",
      "longitude": "-90.01714036751348"
    }
  },
  {
    "service_request": "2023-1041048",
    "request_type": "Parks & Parkways",
    "request_reason": "Request Tree Service (Right of Way/Public Property)",
    "date_created": "2023-10-05T13:00:42.000",
    "date_modified": "2023-10-05T13:00:43.000",
    "request_status": "Pending",
    "responsible_agency": "Department of Parks & Parkway",
    "final_address": "2215 Soniat St",
    "address_councildis": "B",
    "status": "Pending",
    "rowid": "1041048",
    "final_x": "3668549.65402",
    "final_y": "523694.266811",
    "longitude": "-90.10922697003906",
    "latitude": "29.934364305719356",
    "geocoded_column": {
      "latitude": "29.934364305719356",
      "longitude": "-90.10922697003906"
    }
  },
  {
    "service_request": "2023-1041046",
    "request_type": "Traffic Signals/Signs/Striping/Streetlights",
    "request_reason": "Street Light Outage/Malfunction",
    "date_created": "2023-10-05T12:57:23.000",
    "date_modified": "2023-10-05T12:57:23.000",
    "request_status": "Pending",
    "responsible_agency": "Department of Public Works",
    "final_address": "4672 Painters St",
    "address_councildis": "D",
    "status": "Assigned to Contractor",
    "contractor": "Legacy Professional Services",
    "rowid": "1041046",
    "final_x": "3686154.58607",
    "final_y": "550197.10786",
    "longitude": "-90.05271372173601",
    "latitude": "30.00670898835742",
    "geocoded_column": {
      "latitude": "30.00670898835742",
      "longitude": "-90.05271372173601"
    }
  },
  {
    "service_request": "2023-1041045",
    "request_type": "Roads/Drainage",
    "request_reason": "Accessibility Ramps, Curbs and Sidewalk Repair",
    "date_created": "2023-10-05T12:56:45.000",
    "date_modified": "2023-10-05T12:56:45.000",
    "request_status": "Pending",
    "responsible_agency": "Department of Public Works",
    "final_address": "7047 Louis Xiv St",
    "address_councildis": "A",
    "status": "Pending",
    "rowid": "1041045",
    "final_x": "3668803.45447",
    "final_y": "554442.844952",
    "longitude": "-90.10738713869574",
    "latitude": "30.018905070627447",
    "geocoded_column": {
      "latitude": "30.018905070627447",
      "longitude": "-90.10738713869574"
    }
  },
  {
    "service_request": "2023-1041044",
    "request_type": "Trash/Recycling",
    "request_reason": "Order Recycling Cart",
    "date_created": "2023-10-05T12:55:42.000",
    "date_modified": "2023-10-05T12:55:43.000",
    "request_status": "Pending",
    "responsible_agency": "Department of Sanitation",
    "final_address": "4672 Painters St",
    "address_councildis": "D",
    "status": "Pending",
    "rowid": "1041044",
    "final_x": "3686154.58607",
    "final_y": "550197.10786",
    "longitude": "-90.05271372173601",
    "latitude": "30.00670898835742",
    "geocoded_column": {
      "latitude": "30.00670898835742",
      "longitude": "-90.05271372173601"
    }
  },
  {
    "service_request": "2023-1041043",
    "request_type": "Mosquito, Termite & Rodent Control",
    "request_reason": "Mosquito Complaint",
    "date_created": "2023-10-05T12:48:36.000",
    "date_modified": "2023-10-05T12:48:36.000",
    "request_status": "Pending",
    "responsible_agency": "Mosquito, Termite & Rodent Control Board",
    "final_address": "2123 Forstall St",
    "address_councildis": "E",
    "status": "Pending",
    "rowid": "1041043",
    "final_x": "3697432.74224",
    "final_y": "538103.127433",
    "longitude": "-90.01752203617131",
    "latitude": "29.973103566227216",
    "geocoded_column": {
      "latitude": "29.973103566227216",
      "longitude": "-90.01752203617131"
    }
  },
  {
    "service_request": "2023-1041042",
    "request_type": "Trash/Recycling",
    "request_reason": "Replace Trash Cart",
    "date_created": "2023-10-05T12:41:11.000",
    "date_modified": "2023-10-05T12:41:12.000",
    "request_status": "Pending",
    "responsible_agency": "Department of Sanitation",
    "final_address": "700 BLK Decatur St",
    "address_councildis": "C",
    "status": "Assigned to Contractor",
    "contractor": "Empire Services",
    "rowid": "1041042",
    "final_x": "3683281.63865",
    "final_y": "532134.973904",
    "longitude": "-90.06242301701451",
    "latitude": "29.9571324363333",
    "geocoded_column": {
      "latitude": "29.9571324363333",
      "longitude": "-90.06242301701451"
    }
  },