[
  {
    "service_request": "2022-921535",
    "request_type": "Trash/Recycling",
    "request_reason": "Missed Trash Pick-Up",
    "date_created": "2022-09-20T00:05:41.000",
    "date_modified": "2022-09-20T00:05:41.000",
    "request_status": "Pending",
    "responsible_agency": "Department of Sanitation",
    "final_address": "1501 Mandeville St",
    "address_councildis": "C",
    "status": "Assigned to Contractor",
    "contractor": "Metro Disposal",
    "rowid": "921535",
    "final_x": "3685693.2742",
    "final_y": "537873.872585",
    "longitude": "-90.05460559774029",
    "latitude": "29.972838650290722",
    "geocoded_column": {
      "latitude": "29.972838650290722",
      "longitude": "-90.05460559774029"
    }
  },
  {
    "service_request": "2022-921534",
    "request_type": "Trash/Recycling",
    "request_reason": "Missed Trash Pick-Up",
    "date_created": "2022-09-19T23:15:08.000",
    "date_modified": "2022-09-19T23:15:08.000",
    "request_status": "Pending",
    "responsible_agency": "Department of Sanitation",
    "final_address": "2228 N Rampart St",
    "address_councildis": "C",
    "status": "Assigned to Contractor",
    "contractor": "Metro Disposal",
    "rowid": "921534",
    "final_x": "3685337.03138",
    "final_y": "535939.669511",
    "longitude": "-90.05579878418129",
    "latitude": "29.967531191651943",
    "geocoded_column": {
      "latitude": "29.967531191651943",
      "longitude": "-90.05579878418129"
    }
  },
  {
    "service_request": "2022-921533",
    "request_type": "Trash/Recycling",
    "request_reason": "Missed Trash Pick-Up",
    "date_created": "2022-09-19T23:14:00.000",
    "date_modified": "2022-09-19T23:14:01.000",
    "request_status": "Pending",
    "responsible_agency": "Department of Sanitation",
    "final_address": "2230 N Rampart St",
    "address_councildis": "C",
    "status": "Assigned to Contractor",
    "contractor": "Metro Disposal",
    "rowid": "921533",
    "final_x": "3685352.03138",
    "final_y": "535940.780615",
    "longitude": "-90.05575137483545",
    "latitude": "29.967533786941754",
    "geocoded_column": {
      "latitude": "29.967533786941754",
      "longitude": "-90.05575137483545"
    }
  },
  {
    "service_request": "2022-921532",
    "request_type": "Trash/Recycling",
    "request_reason": "Missed Trash Pick-Up",
    "date_created": "2022-09-19T23:12:17.000",
    "date_modified": "2022-09-19T23:12:17.000",
    "request_status": "Pending",
    "responsible_agency": "Department of Sanitation",
    "final_address": "3325 Patterson St",
    "address_councildis": "C",
    "status": "Assigned to Contractor",
    "contractor": "Richards Disposal",
    "rowid": "921532",
    "final_x": "3696622.18039",
    "final_y": "528110.932799",
    "longitude": "-90.02044351581354",
    "latitude": "29.94565413204411",
    "geocoded_column": {
      "latitude": "29.94565413204411",
      "longitude": "-90.02044351581354"
    }
  },
  {
    "service_request": "2022-921531",
    "request_type": "Trash/Recycling",
    "request_reason": "MIssed Recycling Pick-Up",
    "date_created": "2022-09-19T22:59:54.000",
    "date_modified": "2022-09-19T22:59:55.000",
    "request_status": "Pending",
    "responsible_agency": "Department of Sanitation",
    "final_address": "1208 Brooklyn Ave",
    "address_councildis": "C",
    "status": "Assigned to Contractor",
    "contractor": "Richards Disposal",
    "rowid": "921531",
    "final_x": "3686306.9533",
    "final_y": "527018.923454",
    "longitude": "-90.05305053026298",
    "latitude": "29.942972429899907",
    "geocoded_column": {
      "latitude": "29.942972429899907",
      "longitude": "-90.05305053026298"
    }
  },
  {
    "service_request": "2022-921530",
    "request_type": "Trash/Recycling",
    "request_reason": "Illegal Dumping",
    "date_created": "2022-09-19T22:41:56.000",
    "date_modified": "2022-09-19T22:41:56.000",
    "request_status": "Pending",
    "responsible_agency": "Department of Sanitation",
    "final_address": "4621 Anson St",
    "address_councildis": "C",
    "status": "Pending",
    "rowid": "921530",
    "final_x": "3702132.72177",
    "final_y": "521535.568697",
    "longitude": "-90.00328603019459",
    "latitude": "29.927399418345395",
    "geocoded_column": {
      "latitude": "29.927399418345395",
      "longitude": "-90.00328603019459"
    }
  },
  {
    "service_request": "2022-921529",
    "request_type": "Traffic Signals/Signs/Striping/Streetlights",
    "request_reason": "Street Light Outage/Malfunction",
    "date_created": "2022-09-19T22:39:50.000",
    "date_modified": "2022-09-19T22:39:51.000",
    "request_status": "Pending",
    "responsible_agency": "Department of Public Works",
    "final_address": "4305 General Pershing St",
    "address_councildis": "B",
    "status": "Pending",
    "contractor": "Legacy Professional Services",
    "rowid": "921529",
    "final_x": "3669656.73153",
    "final_y": "529725.399297",
    "longitude": "-90.10552792686592",
    "latitude": "29.950915396460427",
    "geocoded_column": {
      "latitude": "29.950915396460427",
      "longitude": "-90.10552792686592"
    }
  },
  {
    "service_request": "2022-921528",
    "request_type": "Health Related Questions",
    "request_reason": "Noise Ordinance Complaint",
    "date_created": "2022-09-19T22:35:49.000",
    "date_modified": "2022-09-19T22:35:49.000",
    "request_status": "Pending",
    "responsible_agency": "Health Department",
    "final_address": "4505 Dryades St, New Orleans, Louisiana, 70115",
    "address_councildis": "B",
    "status": "Pending",
    "rowid": "921528",
    "final_x": "3670254.12743",
    "final_y": "521940.249274",
    "longitude": "-90.10390539508411",
    "latitude": "29.92949114178332",
    "geocoded_column": {
      "latitude": "29.92949114178332",
      "longitude": "-90.10390539508411"
    }
  },
  {
    "service_request": "2022-921527",
    "request_type": "Trash/Recycling",
    "request_reason": "Missed Trash Pick-Up",
    "date_created": "2022-09-19T22:13:27.000",
    "date_modified": "2022-09-19T22:13:28.000",
    "request_status": "Pending",
    "responsible_agency": "Department of Sanitation",
    "final_address": "2126 Mediamolle Dr",
    "address_councildis": "C",
    "status": "Assigned to Contractor",
    "contractor": "Richards Disposal",
    "rowid": "921527",
    "final_x": "3699263.62359",
    "final_y": "523469.944699",
    "longitude": "-90.01227260179249",
    "latitude": "29.932809546757955",
    "geocoded_column": {
      "latitude": "29.932809546757955",
      "longitude": "-90.01227260179249"
    }
  },
  {
    "service_request": "2022-921526",
    "request_type": "Health Related Questions",
    "request_reason": "Noise Ordinance Complaint",
    "date_created": "2022-09-19T21:59:46.000",
    "date_modified": "2022-09-19T21:59:46.000",
    "request_status": "Pending",
    "responsible_agency": "Health Department",
    "final_address": "301 Decatur St",
    "address_councildis": "C",
    "status": "Pending",
    "rowid": "921526",
    "final_x": "3682266.63861",
    "final_y": "530879.472258",
    "longitude": "-90.0656719309739",
    "latitude": "29.953711149639627",
    "geocoded_column": {
      "latitude": "29.953711149639627",
      "longitude": "-90.0656719309739"
    }
  },
  {
    "service_request": "2022-921525",
    "request_type": "Trash/Recycling",
    "request_reason": "Missed Trash Pick-Up",
    "date_created": "2022-09-19T21:43:14.000",
    "date_modified": "2022-09-19T21:43:14.000",
    "request_status": "Pending",
    "responsible_agency": "Department of Sanitation",
    "final_address": "3530 Gentilly Blvd",
    "address_councildis": "D",
    "status": "Assigned to Contractor",
    "contractor": "Metro Disposal",
    "rowid": "921525",
    "final_x": "3685829.58473",
    "final_y": "548704.449491",
    "longitude": "-90.05379314312758",
    "latitude": "30.002614702567044",
    "geocoded_column": {
      "latitude": "30.002614702567044",
      "longitude": "-90.05379314312758"
    }
  },
  {
    "service_request": "2022-921524",
    "request_type": "Trash/Recycling",
    "request_reason": "Order Recycling Cart",
    "date_created": "2022-09-19T21:42:16.000",
    "date_modified": "2022-09-19T21:42:16.000",
    "request_status": "Pending",
    "responsible_agency": "Department of Sanitation",
    "final_address": "4437 Annunciation St",
    "address_councildis": "B",
    "status": "Pending",
    "rowid": "921524",
    "final_x": "3670802.8923",
    "final_y": "517751.913078",
    "longitude": "-90.10231508713932",
    "latitude": "29.91795834985804",
    "geocoded_column": {
      "latitude": "29.91795834985804",
      "longitude": "-90.10231508713932"
    }
  },
  {
    "service_request": "2022-921523",
    "request_type": "Trash/Recycling",
    "request_reason": "Missed Trash Pick-Up",
    "date_created": "2022-09-19T21:41:39.000",
    "date_modified": "2022-09-19T21:41:40.000",
    "request_status": "Pending",
    "responsible_agency": "Department of Sanitation",
    "final_address": "405 Andry St",
    "address_councildis": "E",
    "status": "Assigned to Contractor",
    "contractor": "Metro Disposal",
    "rowid": "921523",
    "final_x": "3696558.93578",
    "final_y": "531628.336131",
    "longitude": "-90.0205159594369",
    "latitude": "29.95532775245442",
    "geocoded_column": {
      "latitude": "29.95532775245442",
      "longitude": "-90.0205159594369"
    }
  },
  {
    "service_request": "2022-921522",
    "request_type": "Traffic Signals/Signs/Striping/Streetlights",
    "request_reason": "Street Light Outage/Malfunction",
    "date_created": "2022-09-19T21:22:09.000",
    "date_modified": "2022-09-19T21:22:09.000",
    "request_status": "Pending",
    "responsible_agency": "Department of Public Works",
    "final_address": "10942 Chaucer St",
    "address_councildis": "E",
    "status": "Pending",
    "contractor": "Legacy Professional Services",
    "rowid": "921522",
    "final_x": "3712957.19941",
    "final_y": "561872.926047",
    "longitude": "-89.96759850746082",
    "latitude": "30.037961998741743",
    "geocoded_column": {
      "latitude": "30.037961998741743",
      "longitude": "-89.96759850746082"
    }
  },
  {
    "service_request": "2022-921521",
    "request_type": "Trash/Recycling",
    "request_reason": "Missed Trash Pick-Up",
    "date_created": "2022-09-19T21:21:28.000",
    "date_modified": "2022-09-19T21:21:29.000",
    "request_status": "Pending",
    "responsible_agency": "Department of Sanitation",
    "final_address": "2241 Mandeville St",
    "address_councildis": "D",
    "status": "Assigned to Contractor",
    "contractor": "Metro Disposal",
    "rowid": "921521",
    "final_x": "3685467.93756",
    "final_y": "540729.762443",
    "longitude": "-90.05521664561397",
    "latitude": "29.980698258275726",
    "geocoded_column": {
      "latitude": "29.980698258275726",
      "longitude": "-90.05521664561397"
    }
  },
  {
    "service_request": "2022-921520",
    "request_type": "Trash/Recycling",
    "request_reason": "Missed Trash Pick-Up",
    "date_created": "2022-09-19T21:19:30.000",
    "date_modified": "2022-09-19T21:19:31.000",
    "request_status": "Pending",
    "responsible_agency": "Department of Sanitation",
    "final_address": "317 N Bernadotte St",
    "address_councildis": "A",
    "status": "Assigned to Contractor",
    "contractor": "Richards Disposal",
    "rowid": "921520",
    "final_x": "3669373.94497",
    "final_y": "540867.879819",
    "longitude": "-90.10604399460178",
    "latitude": "29.981561833136002",
    "geocoded_column": {
      "latitude": "29.981561833136002",
      "longitude": "-90.10604399460178"
    }
  },
  {
    "service_request": "2022-921519",
    "request_type": "Trash/Recycling",
    "request_reason": "Missed Trash Pick-Up",
    "date_created": "2022-09-19T21:17:14.000",
    "date_modified": "2022-09-19T21:17:15.000",
    "request_status": "Pending",
    "responsible_agency": "Department of Sanitation",
    "final_address": "315 N Bernadotte St",
    "address_councildis": "A",
    "status": "Assigned to Contractor",
    "contractor": "Richards Disposal",
    "rowid": "921519",
    "final_x": "3669346.87566",
    "final_y": "540857.626891",
    "longitude": "-90.1061298391489",
    "latitude": "29.9815344382555",
    "geocoded_column": {
      "latitude": "29.9815344382555",
      "longitude": "-90.1061298391489"
    }
  },
  {
    "service_request": "2022-921518",
    "request_type": "Roads/Drainage",
    "request_reason": "Accessibility Ramps, Curbs and Sidewalk Repair",
    "date_created": "2022-09-19T21:05:29.000",
    "date_modified": "2022-09-19T21:05:29.000",
    "request_status": "Pending",
    "responsible_agency": "Department of Public Works",
    "final_address": "824 Port St",
    "address_councildis": "C",
    "status": "Pending",
    "rowid": "921518",
    "final_x": "3687145.26409",
    "final_y": "535540.79911",
    "longitude": "-90.05010246833841",
    "latitude": "29.966378878434735",
    "geocoded_column": {
      "latitude": "29.966378878434735",
      "longitude": "-90.05010246833841"
    }
  },
  {
    "service_request": "2022-921517",
    "request_type": "Trash/Recycling",
    "request_reason": "Missed Trash Pick-Up",
    "date_created": "2022-09-19T20:56:13.000",
    "date_modified": "2022-09-19T20:56:14.000",
    "request_status": "Pending",
    "responsible_agency": "Department of Sanitation",
    "final_address": "2250 N Derbigny St, New Orleans, Louisiana, 70117",
    "address_councildis": "D",
    "status": "Assigned to Contractor",
    "contractor": "Metro Disposal",
    "rowid": "921517",
    "final_x": "3685372.84143",
    "final_y": "538527.865289",
    "longitude": "-90.05559455116278",
    "latitude": "29.974646730395623",
    "geocoded_column": {
      "latitude": "29.974646730395623",
      "longitude": "-90.05559455116278"
    }
  },
  {
    "service_request": "2022-921516",
    "request_type": "Abandoned Vehicles",
    "request_reason": "Abandoned/Junk Vehicles",
    "date_created": "2022-09-19T20:51:40.000",
    "date_modified": "2022-09-19T20:51:40.000",
    "request_status": "Pending",
    "responsible_agency": "Department of Public Works",
    "final_address": "1137 N Claiborne Ave",
    "address_councildis": "D",
    "status": "Pending",
    "rowid": "921516",
    "final_x": "3680832.31823",
    "final_y": "536165.483143",
    "longitude": "-90.07001689248817",
    "latitude": "29.96828943285266",
    "geocoded_column": {
      "latitude": "29.96828943285266",
      "longitude": "-90.07001689248817"
    }
  },
  {
    "service_request": "2022-921515",
    "request_type": "Traffic Signals/Signs/Striping/Streetlights",
    "request_reason": "Street Light Outage/Malfunction",
    "date_created": "2022-09-19T20:44:54.000",
    "date_modified": "2022-09-19T20:44:55.000",
    "request_status": "Pending",
    "responsible_agency": "Department of Public Works",
    "final_address": "1322 Dublin St",
    "address_councildis": "A",
    "status": "Pending",
    "contractor": "Legacy Professional Services",
    "rowid": "921515",
    "final_x": "3662036.14842",
    "final_y": "529038.165248",
    "longitude": "-90.129612797842",
    "latitude": "29.949248053161902",
    "geocoded_column": {
      "latitude": "29.949248053161902",
      "longitude": "-90.129612797842"
    }
  },
  {
    "service_request": "2022-921514",
    "request_type": "Trash/Recycling",
    "request_reason": "MIssed Recycling Pick-Up",
    "date_created": "2022-09-19T20:30:02.000",
    "date_modified": "2022-09-19T20:30:03.000",
    "request_status": "Pending",
    "responsible_agency": "Department of Sanitation",
    "final_address": "217 Delaronde St",
    "address_councildis": "C",
    "status": "Assigned to Contractor",
    "contractor": "Richards Disposal",
    "rowid": "921514",
    "final_x": "3686130.42722",
    "final_y": "530633.89325",
    "longitude": "-90.05348038307504",
    "latitude": "29.952917789547804",
    "geocoded_column": {
      "latitude": "29.952917789547804",
      "longitude": "-90.05348038307504"
    }
  },
  {
    "service_request": "2022-921513",
    "request_type": "Trash/Recycling",
    "request_reason": "Missed Trash Pick-Up",
    "date_created": "2022-09-19T20:24:36.000",
    "date_modified": "2022-09-19T20:24:37.000",
    "request_status": "Pending",
    "responsible_agency": "Department of Sanitation",
    "final_address": "509 Mandeville St",
    "address_councildis": "C",
    "status": "Assigned to Contractor",
    "contractor": "Metro Disposal",
    "rowid": "921513",
    "final_x": "3685966.99478",
    "final_y": "534313.460229",
    "longitude": "-90.05386669582727",
    "latitude": "29.9630403521156",
    "geocoded_column": {
      "latitude": "29.9630403521156",
      "longitude": "-90.05386669582727"
    }
  },
  {
    "service_request": "2022-921512",
    "request_type": "Trash/Recycling",
    "request_reason": "Missed Trash Pick-Up",
    "date_created": "2022-09-19T20:23:37.000",
    "date_modified": "2022-09-19T20:23:38.000",
    "request_status": "Pending",
    "responsible_agency": "Department of Sanitation",
    "final_address": "6013 Burgundy St",
    "address_councildis": "E",
    "status": "Assigned to Contractor",
    "contractor": "Metro Disposal",
    "rowid": "921512",
    "final_x": "3699008.95095",
    "final_y": "532665.99834",
    "longitude": "-90.01274199178089",
    "latitude": "29.95810354420653",
    "geocoded_column": {
      "latitude": "29.95810354420653",
      "longitude": "-90.01274199178089"
    }
  },
  {
    "service_request": "2022-921511",
    "request_type": "Trash/Recycling",
    "request_reason": "Repair Trash Cart",
    "date_created": "2022-09-19T20:19:21.000",
    "date_modified": "2022-09-19T20:19:22.000",
    "request_status": "Pending",
    "responsible_agency": "Department of Sanitation",
    "final_address": "438 Audubon Blvd",
    "address_councildis": "B",
    "status": "Assigned to Contractor",
    "contractor": "Richards Disposal",
    "rowid": "921511",
    "final_x": "3667448.83239",
    "final_y": "530593.17485",
    "longitude": "-90.11247018775092",
    "latitude": "29.953366364044836",
    "geocoded_column": {
      "latitude": "29.953366364044836",
      "longitude": "-90.11247018775092"
    }
  },
  {
    "service_request": "2022-921510",
    "request_type": "Traffic Signals/Signs/Striping/Streetlights",
    "request_reason": "Street Light Outage/Malfunction",
    "date_created": "2022-09-19T20:12:54.000",
    "date_modified": "2022-09-19T20:12:55.000",
    "request_status": "Pending",
    "responsible_agency": "Department of Public Works",
    "final_address": "4328 Bancroft Dr",
    "address_councildis": "D",
    "status": "Pending",
    "contractor": "Legacy Professional Services",
    "rowid": "921510",
    "final_x": "3676673.54574",
    "final_y": "548094.627282",
    "longitude": "-90.08273932318141",
    "latitude": "30.001215863872034",
    "geocoded_column": {
      "latitude": "30.001215863872034",
      "longitude": "-90.08273932318141"
    }
  },
  {
    "service_request": "2022-921509",
    "request_type": "Abandoned Vehicles",
    "request_reason": "Abandoned/Junk Vehicles",
    "date_created": "2022-09-19T20:11:00.000",
    "date_modified": "2022-09-19T20:11:00.000",
    "request_status": "Pending",
    "responsible_agency": "Department of Public Works",
    "final_address": "6000 Cameron Blvd",
    "address_councildis": "D",
    "status": "Pending",
    "rowid": "921509",
    "final_x": "3682335.17973",
    "final_y": "554725.952984",
    "longitude": "-90.0646217917031",
    "latitude": "30.019278487322882",
    "geocoded_column": {
      "latitude": "30.019278487322882",
      "longitude": "-90.0646217917031"
    }
  },
  {
    "service_request": "2022-921508",
    "request_type": "Trash/Recycling",
    "request_reason": "Missed Trash Pick-Up",
    "date_created": "2022-09-19T20:08:36.000",
    "date_modified": "2022-09-19T20:08:37.000",
    "request_status": "Pending",
    "responsible_agency": "Department of Sanitation",
    "final_address": "3717 Gentilly Blvd",
    "address_councildis": "D",
    "status": "Assigned to Contractor",
    "contractor": "Metro Disposal",
    "rowid": "921508",
    "final_x": "3687102.84822",
    "final_y": "548973.525587",
    "longitude": "-90.04976122380779",
    "latitude": "30.00331540745377",
    "geocoded_column": {
      "latitude": "30.00331540745377",
      "longitude": "-90.04976122380779"
    }
  },
  {
    "service_request": "2022-921507",
    "request_type": "Trash/Recycling",
    "request_reason": "Missed Trash Pick-Up",
    "date_created": "2022-09-19T19:57:15.000",
    "date_modified": "2022-09-19T19:57:15.000",
    "request_status": "Pending",
    "responsible_agency": "Department of Sanitation",
    "final_address": "2318 Winthrop St",
    "address_councildis": "E",
    "status": "Assigned to Contractor",
    "contractor": "Metro Disposal",
    "rowid": "921507",
    "final_x": "3700406.62122",
    "final_y": "538123.950473",
    "longitude": "-90.00812924139349",
    "latitude": "29.973066585920034",
    "geocoded_column": {
      "latitude": "29.973066585920034",
      "longitude": "-90.00812924139349"
    }
  },
  {
    "service_request": "2022-921506",
    "request_type": "Trash/Recycling",
    "request_reason": "Missed Trash Pick-Up",
    "date_created": "2022-09-19T19:54:20.000",
    "date_modified": "2022-09-19T19:54:21.000",
    "request_status": "Pending",
    "responsible_agency": "Department of Sanitation",
    "final_address": "3824 Gentilly Blvd",
    "address_councildis": "D",
    "status": "Assigned to Contractor",
    "contractor": "Metro Disposal",
    "rowid": "921506",
    "final_x": "3688019.92105",
    "final_y": "548737.807187",
    "longitude": "-90.04687241817791",
    "latitude": "30.002638988474352",
    "geocoded_column": {
      "latitude": "30.002638988474352",
      "longitude": "-90.04687241817791"
    }
  },
  {
    "service_request": "2022-921502",
    "request_type": "Mosquito, Termite & Rodent Control",
    "request_reason": "Rodent Complaint (Rats)",
    "date_created": "2022-09-19T19:32:02.000",
    "date_modified": "2022-09-19T19:33:07.000",
    "request_status": "Pending",
    "responsible_agency": "Mosquito, Termite & Rodent Control Board",
    "final_address": "1540 Poland Ave",
    "address_councildis": "D",
    "status": "Pending",
    "rowid": "921502",
    "final_x": "3693415.93206",
    "final_y": "536812.02068",
    "longitude": "-90.03025423020836",
    "latitude": "29.969679702024685",
    "geocoded_column": {
      "latitude": "29.969679702024685",
      "longitude": "-90.03025423020836"
    }
  },
  {
    "service_request": "2022-921501",
    "request_type": "Mosquito, Termite & Rodent Control",
    "request_reason": "Mosquito Complaint",
    "date_created": "2022-09-19T19:25:05.000",
    "date_modified": "2022-09-19T19:25:57.000",
    "request_status": "Pending",
    "responsible_agency": "Mosquito, Termite & Rodent Control Board",
    "final_address": "1540 Poland Ave",
    "address_councildis": "D",
    "status": "Pending",
    "rowid": "921501",
    "final_x": "3693415.93206",
    "final_y": "536812.02068",
    "longitude": "-90.03025423020836",
    "latitude": "29.969679702024685",
    "geocoded_column": {
      "latitude": "29.969679702024685",
      "longitude": "-90.03025423020836"
    }
  },
  {
    "service_request": "2022-921500",
    "request_type": "Trash/Recycling",
    "request_reason": "Missed Trash Pick-Up",
    "date_created": "2022-09-19T19:20:48.000",
    "date_modified": "2022-09-19T19:20:48.000",
    "request_status": "Pending",
    "responsible_agency": "Department of Sanitation",
    "final_address": "511 Alabo St",
    "address_councildis": "E",
    "status": "Assigned to Contractor",
    "contractor": "Metro Disposal",
    "rowid": "921500",
    "final_x": "3698421.03876",
    "final_y": "531504.970883",
    "longitude": "-90.01464063671389",
    "latitude": "29.954929747490038",
    "geocoded_column": {
      "latitude": "29.954929747490038",
      "longitude": "-90.01464063671389"
    }
  },
  {
    "service_request": "2022-921499",
    "request_type": "Trash/Recycling",
    "request_reason": "MIssed Recycling Pick-Up",
    "date_created": "2022-09-19T19:18:49.000",
    "date_modified": "2022-09-19T19:18:49.000",
    "request_status": "Pending",
    "responsible_agency": "Department of Sanitation",
    "final_address": "8002 Cohn St",
    "address_councildis": "A",
    "status": "Assigned to Contractor",
    "contractor": "Richards Disposal",
    "rowid": "921499",
    "final_x": "3663883.72839",
    "final_y": "529887.555329",
    "longitude": "-90.12375083334992",
    "latitude": "29.951530103922668",
    "geocoded_column": {
      "latitude": "29.951530103922668",
      "longitude": "-90.12375083334992"
    }
  },
  {
    "service_request": "2022-921498",
    "request_type": "Trash/Recycling",
    "request_reason": "Missed Trash Pick-Up",
    "date_created": "2022-09-19T19:18:01.000",
    "date_modified": "2022-09-19T19:18:02.000",
    "request_status": "Pending",
    "responsible_agency": "Department of Sanitation",
    "final_address": "8002 Cohn St",
    "address_councildis": "A",
    "status": "Assigned to Contractor",
    "contractor": "Richards Disposal",
    "rowid": "921498",
    "final_x": "3663883.72839",
    "final_y": "529887.555329",
    "longitude": "-90.12375083334992",
    "latitude": "29.951530103922668",
    "geocoded_column": {
      "latitude": "29.951530103922668",
      "longitude": "-90.12375083334992"
    }
  },
  {
    "service_request": "2022-921497",
    "request_type": "Trash/Recycling",
    "request_reason": "Repair Trash Cart",
    "date_created": "2022-09-19T19:08:55.000",
    "date_modified": "2022-09-19T19:08:55.000",
    "request_status": "Pending",
    "responsible_agency": "Department of Sanitation",
    "final_address": "7935 Olive St",
    "address_councildis": "B",
    "status": "Assigned to Contractor",
    "contractor": "Richards Disposal",
    "rowid": "921497",
    "final_x": "3667669.63661",
    "final_y": "533835.553925",
    "longitude": "-90.11166382412522",
    "latitude": "29.962275370302436",
    "geocoded_column": {
      "latitude": "29.962275370302436",
      "longitude": "-90.11166382412522"
    }
  },
  {
    "service_request": "2022-921496",
    "request_type": "Roads/Drainage",
    "request_reason": "Pothole",
    "date_created": "2022-09-19T19:08:13.000",
    "date_modified": "2022-09-19T19:08:13.000",
    "request_status": "Pending",
    "responsible_agency": "Department of Public Works",
    "final_address": "11921 Curran Rd",
    "address_councildis": "E",
    "status": "Pending",
    "rowid": "921496",
    "final_x": "3713007.79352",
    "final_y": "567850.976804",
    "longitude": "-89.96721337965172",
    "latitude": "30.054397560455016",
    "geocoded_column": {
      "latitude": "30.054397560455016",
      "longitude": "-89.96721337965172"
    }
  },
  {
    "service_request": "2022-921495",
    "request_type": "Trash/Recycling",
    "request_reason": "Missed Trash Pick-Up",
    "date_created": "2022-09-19T19:03:54.000",
    "date_modified": "2022-09-19T19:03:55.000",
    "request_status": "Pending",
    "responsible_agency": "Department of Sanitation",
    "final_address": "528 Franklin Ave",
    "address_councildis": "C",
    "status": "Assigned to Contractor",
    "contractor": "Metro Disposal",
    "rowid": "921495",
    "final_x": "3686580.33615",
    "final_y": "534498.659525",
    "longitude": "-90.05192330226801",
    "latitude": "29.963530740243193",
    "geocoded_column": {
      "latitude": "29.963530740243193",
      "longitude": "-90.05192330226801"
    }
  },
  {
    "service_request": "2022-921494",
    "request_type": "Trash/Recycling",
    "request_reason": "Missed Trash Pick-Up",
    "date_created": "2022-09-19T19:01:03.000",
    "date_modified": "2022-09-19T19:01:03.000",
    "request_status": "Pending",
    "responsible_agency": "Department of Sanitation",
    "final_address": "426 Tricou St",
    "address_councildis": "E",
    "status": "Assigned to Contractor",
    "contractor": "Metro Disposal",
    "rowid": "921494",
    "final_x": "3699250.51216",
    "final_y": "530926.386114",
    "longitude": "-90.01204255643427",
    "latitude": "29.95331256971356",
    "geocoded_column": {
      "latitude": "29.95331256971356",
      "longitude": "-90.01204255643427"
    }
  },
  {
    "service_request": "2022-921493",
    "request_type": "Trash/Recycling",
    "request_reason": "Replace Trash Cart",
    "date_created": "2022-09-19T18:47:40.000",
    "date_modified": "2022-09-19T18:47:40.000",
    "request_status": "Pending",
    "responsible_agency": "Department of Sanitation",
    "final_address": "3439 Live Oak Pl",
    "address_councildis": "D",
    "status": "Assigned to Contractor",
    "contractor": "Metro Disposal",
    "rowid": "921493",
    "final_x": "3681588.13071",
    "final_y": "544952.434959",
    "longitude": "-90.06732340660052",
    "latitude": "29.992427549480766",
    "geocoded_column": {
      "latitude": "29.992427549480766",
      "longitude": "-90.06732340660052"
    }
  },
  {
    "service_request": "2022-921492",
    "request_type": "Trash/Recycling",
    "request_reason": "Missed Trash Pick-Up",
    "date_created": "2022-09-19T18:37:03.000",
    "date_modified": "2022-09-19T18:37:03.000",
    "request_status": "Pending",
    "responsible_agency": "Department of Sanitation",
    "final_address": "5006 N Galvez St",
    "address_councildis": "E",
    "status": "Assigned to Contractor",
    "contractor": "Metro Disposal",
    "rowid": "921492",
    "final_x": "3697065.836",
    "final_y": "537903.945161",
    "longitude": "-90.01868800928291",
    "latitude": "29.972567466573878",
    "geocoded_column": {
      "latitude": "29.972567466573878",
      "longitude": "-90.01868800928291"
    }
  },
  {
    "service_request": "2022-921491",
    "request_type": "Trash/Recycling",
    "request_reason": "Missed Trash Pick-Up",
    "date_created": "2022-09-19T18:35:02.000",
    "date_modified": "2022-09-19T18:35:03.000",
    "request_status": "Pending",
    "responsible_agency": "Department of Sanitation",
    "final_address": "5315 Wildair Dr",
    "address_councildis": "D",
    "status": "Assigned to Contractor",
    "contractor": "Metro Disposal",
    "rowid": "921491",
    "final_x": "3681734.218",
    "final_y": "552564.279574",
    "longitude": "-90.06659613255333",
    "latitude": "30.013352955117544",
    "geocoded_column": {
      "latitude": "30.013352955117544",
      "longitude": "-90.06659613255333"
    }
  },
  {
    "service_request": "2022-921490",
    "request_type": "Trash/Recycling",
    "request_reason": "Request a Large Item Pick Up",
    "date_created": "2022-09-19T18:22:07.000",
    "date_modified": "2022-09-19T18:22:08.000",
    "request_status": "Pending",
    "responsible_agency": "Department of Sanitation",
    "final_address": "1561 N Roman St, New Orleans, Louisiana, 70116",
    "address_councildis": "D",
    "status": "Assigned to Contractor",
    "contractor": "Metro Disposal",
    "rowid": "921490",
    "final_x": "3681448.28885",
    "final_y": "538061.599241",
    "longitude": "-90.06800550659365",
    "latitude": "29.973484409985602",
    "geocoded_column": {
      "latitude": "29.973484409985602",
      "longitude": "-90.06800550659365"
    }
  },
  {
    "service_request": "2022-921489",
    "request_type": "Trash/Recycling",
    "request_reason": "Missed Trash Pick-Up",
    "date_created": "2022-09-19T18:21:04.000",
    "date_modified": "2022-09-19T18:21:05.000",
    "request_status": "Pending",
    "responsible_agency": "Department of Sanitation",
    "final_address": "3795 Gentilly Blvd, New Orleans, Louisiana, 70122",
    "address_councildis": "D",
    "status": "Assigned to Contractor",
    "contractor": "Metro Disposal",
    "rowid": "921489",
    "final_x": "3687709.06831",
    "final_y": "548983.952083",
    "longitude": "-90.04784571681937",
    "latitude": "30.0033253900956",
    "geocoded_column": {
      "latitude": "30.0033253900956",
      "longitude": "-90.04784571681937"
    }
  },
  {
    "service_request": "2022-921488",
    "request_type": "Property Maintenance",
    "request_reason": "Property Maintenance",
    "date_created": "2022-09-19T18:13:32.000",
    "date_modified": "2022-09-19T18:13:33.000",
    "request_status": "Pending",
    "responsible_agency": "Department of Code Enforcement",
    "final_address": "2641 Piety St",
    "address_councildis": "D",
    "status": "Pending",
    "rowid": "921488",
    "final_x": "3691369.10313",
    "final_y": "541765.9707",
    "longitude": "-90.03654121290889",
    "latitude": "29.983365147527945",
    "geocoded_column": {
      "latitude": "29.983365147527945",
      "longitude": "-90.03654121290889"
    }
  },
  {
    "service_request": "2022-921487",
    "request_type": "Trash/Recycling",
    "request_reason": "Missed Trash Pick-Up",
    "date_created": "2022-09-19T18:02:30.000",
    "date_modified": "2022-09-19T18:02:30.000",
    "request_status": "Pending",
    "responsible_agency": "Department of Sanitation",
    "final_address": "506 Flood St",
    "address_councildis": "E",
    "status": "Assigned to Contractor",
    "contractor": "Metro Disposal",
    "rowid": "921487",
    "final_x": "3697098.09687",
    "final_y": "531768.902019",
    "longitude": "-90.01880840318745",
    "latitude": "29.955697262636836",
    "geocoded_column": {
      "latitude": "29.955697262636836",
      "longitude": "-90.01880840318745"
    }
  },
  {
    "service_request": "2022-921485",
    "request_type": "Trash/Recycling",
    "request_reason": "Missed Trash Pick-Up",
    "date_created": "2022-09-19T18:00:43.000",
    "date_modified": "2022-09-19T18:00:44.000",
    "request_status": "Pending",
    "responsible_agency": "Department of Sanitation",
    "final_address": "2203 Broadway St",
    "address_councildis": "A",
    "status": "Assigned to Contractor",
    "contractor": "Richards Disposal",
    "rowid": "921485",
    "final_x": "3666230.12749",
    "final_y": "529435.118977",
    "longitude": "-90.11635718834933",
    "latitude": "29.95021773503555",
    "geocoded_column": {
      "latitude": "29.95021773503555",
      "longitude": "-90.11635718834933"
    }
  },
  {
    "service_request": "2022-921484",
    "request_type": "Trash/Recycling",
    "request_reason": "Missed Trash Pick-Up",
    "date_created": "2022-09-19T17:57:56.000",
    "date_modified": "2022-09-19T17:57:56.000",
    "request_status": "Pending",
    "responsible_agency": "Department of Sanitation",
    "final_address": "2356 N Tonti St",
    "address_councildis": "D",
    "status": "Assigned to Contractor",
    "contractor": "Metro Disposal",
    "rowid": "921484",
    "final_x": "3685591.1567",
    "final_y": "540690.683723",
    "longitude": "-90.05482884359387",
    "latitude": "29.98058702577314",
    "geocoded_column": {
      "latitude": "29.98058702577314",
      "longitude": "-90.05482884359387"
    }
  },
  {
    "service_request": "2022-921483",
    "request_type": "Trash/Recycling",
    "request_reason": "Missed Trash Pick-Up",
    "date_created": "2022-09-19T17:57:07.000",
    "date_modified": "2022-09-19T17:57:08.000",
    "request_status": "Pending",
    "responsible_agency": "Department of Sanitation",
    "final_address": "1317 Tupelo St",
    "address_councildis": "E",
    "status": "Assigned to Contractor",
    "contractor": "Metro Disposal",
    "rowid": "921483",
    "final_x": "3699916.48356",
    "final_y": "534147.555845",
    "longitude": "-90.00982223668973",
    "latitude": "29.962148508041984",
    "geocoded_column": {
      "latitude": "29.962148508041984",
      "longitude": "-90.00982223668973"
    }
  },
  {
    "service_request": "2022-921482",
    "request_type": "Property Maintenance",
    "request_reason": "Property Maintenance",
    "date_created": "2022-09-19T17:56:03.000",
    "date_modified": "2022-09-19T17:56:03.000",
    "request_status": "Pending",
    "responsible_agency": "Department of Code Enforcement",
    "final_address": "5501 Edenboro Rd",
    "address_councildis": "E",
    "status": "Pending",
    "rowid": "921482",
    "final_x": "3708222.78052",
    "final_y": "558086.456859",
    "longitude": "-89.98270137350146",
    "latitude": "30.027705012642564",
    "geocoded_column": {
      "latitude": "30.027705012642564",
      "longitude": "-89.98270137350146"
    }
  },
  {
    "service_request": "2022-921481",
    "request_type": "Trash/Recycling",
    "request_reason": "Missed Trash Pick-Up",
    "date_created": "2022-09-19T17:54:50.000",
    "date_modified": "2022-09-19T17:54:51.000",
    "request_status": "Pending",
    "responsible_agency": "Department of Sanitation",
    "final_address": "618 Spain St",
    "address_councildis": "C",
    "status": "Assigned to Contractor",
    "contractor": "Metro Disposal",
    "rowid": "921481",
    "final_x": "3686235.27689",
    "final_y": "534776.223686",
    "longitude": "-90.05300316658703",
    "latitude": "29.964304551557163",
    "geocoded_column": {
      "latitude": "29.964304551557163",
      "longitude": "-90.05300316658703"
    }
  },
  {
    "service_request": "2022-921480",
    "request_type": "Trash/Recycling",
    "request_reason": "Request a Large Item Pick Up",
    "date_created": "2022-09-19T17:42:46.000",
    "date_modified": "2022-09-19T17:42:47.000",
    "request_status": "Pending",
    "responsible_agency": "Department of Sanitation",
    "final_address": "12 Audubon Blvd",
    "address_councildis": "A",
    "status": "Assigned to Contractor",
    "contractor": "Richards Disposal",
    "rowid": "921480",
    "final_x": "3665244.73082",
    "final_y": "526946.86035",
    "longitude": "-90.11955178925386",
    "latitude": "29.943404566661673",
    "geocoded_column": {
      "latitude": "29.943404566661673",
      "longitude": "-90.11955178925386"
    }
  },
  {
    "service_request": "2022-921479",
    "request_type": "Trash/Recycling",
    "request_reason": "Missed Trash Pick-Up",
    "date_created": "2022-09-19T17:37:37.000",
    "date_modified": "2022-09-19T17:37:37.000",
    "request_status": "Pending",
    "responsible_agency": "Department of Sanitation",
    "final_address": "3104 Dumaine St",
    "address_councildis": "A",
    "status": "Assigned to Contractor",
    "contractor": "Richards Disposal",
    "rowid": "921479",
    "final_x": "3675629.24091",
    "final_y": "538644.852425",
    "longitude": "-90.08636325099864",
    "latitude": "29.975263562735798",
    "geocoded_column": {
      "latitude": "29.975263562735798",
      "longitude": "-90.08636325099864"
    }
  },
  {
    "service_request": "2022-921477",
    "request_type": "Trash/Recycling",
    "request_reason": "Request a Large Item Pick Up",
    "date_created": "2022-09-19T17:33:14.000",
    "date_modified": "2022-09-19T17:33:15.000",
    "request_status": "Pending",
    "responsible_agency": "Department of Sanitation",
    "final_address": "5539 Bellaire Dr",
    "address_councildis": "A",
    "status": "Assigned to Contractor",
    "contractor": "Metro Disposal",
    "rowid": "921477",
    "final_x": "3664178.29472",
    "final_y": "544652.015631",
    "longitude": "-90.12232802853327",
    "latitude": "29.99211892450732",
    "geocoded_column": {
      "latitude": "29.99211892450732",
      "longitude": "-90.12232802853327"
    }
  },
  {
    "service_request": "2022-921475",
    "request_type": "Trash/Recycling",
    "request_reason": "Missed Trash Pick-Up",
    "date_created": "2022-09-19T17:23:35.000",
    "date_modified": "2022-09-19T17:23:36.000",
    "request_status": "Pending",
    "responsible_agency": "Department of Sanitation",
    "final_address": "1418 Egania St",
    "address_councildis": "E",
    "status": "Assigned to Contractor",
    "contractor": "Metro Disposal",
    "rowid": "921475",
    "final_x": "3697115.90935",
    "final_y": "535333.602502",
    "longitude": "-90.0186230088138",
    "latitude": "29.965498363830843",
    "geocoded_column": {
      "latitude": "29.965498363830843",
      "longitude": "-90.0186230088138"
    }
  },
  {
    "service_request": "2022-921474",
    "request_type": "Traffic Signals/Signs/Striping/Streetlights",
    "request_reason": "Street Light Outage/Malfunction",
    "date_created": "2022-09-19T17:21:55.000",
    "date_modified": "2022-09-19T17:21:55.000",
    "request_status": "Pending",
    "responsible_agency": "Department of Public Works",
    "final_address": "2647 Hyman Pl",
    "address_councildis": "C",
    "status": "Pending",
    "contractor": "Legacy Professional Services",
    "rowid": "921474",
    "final_x": "3700989.34397",
    "final_y": "521242.195321",
    "longitude": "-90.00690608556941",
    "latitude": "29.926629186589224",
    "geocoded_column": {
      "latitude": "29.926629186589224",
      "longitude": "-90.00690608556941"
    }
  },
  {
    "service_request": "2022-921473",
    "request_type": "Trash/Recycling",
    "request_reason": "Request a Large Item Pick Up",
    "date_created": "2022-09-19T17:21:30.000",
    "date_modified": "2022-09-19T17:21:31.000",
    "request_status": "Pending",
    "responsible_agency": "Department of Sanitation",
    "final_address": "2203 Broadway St, New Orleans, Louisiana, 70118",
    "address_councildis": "A",
    "status": "Assigned to Contractor",
    "contractor": "Richards Disposal",
    "rowid": "921473",
    "final_x": "3666230.12749",
    "final_y": "529435.118977",
    "longitude": "-90.11635718834933",
    "latitude": "29.95021773503555",
    "geocoded_column": {
      "latitude": "29.95021773503555",
      "longitude": "-90.11635718834933"
    }
  },
  {
    "service_request": "2022-921472",
    "request_type": "Trash/Recycling",
    "request_reason": "MIssed Recycling Pick-Up",
    "date_created": "2022-09-19T17:16:54.000",
    "date_modified": "2022-09-19T17:16:55.000",
    "request_status": "Pending",
    "responsible_agency": "Department of Sanitation",
    "final_address": "415 S Solomon St",
    "address_councildis": "A",
    "status": "Assigned to Contractor",
    "contractor": "Richards Disposal",
    "rowid": "921472",
    "final_x": "3669731.9483",
    "final_y": "537656.597768",
    "longitude": "-90.10502197789907",
    "latitude": "29.97272134404732",
    "geocoded_column": {
      "latitude": "29.97272134404732",
      "longitude": "-90.10502197789907"
    }
  },
  {
    "service_request": "2022-921471",
    "request_type": "Trash/Recycling",
    "request_reason": "Missed Trash Pick-Up",
    "date_created": "2022-09-19T17:16:43.000",
    "date_modified": "2022-09-19T17:16:43.000",
    "request_status": "Pending",
    "responsible_agency": "Department of Sanitation",
    "final_address": "5302 Dauphine St",
    "address_councildis": "E",
    "status": "Assigned to Contractor",
    "contractor": "Metro Disposal",
    "rowid": "921471",
    "final_x": "3696529.01296",
    "final_y": "532879.245508",
    "longitude": "-90.02056519090353",
    "latitude": "29.958768254947763",
    "geocoded_column": {
      "latitude": "29.958768254947763",
      "longitude": "-90.02056519090353"
    }
  },
  {
    "service_request": "2022-921470",
    "request_type": "Trash/Recycling",
    "request_reason": "Missed Trash Pick-Up",
    "date_created": "2022-09-19T17:16:02.000",
    "date_modified": "2022-09-19T17:16:03.000",
    "request_status": "Pending",
    "responsible_agency": "Department of Sanitation",
    "final_address": "1021 Pine St",
    "address_councildis": "A",
    "status": "Assigned to Contractor",
    "contractor": "Richards Disposal",
    "rowid": "921470",
    "final_x": "3663647.04659",
    "final_y": "526197.126334",
    "longitude": "-90.12462108274644",
    "latitude": "29.941389476888812",
    "geocoded_column": {
      "latitude": "29.941389476888812",
      "longitude": "-90.12462108274644"
    }
  },
  {
    "service_request": "2022-921469",
    "request_type": "Trash/Recycling",
    "request_reason": "Missed Trash Pick-Up",
    "date_created": "2022-09-19T17:10:17.000",
    "date_modified": "2022-09-19T17:10:18.000",
    "request_status": "Pending",
    "responsible_agency": "Department of Sanitation",
    "final_address": "1824 Ursulines Ave",
    "address_councildis": "D",
    "status": "Assigned to Contractor",
    "contractor": "Richards Disposal",
    "rowid": "921469",
    "final_x": "3680171.55791",
    "final_y": "536083.390791",
    "longitude": "-90.07210645612501",
    "latitude": "29.968083721856345",
    "geocoded_column": {
      "latitude": "29.968083721856345",
      "longitude": "-90.07210645612501"
    }
  },
  {
    "service_request": "2022-921468",
    "request_type": "Roads/Drainage",
    "request_reason": "Pothole",
    "date_created": "2022-09-19T17:09:01.000",
    "date_modified": "2022-09-19T17:09:01.000",
    "request_status": "Pending",
    "responsible_agency": "Department of Public Works",
    "final_address": "8112 Forshey St",
    "address_councildis": "A",
    "status": "Pending",
    "rowid": "921468",
    "final_x": "3666885.43783",
    "final_y": "533973.996485",
    "longitude": "-90.11413556710153",
    "latitude": "29.962679008191735",
    "geocoded_column": {
      "latitude": "29.962679008191735",
      "longitude": "-90.11413556710153"
    }
  },
  {
    "service_request": "2022-921467",
    "request_type": "Property Maintenance",
    "request_reason": "Property Maintenance",
    "date_created": "2022-09-19T17:08:24.000",
    "date_modified": "2022-09-19T17:08:25.000",
    "request_status": "Pending",
    "responsible_agency": "Department of Code Enforcement",
    "final_address": "923 Nunez St",
    "address_councildis": "C",
    "status": "Pending",
    "rowid": "921467",
    "final_x": "3686903.88738",
    "final_y": "528062.896063",
    "longitude": "-90.05112898502138",
    "latitude": "29.945824647201132",
    "geocoded_column": {
      "latitude": "29.945824647201132",
      "longitude": "-90.05112898502138"
    }
  },
  {
    "service_request": "2022-921466",
    "request_type": "Trash/Recycling",
    "request_reason": "Missed Trash Pick-Up",
    "date_created": "2022-09-19T17:05:39.000",
    "date_modified": "2022-09-19T17:05:40.000",
    "request_status": "Pending",
    "responsible_agency": "Department of Sanitation",
    "final_address": "1211 Sixth St",
    "address_councildis": "B",
    "status": "Assigned to Contractor",
    "contractor": "Richards Disposal",
    "rowid": "921466",
    "final_x": "3676419.42747",
    "final_y": "520952.661497",
    "longitude": "-90.08447663197596",
    "latitude": "29.92659226392518",
    "geocoded_column": {
      "latitude": "29.92659226392518",
      "longitude": "-90.08447663197596"
    }
  },
  {
    "service_request": "2022-921465",
    "request_type": "Trash/Recycling",
    "request_reason": "Request a Large Item Pick Up",
    "date_created": "2022-09-19T17:02:25.000",
    "date_modified": "2022-09-19T17:02:26.000",
    "request_status": "Pending",
    "responsible_agency": "Department of Sanitation",
    "final_address": "8526 Pritchard Pl",
    "address_councildis": "A",
    "status": "Assigned to Contractor",
    "contractor": "Richards Disposal",
    "rowid": "921465",
    "final_x": "3664772.02183",
    "final_y": "534006.593605",
    "longitude": "-90.12080839352379",
    "latitude": "29.962830302520548",
    "geocoded_column": {
      "latitude": "29.962830302520548",
      "longitude": "-90.12080839352379"
    }
  },
  {
    "service_request": "2022-921464",
    "request_type": "Roads/Drainage",
    "request_reason": "Damaged Sidewalk",
    "date_created": "2022-09-19T16:59:18.000",
    "date_modified": "2022-09-19T16:59:18.000",
    "request_status": "Pending",
    "responsible_agency": "Department of Public Works",
    "final_address": "1010 Erato St",
    "address_councildis": "B",
    "status": "Pending",
    "rowid": "921464",
    "final_x": "3680892.41115",
    "final_y": "525529.966013",
    "longitude": "-90.07019737301447",
    "latitude": "29.939043532630308",
    "geocoded_column": {
      "latitude": "29.939043532630308",
      "longitude": "-90.07019737301447"
    }
  },
  {
    "service_request": "2022-921463",
    "request_type": "Trash/Recycling",
    "request_reason": "Illegal Dumping",
    "date_created": "2022-09-19T16:54:52.000",
    "date_modified": "2022-09-19T16:54:53.000",
    "request_status": "Pending",
    "responsible_agency": "Department of Sanitation",
    "final_address": "6600 BLK Ransom St",
    "address_councildis": "E",
    "status": "Pending",
    "rowid": "921463",
    "final_x": "3699119.6785",
    "final_y": "553033.232632",
    "longitude": "-90.01165051060582",
    "latitude": "30.014102466694546",
    "geocoded_column": {
      "latitude": "30.014102466694546",
      "longitude": "-90.01165051060582"
    }
  },
  {
    "service_request": "2022-921462",
    "request_type": "Trash/Recycling",
    "request_reason": "Missed Trash Pick-Up",
    "date_created": "2022-09-19T16:53:57.000",
    "date_modified": "2022-09-19T16:53:59.000",
    "request_status": "Pending",
    "responsible_agency": "Department of Sanitation",
    "final_address": "7732 S Interstate 10 Service Rd",
    "address_councildis": "E",
    "status": "Assigned to Contractor",
    "contractor": "Metro Disposal",
    "rowid": "921462",
    "final_x": "3702509.38321",
    "final_y": "557881.142299",
    "longitude": "-90.00076270212813",
    "latitude": "30.027324413808593",
    "geocoded_column": {
      "latitude": "30.027324413808593",
      "longitude": "-90.00076270212813"
    }
  },
  {
    "service_request": "2022-921461",
    "request_type": "Property Maintenance",
    "request_reason": "Property Maintenance",
    "date_created": "2022-09-19T16:51:18.000",
    "date_modified": "2022-09-19T16:51:18.000",
    "request_status": "Pending",
    "responsible_agency": "Department of Code Enforcement",
    "final_address": "9207 Forshey St, New Orleans, Louisiana, 70118",
    "address_councildis": "A",
    "status": "Pending",
    "rowid": "921461",
    "final_x": "3664120.63738",
    "final_y": "536618.329671",
    "longitude": "-90.12277825799289",
    "latitude": "29.97003065435303",
    "geocoded_column": {
      "latitude": "29.97003065435303",
      "longitude": "-90.12277825799289"
    }
  },
  {
    "service_request": "2022-921460",
    "request_type": "Trash/Recycling",
    "request_reason": "Missed Trash Pick-Up",
    "date_created": "2022-09-19T16:50:30.000",
    "date_modified": "2022-09-19T16:50:31.000",
    "request_status": "Pending",
    "responsible_agency": "Department of Sanitation",
    "final_address": "5455 Marais St",
    "address_councildis": "E",
    "status": "Assigned to Contractor",
    "contractor": "Metro Disposal",
    "rowid": "921460",
    "final_x": "3697698.52963",
    "final_y": "534251.010373",
    "longitude": "-90.01682240979383",
    "latitude": "29.962503227215628",
    "geocoded_column": {
      "latitude": "29.962503227215628",
      "longitude": "-90.01682240979383"
    }
  },
  {
    "service_request": "2022-921459",
    "request_type": "Trash/Recycling",
    "request_reason": "MIssed Recycling Pick-Up",
    "date_created": "2022-09-19T16:47:18.000",
    "date_modified": "2022-09-19T16:47:18.000",
    "request_status": "Pending",
    "responsible_agency": "Department of Sanitation",
    "final_address": "920 Melpomene St",
    "address_councildis": "B",
    "status": "Assigned to Contractor",
    "contractor": "Richards Disposal",
    "rowid": "921459",
    "final_x": "3681047.05915",
    "final_y": "524699.109052",
    "longitude": "-90.0697380579231",
    "latitude": "29.936754263399134",
    "geocoded_column": {
      "latitude": "29.936754263399134",
      "longitude": "-90.0697380579231"
    }
  },
  {
    "service_request": "2022-921458",
    "request_type": "Trash/Recycling",
    "request_reason": "Request a Large Item Pick Up",
    "date_created": "2022-09-19T16:47:17.000",
    "date_modified": "2022-09-19T16:47:18.000",
    "request_status": "Pending",
    "responsible_agency": "Department of Sanitation",
    "final_address": "230 30Th St",
    "address_councildis": "A",
    "status": "Assigned to Contractor",
    "contractor": "Metro Disposal",
    "rowid": "921458",
    "final_x": "3665556.26055",
    "final_y": "550460.978452",
    "longitude": "-90.11778063629998",
    "latitude": "30.00805145842339",
    "geocoded_column": {
      "latitude": "30.00805145842339",
      "longitude": "-90.11778063629998"
    }
  },
  {
    "service_request": "2022-921457",
    "request_type": "Traffic Signals/Signs/Striping/Streetlights",
    "request_reason": "Street Light Outage/Malfunction",
    "date_created": "2022-09-19T16:44:54.000",
    "date_modified": "2022-09-19T16:44:54.000",
    "request_status": "Pending",
    "responsible_agency": "Department of Public Works",
    "final_address": "11300 Curran Rd",
    "address_councildis": "E",
    "status": "Pending",
    "contractor": "Legacy Professional Services",
    "rowid": "921457",
    "final_x": "3711178.19275",
    "final_y": "566476.801443",
    "longitude": "-89.97304783618505",
    "latitude": "30.050678987306384",
    "geocoded_column": {
      "latitude": "30.050678987306384",
      "longitude": "-89.97304783618505"
    }
  },
  {
    "service_request": "2022-921456",
    "request_type": "Trash/Recycling",
    "request_reason": "Replace Trash Cart",
    "date_created": "2022-09-19T16:43:52.000",
    "date_modified": "2022-09-19T16:43:53.000",
    "request_status": "Pending",
    "responsible_agency": "Department of Sanitation",
    "final_address": "528 Joseph St",
    "address_councildis": "A",
    "status": "Assigned to Contractor",
    "contractor": "Richards Disposal",
    "rowid": "921456",
    "final_x": "3665880.16276",
    "final_y": "518120.097718",
    "longitude": "-90.11784118328787",
    "latitude": "29.919115246118466",
    "geocoded_column": {
      "latitude": "29.919115246118466",
      "longitude": "-90.11784118328787"
    }
  },
  {
    "service_request": "2022-921455",
    "request_type": "Parks & Parkways",
    "request_reason": "Request Tree Service (Right of Way/Public Property)",
    "date_created": "2022-09-19T16:35:32.000",
    "date_modified": "2022-09-19T16:43:23.000",
    "case_close_date": "2022-09-19T11:43:23.000",
    "request_status": "Closed",
    "responsible_agency": "Department of Parks & Parkway",
    "final_address": "1200 BLK Delachaise St",
    "address_councildis": "B",
    "status": "Duplicate Request",
    "rowid": "921455",
    "final_x": "3674446.50081",
    "final_y": "519985.238689",
    "longitude": "-90.09073774667488",
    "latitude": "29.92399114163248",
    "geocoded_column": {
      "latitude": "29.92399114163248",
      "longitude": "-90.09073774667488"
    }
  },
  {
    "service_request": "2022-921454",
    "request_type": "Trash/Recycling",
    "request_reason": "MIssed Recycling Pick-Up",
    "date_created": "2022-09-19T16:34:59.000",
    "date_modified": "2022-09-19T16:34:59.000",
    "request_status": "Pending",
    "responsible_agency": "Department of Sanitation",
    "final_address": "2549 Myrtle St",
    "address_councildis": "D",
    "status": "Assigned to Contractor",
    "contractor": "Metro Disposal",
    "rowid": "921454",
    "final_x": "3686947.17436",
    "final_y": "546087.70536",
    "longitude": "-90.05035509893007",
    "latitude": "29.995385238531842",
    "geocoded_column": {
      "latitude": "29.995385238531842",
      "longitude": "-90.05035509893007"
    }
  },
  {
    "service_request": "2022-921453",
    "request_type": "Traffic Signals/Signs/Striping/Streetlights",
    "request_reason": "Traffic Signal Malfunctioning/Damaged",
    "date_created": "2022-09-19T16:34:29.000",
    "date_modified": "2022-09-19T16:34:29.000",
    "request_status": "Pending",
    "responsible_agency": "Department of Public Works",
    "final_address": "6325 Cromwell Pl",
    "address_councildis": "A",
    "status": "Pending",
    "rowid": "921453",
    "final_x": "3665234.09645",
    "final_y": "524212.116412",
    "longitude": "-90.11967681803249",
    "latitude": "29.93588520510346",
    "geocoded_column": {
      "latitude": "29.93588520510346",
      "longitude": "-90.11967681803249"
    }
  },
  {
    "service_request": "2022-921452",
    "request_type": "Trash/Recycling",
    "request_reason": "Missed Trash Pick-Up",
    "date_created": "2022-09-19T16:33:23.000",
    "date_modified": "2022-09-19T16:33:27.000",
    "request_status": "Pending",
    "responsible_agency": "Department of Sanitation",
    "final_address": "2549 Myrtle St",
    "address_councildis": "D",
    "status": "Assigned to Contractor",
    "contractor": "Metro Disposal",
    "rowid": "921452",
    "final_x": "3686947.17436",
    "final_y": "546087.70536",
    "longitude": "-90.05035509893007",
    "latitude": "29.995385238531842",
    "geocoded_column": {
      "latitude": "29.995385238531842",
      "longitude": "-90.05035509893007"
    }
  },
  {
    "service_request": "2022-921451",
    "request_type": "Traffic Signals/Signs/Striping/Streetlights",
    "request_reason": "Street Light Knocked Down/Leaning",
    "date_created": "2022-09-19T16:32:24.000",
    "date_modified": "2022-09-19T16:33:21.000",
    "request_status": "Pending",
    "responsible_agency": "Department of Public Works",
    "final_address": "1041 Esplanade Ave",
    "address_councildis": "C",
    "status": "Pending",
    "contractor": "Legacy Professional Services",
    "rowid": "921451",
    "final_x": "3682957.61864",
    "final_y": "535340.167046",
    "longitude": "-90.06333399431564",
    "latitude": "29.96595549719378",
    "geocoded_column": {
      "latitude": "29.96595549719378",
      "longitude": "-90.06333399431564"
    }
  },
  {
    "service_request": "2022-921450",
    "request_type": "Property Maintenance",
    "request_reason": "Property Maintenance",
    "date_created": "2022-09-19T16:31:47.000",
    "date_modified": "2022-09-19T16:32:53.000",
    "request_status": "Pending",
    "responsible_agency": "Department of Code Enforcement",
    "final_address": "6435 Debore Dr",
    "address_councildis": "D",
    "status": "Pending",
    "rowid": "921450",
    "final_x": "3690928.89577",
    "final_y": "557227.444059",
    "longitude": "-90.03737928107894",
    "latitude": "30.025892216552307",
    "geocoded_column": {
      "latitude": "30.025892216552307",
      "longitude": "-90.03737928107894"
    }
  },
  {
    "service_request": "2022-921449",
    "request_type": "Mosquito, Termite & Rodent Control",
    "request_reason": "Rodent Complaint (Rats)",
    "date_created": "2022-09-19T16:29:31.000",
    "date_modified": "2022-09-19T16:29:32.000",
    "request_status": "Pending",
    "responsible_agency": "Mosquito, Termite & Rodent Control Board",
    "final_address": "1300 BLK Saint Maurice Ave",
    "address_councildis": "E",
    "status": "Pending",
    "rowid": "921449",
    "final_x": "3700186.85615",
    "final_y": "534037.722723",
    "longitude": "-90.00897245478056",
    "latitude": "29.961837916408086",
    "geocoded_column": {
      "latitude": "29.961837916408086",
      "longitude": "-90.00897245478056"
    }
  },
  {
    "service_request": "2022-921448",
    "request_type": "Trash/Recycling",
    "request_reason": "Missed Trash Pick-Up",
    "date_created": "2022-09-19T16:26:08.000",
    "date_modified": "2022-09-19T16:26:09.000",
    "request_status": "Pending",
    "responsible_agency": "Department of Sanitation",
    "final_address": "1700 BLK Burdette St",
    "address_councildis": "A",
    "status": "Assigned to Contractor",
    "contractor": "Richards Disposal",
    "rowid": "921448",
    "final_x": "3664094.24034",
    "final_y": "529043.119195",
    "longitude": "-90.12311429714202",
    "latitude": "29.949202065142753",
    "geocoded_column": {
      "latitude": "29.949202065142753",
      "longitude": "-90.12311429714202"
    }
  },
  {
    "service_request": "2022-921447",
    "request_type": "Traffic Signals/Signs/Striping/Streetlights",
    "request_reason": "Street Light Outage/Malfunction",
    "date_created": "2022-09-19T16:25:21.000",
    "date_modified": "2022-09-19T16:25:22.000",
    "request_status": "Pending",
    "responsible_agency": "Department of Public Works",
    "final_address": "2819 Bruxelles St",
    "address_councildis": "D",
    "status": "Pending",
    "contractor": "Legacy Professional Services",
    "rowid": "921447",
    "final_x": "3680389.7108",
    "final_y": "542772.123981",
    "longitude": "-90.07118484740666",
    "latitude": "29.9864688147677",
    "geocoded_column": {
      "latitude": "29.9864688147677",
      "longitude": "-90.07118484740666"
    }
  },
  {
    "service_request": "2022-921446",
    "request_type": "Trash/Recycling",
    "request_reason": "MIssed Recycling Pick-Up",
    "date_created": "2022-09-19T16:24:50.000",
    "date_modified": "2022-09-19T16:24:51.000",
    "request_status": "Pending",
    "responsible_agency": "Department of Sanitation",
    "final_address": "1321 Terry St",
    "address_councildis": "C",
    "status": "Assigned to Contractor",
    "contractor": "Richards Disposal",
    "rowid": "921446",
    "final_x": "3696905.81213",
    "final_y": "526351.740158",
    "longitude": "-90.01961168337353",
    "latitude": "29.940808024794965",
    "geocoded_column": {
      "latitude": "29.940808024794965",
      "longitude": "-90.01961168337353"
    }
  },
  {
    "service_request": "2022-921445",
    "request_type": "Property Maintenance",
    "request_reason": "Property Maintenance",
    "date_created": "2022-09-19T16:20:24.000",
    "date_modified": "2022-09-19T17:06:57.000",
    "request_status": "Pending",
    "responsible_agency": "Department of Code Enforcement",
    "final_address": "1315 St Maurice Ave",
    "address_councildis": "E",
    "rowid": "921445",
    "final_x": "3700224.54832",
    "final_y": "533966.519493",
    "longitude": "-90.00885602871146",
    "latitude": "29.96164093505397",
    "geocoded_column": {
      "latitude": "29.96164093505397",
      "longitude": "-90.00885602871146"
    }
  },
  {
    "service_request": "2022-921444",
    "request_type": "Property Maintenance",
    "request_reason": "Property Maintenance",
    "date_created": "2022-09-19T16:17:28.000",
    "date_modified": "2022-09-19T17:07:57.000",
    "request_status": "Pending",
    "responsible_agency": "Department of Code Enforcement",
    "final_address": "1301 St Maurice Ave",
    "address_councildis": "E",
    "rowid": "921444",
    "final_x": "3700181.50935",
    "final_y": "533898.073221",
    "longitude": "-90.00899443588351",
    "latitude": "29.96145410011845",
    "geocoded_column": {
      "latitude": "29.96145410011845",
      "longitude": "-90.00899443588351"
    }
  },
  {
    "service_request": "2022-921443",
    "request_type": "Abandoned Vehicles",
    "request_reason": "Abandoned/Junk Vehicles",
    "date_created": "2022-09-19T16:17:14.000",
    "date_modified": "2022-09-19T16:17:15.000",
    "request_status": "Pending",
    "responsible_agency": "Department of Public Works",
    "final_address": "2026 Painters St",
    "address_councildis": "D",
    "status": "Pending",
    "rowid": "921443",
    "final_x": "3687193.44476",
    "final_y": "540030.530059",
    "longitude": "-90.04979149103222",
    "latitude": "29.978722580954166",
    "geocoded_column": {
      "latitude": "29.978722580954166",
      "longitude": "-90.04979149103222"
    }
  },
  {
    "service_request": "2022-921442",
    "request_type": "Trash/Recycling",
    "request_reason": "Missed Trash Pick-Up",
    "date_created": "2022-09-19T16:16:24.000",
    "date_modified": "2022-09-19T16:16:25.000",
    "request_status": "Pending",
    "responsible_agency": "Department of Sanitation",
    "final_address": "2441 N Galvez St",
    "address_councildis": "D",
    "status": "Assigned to Contractor",
    "contractor": "Metro Disposal",
    "rowid": "921442",
    "final_x": "3686591.64226",
    "final_y": "540163.671499",
    "longitude": "-90.05168750121912",
    "latitude": "29.97910719531107",
    "geocoded_column": {
      "latitude": "29.97910719531107",
      "longitude": "-90.05168750121912"
    }
  },
  {
    "service_request": "2022-921441",
    "request_type": "Abandoned Vehicles",
    "request_reason": "Abandoned/Junk Vehicles",
    "date_created": "2022-09-19T16:16:00.000",
    "date_modified": "2022-09-19T16:16:01.000",
    "request_status": "Pending",
    "responsible_agency": "Department of Public Works",
    "final_address": "2108 Painters St",
    "address_councildis": "D",
    "status": "Pending",
    "rowid": "921441",
    "final_x": "3687184.75465",
    "final_y": "540281.285771",
    "longitude": "-90.04981006615853",
    "latitude": "29.97941233827027",
    "geocoded_column": {
      "latitude": "29.97941233827027",
      "longitude": "-90.04981006615853"
    }
  },
  {
    "service_request": "2022-921440",
    "request_type": "Traffic Signals/Signs/Striping/Streetlights",
    "request_reason": "Street Light Outage/Malfunction",
    "date_created": "2022-09-19T16:15:47.000",
    "date_modified": "2022-09-19T16:15:48.000",
    "request_status": "Pending",
    "responsible_agency": "Department of Public Works",
    "final_address": "406 38Th St",
    "address_councildis": "A",
    "status": "Pending",
    "contractor": "Legacy Professional Services",
    "rowid": "921440",
    "final_x": "3664918.89773",
    "final_y": "552657.589334",
    "longitude": "-90.11972076524341",
    "latitude": "30.01410994978017",
    "geocoded_column": {
      "latitude": "30.01410994978017",
      "longitude": "-90.11972076524341"
    }
  },
  {
    "service_request": "2022-921439",
    "request_type": "Trash/Recycling",
    "request_reason": "Replace Trash Cart",
    "date_created": "2022-09-19T16:15:39.000",
    "date_modified": "2022-09-19T16:15:39.000",
    "request_status": "Pending",
    "responsible_agency": "Department of Sanitation",
    "final_address": "1624 Governor Nicholls St",
    "address_councildis": "D",
    "status": "Assigned to Contractor",
    "contractor": "Richards Disposal",
    "rowid": "921439",
    "final_x": "3681053.66491",
    "final_y": "535996.985415",
    "longitude": "-90.06932374016128",
    "latitude": "29.96781940987393",
    "geocoded_column": {
      "latitude": "29.96781940987393",
      "longitude": "-90.06932374016128"
    }
  },
  {
    "service_request": "2022-921438",
    "request_type": "Trash/Recycling",
    "request_reason": "Replace Trash Cart",
    "date_created": "2022-09-19T16:14:42.000",
    "date_modified": "2022-09-19T16:14:43.000",
    "request_status": "Pending",
    "responsible_agency": "Department of Sanitation",
    "final_address": "917 N Villere St",
    "address_councildis": "C",
    "status": "Assigned to Contractor",
    "contractor": "Richards Disposal",
    "rowid": "921438",
    "final_x": "3680778.88245",
    "final_y": "534922.715462",
    "longitude": "-90.0702289086545",
    "latitude": "29.96487386755611",
    "geocoded_column": {
      "latitude": "29.96487386755611",
      "longitude": "-90.0702289086545"
    }
  },
  {
    "service_request": "2022-921437",
    "request_type": "Trash/Recycling",
    "request_reason": "Dead Animal Pick Up",
    "date_created": "2022-09-19T16:12:24.000",
    "date_modified": "2022-09-19T16:12:25.000",
    "request_status": "Pending",
    "responsible_agency": "Department of Sanitation",
    "final_address": "3407 N Claiborne Ave",
    "address_councildis": "D",
    "status": "Assigned to Contractor",
    "contractor": "Metro Disposal",
    "rowid": "921437",
    "final_x": "3690795.999",
    "final_y": "537577.183944",
    "longitude": "-90.03850087531997",
    "latitude": "29.97186529555793",
    "geocoded_column": {
      "latitude": "29.97186529555793",
      "longitude": "-90.03850087531997"
    }
  },
  {
    "service_request": "2022-921436",
    "request_type": "Trash/Recycling",
    "request_reason": "Request a Large Item Pick Up",
    "date_created": "2022-09-19T16:12:03.000",
    "date_modified": "2022-09-19T16:12:04.000",
    "request_status": "Pending",
    "responsible_agency": "Department of Sanitation",
    "final_address": "4227 Fontainebleau Dr",
    "address_councildis": "B",
    "status": "Assigned to Contractor",
    "contractor": "Richards Disposal",
    "rowid": "921436",
    "final_x": "3669627.99758",
    "final_y": "529355.935681",
    "longitude": "-90.10563115366931",
    "latitude": "29.9499003390365",
    "geocoded_column": {
      "latitude": "29.9499003390365",
      "longitude": "-90.10563115366931"
    }
  },
  {
    "service_request": "2022-921435",
    "request_type": "Traffic Signals/Signs/Striping/Streetlights",
    "request_reason": "Traffic Sign Missing/Damaged",
    "date_created": "2022-09-19T16:06:44.000",
    "date_modified": "2022-09-19T16:06:44.000",
    "request_status": "Pending",
    "responsible_agency": "Department of Public Works",
    "final_address": "11235 Lake Forest Blvd",
    "address_councildis": "E",
    "status": "Pending",
    "rowid": "921435",
    "final_x": "3716022.91871",
    "final_y": "561662.083743",
    "longitude": "-89.95791817494204",
    "latitude": "30.037281438664227",
    "geocoded_column": {
      "latitude": "30.037281438664227",
      "longitude": "-89.95791817494204"
    }
  },
  {
    "service_request": "2022-921434",
    "request_type": "Parks & Parkways",
    "request_reason": "Request Tree Service (Right of Way/Public Property)",
    "date_created": "2022-09-19T16:06:41.000",
    "date_modified": "2022-09-19T16:06:41.000",
    "request_status": "Pending",
    "responsible_agency": "Department of Parks & Parkway",
    "final_address": "923 Louisiana Ave",
    "address_councildis": "B",
    "status": "Pending",
    "rowid": "921434",
    "final_x": "3675359.5236",
    "final_y": "519187.725623",
    "longitude": "-90.08788301911407",
    "latitude": "29.921770980818113",
    "geocoded_column": {
      "latitude": "29.921770980818113",
      "longitude": "-90.08788301911407"
    }
  },
  {
    "service_request": "2022-921433",
    "request_type": "Trash/Recycling",
    "request_reason": "Order Recycling Cart",
    "date_created": "2022-09-19T16:06:15.000",
    "date_modified": "2022-09-19T16:06:15.000",
    "request_status": "Pending",
    "responsible_agency": "Department of Sanitation",
    "final_address": "4222 Freret St",
    "address_councildis": "B",
    "status": "Pending",
    "rowid": "921433",
    "final_x": "3671089.07444",
    "final_y": "524065.51238",
    "longitude": "-90.10119747007415",
    "latitude": "29.93531027178285",
    "geocoded_column": {
      "latitude": "29.93531027178285",
      "longitude": "-90.10119747007415"
    }
  },
  {
    "service_request": "2022-921432",
    "request_type": "Trash/Recycling",
    "request_reason": "Start Trash Service",
    "date_created": "2022-09-19T16:05:46.000",
    "date_modified": "2022-09-19T16:05:46.000",
    "request_status": "Pending",
    "responsible_agency": "Department of Sanitation",
    "final_address": "2114 First St",
    "address_councildis": "B",
    "status": "Assigned to Contractor",
    "contractor": "Richards Disposal",
    "rowid": "921432",
    "final_x": "3675861.79873",
    "final_y": "524804.157564",
    "longitude": "-90.08610457549823",
    "latitude": "29.937199323779538",
    "geocoded_column": {
      "latitude": "29.937199323779538",
      "longitude": "-90.08610457549823"
    }
  },
  {
    "service_request": "2022-921431",
    "request_type": "Property Maintenance",
    "request_reason": "Property Maintenance",
    "date_created": "2022-09-19T16:05:40.000",
    "date_modified": "2022-09-19T16:05:41.000",
    "request_status": "Pending",
    "responsible_agency": "Department of Code Enforcement",
    "final_address": "4227 Iberville St",
    "address_councildis": "A",
    "status": "Pending",
    "rowid": "921431",
    "final_x": "3670690.68916",
    "final_y": "539253.059338",
    "longitude": "-90.1019399054036",
    "latitude": "29.977082779845503",
    "geocoded_column": {
      "latitude": "29.977082779845503",
      "longitude": "-90.1019399054036"
    }
  },
  {
    "service_request": "2022-921430",
    "request_type": "Abandoned Vehicles",
    "request_reason": "Abandoned/Junk Vehicles",
    "date_created": "2022-09-19T16:04:02.000",
    "date_modified": "2022-09-19T16:04:02.000",
    "request_status": "Pending",
    "responsible_agency": "Department of Public Works",
    "final_address": "2746 Mithra St",
    "address_councildis": "D",
    "status": "Pending",
    "rowid": "921430",
    "final_x": "3687719.44783",
    "final_y": "552947.518935",
    "longitude": "-90.04767243203858",
    "latitude": "30.014223428289675",
    "geocoded_column": {
      "latitude": "30.014223428289675",
      "longitude": "-90.04767243203858"
    }
  },
  {
    "service_request": "2022-921429",
    "request_type": "Trash/Recycling",
    "request_reason": "Order Trash Cart",
    "date_created": "2022-09-19T16:02:16.000",
    "date_modified": "2022-09-19T16:02:17.000",
    "request_status": "Pending",
    "responsible_agency": "Department of Sanitation",
    "final_address": "3403 General Taylor St",
    "address_councildis": "B",
    "status": "Assigned to Contractor",
    "contractor": "Richards Disposal",
    "rowid": "921429",
    "final_x": "3671196.91297",
    "final_y": "527369.137663",
    "longitude": "-90.10074483140679",
    "latitude": "29.944390979718218",
    "geocoded_column": {
      "latitude": "29.944390979718218",
      "longitude": "-90.10074483140679"
    }
  },
  {
    "service_request": "2022-921428",
    "request_type": "Trash/Recycling",
    "request_reason": "Missed Trash Pick-Up",
    "date_created": "2022-09-19T16:01:43.000",
    "date_modified": "2022-09-19T16:01:43.000",
    "request_status": "Pending",
    "responsible_agency": "Department of Sanitation",
    "final_address": "600 BLK Andry St",
    "address_councildis": "E",
    "status": "Assigned to Contractor",
    "contractor": "Metro Disposal",
    "rowid": "921428",
    "final_x": "3696708.2614",
    "final_y": "532310.071322",
    "longitude": "-90.02001977329797",
    "latitude": "29.957197578900715",
    "geocoded_column": {
      "latitude": "29.957197578900715",
      "longitude": "-90.02001977329797"
    }
  },
  {
    "service_request": "2022-921427",
    "request_type": "Roads/Drainage",
    "request_reason": "Street Subsidence (Sinking)",
    "date_created": "2022-09-19T16:00:00.000",
    "date_modified": "2022-09-19T16:00:00.000",
    "request_status": "Pending",
    "responsible_agency": "Department of Public Works",
    "final_address": "11235 Lake Forest Blvd",
    "address_councildis": "E",
    "status": "Pending",
    "rowid": "921427",
    "final_x": "3716022.91871",
    "final_y": "561662.083743",
    "longitude": "-89.95791817494204",
    "latitude": "30.037281438664227",
    "geocoded_column": {
      "latitude": "30.037281438664227",
      "longitude": "-89.95791817494204"
    }
  },
  {
    "service_request": "2022-921426",
    "request_type": "Trash/Recycling",
    "request_reason": "Dead Animal Pick Up",
    "date_created": "2022-09-19T15:59:48.000",
    "date_modified": "2022-09-19T15:59:48.000",
    "request_status": "Pending",
    "responsible_agency": "Department of Sanitation",
    "final_address": "1441 Teche Street",
    "address_councildis": "C",
    "status": "Assigned to Contractor",
    "contractor": "Richards Disposal",
    "rowid": "921426",
    "final_x": "3686597.27682",
    "final_y": "526123.946366",
    "longitude": "-90.05216550400165",
    "latitude": "29.940502622808083",
    "geocoded_column": {
      "latitude": "29.940502622808083",
      "longitude": "-90.05216550400165"
    }
  },
  {
    "service_request": "2022-921425",
    "request_type": "Parks & Parkways",
    "request_reason": "Request Tree Service (Right of Way/Public Property)",
    "date_created": "2022-09-19T15:58:53.000",
    "date_modified": "2022-09-19T15:58:53.000",
    "request_status": "Pending",
    "responsible_agency": "Department of Parks & Parkway",
    "final_address": "CANAL BLVD & LOUQUE PL",
    "address_councildis": "A",
    "status": "Pending",
    "rowid": "921425",
    "final_x": "3668080.2",
    "final_y": "543574.18",
    "longitude": "-90.11003900063396",
    "latitude": "29.98904127766889",
    "geocoded_column": {
      "latitude": "29.98904127766889",
      "longitude": "-90.11003900063396"
    }
  },
  {
    "service_request": "2022-921424",
    "request_type": "Traffic Signals/Signs/Striping/Streetlights",
    "request_reason": "Request for Stop Sign",
    "date_created": "2022-09-19T15:58:04.000",
    "date_modified": "2022-09-19T15:58:04.000",
    "request_status": "Pending",
    "responsible_agency": "Department of Public Works",
    "final_address": "909 Race St",
    "address_councildis": "B",
    "status": "Pending",
    "rowid": "921424",
    "final_x": "3680899.57487",
    "final_y": "523716.537467",
    "longitude": "-90.07023786706456",
    "latitude": "29.93405698808265",
    "geocoded_column": {
      "latitude": "29.93405698808265",
      "longitude": "-90.07023786706456"
    }
  },
  {
    "service_request": "2022-921423",
    "request_type": "Parks & Parkways",
    "request_reason": "Request Tree Service (Right of Way/Public Property)",
    "date_created": "2022-09-19T15:57:06.000",
    "date_modified": "2022-09-19T15:57:08.000",
    "request_status": "Pending",
    "responsible_agency": "Department of Parks & Parkway",
    "final_address": "5432 General Diaz St",
    "address_councildis": "A",
    "status": "Pending",
    "rowid": "921423",
    "final_x": "3668976.69601",
    "final_y": "543128.801485",
    "longitude": "-90.10722228224365",
    "latitude": "29.987790291740698",
    "geocoded_column": {
      "latitude": "29.987790291740698",
      "longitude": "-90.10722228224365"
    }
  },
  {
    "service_request": "2022-921422",
    "request_type": "Parks & Parkways",
    "request_reason": "Request Tree Service (Right of Way/Public Property)",
    "date_created": "2022-09-19T15:55:36.000",
    "date_modified": "2022-09-19T15:55:36.000",
    "request_status": "Pending",
    "responsible_agency": "Department of Parks & Parkway",
    "final_address": "11230 Lake Forest Blvd",
    "address_councildis": "E",
    "status": "Pending",
    "rowid": "921422",
    "final_x": "3716133.68543",
    "final_y": "561500.474783",
    "longitude": "-89.95757426272733",
    "latitude": "30.03683342288048",
    "geocoded_column": {
      "latitude": "30.03683342288048",
      "longitude": "-89.95757426272733"
    }
  },
  {
    "service_request": "2022-921421",
    "request_type": "Trash/Recycling",
    "request_reason": "Missed Trash Pick-Up",
    "date_created": "2022-09-19T15:54:03.000",
    "date_modified": "2022-09-19T15:54:28.000",
    "request_status": "Pending",
    "responsible_agency": "Department of Sanitation",
    "final_address": "5318 N Roman St",
    "address_councildis": "E",
    "status": "Assigned to Contractor",
    "contractor": "Metro Disposal",
    "rowid": "921421",
    "final_x": "3697667.97392",
    "final_y": "536524.026247",
    "longitude": "-90.01683643100368",
    "latitude": "29.96875417510839",
    "geocoded_column": {
      "latitude": "29.96875417510839",
      "longitude": "-90.01683643100368"
    }
  },
  {
    "service_request": "2022-921420",
    "request_type": "Abandoned Vehicles",
    "request_reason": "Abandoned/Junk Vehicles",
    "date_created": "2022-09-19T15:52:14.000",
    "date_modified": "2022-09-19T15:52:14.000",
    "request_status": "Pending",
    "responsible_agency": "Department of Public Works",
    "final_address": "1910 Monroe St, New Orleans, Louisiana, 70118",
    "address_councildis": "A",
    "status": "Pending",
    "rowid": "921420",
    "final_x": "3662081.79629",
    "final_y": "531728.346435",
    "longitude": "-90.12937941759537",
    "latitude": "29.956643865856208",
    "geocoded_column": {
      "latitude": "29.956643865856208",
      "longitude": "-90.12937941759537"
    }
  },
  {
    "service_request": "2022-921419",
    "request_type": "Trash/Recycling",
    "request_reason": "Repair Trash Cart",
    "date_created": "2022-09-19T15:49:16.000",
    "date_modified": "2022-09-19T15:49:16.000",
    "request_status": "Pending",
    "responsible_agency": "Department of Sanitation",
    "final_address": "1516 Ursulines Ave",
    "address_councildis": "C",
    "status": "Assigned to Contractor",
    "contractor": "Richards Disposal",
    "rowid": "921419",
    "final_x": "3681071.73045",
    "final_y": "535420.822918",
    "longitude": "-90.06928676111335",
    "latitude": "29.96623461276405",
    "geocoded_column": {
      "latitude": "29.96623461276405",
      "longitude": "-90.06928676111335"
    }
  },
  {
    "service_request": "2022-921418",
    "request_type": "Trash/Recycling",
    "request_reason": "Request a Large Item Pick Up",
    "date_created": "2022-09-19T15:48:30.000",
    "date_modified": "2022-09-19T15:48:31.000",
    "request_status": "Pending",
    "responsible_agency": "Department of Sanitation",
    "final_address": "4000 Orleans Ave",
    "address_councildis": "A",
    "status": "Assigned to Contractor",
    "contractor": "Richards Disposal",
    "rowid": "921418",
    "final_x": "3672891.8866",
    "final_y": "539847.947594",
    "longitude": "-90.0949674938743",
    "latitude": "29.978653291815583",
    "geocoded_column": {
      "latitude": "29.978653291815583",
      "longitude": "-90.0949674938743"
    }
  },
  {
    "service_request": "2022-921415",
    "request_type": "Parks & Parkways",
    "request_reason": "Request Tree Service (Right of Way/Public Property)",
    "date_created": "2022-09-19T15:43:01.000",
    "date_modified": "2022-09-19T15:43:01.000",
    "request_status": "Pending",
    "responsible_agency": "Department of Parks & Parkway",
    "final_address": "1504 Audubon St",
    "address_councildis": "A",
    "status": "Pending",
    "rowid": "921415",
    "final_x": "3664993.24967",
    "final_y": "527269.065215",
    "longitude": "-90.12033501423724",
    "latitude": "29.94429784908256",
    "geocoded_column": {
      "latitude": "29.94429784908256",
      "longitude": "-90.12033501423724"
    }
  },
  {
    "service_request": "2022-921414",
    "request_type": "Trash/Recycling",
    "request_reason": "Missed Trash Pick-Up",
    "date_created": "2022-09-19T15:41:20.000",
    "date_modified": "2022-09-19T15:41:20.000",
    "request_status": "Pending",
    "responsible_agency": "Department of Sanitation",
    "final_address": "2827 St Peter St",
    "address_councildis": "A",
    "status": "Assigned to Contractor",
    "contractor": "Richards Disposal",
    "rowid": "921414",
    "final_x": "3676044.31361",
    "final_y": "537367.491784",
    "longitude": "-90.08509628755985",
    "latitude": "29.971738830398984",
    "geocoded_column": {
      "latitude": "29.971738830398984",
      "longitude": "-90.08509628755985"
    }
  },
  {
    "service_request": "2022-921413",
    "request_type": "Trash/Recycling",
    "request_reason": "Request a Large Item Pick Up",
    "date_created": "2022-09-19T15:40:29.000",
    "date_modified": "2022-09-19T15:40:29.000",
    "request_status": "Pending",
    "responsible_agency": "Department of Sanitation",
    "final_address": "7141 Bunker Hill Rd",
    "address_councildis": "E",
    "status": "Assigned to Contractor",
    "contractor": "Metro Disposal",
    "rowid": "921413",
    "final_x": "3705706.36836",
    "final_y": "560945.878878",
    "longitude": "-89.99054709897176",
    "latitude": "30.03564862154712",
    "geocoded_column": {
      "latitude": "30.03564862154712",
      "longitude": "-89.99054709897176"
    }
  },
  {
    "service_request": "2022-921412",
    "request_type": "Parks & Parkways",
    "request_reason": "Request Tree Service (Right of Way/Public Property)",
    "date_created": "2022-09-19T15:40:27.000",
    "date_modified": "2022-09-19T15:40:27.000",
    "request_status": "Pending",
    "responsible_agency": "Department of Parks & Parkway",
    "final_address": "2503 Robert E Lee Blvd",
    "address_councildis": "D",
    "status": "Pending",
    "rowid": "921412",
    "final_x": "3685685.87407",
    "final_y": "555997.750745",
    "longitude": "-90.05398989357184",
    "latitude": "30.022673024237353",
    "geocoded_column": {
      "latitude": "30.022673024237353",
      "longitude": "-90.05398989357184"
    }
  },
  {
    "service_request": "2022-921411",
    "request_type": "Trash/Recycling",
    "request_reason": "Request a Large Item Pick Up",
    "date_created": "2022-09-19T15:39:27.000",
    "date_modified": "2022-09-19T15:39:28.000",
    "request_status": "Pending",
    "responsible_agency": "Department of Sanitation",
    "final_address": "7221 Westhaven Rd",
    "address_councildis": "E",
    "status": "Assigned to Contractor",
    "contractor": "Metro Disposal",
    "rowid": "921411",
    "final_x": "3703599.20753",
    "final_y": "560446.564126",
    "longitude": "-89.99722445107695",
    "latitude": "30.034343430432987",
    "geocoded_column": {
      "latitude": "30.034343430432987",
      "longitude": "-89.99722445107695"
    }
  },
  {
    "service_request": "2022-921410",
    "request_type": "Traffic Signals/Signs/Striping/Streetlights",
    "request_reason": "Street Light Outage/Malfunction",
    "date_created": "2022-09-19T15:38:11.000",
    "date_modified": "2022-09-19T15:38:12.000",
    "request_status": "Pending",
    "responsible_agency": "Department of Public Works",
    "final_address": "11101 Woodvine Ln",
    "address_councildis": "E",
    "status": "Pending",
    "contractor": "Legacy Professional Services",
    "rowid": "921410",
    "final_x": "3715986.39608",
    "final_y": "559588.679069",
    "longitude": "-89.9581122345788",
    "latitude": "30.03158161491896",
    "geocoded_column": {
      "latitude": "30.03158161491896",
      "longitude": "-89.9581122345788"
    }
  },
  {
    "service_request": "2022-921409",
    "request_type": "Trash/Recycling",
    "request_reason": "Replace Trash Cart",
    "date_created": "2022-09-19T15:35:45.000",
    "date_modified": "2022-09-19T15:35:46.000",
    "request_status": "Pending",
    "responsible_agency": "Department of Sanitation",
    "final_address": "7266 Ring St",
    "address_councildis": "D",
    "status": "Assigned to Contractor",
    "contractor": "Metro Disposal",
    "rowid": "921409",
    "final_x": "3669051.37185",
    "final_y": "555138.465305",
    "longitude": "-90.106580273565",
    "latitude": "30.020810483768894",
    "geocoded_column": {
      "latitude": "30.020810483768894",
      "longitude": "-90.106580273565"
    }
  },
  {
    "service_request": "2022-921408",
    "request_type": "Trash/Recycling",
    "request_reason": "Order Recycling Cart",
    "date_created": "2022-09-19T15:35:14.000",
    "date_modified": "2022-09-19T15:35:14.000",
    "request_status": "Pending",
    "responsible_agency": "Department of Sanitation",
    "final_address": "6735 Lake Willow Dr",
    "address_councildis": "E",
    "status": "Pending",
    "rowid": "921408",
    "final_x": "3703792.60855",
    "final_y": "559522.674461",
    "longitude": "-89.99664734096693",
    "latitude": "30.031796892429387",
    "geocoded_column": {
      "latitude": "30.031796892429387",
      "longitude": "-89.99664734096693"
    }
  },
  {
    "service_request": "2022-921407",
    "request_type": "Trash/Recycling",
    "request_reason": "Repair Trash Cart",
    "date_created": "2022-09-19T15:34:57.000",
    "date_modified": "2022-09-19T15:34:57.000",
    "case_close_date": "2022-04-05T19:00:00.000",
    "request_status": "Pending",
    "responsible_agency": "Department of Sanitation",
    "final_address": "2146 Easter Ln",
    "address_councildis": "C",
    "status": "Assigned to Contractor",
    "contractor": "Richards Disposal",
    "rowid": "921407",
    "final_x": "3699479.58647",
    "final_y": "523307.548411",
    "longitude": "-90.01159674176499",
    "latitude": "29.932356165044947",
    "geocoded_column": {
      "latitude": "29.932356165044947",
      "longitude": "-90.01159674176499"
    }
  },
  {
    "service_request": "2022-921406",
    "request_type": "Trash/Recycling",
    "request_reason": "Order Trash Cart",
    "date_created": "2022-09-19T15:34:51.000",
    "date_modified": "2022-09-19T15:34:52.000",
    "request_status": "Pending",
    "responsible_agency": "Department of Sanitation",
    "final_address": "6735 Lake Willow Dr",
    "address_councildis": "E",
    "status": "Assigned to Contractor",
    "contractor": "Metro Disposal",
    "rowid": "921406",
    "final_x": "3703792.60855",
    "final_y": "559522.674461",
    "longitude": "-89.99664734096693",
    "latitude": "30.031796892429387",
    "geocoded_column": {
      "latitude": "30.031796892429387",
      "longitude": "-89.99664734096693"
    }
  },
  {
    "service_request": "2022-921405",
    "request_type": "Trash/Recycling",
    "request_reason": "Start Trash Service",
    "date_created": "2022-09-19T15:33:58.000",
    "date_modified": "2022-09-19T15:33:58.000",
    "request_status": "Pending",
    "responsible_agency": "Department of Sanitation",
    "final_address": "6735 Lake Willow Dr",
    "address_councildis": "E",
    "status": "Assigned to Contractor",
    "contractor": "Metro Disposal",
    "rowid": "921405",
    "final_x": "3703792.60855",
    "final_y": "559522.674461",
    "longitude": "-89.99664734096693",
    "latitude": "30.031796892429387",
    "geocoded_column": {
      "latitude": "30.031796892429387",
      "longitude": "-89.99664734096693"
    }
  },
  {
    "service_request": "2022-921404",
    "request_type": "Trash/Recycling",
    "request_reason": "Illegal Dumping",
    "date_created": "2022-09-19T15:32:29.000",
    "date_modified": "2022-09-19T15:32:29.000",
    "request_status": "Pending",
    "responsible_agency": "Department of Sanitation",
    "final_address": "2825 Monticello Ave",
    "address_councildis": "A",
    "status": "Pending",
    "rowid": "921404",
    "final_x": "3662609.70451",
    "final_y": "535964.583879",
    "longitude": "-90.12757168402511",
    "latitude": "29.96827687392088",
    "geocoded_column": {
      "latitude": "29.96827687392088",
      "longitude": "-90.12757168402511"
    }
  },
  {
    "service_request": "2022-921403",
    "request_type": "Trash/Recycling",
    "request_reason": "MIssed Recycling Pick-Up",
    "date_created": "2022-09-19T15:30:41.000",
    "date_modified": "2022-09-19T15:30:41.000",
    "request_status": "Pending",
    "responsible_agency": "Department of Sanitation",
    "final_address": "2928 Cherry St",
    "address_councildis": "A",
    "status": "Assigned to Contractor",
    "contractor": "Richards Disposal",
    "rowid": "921403",
    "final_x": "3663046.95635",
    "final_y": "535900.233159",
    "longitude": "-90.12619295764681",
    "latitude": "29.968087271678986",
    "geocoded_column": {
      "latitude": "29.968087271678986",
      "longitude": "-90.12619295764681"
    }
  },
  {
    "service_request": "2022-921402",
    "request_type": "Trash/Recycling",
    "request_reason": "Request a Large Item Pick Up",
    "date_created": "2022-09-19T15:26:33.000",
    "date_modified": "2022-09-19T15:26:34.000",
    "request_status": "Pending",
    "responsible_agency": "Department of Sanitation",
    "final_address": "915 Dauphine St",
    "address_councildis": "C",
    "status": "Assigned to Contractor",
    "contractor": "Empire Services",
    "rowid": "921402",
    "final_x": "3682491.59426",
    "final_y": "533614.100165",
    "longitude": "-90.06486602642572",
    "latitude": "29.961223599720807",
    "geocoded_column": {
      "latitude": "29.961223599720807",
      "longitude": "-90.06486602642572"
    }
  },
  {
    "service_request": "2022-921401",
    "request_type": "Trash/Recycling",
    "request_reason": "Missed Trash Pick-Up",
    "date_created": "2022-09-19T15:24:49.000",
    "date_modified": "2022-09-19T15:24:50.000",
    "request_status": "Pending",
    "responsible_agency": "Department of Sanitation",
    "final_address": "6101 Royal St",
    "address_councildis": "E",
    "status": "Assigned to Contractor",
    "contractor": "Metro Disposal",
    "rowid": "921401",
    "final_x": "3698982.58698",
    "final_y": "531941.000195",
    "longitude": "-90.01285162400603",
    "latitude": "29.956110891876367",
    "geocoded_column": {
      "latitude": "29.956110891876367",
      "longitude": "-90.01285162400603"
    }
  },
  {
    "service_request": "2022-921400",
    "request_type": "Trash/Recycling",
    "request_reason": "Missed Trash Pick-Up",
    "date_created": "2022-09-19T15:22:25.000",
    "date_modified": "2022-09-19T15:22:26.000",
    "request_status": "Pending",
    "responsible_agency": "Department of Sanitation",
    "final_address": "316 N Prieur St",
    "address_councildis": "B",
    "status": "Assigned to Contractor",
    "contractor": "Richards Disposal",
    "rowid": "921400",
    "final_x": "3678139.68494",
    "final_y": "534187.918021",
    "longitude": "-90.07858873981021",
    "latitude": "29.96293315572712",
    "geocoded_column": {
      "latitude": "29.96293315572712",
      "longitude": "-90.07858873981021"
    }
  },
  {
    "service_request": "2022-921399",
    "request_type": "Trash/Recycling",
    "request_reason": "Missed Trash Pick-Up",
    "date_created": "2022-09-19T15:22:02.000",
    "date_modified": "2022-09-19T15:39:05.000",
    "request_status": "Pending",
    "responsible_agency": "Department of Sanitation",
    "final_address": "New Orleans,LA",
    "address_councildis": "E",
    "status": "Assigned to Contractor",
    "contractor": "Metro Disposal",
    "rowid": "921399",
    "final_x": "3698982.58698",
    "final_y": "531941.000195",
    "longitude": "-90.01285162400603",
    "latitude": "29.956110891876367",
    "geocoded_column": {
      "latitude": "29.956110891876367",
      "longitude": "-90.01285162400603"
    }
  },
  {
    "service_request": "2022-921398",
    "request_type": "Trash/Recycling",
    "request_reason": "Missed Trash Pick-Up",
    "date_created": "2022-09-19T15:20:14.000",
    "date_modified": "2022-09-19T15:20:15.000",
    "request_status": "Pending",
    "responsible_agency": "Department of Sanitation",
    "final_address": "1630 Choctaw St",
    "address_councildis": "E",
    "status": "Assigned to Contractor",
    "contractor": "Metro Disposal",
    "rowid": "921398",
    "final_x": "3697967.21879",
    "final_y": "536017.165383",
    "longitude": "-90.0159098072827",
    "latitude": "29.967351032143032",
    "geocoded_column": {
      "latitude": "29.967351032143032",
      "longitude": "-90.0159098072827"
    }
  },
  {
    "service_request": "2022-921397",
    "request_type": "Trash/Recycling",
    "request_reason": "Missed Trash Pick-Up",
    "date_created": "2022-09-19T15:18:53.000",
    "date_modified": "2022-09-19T15:18:54.000",
    "request_status": "Pending",
    "responsible_agency": "Department of Sanitation",
    "final_address": "5724 St Anthony Ave",
    "address_councildis": "D",
    "status": "Assigned to Contractor",
    "contractor": "Metro Disposal",
    "rowid": "921397",
    "final_x": "3681971.06466",
    "final_y": "554052.281432",
    "longitude": "-90.06579581675577",
    "latitude": "30.017437217007128",
    "geocoded_column": {
      "latitude": "30.017437217007128",
      "longitude": "-90.06579581675577"
    }
  },
  {
    "service_request": "2022-921396",
    "request_type": "Property Maintenance",
    "request_reason": "Property Maintenance",
    "date_created": "2022-09-19T15:17:20.000",
    "date_modified": "2022-09-19T15:17:20.000",
    "request_status": "Pending",
    "responsible_agency": "Department of Code Enforcement",
    "final_address": "7810 Parry St",
    "address_councildis": "E",
    "status": "Pending",
    "rowid": "921396",
    "final_x": "3714004.72357",
    "final_y": "568887.280869",
    "longitude": "-89.96402320216197",
    "latitude": "30.057214252544263",
    "geocoded_column": {
      "latitude": "30.057214252544263",
      "longitude": "-89.96402320216197"
    }
  },
  {
    "service_request": "2022-921394",
    "request_type": "Roads/Drainage",
    "request_reason": "Road Shoulder Repair",
    "date_created": "2022-09-19T15:17:12.000",
    "date_modified": "2022-09-19T15:17:12.000",
    "request_status": "Pending",
    "responsible_agency": "Department of Public Works",
    "final_address": "1117 Short St",
    "address_councildis": "A",
    "status": "Pending",
    "rowid": "921394",
    "final_x": "3662198.14202",
    "final_y": "527901.153087",
    "longitude": "-90.1291390386886",
    "latitude": "29.946116953679937",
    "geocoded_column": {
      "latitude": "29.946116953679937",
      "longitude": "-90.1291390386886"
    }
  },
  {
    "service_request": "2022-921392",
    "request_type": "Trash/Recycling",
    "request_reason": "Start Trash Service",
    "date_created": "2022-09-19T15:15:26.000",
    "date_modified": "2022-09-19T15:15:27.000",
    "request_status": "Pending",
    "responsible_agency": "Department of Sanitation",
    "final_address": "3220 General Taylor St",
    "address_councildis": "B",
    "status": "Assigned to Contractor",
    "contractor": "Richards Disposal",
    "rowid": "921392",
    "final_x": "3671215.38132",
    "final_y": "526877.145022",
    "longitude": "-90.10070323156408",
    "latitude": "29.943037614132738",
    "geocoded_column": {
      "latitude": "29.943037614132738",
      "longitude": "-90.10070323156408"
    }
  },
  {
    "service_request": "2022-921391",
    "request_type": "Trash/Recycling",
    "request_reason": "Replace Trash Cart",
    "date_created": "2022-09-19T15:15:25.000",
    "date_modified": "2022-09-19T15:15:26.000",
    "request_status": "Pending",
    "responsible_agency": "Department of Sanitation",
    "final_address": "834 Broadway St Apt B",
    "address_councildis": "A",
    "status": "Assigned to Contractor",
    "contractor": "Richards Disposal",
    "rowid": "921391",
    "final_x": "3663450.39418",
    "final_y": "525534.802365",
    "longitude": "-90.12526400190481",
    "latitude": "29.939573999561315",
    "geocoded_column": {
      "latitude": "29.939573999561315",
      "longitude": "-90.12526400190481"
    }
  },
  {
    "service_request": "2022-921390",
    "request_type": "Trash/Recycling",
    "request_reason": "Repair Trash Cart",
    "date_created": "2022-09-19T15:15:14.000",
    "date_modified": "2022-09-19T15:15:15.000",
    "request_status": "Pending",
    "responsible_agency": "Department of Sanitation",
    "final_address": "4638 Venus St",
    "address_councildis": "D",
    "status": "Assigned to Contractor",
    "contractor": "Metro Disposal",
    "rowid": "921390",
    "final_x": "3686464.04655",
    "final_y": "549919.7565",
    "longitude": "-90.05174585772704",
    "latitude": "30.005936859471614",
    "geocoded_column": {
      "latitude": "30.005936859471614",
      "longitude": "-90.05174585772704"
    }
  },