[
  {
    "service_request": "2025-1235302",
    "request_type": "Streetlights",
    "request_reason": "Streetlight Outage/Malfunction",
    "date_created": "2025-10-22T21:51:08.000",
    "date_modified": "2025-10-22T21:51:10.000",
    "request_status": "Pending",
    "responsible_agency": "Department of Public Works",
    "final_address": "5230 Marigny St",
    "address_councildis": "D",
    "status": "Pending",
    "rowid": "1235302",
    "final_x": "3684174.41737",
    "final_y": "552290.557206",
    "longitude": "-90.05889602226841",
    "latitude": "30.0125259167349",
    "geocoded_column": {
      "latitude": "30.0125259167349",
      "longitude": "-90.05889602226841"
    }
  },
  {
    "service_request": "2025-1235301",
    "request_type": "Streetlights",
    "request_reason": "Streetlight Outage/Malfunction",
    "date_created": "2025-10-22T21:26:15.000",
    "date_modified": "2025-10-22T21:26:17.000",
    "request_status": "Pending",
    "responsible_agency": "Department of Public Works",
    "final_address": "1420 Arabella St",
    "address_councildis": "A",
    "status": "Pending",
    "rowid": "1235301",
    "final_x": "3666256.55565",
    "final_y": "521103.214777",
    "longitude": "-90.11655310711693",
    "latitude": "29.92730689533355",
    "geocoded_column": {
      "latitude": "29.92730689533355",
      "longitude": "-90.11655310711693"
    }
  },
  {
    "service_request": "2025-1235300",
    "request_type": "Trash/Recycling",
    "request_reason": "Missed Trash Pick-Up",
    "date_created": "2025-10-22T21:10:03.000",
    "date_modified": "2025-10-22T21:10:05.000",
    "request_status": "Pending",
    "responsible_agency": "Department of Sanitation",
    "final_address": "4754 Tulip St, New Orleans, Louisiana, 70126",
    "address_councildis": "E",
    "status": "Assigned to Contractor",
    "contractor": "Waste Pro",
    "rowid": "1235300",
    "final_x": "3701997.62935",
    "final_y": "554348.247448",
    "longitude": "-90.00250944763184",
    "latitude": "30.017626665021382",
    "geocoded_column": {
      "latitude": "30.017626665021382",
      "longitude": "-90.00250944763184"
    }
  },
  {
    "service_request": "2025-1235299",
    "request_type": "Streetlights",
    "request_reason": "Streetlight Outage/Malfunction",
    "date_created": "2025-10-22T20:58:04.000",
    "date_modified": "2025-10-22T20:58:06.000",
    "request_status": "Pending",
    "responsible_agency": "Department of Public Works",
    "final_address": "4007 Vendome Pl",
    "address_councildis": "B",
    "status": "Pending",
    "rowid": "1235299",
    "final_x": "3668754.87822",
    "final_y": "529870.132225",
    "longitude": "-90.10837064754975",
    "latitude": "29.951339905710167",
    "geocoded_column": {
      "latitude": "29.951339905710167",
      "longitude": "-90.10837064754975"
    }
  },
  {
    "service_request": "2025-1235298",
    "request_type": "Trash/Recycling",
    "request_reason": "Replace Recycling Cart",
    "date_created": "2025-10-22T19:37:30.000",
    "date_modified": "2025-10-22T19:37:32.000",
    "request_status": "Pending",
    "responsible_agency": "Department of Sanitation",
    "final_address": "217 Delaronde St",
    "address_councildis": "C",
    "status": "Pending",
    "rowid": "1235298",
    "final_x": "3686130.42722",
    "final_y": "530633.89325",
    "longitude": "-90.05348038307504",
    "latitude": "29.952917789547804",
    "geocoded_column": {
      "latitude": "29.952917789547804",
      "longitude": "-90.05348038307504"
    }
  },
  {
    "service_request": "2025-1235297",
    "request_type": "Trash/Recycling",
    "request_reason": "Replace Trash Cart",
    "date_created": "2025-10-22T19:37:07.000",
    "date_modified": "2025-10-22T19:37:09.000",
    "request_status": "Pending",
    "responsible_agency": "Department of Sanitation",
    "final_address": "5219 Cannes St",
    "address_councildis": "E",
    "status": "Assigned to Contractor",
    "contractor": "Waste Pro",
    "rowid": "1235297",
    "final_x": "3726758.51526",
    "final_y": "563087.344032",
    "longitude": "-89.92393633900721",
    "latitude": "30.040841614287988",
    "geocoded_column": {
      "latitude": "30.040841614287988",
      "longitude": "-89.92393633900721"
    }
  },
  {
    "service_request": "2025-1235296",
    "request_type": "Streetlights",
    "request_reason": "Streetlight Outage/Malfunction",
    "date_created": "2025-10-22T19:32:40.000",
    "date_modified": "2025-10-22T19:32:42.000",
    "request_status": "Pending",
    "responsible_agency": "Department of Public Works",
    "final_address": "600 BLK Commercial Pl",
    "address_councildis": "B",
    "status": "Pending",
    "rowid": "1235296",
    "final_x": "3681015.27376",
    "final_y": "529701.842615",
    "longitude": "-90.06966422613392",
    "latitude": "29.9505110725781",
    "geocoded_column": {
      "latitude": "29.9505110725781",
      "longitude": "-90.06966422613392"
    }
  },
  {
    "service_request": "2025-1235295",
    "request_type": "Trash/Recycling",
    "request_reason": "Replace Trash Cart",
    "date_created": "2025-10-22T19:29:24.000",
    "date_modified": "2025-10-22T19:29:27.000",
    "request_status": "Pending",
    "responsible_agency": "Department of Sanitation",
    "final_address": "1433 Exposition Blvd",
    "address_councildis": "A",
    "status": "Assigned to Contractor",
    "contractor": "IV Waste",
    "rowid": "1235295",
    "final_x": "3664134.15943",
    "final_y": "521960.594682",
    "longitude": "-90.12322442415167",
    "latitude": "29.92972622159789",
    "geocoded_column": {
      "latitude": "29.92972622159789",
      "longitude": "-90.12322442415167"
    }
  },
  {
    "service_request": "2025-1235294",
    "request_type": "Trash/Recycling",
    "request_reason": "Replace Trash Cart",
    "date_created": "2025-10-22T19:20:06.000",
    "date_modified": "2025-10-22T19:20:08.000",
    "request_status": "Pending",
    "responsible_agency": "Department of Sanitation",
    "final_address": "5821 Magnolia St",
    "address_councildis": "A",
    "status": "Assigned to Contractor",
    "contractor": "IV Waste",
    "rowid": "1235294",
    "final_x": "3666889.07981",
    "final_y": "524981.440253",
    "longitude": "-90.11442614760999",
    "latitude": "29.937952295722074",
    "geocoded_column": {
      "latitude": "29.937952295722074",
      "longitude": "-90.11442614760999"
    }
  },
  {
    "service_request": "2025-1235293",
    "request_type": "Trash/Recycling",
    "request_reason": "Request a Large Item Pick Up",
    "date_created": "2025-10-22T18:47:15.000",
    "date_modified": "2025-10-22T18:47:17.000",
    "request_status": "Pending",
    "responsible_agency": "Department of Sanitation",
    "final_address": "215 Maumus Ave",
    "address_councildis": "C",
    "status": "Assigned to Contractor",
    "contractor": "Richards Disposal",
    "rowid": "1235293",
    "final_x": "3706511.37156",
    "final_y": "516686.608117",
    "longitude": "-89.98964333943896",
    "latitude": "29.91392598336898",
    "geocoded_column": {
      "latitude": "29.91392598336898",
      "longitude": "-89.98964333943896"
    }
  },
  {
    "service_request": "2025-1235292",
    "request_type": "Abandoned Vehicles",
    "request_reason": "Abandoned/Junk Vehicles",
    "date_created": "2025-10-22T18:29:57.000",
    "date_modified": "2025-10-22T18:29:59.000",
    "request_status": "Pending",
    "responsible_agency": "Department of Public Works",
    "final_address": "3924 Johnny Jackson Jr Blvd",
    "address_councildis": "D",
    "status": "Pending",
    "rowid": "1235292",
    "final_x": "3691672.96912",
    "final_y": "547753.936786",
    "longitude": "-90.03536720854856",
    "latitude": "29.999820426579014",
    "geocoded_column": {
      "latitude": "29.999820426579014",
      "longitude": "-90.03536720854856"
    }
  },
  {
    "service_request": "2025-1235291",
    "request_type": "Abandoned Vehicles",
    "request_reason": "Abandoned/Junk Vehicles",
    "date_created": "2025-10-22T18:21:21.000",
    "date_modified": "2025-10-22T18:21:23.000",
    "request_status": "Pending",
    "responsible_agency": "Department of Public Works",
    "final_address": "4006 Prytania St",
    "address_councildis": "B",
    "status": "Pending",
    "rowid": "1235291",
    "final_x": "3672283.82497",
    "final_y": "520418.623032",
    "longitude": "-90.09754980294974",
    "latitude": "29.92524712068099",
    "geocoded_column": {
      "latitude": "29.92524712068099",
      "longitude": "-90.09754980294974"
    }
  },
  {
    "service_request": "2025-1235290",
    "request_type": "Abandoned Vehicles",
    "request_reason": "Abandoned/Junk Vehicles",
    "date_created": "2025-10-22T18:17:45.000",
    "date_modified": "2025-10-22T18:17:47.000",
    "request_status": "Pending",
    "responsible_agency": "Department of Public Works",
    "final_address": "2338 Constance St",
    "address_councildis": "B",
    "status": "Pending",
    "rowid": "1235290",
    "final_x": "3678531.8971",
    "final_y": "521329.478649",
    "longitude": "-90.07779510972927",
    "latitude": "29.92756491098686",
    "geocoded_column": {
      "latitude": "29.92756491098686",
      "longitude": "-90.07779510972927"
    }
  },
  {
    "service_request": "2025-1235289",
    "request_type": "Roads and Streets",
    "request_reason": "Street Subsidence (Sinking)",
    "date_created": "2025-10-22T17:57:22.000",
    "date_modified": "2025-10-22T17:57:25.000",
    "request_status": "Pending",
    "responsible_agency": "Sewerage & Water Board",
    "final_address": "430 First St",
    "address_councildis": "B",
    "status": "Pending",
    "rowid": "1235289",
    "final_x": "3679389.13538",
    "final_y": "519458.123703",
    "longitude": "-90.07515388322592",
    "latitude": "29.922393439278995",
    "geocoded_column": {
      "latitude": "29.922393439278995",
      "longitude": "-90.07515388322592"
    }
  },
  {
    "service_request": "2025-1235288",
    "request_type": "General Services",
    "request_reason": "General Service Request",
    "date_created": "2025-10-22T17:40:16.000",
    "date_modified": "2025-10-22T17:40:17.000",
    "request_status": "Pending",
    "responsible_agency": "Orleans Parish Communication District",
    "final_address": "1300 Perdido St, New Orleans, LA 70112",
    "address_councildis": "B",
    "status": "Pending",
    "rowid": "1235288",
    "final_x": "3678683.48347",
    "final_y": "530227.987073",
    "longitude": "-90.07700859883013",
    "latitude": "29.952028297123956",
    "geocoded_column": {
      "latitude": "29.952028297123956",
      "longitude": "-90.07700859883013"
    }
  },
  {
    "service_request": "2025-1235287",
    "request_type": "Trash/Recycling",
    "request_reason": "Repair Trash Cart",
    "date_created": "2025-10-22T17:37:26.000",
    "date_modified": "2025-10-22T17:37:28.000",
    "request_status": "Pending",
    "responsible_agency": "Department of Sanitation",
    "final_address": "4647 Flake Ave",
    "address_councildis": "E",
    "status": "Assigned to Contractor",
    "contractor": "Waste Pro",
    "rowid": "1235287",
    "final_x": "3706200.27057",
    "final_y": "554865.001368",
    "longitude": "-89.98921171246313",
    "latitude": "30.018912656682232",
    "geocoded_column": {
      "latitude": "30.018912656682232",
      "longitude": "-89.98921171246313"
    }
  },
  {
    "service_request": "2025-1235286",
    "request_type": "Trash/Recycling",
    "request_reason": "Replace Trash Cart",
    "date_created": "2025-10-22T17:24:42.000",
    "date_modified": "2025-10-22T17:24:43.000",
    "request_status": "Pending",
    "responsible_agency": "Department of Sanitation",
    "final_address": "5532 Woodlawn Pl",
    "address_councildis": "A",
    "status": "Assigned to Contractor",
    "contractor": "IV Waste",
    "rowid": "1235286",
    "final_x": "3667376.87629",
    "final_y": "544174.58779",
    "longitude": "-90.11224038761532",
    "latitude": "29.99071282170912",
    "geocoded_column": {
      "latitude": "29.99071282170912",
      "longitude": "-90.11224038761532"
    }
  },
  {
    "service_request": "2025-1235285",
    "request_type": "Streetlights",
    "request_reason": "Streetlight Outage/Malfunction",
    "date_created": "2025-10-22T17:17:03.000",
    "date_modified": "2025-10-22T17:17:04.000",
    "request_status": "Pending",
    "responsible_agency": "Department of Public Works",
    "final_address": "6131 Charlotte Dr",
    "address_councildis": "D",
    "status": "Pending",
    "rowid": "1235285",
    "final_x": "3679927.96591",
    "final_y": "555119.719449",
    "longitude": "-90.0722140723197",
    "latitude": "30.020434269302832",
    "geocoded_column": {
      "latitude": "30.020434269302832",
      "longitude": "-90.0722140723197"
    }
  },
  {
    "service_request": "2025-1235284",
    "request_type": "Streetlights",
    "request_reason": "Streetlight Outage/Malfunction",
    "date_created": "2025-10-22T17:13:45.000",
    "date_modified": "2025-10-22T17:13:47.000",
    "request_status": "Pending",
    "responsible_agency": "Department of Public Works",
    "final_address": "6131 Charlotte Dr",
    "address_councildis": "D",
    "status": "Pending",
    "rowid": "1235284",
    "final_x": "3679927.96591",
    "final_y": "555119.719449",
    "longitude": "-90.0722140723197",
    "latitude": "30.020434269302832",
    "geocoded_column": {
      "latitude": "30.020434269302832",
      "longitude": "-90.0722140723197"
    }
  },
  {
    "service_request": "2025-1235283",
    "request_type": "Trash/Recycling",
    "request_reason": "Missed Trash Pick-Up",
    "date_created": "2025-10-22T17:12:11.000",
    "date_modified": "2025-10-22T17:16:46.000",
    "case_close_date": "2025-10-22T12:16:45.000",
    "request_status": "Closed",
    "responsible_agency": "Department of Sanitation",
    "final_address": "2427 Prentiss Ave",
    "address_councildis": "D",
    "status": "Assigned to Contractor",
    "contractor": "IV Waste",
    "contractor_action": "Duplicate",
    "rowid": "1235283",
    "final_x": "3685336.40559",
    "final_y": "554045.01244",
    "longitude": "-90.05516295817948",
    "latitude": "30.01731443807443",
    "geocoded_column": {
      "latitude": "30.01731443807443",
      "longitude": "-90.05516295817948"
    }
  },
  {
    "service_request": "2025-1235282",
    "request_type": "Streetlights",
    "request_reason": "Streetlight Outage/Malfunction",
    "date_created": "2025-10-22T17:08:52.000",
    "date_modified": "2025-10-22T17:08:55.000",
    "request_status": "Pending",
    "responsible_agency": "Department of Public Works",
    "final_address": "6131 Charlotte Dr",
    "address_councildis": "D",
    "status": "Pending",
    "rowid": "1235282",
    "final_x": "3679927.96591",
    "final_y": "555119.719449",
    "longitude": "-90.0722140723197",
    "latitude": "30.020434269302832",
    "geocoded_column": {
      "latitude": "30.020434269302832",
      "longitude": "-90.0722140723197"
    }
  },
  {
    "service_request": "2025-1235281",
    "request_type": "Trash/Recycling",
    "request_reason": "Request a Large Item Pick Up",
    "date_created": "2025-10-22T16:54:21.000",
    "date_modified": "2025-10-22T16:54:24.000",
    "request_status": "Pending",
    "responsible_agency": "Department of Sanitation",
    "final_address": "2808 Upperline St",
    "address_councildis": "B",
    "status": "Assigned to Contractor",
    "contractor": "IV Waste",
    "rowid": "1235281",
    "final_x": "3669161.37594",
    "final_y": "525051.456189",
    "longitude": "-90.10724992900758",
    "latitude": "29.93807815648594",
    "geocoded_column": {
      "latitude": "29.93807815648594",
      "longitude": "-90.10724992900758"
    }
  },
  {
    "service_request": "2025-1235280",
    "request_type": "Abandoned Vehicles",
    "request_reason": "Abandoned/Junk Vehicles",
    "date_created": "2025-10-22T16:51:39.000",
    "date_modified": "2025-10-22T16:51:40.000",
    "request_status": "Pending",
    "responsible_agency": "Department of Public Works",
    "final_address": "1400 Leda St",
    "address_councildis": "A",
    "status": "Pending",
    "rowid": "1235280",
    "final_x": "3675569.94357",
    "final_y": "541136.142796",
    "longitude": "-90.08646490905033",
    "latitude": "29.982115530310722",
    "geocoded_column": {
      "latitude": "29.982115530310722",
      "longitude": "-90.08646490905033"
    }
  },
  {
    "service_request": "2025-1235279",
    "request_type": "Abandoned Vehicles",
    "request_reason": "Abandoned/Junk Vehicles",
    "date_created": "2025-10-22T16:50:25.000",
    "date_modified": "2025-10-22T16:50:27.000",
    "request_status": "Pending",
    "responsible_agency": "Department of Public Works",
    "final_address": "2510 Peniston St",
    "address_councildis": "B",
    "status": "Pending",
    "rowid": "1235279",
    "final_x": "3672059.72308",
    "final_y": "524342.234236",
    "longitude": "-90.09812370696648",
    "latitude": "29.936042431877755",
    "geocoded_column": {
      "latitude": "29.936042431877755",
      "longitude": "-90.09812370696648"
    }
  },
  {
    "service_request": "2025-1235278",
    "request_type": "Trash/Recycling",
    "request_reason": "Request a Large Item Pick Up",
    "date_created": "2025-10-22T16:47:39.000",
    "date_modified": "2025-10-22T16:47:42.000",
    "request_status": "Pending",
    "responsible_agency": "Department of Sanitation",
    "final_address": "4020 DHemecourt St",
    "address_councildis": "A",
    "status": "Assigned to Contractor",
    "contractor": "IV Waste",
    "rowid": "1235278",
    "final_x": "3670034.57786",
    "final_y": "536609.938887",
    "longitude": "-90.10410167626777",
    "latitude": "29.969834459897253",
    "geocoded_column": {
      "latitude": "29.969834459897253",
      "longitude": "-90.10410167626777"
    }
  },
  {
    "service_request": "2025-1235277",
    "request_type": "Trash/Recycling",
    "request_reason": "Request a Large Item Pick Up",
    "date_created": "2025-10-22T16:47:04.000",
    "date_modified": "2025-10-22T16:47:05.000",
    "request_status": "Pending",
    "responsible_agency": "Department of Sanitation",
    "final_address": "1809 Reynes St",
    "address_councildis": "E",
    "status": "Assigned to Contractor",
    "contractor": "Waste Pro",
    "rowid": "1235277",
    "final_x": "3696786.64304",
    "final_y": "537023.596232",
    "longitude": "-90.01960162286794",
    "latitude": "29.970155627283685",
    "geocoded_column": {
      "latitude": "29.970155627283685",
      "longitude": "-90.01960162286794"
    }
  },
  {
    "service_request": "2025-1235276",
    "request_type": "Roads and Streets",
    "request_reason": "Street Subsidence (Sinking)",
    "date_created": "2025-10-22T16:41:34.000",
    "date_modified": "2025-10-22T16:41:36.000",
    "request_status": "Pending",
    "responsible_agency": "Sewerage & Water Board",
    "final_address": "829 St Philip St",
    "address_councildis": "C",
    "status": "Pending",
    "rowid": "1235276",
    "final_x": "3682772.6596",
    "final_y": "533728.015557",
    "longitude": "-90.06397448829773",
    "latitude": "29.961528269628868",
    "geocoded_column": {
      "latitude": "29.961528269628868",
      "longitude": "-90.06397448829773"
    }
  },
  {
    "service_request": "2025-1235275",
    "request_type": "Trash/Recycling",
    "request_reason": "Missed Trash Pick-Up",
    "date_created": "2025-10-22T16:28:02.000",
    "date_modified": "2025-10-22T17:07:13.000",
    "request_status": "Pending",
    "responsible_agency": "Department of Sanitation",
    "final_address": "2427 Prentiss Ave",
    "address_councildis": "D",
    "status": "Assigned to Contractor",
    "contractor": "IV Waste",
    "rowid": "1235275",
    "final_x": "3685336.40559",
    "final_y": "554045.01244",
    "longitude": "-90.05516295817948",
    "latitude": "30.01731443807443",
    "geocoded_column": {
      "latitude": "30.01731443807443",
      "longitude": "-90.05516295817948"
    }
  },
  {
    "service_request": "2025-1235274",
    "request_type": "Trash/Recycling",
    "request_reason": "Repair Trash Cart",
    "date_created": "2025-10-22T16:26:58.000",
    "date_modified": "2025-10-22T16:26:59.000",
    "request_status": "Pending",
    "responsible_agency": "Department of Sanitation",
    "final_address": "4256 Vendome Pl",
    "address_councildis": "B",
    "status": "Assigned to Contractor",
    "contractor": "IV Waste",
    "rowid": "1235274",
    "final_x": "3669057.08378",
    "final_y": "531486.060611",
    "longitude": "-90.1073618367837",
    "latitude": "29.955774291700784",
    "geocoded_column": {
      "latitude": "29.955774291700784",
      "longitude": "-90.1073618367837"
    }
  },
  {
    "service_request": "2025-1235273",
    "request_type": "Trash/Recycling",
    "request_reason": "Request a Large Item Pick Up",
    "date_created": "2025-10-22T16:26:33.000",
    "date_modified": "2025-10-22T16:40:57.000",
    "request_status": "Pending",
    "responsible_agency": "Department of Sanitation",
    "final_address": "4441 Eastview Dr, New Orleans, Louisiana, 70126",
    "address_councildis": "E",
    "status": "Assigned to Contractor",
    "contractor": "Waste Pro",
    "rowid": "1235273",
    "final_x": "3705310.42199",
    "final_y": "553668.028119",
    "longitude": "-89.99206756791003",
    "latitude": "30.015650112467114",
    "geocoded_column": {
      "latitude": "30.015650112467114",
      "longitude": "-89.99206756791003"
    }
  },
  {
    "service_request": "2025-1235272",
    "request_type": "Safety & Permits",
    "request_reason": "Zoning Enforcement",
    "date_created": "2025-10-22T16:18:03.000",
    "date_modified": "2025-10-22T16:18:05.000",
    "request_status": "Pending",
    "responsible_agency": "Safety and Permits",
    "final_address": "9301 Lake Forest Blvd",
    "address_councildis": "E",
    "status": "Pending",
    "rowid": "1235272",
    "final_x": "3708380.86315",
    "final_y": "558701.173596",
    "longitude": "-89.98217894354795",
    "latitude": "30.0293901178376",
    "geocoded_column": {
      "latitude": "30.0293901178376",
      "longitude": "-89.98217894354795"
    }
  },
  {
    "service_request": "2025-1235271",
    "request_type": "Trash/Recycling",
    "request_reason": "Request a Large Item Pick Up",
    "date_created": "2025-10-22T16:15:38.000",
    "date_modified": "2025-10-22T16:15:40.000",
    "request_status": "Pending",
    "responsible_agency": "Department of Sanitation",
    "final_address": "2344 Bartholomew St",
    "address_councildis": "D",
    "status": "Assigned to Contractor",
    "contractor": "IV Waste",
    "rowid": "1235271",
    "final_x": "3692968.57949",
    "final_y": "540157.808011",
    "longitude": "-90.03154696011441",
    "latitude": "29.978893406525337",
    "geocoded_column": {
      "latitude": "29.978893406525337",
      "longitude": "-90.03154696011441"
    }
  },
  {
    "service_request": "2025-1235270",
    "request_type": "Streetlights",
    "request_reason": "Streetlight Outage/Malfunction",
    "date_created": "2025-10-22T16:10:22.000",
    "date_modified": "2025-10-22T16:10:24.000",
    "request_status": "Pending",
    "responsible_agency": "Department of Public Works",
    "final_address": "9011 Dwyer Rd",
    "address_councildis": "E",
    "status": "Pending",
    "rowid": "1235270",
    "final_x": "3708189.82782",
    "final_y": "557108.29609",
    "longitude": "-89.98284193018978",
    "latitude": "30.02501652141594",
    "geocoded_column": {
      "latitude": "30.02501652141594",
      "longitude": "-89.98284193018978"
    }
  },
  {
    "service_request": "2025-1235269",
    "request_type": "Trash/Recycling",
    "request_reason": "Order Second Trash Cart",
    "date_created": "2025-10-22T16:06:44.000",
    "date_modified": "2025-10-22T16:06:46.000",
    "request_status": "Pending",
    "responsible_agency": "Department of Sanitation",
    "final_address": "7732 Duke Ct",
    "address_councildis": "E",
    "status": "Assigned to Contractor",
    "contractor": "Waste Pro",
    "rowid": "1235269",
    "final_x": "3700049.48324",
    "final_y": "561008.923102",
    "longitude": "-90.0084214438639",
    "latitude": "30.036003032886438",
    "geocoded_column": {
      "latitude": "30.036003032886438",
      "longitude": "-90.0084214438639"
    }
  },
  {
    "service_request": "2025-1235268",
    "request_type": "Trash/Recycling",
    "request_reason": "Repair Trash Cart",
    "date_created": "2025-10-22T16:00:30.000",
    "date_modified": "2025-10-22T16:00:32.000",
    "request_status": "Pending",
    "responsible_agency": "Department of Sanitation",
    "final_address": "3825 Napoleon Ave",
    "address_councildis": "B",
    "status": "Assigned to Contractor",
    "contractor": "IV Waste",
    "rowid": "1235268",
    "final_x": "3670156.96718",
    "final_y": "528719.81856",
    "longitude": "-90.1039824962895",
    "latitude": "29.948135630497777",
    "geocoded_column": {
      "latitude": "29.948135630497777",
      "longitude": "-90.1039824962895"
    }
  },
  {
    "service_request": "2025-1235267",
    "request_type": "Trash/Recycling",
    "request_reason": "Request a Large Item Pick Up",
    "date_created": "2025-10-22T15:59:07.000",
    "date_modified": "2025-10-22T15:59:09.000",
    "request_status": "Pending",
    "responsible_agency": "Department of Sanitation",
    "final_address": "4519 Dale St",
    "address_councildis": "E",
    "status": "Assigned to Contractor",
    "contractor": "Waste Pro",
    "rowid": "1235267",
    "final_x": "3699579.64458",
    "final_y": "553865.614871",
    "longitude": "-90.01016689014077",
    "latitude": "30.016376606121547",
    "geocoded_column": {
      "latitude": "30.016376606121547",
      "longitude": "-90.01016689014077"
    }
  },
  {
    "service_request": "2025-1235266",
    "request_type": "Trash/Recycling",
    "request_reason": "Missed Trash Pick-Up",
    "date_created": "2025-10-22T15:58:40.000",
    "date_modified": "2025-10-22T17:09:38.000",
    "request_status": "Pending",
    "responsible_agency": "Department of Sanitation",
    "final_address": "2049 Lafreniere St, New Orleans, Louisiana, 70122",
    "address_councildis": "D",
    "status": "Assigned to Contractor",
    "contractor": "IV Waste",
    "contractor_action": "Invalid",
    "rowid": "1235266",
    "final_x": "3683315.87336",
    "final_y": "545540.425104",
    "longitude": "-90.06184519441204",
    "latitude": "29.993991711041648",
    "geocoded_column": {
      "latitude": "29.993991711041648",
      "longitude": "-90.06184519441204"
    }
  },
  {
    "service_request": "2025-1235265",
    "request_type": "Trash/Recycling",
    "request_reason": "Order Recycling Cart",
    "date_created": "2025-10-22T15:56:11.000",
    "date_modified": "2025-10-22T15:56:14.000",
    "request_status": "Pending",
    "responsible_agency": "Department of Sanitation",
    "final_address": "1031 Leontine St",
    "address_councildis": "B",
    "status": "Pending",
    "rowid": "1235265",
    "final_x": "3667299.86548",
    "final_y": "519409.149623",
    "longitude": "-90.11331656826961",
    "latitude": "29.92261824671207",
    "geocoded_column": {
      "latitude": "29.92261824671207",
      "longitude": "-90.11331656826961"
    }
  },
  {
    "service_request": "2025-1235264",
    "request_type": "Trash/Recycling",
    "request_reason": "Replace Trash Cart",
    "date_created": "2025-10-22T15:54:29.000",
    "date_modified": "2025-10-22T15:54:31.000",
    "request_status": "Pending",
    "responsible_agency": "Department of Sanitation",
    "final_address": "2124 Brainard St",
    "address_councildis": "B",
    "status": "Assigned to Contractor",
    "contractor": "IV Waste",
    "rowid": "1235264",
    "final_x": "3677365.81704",
    "final_y": "524321.968956",
    "longitude": "-90.0813729280082",
    "latitude": "29.93582836298321",
    "geocoded_column": {
      "latitude": "29.93582836298321",
      "longitude": "-90.0813729280082"
    }
  },
  {
    "service_request": "2025-1235263",
    "request_type": "Street and Traffic Signs",
    "request_reason": "New Disabled Parking Sign Request ",
    "date_created": "2025-10-22T15:53:46.000",
    "date_modified": "2025-10-22T15:53:51.000",
    "case_close_date": "2025-10-22T10:53:49.000",
    "request_status": "Closed",
    "responsible_agency": "Department of Public Works",
    "final_address": "2322 Jena St",
    "address_councildis": "B",
    "status": "Resolved",
    "rowid": "1235263",
    "final_x": "3670133.06631",
    "final_y": "523518.793467",
    "longitude": "-90.1042341112923",
    "latitude": "29.9338352029547",
    "geocoded_column": {
      "latitude": "29.9338352029547",
      "longitude": "-90.1042341112923"
    }
  },
  {
    "service_request": "2025-1235262",
    "request_type": "Trash/Recycling",
    "request_reason": "Request a Large Item Pick Up",
    "date_created": "2025-10-22T15:53:06.000",
    "date_modified": "2025-10-22T15:53:09.000",
    "request_status": "Pending",
    "responsible_agency": "Department of Sanitation",
    "final_address": "1615 Lisbon St",
    "address_councildis": "D",
    "status": "Assigned to Contractor",
    "contractor": "IV Waste",
    "rowid": "1235262",
    "final_x": "3679069.3661",
    "final_y": "556270.297434",
    "longitude": "-90.07488705930703",
    "latitude": "30.02362389504491",
    "geocoded_column": {
      "latitude": "30.02362389504491",
      "longitude": "-90.07488705930703"
    }
  },
  {
    "service_request": "2025-1235261",
    "request_type": "Trash/Recycling",
    "request_reason": "Replace Trash Cart",
    "date_created": "2025-10-22T15:50:02.000",
    "date_modified": "2025-10-22T15:50:04.000",
    "request_status": "Pending",
    "responsible_agency": "Department of Sanitation",
    "final_address": "641 S Salcedo St",
    "address_councildis": "B",
    "status": "Assigned to Contractor",
    "contractor": "IV Waste",
    "rowid": "1235261",
    "final_x": "3672594.05179",
    "final_y": "534207.940805",
    "longitude": "-90.0961005095569",
    "latitude": "29.963154025272658",
    "geocoded_column": {
      "latitude": "29.963154025272658",
      "longitude": "-90.0961005095569"
    }
  },
  {
    "service_request": "2025-1235260",
    "request_type": "Trash/Recycling",
    "request_reason": "Order Trash Cart",
    "date_created": "2025-10-22T15:46:06.000",
    "date_modified": "2025-10-22T15:46:07.000",
    "request_status": "Pending",
    "responsible_agency": "Department of Sanitation",
    "final_address": "3600 Cleveland Ave",
    "address_councildis": "B",
    "status": "Assigned to Contractor",
    "contractor": "IV Waste",
    "rowid": "1235260",
    "final_x": "3672268.78747",
    "final_y": "536824.941",
    "longitude": "-90.09703849239135",
    "latitude": "29.970359549983883",
    "geocoded_column": {
      "latitude": "29.970359549983883",
      "longitude": "-90.09703849239135"
    }
  },
  {
    "service_request": "2025-1235259",
    "request_type": "Trash/Recycling",
    "request_reason": "Request a Large Item Pick Up",
    "date_created": "2025-10-22T15:45:46.000",
    "date_modified": "2025-10-22T15:45:48.000",
    "request_status": "Pending",
    "responsible_agency": "Department of Sanitation",
    "final_address": "4833 Laurel St",
    "address_councildis": "B",
    "status": "Assigned to Contractor",
    "contractor": "IV Waste",
    "rowid": "1235259",
    "final_x": "3669382.73671",
    "final_y": "517916.366774",
    "longitude": "-90.10679219763068",
    "latitude": "29.91845242180929",
    "geocoded_column": {
      "latitude": "29.91845242180929",
      "longitude": "-90.10679219763068"
    }
  },
  {
    "service_request": "2025-1235258",
    "request_type": "Trash/Recycling",
    "request_reason": "Replace Trash Cart",
    "date_created": "2025-10-22T15:45:05.000",
    "date_modified": "2025-10-22T15:45:07.000",
    "request_status": "Pending",
    "responsible_agency": "Department of Sanitation",
    "final_address": "714 Herald St",
    "address_councildis": "C",
    "status": "Assigned to Contractor",
    "contractor": "Richards Disposal",
    "rowid": "1235258",
    "final_x": "3702326.29585",
    "final_y": "519917.171704",
    "longitude": "-90.00273429570638",
    "latitude": "29.922943206383284",
    "geocoded_column": {
      "latitude": "29.922943206383284",
      "longitude": "-90.00273429570638"
    }
  },
  {
    "service_request": "2025-1235257",
    "request_type": "Trash/Recycling",
    "request_reason": "Request a Large Item Pick Up",
    "date_created": "2025-10-22T15:44:18.000",
    "date_modified": "2025-10-22T15:44:19.000",
    "request_status": "Pending",
    "responsible_agency": "Department of Sanitation",
    "final_address": "2519 Frenchmen St",
    "address_councildis": "D",
    "status": "Assigned to Contractor",
    "contractor": "IV Waste",
    "rowid": "1235257",
    "final_x": "3684195.91119",
    "final_y": "541602.861196",
    "longitude": "-90.05920359160838",
    "latitude": "29.983137925360825",
    "geocoded_column": {
      "latitude": "29.983137925360825",
      "longitude": "-90.05920359160838"
    }
  },
  {
    "service_request": "2025-1235256",
    "request_type": "Streetlights",
    "request_reason": "Streetlight Outage/Malfunction",
    "date_created": "2025-10-22T15:43:04.000",
    "date_modified": "2025-10-22T15:43:06.000",
    "request_status": "Pending",
    "responsible_agency": "Department of Public Works",
    "final_address": "1041 Constance St",
    "address_councildis": "B",
    "status": "Pending",
    "rowid": "1235256",
    "final_x": "3681103.45115",
    "final_y": "526430.821374",
    "longitude": "-90.06949972511822",
    "latitude": "29.941514186265994",
    "geocoded_column": {
      "latitude": "29.941514186265994",
      "longitude": "-90.06949972511822"
    }
  },
  {
    "service_request": "2025-1235255",
    "request_type": "Parks & Parkways",
    "request_reason": "Request Tree Service (Right of Way/Public Property)",
    "date_created": "2025-10-22T15:42:49.000",
    "date_modified": "2025-10-22T15:44:49.000",
    "request_status": "Pending",
    "responsible_agency": "Department of Parks & Parkway",
    "final_address": "729 Tricou St",
    "address_councildis": "E",
    "status": "Pending",
    "rowid": "1235255",
    "final_x": "3699675.35754",
    "final_y": "531817.918083",
    "longitude": "-90.01066859071906",
    "latitude": "29.95575048945024",
    "geocoded_column": {
      "latitude": "29.95575048945024",
      "longitude": "-90.01066859071906"
    }
  },
  {
    "service_request": "2025-1235254",
    "request_type": "Parks & Parkways",
    "request_reason": "Request Tree Service (Right of Way/Public Property)",
    "date_created": "2025-10-22T15:42:49.000",
    "date_modified": "2025-10-22T15:45:54.000",
    "request_status": "Pending",
    "responsible_agency": "Department of Parks & Parkway",
    "final_address": "729 Tricou St",
    "address_councildis": "E",
    "status": "Pending",
    "rowid": "1235254",
    "final_x": "3699675.35754",
    "final_y": "531817.918083",
    "longitude": "-90.01066859071906",
    "latitude": "29.95575048945024",
    "geocoded_column": {
      "latitude": "29.95575048945024",
      "longitude": "-90.01066859071906"
    }
  },
  {
    "service_request": "2025-1235253",
    "request_type": "Trash/Recycling",
    "request_reason": "Return Recycling Cart",
    "date_created": "2025-10-22T15:41:35.000",
    "date_modified": "2025-10-22T15:41:36.000",
    "request_status": "Pending",
    "responsible_agency": "Department of Sanitation",
    "final_address": "4850 Redwood St",
    "address_councildis": "E",
    "status": "Pending",
    "rowid": "1235253",
    "final_x": "3712350.46424",
    "final_y": "556791.048538",
    "longitude": "-89.96970704724926",
    "latitude": "30.02400872498034",
    "geocoded_column": {
      "latitude": "30.02400872498034",
      "longitude": "-89.96970704724926"
    }
  },
  {
    "service_request": "2025-1235252",
    "request_type": "Trash/Recycling",
    "request_reason": "Request a Large Item Pick Up",
    "date_created": "2025-10-22T15:41:29.000",
    "date_modified": "2025-10-22T15:41:31.000",
    "request_status": "Pending",
    "responsible_agency": "Department of Sanitation",
    "final_address": "5731 Abbey Dr",
    "address_councildis": "C",
    "status": "Assigned to Contractor",
    "contractor": "Richards Disposal",
    "rowid": "1235252",
    "final_x": "3704851.3962",
    "final_y": "521018.506873",
    "longitude": "-89.99472298850829",
    "latitude": "29.925890626452805",
    "geocoded_column": {
      "latitude": "29.925890626452805",
      "longitude": "-89.99472298850829"
    }
  },
  {
    "service_request": "2025-1235251",
    "request_type": "Roads and Streets",
    "request_reason": "Pothole",
    "date_created": "2025-10-22T15:41:06.000",
    "date_modified": "2025-10-22T15:41:08.000",
    "request_status": "Pending",
    "responsible_agency": "Department of Public Works",
    "final_address": "729 Tricou St",
    "address_councildis": "E",
    "status": "Pending",
    "rowid": "1235251",
    "final_x": "3699675.35754",
    "final_y": "531817.918083",
    "longitude": "-90.01066859071906",
    "latitude": "29.95575048945024",
    "geocoded_column": {
      "latitude": "29.95575048945024",
      "longitude": "-90.01066859071906"
    }
  },
  {
    "service_request": "2025-1235250",
    "request_type": "Trash/Recycling",
    "request_reason": "Replace Trash Cart",
    "date_created": "2025-10-22T15:40:30.000",
    "date_modified": "2025-10-22T15:40:33.000",
    "request_status": "Pending",
    "responsible_agency": "Department of Sanitation",
    "final_address": "8114 Freret St",
    "address_councildis": "A",
    "status": "Assigned to Contractor",
    "contractor": "IV Waste",
    "rowid": "1235250",
    "final_x": "3661341.24781",
    "final_y": "527940.068223",
    "longitude": "-90.13184327370845",
    "latitude": "29.946248691763625",
    "geocoded_column": {
      "latitude": "29.946248691763625",
      "longitude": "-90.13184327370845"
    }
  },
  {
    "service_request": "2025-1235249",
    "request_type": "Trash/Recycling",
    "request_reason": "Request a Large Item Pick Up",
    "date_created": "2025-10-22T15:37:47.000",
    "date_modified": "2025-10-22T15:37:49.000",
    "request_status": "Pending",
    "responsible_agency": "Department of Sanitation",
    "final_address": "1131 Lamanche St",
    "address_councildis": "E",
    "status": "Assigned to Contractor",
    "contractor": "Waste Pro",
    "rowid": "1235249",
    "final_x": "3698521.46954",
    "final_y": "533950.197701",
    "longitude": "-90.01423463054492",
    "latitude": "29.961650075447622",
    "geocoded_column": {
      "latitude": "29.961650075447622",
      "longitude": "-90.01423463054492"
    }
  },
  {
    "service_request": "2025-1235248",
    "request_type": "Trash/Recycling",
    "request_reason": "Request a Large Item Pick Up",
    "date_created": "2025-10-22T15:36:21.000",
    "date_modified": "2025-10-22T15:36:23.000",
    "request_status": "Pending",
    "responsible_agency": "Department of Sanitation",
    "final_address": "11426 Lincoln Beach Blvd",
    "address_councildis": "E",
    "status": "Assigned to Contractor",
    "contractor": "Waste Pro",
    "rowid": "1235248",
    "final_x": "3710837.80133",
    "final_y": "567842.348004",
    "longitude": "-89.97407248620995",
    "latitude": "30.054444792966315",
    "geocoded_column": {
      "latitude": "30.054444792966315",
      "longitude": "-89.97407248620995"
    }
  },
  {
    "service_request": "2025-1235247",
    "request_type": "Trash/Recycling",
    "request_reason": "Request a Large Item Pick Up",
    "date_created": "2025-10-22T15:36:13.000",
    "date_modified": "2025-10-22T15:36:14.000",
    "request_status": "Pending",
    "responsible_agency": "Department of Sanitation",
    "final_address": "1016 Second St",
    "address_councildis": "B",
    "status": "Assigned to Contractor",
    "contractor": "IV Waste",
    "rowid": "1235247",
    "final_x": "3677915.5915",
    "final_y": "521129.032889",
    "longitude": "-90.0797475597072",
    "latitude": "29.927032304795638",
    "geocoded_column": {
      "latitude": "29.927032304795638",
      "longitude": "-90.0797475597072"
    }
  },
  {
    "service_request": "2025-1235246",
    "request_type": "Trash/Recycling",
    "request_reason": "Request a Large Item Pick Up",
    "date_created": "2025-10-22T15:34:57.000",
    "date_modified": "2025-10-22T15:34:59.000",
    "request_status": "Pending",
    "responsible_agency": "Department of Sanitation",
    "final_address": "607 Flood St",
    "address_councildis": "E",
    "status": "Assigned to Contractor",
    "contractor": "Waste Pro",
    "rowid": "1235246",
    "final_x": "3697266.69763",
    "final_y": "532064.620355",
    "longitude": "-90.0182653078044",
    "latitude": "29.956505064242272",
    "geocoded_column": {
      "latitude": "29.956505064242272",
      "longitude": "-90.0182653078044"
    }
  },
  {
    "service_request": "2025-1235245",
    "request_type": "Trash/Recycling",
    "request_reason": "Request a Large Item Pick Up",
    "date_created": "2025-10-22T15:28:51.000",
    "date_modified": "2025-10-22T15:28:53.000",
    "request_status": "Pending",
    "responsible_agency": "Department of Sanitation",
    "final_address": "619 Reynes St",
    "address_councildis": "E",
    "status": "Assigned to Contractor",
    "contractor": "Waste Pro",
    "rowid": "1235245",
    "final_x": "3695522.64477",
    "final_y": "532582.51834",
    "longitude": "-90.02375373626661",
    "latitude": "29.95798402427184",
    "geocoded_column": {
      "latitude": "29.95798402427184",
      "longitude": "-90.02375373626661"
    }
  },
  {
    "service_request": "2025-1235244",
    "request_type": "Trash/Recycling",
    "request_reason": "Replace Trash Cart",
    "date_created": "2025-10-22T15:22:47.000",
    "date_modified": "2025-10-22T15:22:49.000",
    "request_status": "Pending",
    "responsible_agency": "Department of Sanitation",
    "final_address": "3925 State Street Dr",
    "address_councildis": "B",
    "status": "Assigned to Contractor",
    "contractor": "IV Waste",
    "rowid": "1235244",
    "final_x": "3668201.80724",
    "final_y": "530160.839297",
    "longitude": "-90.11010718052187",
    "latitude": "29.952155501315396",
    "geocoded_column": {
      "latitude": "29.952155501315396",
      "longitude": "-90.11010718052187"
    }
  },
  {
    "service_request": "2025-1235243",
    "request_type": "Taxi Issues",
    "request_reason": "Taxi Lost & Found Item",
    "date_created": "2025-10-22T15:20:00.000",
    "date_modified": "2025-10-22T15:23:10.000",
    "request_status": "Pending",
    "responsible_agency": "Department of Public Works",
    "final_address": "214 Royal St",
    "address_councildis": "C",
    "status": "Pending",
    "rowid": "1235243",
    "final_x": "3681611.07157",
    "final_y": "531183.872066",
    "longitude": "-90.06773132081467",
    "latitude": "29.95456807206019",
    "geocoded_column": {
      "latitude": "29.95456807206019",
      "longitude": "-90.06773132081467"
    }
  },
  {
    "service_request": "2025-1235242",
    "request_type": "Abandoned Vehicles",
    "request_reason": "Abandoned/Junk Vehicles",
    "date_created": "2025-10-22T15:18:38.000",
    "date_modified": "2025-10-22T15:18:40.000",
    "request_status": "Pending",
    "responsible_agency": "Department of Public Works",
    "final_address": "1641 Poland Ave",
    "address_councildis": "D",
    "status": "Pending",
    "rowid": "1235242",
    "final_x": "3693727.79478",
    "final_y": "537067.494216",
    "longitude": "-90.02926016225129",
    "latitude": "29.970372407964927",
    "geocoded_column": {
      "latitude": "29.970372407964927",
      "longitude": "-90.02926016225129"
    }
  },
  {
    "service_request": "2025-1235241",
    "request_type": "Trash/Recycling",
    "request_reason": "Request a Large Item Pick Up",
    "date_created": "2025-10-22T15:09:48.000",
    "date_modified": "2025-10-22T15:09:50.000",
    "request_status": "Pending",
    "responsible_agency": "Department of Sanitation",
    "final_address": "6001 Curran Rd",
    "address_councildis": "E",
    "status": "Assigned to Contractor",
    "contractor": "Waste Pro",
    "rowid": "1235241",
    "final_x": "3695208.17866",
    "final_y": "558877.741468",
    "longitude": "-90.023797778141",
    "latitude": "30.03029613239927",
    "geocoded_column": {
      "latitude": "30.03029613239927",
      "longitude": "-90.023797778141"
    }
  },
  {
    "service_request": "2025-1235240",
    "request_type": "Trash/Recycling",
    "request_reason": "Request a Large Item Pick Up",
    "date_created": "2025-10-22T15:09:39.000",
    "date_modified": "2025-10-22T15:09:41.000",
    "request_status": "Pending",
    "responsible_agency": "Department of Sanitation",
    "final_address": "2515 Carondelet St",
    "address_councildis": "B",
    "status": "Assigned to Contractor",
    "contractor": "IV Waste",
    "rowid": "1235240",
    "final_x": "3676339.6955",
    "final_y": "523321.343867",
    "longitude": "-90.08464684001434",
    "latitude": "29.933107759276865",
    "geocoded_column": {
      "latitude": "29.933107759276865",
      "longitude": "-90.08464684001434"
    }
  },
  {
    "service_request": "2025-1235239",
    "request_type": "Street and Traffic Signs",
    "request_reason": "Traffic or Parking Sign Damaged or Missing",
    "date_created": "2025-10-22T15:09:35.000",
    "date_modified": "2025-10-22T15:09:37.000",
    "request_status": "Pending",
    "responsible_agency": "Department of Public Works",
    "final_address": "CALLIOPE ST & TCHOUPITOULAS ST",
    "address_councildis": "B",
    "status": "Pending",
    "rowid": "1235239",
    "final_x": "3681916.5",
    "final_y": "525711.48",
    "longitude": "-90.06695787144201",
    "latitude": "29.939511554279065",
    "geocoded_column": {
      "latitude": "29.939511554279065",
      "longitude": "-90.06695787144201"
    }
  },
  {
    "service_request": "2025-1235238",
    "request_type": "Streetlights",
    "request_reason": "Streetlight Outage/Malfunction",
    "date_created": "2025-10-22T15:08:48.000",
    "date_modified": "2025-10-22T15:11:44.000",
    "request_status": "Pending",
    "responsible_agency": "Department of Public Works",
    "final_address": "1023 Antonine St",
    "address_councildis": "B",
    "status": "Pending",
    "rowid": "1235238",
    "final_x": "3673972.93416",
    "final_y": "519053.983095",
    "longitude": "-90.09226446956778",
    "latitude": "29.92144460003586",
    "geocoded_column": {
      "latitude": "29.92144460003586",
      "longitude": "-90.09226446956778"
    }
  },
  {
    "service_request": "2025-1235237",
    "request_type": "Trash/Recycling",
    "request_reason": "Order Recycling Cart",
    "date_created": "2025-10-22T15:05:35.000",
    "date_modified": "2025-10-22T15:05:37.000",
    "request_status": "Pending",
    "responsible_agency": "Department of Sanitation",
    "final_address": "7823 Means Ave",
    "address_councildis": "E",
    "status": "Pending",
    "rowid": "1235237",
    "final_x": "3707768.98654",
    "final_y": "565367.631778",
    "longitude": "-89.98386434947577",
    "latitude": "30.047740058798034",
    "geocoded_column": {
      "latitude": "30.047740058798034",
      "longitude": "-89.98386434947577"
    }
  },
  {
    "service_request": "2025-1235236",
    "request_type": "Trash/Recycling",
    "request_reason": "Request a Large Item Pick Up",
    "date_created": "2025-10-22T15:01:01.000",
    "date_modified": "2025-10-22T15:01:03.000",
    "request_status": "Pending",
    "responsible_agency": "Department of Sanitation",
    "final_address": "1224 Kerlerec St",
    "address_councildis": "C",
    "status": "Assigned to Contractor",
    "contractor": "IV Waste",
    "rowid": "1235236",
    "final_x": "3682622.28597",
    "final_y": "535947.950471",
    "longitude": "-90.0643717080448",
    "latitude": "29.967636907624925",
    "geocoded_column": {
      "latitude": "29.967636907624925",
      "longitude": "-90.0643717080448"
    }
  },
  {
    "service_request": "2025-1235235",
    "request_type": "Trash/Recycling",
    "request_reason": "Request a Large Item Pick Up",
    "date_created": "2025-10-22T15:00:49.000",
    "date_modified": "2025-10-22T15:00:50.000",
    "request_status": "Pending",
    "responsible_agency": "Department of Sanitation",
    "final_address": "6125 Marais St",
    "address_councildis": "E",
    "status": "Assigned to Contractor",
    "contractor": "Waste Pro",
    "rowid": "1235235",
    "final_x": "3699861.19824",
    "final_y": "533658.596869",
    "longitude": "-90.01001465047614",
    "latitude": "29.960805801218985",
    "geocoded_column": {
      "latitude": "29.960805801218985",
      "longitude": "-90.01001465047614"
    }
  },
  {
    "service_request": "2025-1235234",
    "request_type": "Streetlights",
    "request_reason": "Streetlight Outage/Malfunction",
    "date_created": "2025-10-22T14:57:28.000",
    "date_modified": "2025-10-22T14:57:30.000",
    "request_status": "Pending",
    "responsible_agency": "Department of Public Works",
    "final_address": "4900 BLK Carondelet St",
    "address_councildis": "B",
    "status": "Pending",
    "rowid": "1235234",
    "final_x": "3668896.39117",
    "final_y": "521072.698456",
    "longitude": "-90.1082208153295",
    "latitude": "29.927145640369307",
    "geocoded_column": {
      "latitude": "29.927145640369307",
      "longitude": "-90.1082208153295"
    }
  },
  {
    "service_request": "2025-1235233",
    "request_type": "Roads and Streets",
    "request_reason": "Pothole",
    "date_created": "2025-10-22T14:52:47.000",
    "date_modified": "2025-10-22T14:52:49.000",
    "request_status": "Pending",
    "responsible_agency": "Department of Public Works",
    "final_address": "1600 BLK Bordeaux St",
    "address_councildis": "B",
    "status": "Pending",
    "rowid": "1235233",
    "final_x": "3669362.16846",
    "final_y": "520920.670873",
    "longitude": "-90.10675560902236",
    "latitude": "29.926713911304653",
    "geocoded_column": {
      "latitude": "29.926713911304653",
      "longitude": "-90.10675560902236"
    }
  },
  {
    "service_request": "2025-1235232",
    "request_type": "Roads and Streets",
    "request_reason": "Pothole",
    "date_created": "2025-10-22T14:51:50.000",
    "date_modified": "2025-10-22T14:51:51.000",
    "request_status": "Pending",
    "responsible_agency": "Department of Public Works",
    "final_address": "1600 BLK Upperline St",
    "address_councildis": "B",
    "status": "Pending",
    "rowid": "1235232",
    "final_x": "3669068.6697",
    "final_y": "520909.335594",
    "longitude": "-90.10768249076149",
    "latitude": "29.926691378536937",
    "geocoded_column": {
      "latitude": "29.926691378536937",
      "longitude": "-90.10768249076149"
    }
  },
  {
    "service_request": "2025-1235231",
    "request_type": "Trash/Recycling",
    "request_reason": "Request a Large Item Pick Up",
    "date_created": "2025-10-22T14:51:29.000",
    "date_modified": "2025-10-22T14:51:30.000",
    "request_status": "Pending",
    "responsible_agency": "Department of Sanitation",
    "final_address": "1440 Magazine St",
    "address_councildis": "B",
    "status": "Assigned to Contractor",
    "contractor": "IV Waste",
    "rowid": "1235231",
    "final_x": "3680317.01781",
    "final_y": "524161.851132",
    "longitude": "-90.07206150215748",
    "latitude": "29.93529909829683",
    "geocoded_column": {
      "latitude": "29.93529909829683",
      "longitude": "-90.07206150215748"
    }
  },
  {
    "service_request": "2025-1235230",
    "request_type": "Trash/Recycling",
    "request_reason": "Request a Large Item Pick Up",
    "date_created": "2025-10-22T14:48:19.000",
    "date_modified": "2025-10-22T16:24:16.000",
    "request_status": "Pending",
    "responsible_agency": "Department of Sanitation",
    "final_address": "1700 Frenchmen St",
    "address_councildis": "D",
    "status": "Assigned to Contractor",
    "contractor": "IV Waste",
    "rowid": "1235230",
    "final_x": "3684379.23957",
    "final_y": "538511.813833",
    "longitude": "-90.05873314920596",
    "latitude": "29.974633022584438",
    "geocoded_column": {
      "latitude": "29.974633022584438",
      "longitude": "-90.05873314920596"
    }
  },
  {
    "service_request": "2025-1235229",
    "request_type": "Abandoned Vehicles",
    "request_reason": "Abandoned/Junk Vehicles",
    "date_created": "2025-10-22T14:47:35.000",
    "date_modified": "2025-10-22T14:49:19.000",
    "request_status": "Pending",
    "responsible_agency": "Department of Public Works",
    "final_address": "3320 Wall Blvd",
    "address_councildis": "C",
    "status": "Pending",
    "rowid": "1235229",
    "final_x": "3696476.7745",
    "final_y": "524063.67046",
    "longitude": "-90.02104895464758",
    "latitude": "29.934530141401922",
    "geocoded_column": {
      "latitude": "29.934530141401922",
      "longitude": "-90.02104895464758"
    }
  },
  {
    "service_request": "2025-1235228",
    "request_type": "Streetlights",
    "request_reason": "Streetlight Outage/Malfunction",
    "date_created": "2025-10-22T14:46:35.000",
    "date_modified": "2025-10-22T14:46:37.000",
    "request_status": "Pending",
    "responsible_agency": "Department of Public Works",
    "final_address": "7930 Arcadia Ln",
    "address_councildis": "E",
    "status": "Pending",
    "rowid": "1235228",
    "final_x": "3711778.84254",
    "final_y": "567912.394725",
    "longitude": "-89.97109546616029",
    "latitude": "30.054606664955788",
    "geocoded_column": {
      "latitude": "30.054606664955788",
      "longitude": "-89.97109546616029"
    }
  },
  {
    "service_request": "2025-1235227",
    "request_type": "Traffic Safety",
    "request_reason": "Request for Traffic Calming due to Speeding",
    "date_created": "2025-10-22T14:46:20.000",
    "date_modified": "2025-10-22T14:47:40.000",
    "request_status": "Pending",
    "responsible_agency": "Department of Public Works",
    "final_address": "4800 Maid Marion Dr",
    "address_councildis": "E",
    "status": "Pending",
    "rowid": "1235227",
    "final_x": "3716873.31935",
    "final_y": "557171.159323",
    "longitude": "-89.95540141521116",
    "latitude": "30.024905104172742",
    "geocoded_column": {
      "latitude": "30.024905104172742",
      "longitude": "-89.95540141521116"
    }
  },
  {
    "service_request": "2025-1235226",
    "request_type": "Streetlights",
    "request_reason": "Streetlight Outage/Malfunction",
    "date_created": "2025-10-22T14:45:31.000",
    "date_modified": "2025-10-22T14:45:32.000",
    "request_status": "Pending",
    "responsible_agency": "Department of Public Works",
    "final_address": "7910 Arcadia Ln",
    "address_councildis": "E",
    "status": "Pending",
    "rowid": "1235226",
    "final_x": "3711830.71026",
    "final_y": "567832.20362",
    "longitude": "-89.97093453913959",
    "latitude": "30.05438447649805",
    "geocoded_column": {
      "latitude": "30.05438447649805",
      "longitude": "-89.97093453913959"
    }
  },
  {
    "service_request": "2025-1235225",
    "request_type": "Trash/Recycling",
    "request_reason": "Request a Large Item Pick Up",
    "date_created": "2025-10-22T14:44:46.000",
    "date_modified": "2025-10-22T14:44:52.000",
    "request_status": "Pending",
    "responsible_agency": "Department of Sanitation",
    "final_address": "4503 Shalimar Dr",
    "address_councildis": "D",
    "status": "Assigned to Contractor",
    "contractor": "Waste Pro",
    "rowid": "1235225",
    "final_x": "3697329.15447",
    "final_y": "552956.366039",
    "longitude": "-90.01731042053984",
    "latitude": "30.013947779165974",
    "geocoded_column": {
      "latitude": "30.013947779165974",
      "longitude": "-90.01731042053984"
    }
  },
  {
    "service_request": "2025-1235224",
    "request_type": "Trash/Recycling",
    "request_reason": "Request a Large Item Pick Up",
    "date_created": "2025-10-22T14:44:00.000",
    "date_modified": "2025-10-22T14:44:02.000",
    "request_status": "Pending",
    "responsible_agency": "Department of Sanitation",
    "final_address": "816 Fourth St",
    "address_councildis": "B",
    "status": "Assigned to Contractor",
    "contractor": "IV Waste",
    "rowid": "1235224",
    "final_x": "3677802.95662",
    "final_y": "520177.88108",
    "longitude": "-90.08013595738797",
    "latitude": "29.924420334251316",
    "geocoded_column": {
      "latitude": "29.924420334251316",
      "longitude": "-90.08013595738797"
    }
  },
  {
    "service_request": "2025-1235223",
    "request_type": "Streetlights",
    "request_reason": "Streetlight Outage/Malfunction",
    "date_created": "2025-10-22T14:42:53.000",
    "date_modified": "2025-10-22T14:42:55.000",
    "request_status": "Pending",
    "responsible_agency": "Department of Public Works",
    "final_address": "1802 Magnolia St",
    "address_councildis": "B",
    "status": "Pending",
    "rowid": "1235223",
    "final_x": "3675726.63982",
    "final_y": "527260.316927",
    "longitude": "-90.08644690031562",
    "latitude": "29.943956999349034",
    "geocoded_column": {
      "latitude": "29.943956999349034",
      "longitude": "-90.08644690031562"
    }
  },
  {
    "service_request": "2025-1235222",
    "request_type": "Parks & Parkways",
    "request_reason": "Request Tree Service (Right of Way/Public Property)",
    "date_created": "2025-10-22T14:42:05.000",
    "date_modified": "2025-10-22T14:42:07.000",
    "request_status": "Pending",
    "responsible_agency": "Department of Parks & Parkway",
    "final_address": "4059 Stutz St",
    "address_councildis": "D",
    "status": "Pending",
    "rowid": "1235222",
    "final_x": "3688720.25929",
    "final_y": "548269.523154",
    "longitude": "-90.04467660105449",
    "latitude": "30.001329739171204",
    "geocoded_column": {
      "latitude": "30.001329739171204",
      "longitude": "-90.04467660105449"
    }
  },
  {
    "service_request": "2025-1235221",
    "request_type": "Trash/Recycling",
    "request_reason": "Missed Trash Pick-Up",
    "date_created": "2025-10-22T14:40:58.000",
    "date_modified": "2025-10-22T15:34:46.000",
    "case_close_date": "2025-10-22T10:34:46.000",
    "request_status": "Closed",
    "responsible_agency": "Department of Sanitation",
    "final_address": "257 Cherokee St",
    "address_councildis": "A",
    "status": "Invalid Request",
    "contractor": "IV Waste",
    "contractor_action": "Invalid",
    "rowid": "1235221",
    "final_x": "3661304.88096",
    "final_y": "524439.51302",
    "longitude": "-90.13207396754282",
    "latitude": "29.93662432420594",
    "geocoded_column": {
      "latitude": "29.93662432420594",
      "longitude": "-90.13207396754282"
    }
  },
  {
    "service_request": "2025-1235220",
    "request_type": "Trash/Recycling",
    "request_reason": "Request a Large Item Pick Up",
    "date_created": "2025-10-22T14:40:37.000",
    "date_modified": "2025-10-22T14:40:39.000",
    "request_status": "Pending",
    "responsible_agency": "Department of Sanitation",
    "final_address": "6736 Avenue A",
    "address_councildis": "A",
    "status": "Assigned to Contractor",
    "contractor": "IV Waste",
    "rowid": "1235220",
    "final_x": "3666022.76992",
    "final_y": "552960.896663",
    "longitude": "-90.11622289315352",
    "latitude": "30.01491174467064",
    "geocoded_column": {
      "latitude": "30.01491174467064",
      "longitude": "-90.11622289315352"
    }
  },
  {
    "service_request": "2025-1235218",
    "request_type": "Trash/Recycling",
    "request_reason": "Dead Animal Pick Up",
    "date_created": "2025-10-22T14:37:41.000",
    "date_modified": "2025-10-22T14:37:50.000",
    "request_status": "Pending",
    "responsible_agency": "Department of Sanitation",
    "final_address": "2137 Filmore Ave",
    "address_councildis": "D",
    "status": "Assigned to Contractor",
    "contractor": "IV Waste",
    "rowid": "1235218",
    "final_x": "3683403.45186",
    "final_y": "552309.821718",
    "longitude": "-90.06133116695332",
    "latitude": "30.012602442485893",
    "geocoded_column": {
      "latitude": "30.012602442485893",
      "longitude": "-90.06133116695332"
    }
  },
  {
    "service_request": "2025-1235217",
    "request_type": "Streetlights",
    "request_reason": "Streetlight Outage/Malfunction",
    "date_created": "2025-10-22T14:36:55.000",
    "date_modified": "2025-10-22T14:36:58.000",
    "request_status": "Pending",
    "responsible_agency": "Department of Public Works",
    "final_address": "1800 BLK Napoleon Ave",
    "address_councildis": "B",
    "status": "Pending",
    "rowid": "1235217",
    "final_x": "3670719.66148",
    "final_y": "521766.617672",
    "longitude": "-90.10244167349475",
    "latitude": "29.928999967839044",
    "geocoded_column": {
      "latitude": "29.928999967839044",
      "longitude": "-90.10244167349475"
    }
  },
  {
    "service_request": "2025-1235216",
    "request_type": "Trash/Recycling",
    "request_reason": "Request a Large Item Pick Up",
    "date_created": "2025-10-22T14:35:41.000",
    "date_modified": "2025-10-22T14:35:42.000",
    "request_status": "Pending",
    "responsible_agency": "Department of Sanitation",
    "final_address": "1313 Lizardi St",
    "address_councildis": "E",
    "status": "Assigned to Contractor",
    "contractor": "Waste Pro",
    "rowid": "1235216",
    "final_x": "3696798.22499",
    "final_y": "534957.805446",
    "longitude": "-90.01963984266476",
    "latitude": "29.96447507439987",
    "geocoded_column": {
      "latitude": "29.96447507439987",
      "longitude": "-90.01963984266476"
    }
  },
  {
    "service_request": "2025-1235215",
    "request_type": "Abandoned Vehicles",
    "request_reason": "Abandoned/Junk Vehicles",
    "date_created": "2025-10-22T14:32:59.000",
    "date_modified": "2025-10-22T14:33:01.000",
    "request_status": "Pending",
    "responsible_agency": "Department of Public Works",
    "final_address": "6700 Bundy Rd",
    "address_councildis": "E",
    "status": "Pending",
    "rowid": "1235215",
    "final_x": "3707873.14872",
    "final_y": "559000.702684",
    "longitude": "-89.9837721485914",
    "latitude": "30.030230157086496",
    "geocoded_column": {
      "latitude": "30.030230157086496",
      "longitude": "-89.9837721485914"
    }
  },
  {
    "service_request": "2025-1235214",
    "request_type": "Trash/Recycling",
    "request_reason": "Request a Large Item Pick Up",
    "date_created": "2025-10-22T14:32:31.000",
    "date_modified": "2025-10-22T14:32:33.000",
    "request_status": "Pending",
    "responsible_agency": "Department of Sanitation",
    "final_address": "5323 Urquhart St",
    "address_councildis": "E",
    "status": "Assigned to Contractor",
    "contractor": "Waste Pro",
    "rowid": "1235214",
    "final_x": "3697220.83459",
    "final_y": "534771.420486",
    "longitude": "-90.01831203600955",
    "latitude": "29.963949252771222",
    "geocoded_column": {
      "latitude": "29.963949252771222",
      "longitude": "-90.01831203600955"
    }
  },
  {
    "service_request": "2025-1235213",
    "request_type": "Trash/Recycling",
    "request_reason": "Missed Trash Pick-Up",
    "date_created": "2025-10-22T14:29:08.000",
    "date_modified": "2025-10-22T15:38:53.000",
    "case_close_date": "2025-10-22T10:38:53.000",
    "request_status": "Closed",
    "responsible_agency": "Department of Sanitation",
    "final_address": "4409 Orleans Ave",
    "address_councildis": "A",
    "status": "Invalid Request",
    "contractor": "IV Waste",
    "contractor_action": "Invalid",
    "rowid": "1235213",
    "final_x": "3671426.33307",
    "final_y": "541231.295372",
    "longitude": "-90.09954922442417",
    "latitude": "29.982500497257554",
    "geocoded_column": {
      "latitude": "29.982500497257554",
      "longitude": "-90.09954922442417"
    }
  },
  {
    "service_request": "2025-1235212",
    "request_type": "Streetlights",
    "request_reason": "Streetlight Outage/Malfunction",
    "date_created": "2025-10-22T14:28:55.000",
    "date_modified": "2025-10-22T14:31:03.000",
    "request_status": "Pending",
    "responsible_agency": "Department of Public Works",
    "final_address": "2338 Tennessee St",
    "address_councildis": "E",
    "status": "Pending",
    "rowid": "1235212",
    "final_x": "3696975.41955",
    "final_y": "539125.957898",
    "longitude": "-90.01892928843168",
    "latitude": "29.97593041422228",
    "geocoded_column": {
      "latitude": "29.97593041422228",
      "longitude": "-90.01892928843168"
    }
  },
  {
    "service_request": "2025-1235211",
    "request_type": "Trash/Recycling",
    "request_reason": "Repair Recycling Cart",
    "date_created": "2025-10-22T14:27:05.000",
    "date_modified": "2025-10-22T14:27:06.000",
    "request_status": "Pending",
    "responsible_agency": "Department of Sanitation",
    "final_address": "4221 S Carrollton Ave",
    "address_councildis": "A",
    "status": "Pending",
    "rowid": "1235211",
    "final_x": "3669564.62663",
    "final_y": "536754.875528",
    "longitude": "-90.10558092609669",
    "latitude": "29.970246841244307",
    "geocoded_column": {
      "latitude": "29.970246841244307",
      "longitude": "-90.10558092609669"
    }
  },
  {
    "service_request": "2025-1235210",
    "request_type": "Streetlights",
    "request_reason": "Streetlight Outage/Malfunction",
    "date_created": "2025-10-22T14:26:55.000",
    "date_modified": "2025-10-22T14:26:57.000",
    "request_status": "Pending",
    "responsible_agency": "Department of Public Works",
    "final_address": "2441 Bayou Rd",
    "address_councildis": "D",
    "status": "Pending",
    "rowid": "1235210",
    "final_x": "3678982.79682",
    "final_y": "538775.623881",
    "longitude": "-90.0757672975104",
    "latitude": "29.975522363362632",
    "geocoded_column": {
      "latitude": "29.975522363362632",
      "longitude": "-90.0757672975104"
    }
  },
  {
    "service_request": "2025-1235209",
    "request_type": "Abandoned Vehicles",
    "request_reason": "Abandoned/Junk Vehicles",
    "date_created": "2025-10-22T14:23:36.000",
    "date_modified": "2025-10-22T14:26:50.000",
    "request_status": "Pending",
    "responsible_agency": "Department of Public Works",
    "final_address": "6400 BLK N Claiborne Ave",
    "address_councildis": "E",
    "status": "Pending",
    "rowid": "1235209",
    "final_x": "3701339.3965",
    "final_y": "534557.348652",
    "longitude": "-90.00531392334346",
    "latitude": "29.96323002266712",
    "geocoded_column": {
      "latitude": "29.96323002266712",
      "longitude": "-90.00531392334346"
    }
  },
  {
    "service_request": "2025-1235208",
    "request_type": "Property Maintenance",
    "request_reason": "Property Maintenance",
    "date_created": "2025-10-22T14:22:25.000",
    "date_modified": "2025-10-22T14:37:33.000",
    "case_close_date": "2025-10-22T09:37:32.000",
    "request_status": "Closed",
    "responsible_agency": "Department of Code Enforcement",
    "final_address": "4654 Dreux Ave",
    "address_councildis": "D",
    "status": "Referred to Code Enforcement",
    "rowid": "1235208",
    "final_x": "3691007.60131",
    "final_y": "552997.205207",
    "longitude": "-90.03728177575181",
    "latitude": "30.014258192479915",
    "geocoded_column": {
      "latitude": "30.014258192479915",
      "longitude": "-90.03728177575181"
    }
  },
  {
    "service_request": "2025-1235207",
    "request_type": "Trash/Recycling",
    "request_reason": "Return Recycling Cart",
    "date_created": "2025-10-22T14:22:11.000",
    "date_modified": "2025-10-22T14:22:13.000",
    "request_status": "Pending",
    "responsible_agency": "Department of Sanitation",
    "final_address": "1531 Governor Nicholls St",
    "address_councildis": "C",
    "status": "Pending",
    "rowid": "1235207",
    "final_x": "3681299.52936",
    "final_y": "535910.443527",
    "longitude": "-90.06855031008912",
    "latitude": "29.967573989506352",
    "geocoded_column": {
      "latitude": "29.967573989506352",
      "longitude": "-90.06855031008912"
    }
  },
  {
    "service_request": "2025-1235206",
    "request_type": "Trash/Recycling",
    "request_reason": "Request a Large Item Pick Up",
    "date_created": "2025-10-22T14:18:04.000",
    "date_modified": "2025-10-22T14:18:10.000",
    "request_status": "Pending",
    "responsible_agency": "Department of Sanitation",
    "final_address": "2017 Marais St B",
    "address_councildis": "C",
    "status": "Assigned to Contractor",
    "contractor": "IV Waste",
    "rowid": "1235206",
    "final_x": "3684335.20028",
    "final_y": "536643.414535",
    "longitude": "-90.05893786482703",
    "latitude": "29.96949692151479",
    "geocoded_column": {
      "latitude": "29.96949692151479",
      "longitude": "-90.05893786482703"
    }
  },
  {
    "service_request": "2025-1235205",
    "request_type": "Streetlights",
    "request_reason": "Streetlight Outage/Malfunction",
    "date_created": "2025-10-22T14:16:28.000",
    "date_modified": "2025-10-22T14:16:30.000",
    "request_status": "Pending",
    "responsible_agency": "Department of Public Works",
    "final_address": "7000 BLK Bullard Ave",
    "address_councildis": "E",
    "status": "Pending",
    "rowid": "1235205",
    "final_x": "3714439.53926",
    "final_y": "565670.312673",
    "longitude": "-89.96277045095502",
    "latitude": "30.04835461147822",
    "geocoded_column": {
      "latitude": "30.04835461147822",
      "longitude": "-89.96277045095502"
    }
  },
  {
    "service_request": "2025-1235204",
    "request_type": "Trash/Recycling",
    "request_reason": "Repair Trash Cart",
    "date_created": "2025-10-22T14:12:56.000",
    "date_modified": "2025-10-22T14:13:34.000",
    "request_status": "Pending",
    "responsible_agency": "Department of Sanitation",
    "final_address": "636 State St",
    "address_councildis": "A",
    "status": "Assigned to Contractor",
    "contractor": "IV Waste",
    "rowid": "1235204",
    "final_x": "3664529.68775",
    "final_y": "518875.585079",
    "longitude": "-90.1220787533461",
    "latitude": "29.92123192240745",
    "geocoded_column": {
      "latitude": "29.92123192240745",
      "longitude": "-90.1220787533461"
    }
  },
  {
    "service_request": "2025-1235203",
    "request_type": "Trash/Recycling",
    "request_reason": "Request a Large Item Pick Up",
    "date_created": "2025-10-22T14:10:16.000",
    "date_modified": "2025-10-22T14:10:18.000",
    "request_status": "Pending",
    "responsible_agency": "Department of Sanitation",
    "final_address": "1310 Esplanade Ave",
    "address_councildis": "C",
    "status": "Assigned to Contractor",
    "contractor": "IV Waste",
    "rowid": "1235203",
    "final_x": "3681997.86172",
    "final_y": "535921.137031",
    "longitude": "-90.06634458951216",
    "latitude": "29.96758217952165",
    "geocoded_column": {
      "latitude": "29.96758217952165",
      "longitude": "-90.06634458951216"
    }
  },
  {
    "service_request": "2025-1235202",
    "request_type": "Trash/Recycling",
    "request_reason": "Request a Large Item Pick Up",
    "date_created": "2025-10-22T14:10:16.000",
    "date_modified": "2025-10-22T14:10:17.000",
    "request_status": "Pending",
    "responsible_agency": "Department of Sanitation",
    "final_address": "1310 Esplanade Ave",
    "address_councildis": "C",
    "status": "Assigned to Contractor",
    "contractor": "IV Waste",
    "rowid": "1235202",
    "final_x": "3681997.86172",
    "final_y": "535921.137031",
    "longitude": "-90.06634458951216",
    "latitude": "29.96758217952165",
    "geocoded_column": {
      "latitude": "29.96758217952165",
      "longitude": "-90.06634458951216"
    }
  },
  {
    "service_request": "2025-1235201",
    "request_type": "Trash/Recycling",
    "request_reason": "Request a Large Item Pick Up",
    "date_created": "2025-10-22T14:08:45.000",
    "date_modified": "2025-10-22T14:08:46.000",
    "request_status": "Pending",
    "responsible_agency": "Department of Sanitation",
    "final_address": "6022 Cameron Blvd",
    "address_councildis": "D",
    "status": "Assigned to Contractor",
    "contractor": "IV Waste",
    "rowid": "1235201",
    "final_x": "3682272.37026",
    "final_y": "554982.240216",
    "longitude": "-90.06481128323975",
    "latitude": "30.01998509547522",
    "geocoded_column": {
      "latitude": "30.01998509547522",
      "longitude": "-90.06481128323975"
    }
  },
  {
    "service_request": "2025-1235200",
    "request_type": "Trash/Recycling",
    "request_reason": "Request a Large Item Pick Up",
    "date_created": "2025-10-22T14:05:26.000",
    "date_modified": "2025-10-22T14:05:27.000",
    "request_status": "Pending",
    "responsible_agency": "Department of Sanitation",
    "final_address": "640 Governor Nicholls St",
    "address_councildis": "C",
    "status": "Assigned to Contractor",
    "contractor": "IV Waste",
    "rowid": "1235200",
    "final_x": "3683706.3558",
    "final_y": "533838.545989",
    "longitude": "-90.06102216212089",
    "latitude": "29.961803716347145",
    "geocoded_column": {
      "latitude": "29.961803716347145",
      "longitude": "-90.06102216212089"
    }
  },
  {
    "service_request": "2025-1235199",
    "request_type": "Trash/Recycling",
    "request_reason": "Request a Large Item Pick Up",
    "date_created": "2025-10-22T14:04:11.000",
    "date_modified": "2025-10-22T14:04:13.000",
    "request_status": "Pending",
    "responsible_agency": "Department of Sanitation",
    "final_address": "4564 Burton Rd",
    "address_councildis": "E",
    "status": "Assigned to Contractor",
    "contractor": "Waste Pro",
    "rowid": "1235199",
    "final_x": "3762576.8767",
    "final_y": "573977.077994",
    "longitude": "-89.81028374658332",
    "latitude": "30.069523375135557",
    "geocoded_column": {
      "latitude": "30.069523375135557",
      "longitude": "-89.81028374658332"
    }
  },
  {
    "service_request": "2025-1235198",
    "request_type": "Trash/Recycling",
    "request_reason": "Request a Large Item Pick Up",
    "date_created": "2025-10-22T14:02:37.000",
    "date_modified": "2025-10-22T14:02:39.000",
    "request_status": "Pending",
    "responsible_agency": "Department of Sanitation",
    "final_address": "4766 Arthur Dr",
    "address_councildis": "E",
    "status": "Assigned to Contractor",
    "contractor": "Waste Pro",
    "rowid": "1235198",
    "final_x": "3707597.18347",
    "final_y": "555688.370265",
    "longitude": "-89.98476738084786",
    "latitude": "30.021131471057256",
    "geocoded_column": {
      "latitude": "30.021131471057256",
      "longitude": "-89.98476738084786"
    }
  },
  {
    "service_request": "2025-1235197",
    "request_type": "Trash/Recycling",
    "request_reason": "Request a Large Item Pick Up",
    "date_created": "2025-10-22T14:02:30.000",
    "date_modified": "2025-10-22T14:02:31.000",
    "request_status": "Pending",
    "responsible_agency": "Department of Sanitation",
    "final_address": "2324 Jackson Ave",
    "address_councildis": "B",
    "status": "Assigned to Contractor",
    "contractor": "IV Waste",
    "rowid": "1235197",
    "final_x": "3675647.30606",
    "final_y": "526195.183742",
    "longitude": "-90.08673396542972",
    "latitude": "29.9410306073941",
    "geocoded_column": {
      "latitude": "29.9410306073941",
      "longitude": "-90.08673396542972"
    }
  },
  {
    "service_request": "2025-1235196",
    "request_type": "Trash/Recycling",
    "request_reason": "Request a Large Item Pick Up",
    "date_created": "2025-10-22T14:02:24.000",
    "date_modified": "2025-10-22T14:02:26.000",
    "request_status": "Pending",
    "responsible_agency": "Department of Sanitation",
    "final_address": "N RAMPART ST & ST CLAUDE CT",
    "address_councildis": "E",
    "status": "Assigned to Contractor",
    "contractor": "Waste Pro",
    "rowid": "1235196",
    "final_x": "3697432.9",
    "final_y": "533446.78",
    "longitude": "-90.01769038662431",
    "latitude": "29.96030026828429",
    "geocoded_column": {
      "latitude": "29.96030026828429",
      "longitude": "-90.01769038662431"
    }
  },
  {
    "service_request": "2025-1235195",
    "request_type": "Trash/Recycling",
    "request_reason": "Order Recycling Cart",
    "date_created": "2025-10-22T13:59:25.000",
    "date_modified": "2025-10-22T13:59:27.000",
    "request_status": "Pending",
    "responsible_agency": "Department of Sanitation",
    "final_address": "2302 Magazine St",
    "address_councildis": "B",
    "status": "Pending",
    "rowid": "1235195",
    "final_x": "3678527.67464",
    "final_y": "521781.085562",
    "longitude": "-90.07779281803074",
    "latitude": "29.928806809787933",
    "geocoded_column": {
      "latitude": "29.928806809787933",
      "longitude": "-90.07779281803074"
    }
  },
  {
    "service_request": "2025-1235194",
    "request_type": "Street and Traffic Signs",
    "request_reason": "Stop Sign Missing or Damaged",
    "date_created": "2025-10-22T13:56:21.000",
    "date_modified": "2025-10-22T13:56:22.000",
    "request_status": "Pending",
    "responsible_agency": "Department of Public Works",
    "final_address": "WARRINGTON DR & BURBANK DR",
    "address_councildis": "D",
    "status": "Pending",
    "rowid": "1235194",
    "final_x": "3680748.0",
    "final_y": "554557.28",
    "longitude": "-90.06964261428114",
    "latitude": "30.018862924063452",
    "geocoded_column": {
      "latitude": "30.018862924063452",
      "longitude": "-90.06964261428114"
    }
  },
  {
    "service_request": "2025-1235193",
    "request_type": "Property Maintenance",
    "request_reason": "Property Maintenance",
    "date_created": "2025-10-22T13:55:10.000",
    "date_modified": "2025-10-22T14:39:18.000",
    "case_close_date": "2025-10-22T09:39:17.000",
    "request_status": "Closed",
    "responsible_agency": "Department of Code Enforcement",
    "final_address": "5311 Wickfield Dr",
    "address_councildis": "D",
    "status": "Referred to Code Enforcement",
    "rowid": "1235193",
    "final_x": "3681210.53628",
    "final_y": "552411.173078",
    "longitude": "-90.06825602982269",
    "latitude": "30.01294787595378",
    "geocoded_column": {
      "latitude": "30.01294787595378",
      "longitude": "-90.06825602982269"
    }
  },
  {
    "service_request": "2025-1235192",
    "request_type": "Parks & Parkways",
    "request_reason": "Tree Stump (removal, grind)",
    "date_created": "2025-10-22T13:49:59.000",
    "date_modified": "2025-10-22T13:50:01.000",
    "request_status": "Pending",
    "responsible_agency": "Department of Parks & Parkway",
    "final_address": "2401 Bristol Pl",
    "address_councildis": "C",
    "status": "Pending",
    "rowid": "1235192",
    "final_x": "3702592.14961",
    "final_y": "522261.561338",
    "longitude": "-90.00180910984321",
    "latitude": "29.92938097452946",
    "geocoded_column": {
      "latitude": "29.92938097452946",
      "longitude": "-90.00180910984321"
    }
  },
  {
    "service_request": "2025-1235191",
    "request_type": "Trash/Recycling",
    "request_reason": "Request a Large Item Pick Up",
    "date_created": "2025-10-22T13:49:00.000",
    "date_modified": "2025-10-22T13:53:55.000",
    "request_status": "Pending",
    "responsible_agency": "Department of Sanitation",
    "final_address": "8006 Mullet St",
    "address_councildis": "E",
    "status": "Assigned to Contractor",
    "contractor": "Waste Pro",
    "rowid": "1235191",
    "final_x": "3698656.93104",
    "final_y": "561170.798622",
    "longitude": "-90.01281625046893",
    "latitude": "30.0364923281965",
    "geocoded_column": {
      "latitude": "30.0364923281965",
      "longitude": "-90.01281625046893"
    }
  },
  {
    "service_request": "2025-1235190",
    "request_type": "Trash/Recycling",
    "request_reason": "Repair Trash Cart",
    "date_created": "2025-10-22T13:48:30.000",
    "date_modified": "2025-10-22T13:49:58.000",
    "request_status": "Pending",
    "responsible_agency": "Department of Sanitation",
    "final_address": "6000 Warrington Dr",
    "address_councildis": "D",
    "status": "Assigned to Contractor",
    "contractor": "IV Waste",
    "rowid": "1235190",
    "final_x": "3680645.95413",
    "final_y": "554584.232472",
    "longitude": "-90.06996410403346",
    "latitude": "30.01894012762408",
    "geocoded_column": {
      "latitude": "30.01894012762408",
      "longitude": "-90.06996410403346"
    }
  },
  {
    "service_request": "2025-1235189",
    "request_type": "Trash/Recycling",
    "request_reason": "Request a Large Item Pick Up",
    "date_created": "2025-10-22T13:45:13.000",
    "date_modified": "2025-10-22T13:45:14.000",
    "request_status": "Pending",
    "responsible_agency": "Department of Sanitation",
    "final_address": "5010 Congress Dr",
    "address_councildis": "D",
    "status": "Assigned to Contractor",
    "contractor": "IV Waste",
    "rowid": "1235189",
    "final_x": "3691917.49328",
    "final_y": "552769.927126",
    "longitude": "-90.03441512319202",
    "latitude": "30.013604932384165",
    "geocoded_column": {
      "latitude": "30.013604932384165",
      "longitude": "-90.03441512319202"
    }
  },
  {
    "service_request": "2025-1235188",
    "request_type": "Trash/Recycling",
    "request_reason": "Request a Large Item Pick Up",
    "date_created": "2025-10-22T13:45:02.000",
    "date_modified": "2025-10-22T13:45:28.000",
    "request_status": "Pending",
    "responsible_agency": "Department of Sanitation",
    "final_address": "1636 Frenchmen St",
    "address_councildis": "D",
    "status": "Assigned to Contractor",
    "contractor": "IV Waste",
    "rowid": "1235188",
    "final_x": "3684382.86857",
    "final_y": "538408.616777",
    "longitude": "-90.05872531343057",
    "latitude": "29.97434915569108",
    "geocoded_column": {
      "latitude": "29.97434915569108",
      "longitude": "-90.05872531343057"
    }
  },
  {
    "service_request": "2025-1235187",
    "request_type": "Taxi Issues",
    "request_reason": "Taxi Lost & Found Item",
    "date_created": "2025-10-22T13:36:20.000",
    "date_modified": "2025-10-22T13:36:22.000",
    "request_status": "Pending",
    "responsible_agency": "Department of Public Works",
    "final_address": "3400 BLK Terminal Rd",
    "address_councildis": "E",
    "status": "Pending",
    "rowid": "1235187",
    "final_x": "3700450.23948",
    "final_y": "548219.155646",
    "longitude": "-90.00762261343603",
    "latitude": "30.000823299773934",
    "geocoded_column": {
      "latitude": "30.000823299773934",
      "longitude": "-90.00762261343603"
    }
  },
  {
    "service_request": "2025-1235186",
    "request_type": "Streetlights",
    "request_reason": "Streetlight Outage/Malfunction",
    "date_created": "2025-10-22T13:36:03.000",
    "date_modified": "2025-10-22T13:36:05.000",
    "request_status": "Pending",
    "responsible_agency": "Department of Public Works",
    "final_address": "506 River Oaks Dr",
    "address_councildis": "C",
    "status": "Pending",
    "rowid": "1235186",
    "final_x": "3701578.95281",
    "final_y": "521415.696057",
    "longitude": "-90.00503851545726",
    "latitude": "29.92708747310464",
    "geocoded_column": {
      "latitude": "29.92708747310464",
      "longitude": "-90.00503851545726"
    }
  },
  {
    "service_request": "2025-1235185",
    "request_type": "Drainage",
    "request_reason": "Catch Basin Not Draining",
    "date_created": "2025-10-22T13:29:09.000",
    "date_modified": "2025-10-22T13:29:10.000",
    "request_status": "Pending",
    "responsible_agency": "Sewerage & Water Board",
    "final_address": "GENERAL MEYER AVE & WOODLAND DR & WOODLAND PL",
    "address_councildis": "C",
    "status": "Pending",
    "rowid": "1235185",
    "final_x": "3705605.3",
    "final_y": "521490.58",
    "longitude": "-89.99232571732016",
    "latitude": "29.92716442391466",
    "geocoded_column": {
      "latitude": "29.92716442391466",
      "longitude": "-89.99232571732016"
    }
  },
  {
    "service_request": "2025-1235184",
    "request_type": "Parks & Parkways",
    "request_reason": "Park Maintenance/Clean Up",
    "date_created": "2025-10-22T13:25:56.000",
    "date_modified": "2025-10-22T13:25:58.000",
    "request_status": "Pending",
    "responsible_agency": "Department of Parks & Parkway",
    "final_address": "GENERAL MEYER AVE & WOODLAND DR & WOODLAND PL",
    "address_councildis": "C",
    "status": "Pending",
    "rowid": "1235184",
    "final_x": "3705605.3",
    "final_y": "521490.58",
    "longitude": "-89.99232571732016",
    "latitude": "29.92716442391466",
    "geocoded_column": {
      "latitude": "29.92716442391466",
      "longitude": "-89.99232571732016"
    }
  },
  {
    "service_request": "2025-1235183",
    "request_type": "Trash/Recycling",
    "request_reason": "Request a Large Item Pick Up",
    "date_created": "2025-10-22T13:25:02.000",
    "date_modified": "2025-10-22T13:25:05.000",
    "request_status": "Pending",
    "responsible_agency": "Department of Sanitation",
    "final_address": "7320 Trapier Ave",
    "address_councildis": "E",
    "status": "Assigned to Contractor",
    "contractor": "Waste Pro",
    "rowid": "1235183",
    "final_x": "3706922.1795",
    "final_y": "562794.31696",
    "longitude": "-89.98663629944649",
    "latitude": "30.0406918627945",
    "geocoded_column": {
      "latitude": "30.0406918627945",
      "longitude": "-89.98663629944649"
    }
  },
  {
    "service_request": "2025-1235182",
    "request_type": "Trash/Recycling",
    "request_reason": "Request a Large Item Pick Up",
    "date_created": "2025-10-22T13:20:12.000",
    "date_modified": "2025-10-22T13:20:21.000",
    "request_status": "Pending",
    "responsible_agency": "Department of Sanitation",
    "final_address": "11126 Curran Rd",
    "address_councildis": "E",
    "status": "Assigned to Contractor",
    "contractor": "Waste Pro",
    "rowid": "1235182",
    "final_x": "3710837.44094",
    "final_y": "566253.858083",
    "longitude": "-89.97413318271148",
    "latitude": "30.05007710173681",
    "geocoded_column": {
      "latitude": "30.05007710173681",
      "longitude": "-89.97413318271148"
    }
  },
  {
    "service_request": "2025-1235181",
    "request_type": "Trash/Recycling",
    "request_reason": "Illegal Dumping",
    "date_created": "2025-10-22T13:04:18.000",
    "date_modified": "2025-10-22T13:06:00.000",
    "request_status": "Pending",
    "responsible_agency": "Department of Sanitation",
    "final_address": "3028 Bienville Ave",
    "address_councildis": "B",
    "status": "Pending",
    "rowid": "1235181",
    "final_x": "3674577.86632",
    "final_y": "536616.412039",
    "longitude": "-90.08975330389455",
    "latitude": "29.969717460068665",
    "geocoded_column": {
      "latitude": "29.969717460068665",
      "longitude": "-90.08975330389455"
    }
  },
  {
    "service_request": "2025-1235180",
    "request_type": "Trash/Recycling",
    "request_reason": "Request a Large Item Pick Up",
    "date_created": "2025-10-22T13:02:57.000",
    "date_modified": "2025-10-22T13:03:00.000",
    "request_status": "Pending",
    "responsible_agency": "Department of Sanitation",
    "final_address": "14000 Intrepid St",
    "address_councildis": "E",
    "status": "Assigned to Contractor",
    "contractor": "Waste Pro",
    "rowid": "1235180",
    "final_x": "3726398.78585",
    "final_y": "570655.956391",
    "longitude": "-89.92477915587162",
    "latitude": "30.061664285281662",
    "geocoded_column": {
      "latitude": "30.061664285281662",
      "longitude": "-89.92477915587162"
    }
  },
  {
    "service_request": "2025-1235179",
    "request_type": "Trash/Recycling",
    "request_reason": "Request a Large Item Pick Up",
    "date_created": "2025-10-22T12:56:50.000",
    "date_modified": "2025-10-22T12:56:51.000",
    "request_status": "Pending",
    "responsible_agency": "Department of Sanitation",
    "final_address": "1608 St Roch Ave",
    "address_councildis": "D",
    "status": "Assigned to Contractor",
    "contractor": "IV Waste",
    "rowid": "1235179",
    "final_x": "3686242.92745",
    "final_y": "538358.440649",
    "longitude": "-90.05285259097836",
    "latitude": "29.974154165029574",
    "geocoded_column": {
      "latitude": "29.974154165029574",
      "longitude": "-90.05285259097836"
    }
  },
  {
    "service_request": "2025-1235178",
    "request_type": "Trash/Recycling",
    "request_reason": "Request a Large Item Pick Up",
    "date_created": "2025-10-22T12:56:22.000",
    "date_modified": "2025-10-22T12:56:24.000",
    "request_status": "Pending",
    "responsible_agency": "Department of Sanitation",
    "final_address": "0 BLK Admiralty Ct",
    "address_councildis": "C",
    "status": "Assigned to Contractor",
    "contractor": "Richards Disposal",
    "rowid": "1235178",
    "final_x": "3704031.03777",
    "final_y": "523040.620373",
    "longitude": "-89.99723816614093",
    "latitude": "29.931477060413563",
    "geocoded_column": {
      "latitude": "29.931477060413563",
      "longitude": "-89.99723816614093"
    }
  },
  {
    "service_request": "2025-1235177",
    "request_type": "Trash/Recycling",
    "request_reason": "Request a Large Item Pick Up",
    "date_created": "2025-10-22T12:55:30.000",
    "date_modified": "2025-10-22T12:55:32.000",
    "request_status": "Pending",
    "responsible_agency": "Department of Sanitation",
    "final_address": "13911 Wales St",
    "address_councildis": "E",
    "status": "Assigned to Contractor",
    "contractor": "Waste Pro",
    "rowid": "1235177",
    "final_x": "3717871.8021",
    "final_y": "572396.763113",
    "longitude": "-89.951666292221",
    "latitude": "30.066736233163798",
    "geocoded_column": {
      "latitude": "30.066736233163798",
      "longitude": "-89.951666292221"
    }
  },
  {
    "service_request": "2025-1235176",
    "request_type": "Trash/Recycling",
    "request_reason": "Replace Trash Cart",
    "date_created": "2025-10-22T12:53:59.000",
    "date_modified": "2025-10-22T12:54:01.000",
    "request_status": "Pending",
    "responsible_agency": "Department of Sanitation",
    "final_address": "5232 Annunciation St",
    "address_councildis": "B",
    "status": "Assigned to Contractor",
    "contractor": "IV Waste",
    "rowid": "1235176",
    "final_x": "3667731.01332",
    "final_y": "517535.058614",
    "longitude": "-90.11201865656567",
    "latitude": "29.91745245655417",
    "geocoded_column": {
      "latitude": "29.91745245655417",
      "longitude": "-90.11201865656567"
    }
  },
  {
    "service_request": "2025-1235175",
    "request_type": "Trash/Recycling",
    "request_reason": "MIssed Recycling Pick-Up",
    "date_created": "2025-10-22T12:52:56.000",
    "date_modified": "2025-10-22T13:49:07.000",
    "case_close_date": "2025-10-22T08:49:06.000",
    "request_status": "Closed",
    "responsible_agency": "Department of Sanitation",
    "final_address": "1839 Calhoun St",
    "address_councildis": "A",
    "status": "Invalid Request",
    "contractor": "IV Waste",
    "contractor_action": "Invalid",
    "rowid": "1235175",
    "final_x": "3665388.1618",
    "final_y": "524037.77638",
    "longitude": "-90.11919626073026",
    "latitude": "29.935401337613936",
    "geocoded_column": {
      "latitude": "29.935401337613936",
      "longitude": "-90.11919626073026"
    }
  },
  {
    "service_request": "2025-1235174",
    "request_type": "Abandoned Vehicles",
    "request_reason": "Abandoned/Junk Vehicles",
    "date_created": "2025-10-22T12:45:39.000",
    "date_modified": "2025-10-22T12:45:41.000",
    "request_status": "Pending",
    "responsible_agency": "Department of Public Works",
    "final_address": "921 Fern St",
    "address_councildis": "A",
    "status": "Pending",
    "rowid": "1235174",
    "final_x": "3661976.75795",
    "final_y": "527177.054271",
    "longitude": "-90.12986203993638",
    "latitude": "29.944132308565784",
    "geocoded_column": {
      "latitude": "29.944132308565784",
      "longitude": "-90.12986203993638"
    }
  },
  {
    "service_request": "2025-1235173",
    "request_type": "Trash/Recycling",
    "request_reason": "Request a Large Item Pick Up",
    "date_created": "2025-10-22T12:40:13.000",
    "date_modified": "2025-10-22T12:40:15.000",
    "request_status": "Pending",
    "responsible_agency": "Department of Sanitation",
    "final_address": "6552 Virgilian St",
    "address_councildis": "D",
    "status": "Assigned to Contractor",
    "contractor": "Waste Pro",
    "rowid": "1235173",
    "final_x": "3697192.93136",
    "final_y": "555436.854617",
    "longitude": "-90.01765082661952",
    "latitude": "30.020772486847964",
    "geocoded_column": {
      "latitude": "30.020772486847964",
      "longitude": "-90.01765082661952"
    }
  },
  {
    "service_request": "2025-1235172",
    "request_type": "Trash/Recycling",
    "request_reason": "Request a Large Item Pick Up",
    "date_created": "2025-10-22T12:37:47.000",
    "date_modified": "2025-10-22T12:37:49.000",
    "request_status": "Pending",
    "responsible_agency": "Department of Sanitation",
    "final_address": "14201 Sai Gon Dr",
    "address_councildis": "E",
    "status": "Assigned to Contractor",
    "contractor": "Waste Pro",
    "rowid": "1235172",
    "final_x": "3729130.32282",
    "final_y": "562866.353312",
    "longitude": "-89.91644937095866",
    "latitude": "30.040153552799776",
    "geocoded_column": {
      "latitude": "30.040153552799776",
      "longitude": "-89.91644937095866"
    }
  },
  {
    "service_request": "2025-1235171",
    "request_type": "Trash/Recycling",
    "request_reason": "Request a Large Item Pick Up",
    "date_created": "2025-10-22T12:34:15.000",
    "date_modified": "2025-10-22T12:38:40.000",
    "request_status": "Pending",
    "responsible_agency": "Department of Sanitation",
    "final_address": "1628 Spain St, New Orleans, Louisiana, 70117",
    "address_councildis": "D",
    "status": "Assigned to Contractor",
    "contractor": "IV Waste",
    "rowid": "1235171",
    "final_x": "3685935.72604",
    "final_y": "538480.941513",
    "longitude": "-90.05381848161296",
    "latitude": "29.974500435455646",
    "geocoded_column": {
      "latitude": "29.974500435455646",
      "longitude": "-90.05381848161296"
    }
  },
  {
    "service_request": "2025-1235170",
    "request_type": "Trash/Recycling",
    "request_reason": "Repair Trash Cart",
    "date_created": "2025-10-22T12:33:38.000",
    "date_modified": "2025-10-22T12:33:40.000",
    "request_status": "Pending",
    "responsible_agency": "Department of Sanitation",
    "final_address": "4328 Walmsley Ave",
    "address_councildis": "B",
    "status": "Assigned to Contractor",
    "contractor": "IV Waste",
    "rowid": "1235170",
    "final_x": "3669628.08782",
    "final_y": "530010.449793",
    "longitude": "-90.10560872583989",
    "latitude": "29.951700035829163",
    "geocoded_column": {
      "latitude": "29.951700035829163",
      "longitude": "-90.10560872583989"
    }
  },
  {
    "service_request": "2025-1235169",
    "request_type": "Trash/Recycling",
    "request_reason": "Request a Large Item Pick Up",
    "date_created": "2025-10-22T12:29:05.000",
    "date_modified": "2025-10-22T12:29:06.000",
    "request_status": "Pending",
    "responsible_agency": "Department of Sanitation",
    "final_address": "2213 Monticello St",
    "address_councildis": "E",
    "status": "Assigned to Contractor",
    "contractor": "Waste Pro",
    "rowid": "1235169",
    "final_x": "3700669.39997",
    "final_y": "537542.50804",
    "longitude": "-90.00732059060344",
    "latitude": "29.97145947059062",
    "geocoded_column": {
      "latitude": "29.97145947059062",
      "longitude": "-90.00732059060344"
    }
  },
  {
    "service_request": "2025-1235168",
    "request_type": "Trash/Recycling",
    "request_reason": "Request a Large Item Pick Up",
    "date_created": "2025-10-22T12:28:14.000",
    "date_modified": "2025-10-22T12:28:16.000",
    "request_status": "Pending",
    "responsible_agency": "Department of Sanitation",
    "final_address": "8001 Dorsett Dr",
    "address_councildis": "E",
    "status": "Assigned to Contractor",
    "contractor": "Waste Pro",
    "rowid": "1235168",
    "final_x": "3712177.52773",
    "final_y": "568383.820133",
    "longitude": "-89.96981759215178",
    "latitude": "30.055889853788432",
    "geocoded_column": {
      "latitude": "30.055889853788432",
      "longitude": "-89.96981759215178"
    }
  },
  {
    "service_request": "2025-1235167",
    "request_type": "Abandoned Vehicles",
    "request_reason": "Abandoned/Junk Vehicles",
    "date_created": "2025-10-22T12:25:37.000",
    "date_modified": "2025-10-22T12:25:40.000",
    "request_status": "Pending",
    "responsible_agency": "Department of Public Works",
    "final_address": "1401 St Andrew St",
    "address_councildis": "B",
    "status": "Pending",
    "rowid": "1235167",
    "final_x": "3678815.58011",
    "final_y": "523465.250683",
    "longitude": "-90.07682565870911",
    "latitude": "29.933429034383952",
    "geocoded_column": {
      "latitude": "29.933429034383952",
      "longitude": "-90.07682565870911"
    }
  },
  {
    "service_request": "2025-1235166",
    "request_type": "Trash/Recycling",
    "request_reason": "Damaged Caused By Contractor",
    "date_created": "2025-10-22T12:18:01.000",
    "date_modified": "2025-10-22T12:18:02.000",
    "request_status": "Pending",
    "responsible_agency": "Department of Sanitation",
    "final_address": "2300 BLK Magazine St",
    "address_councildis": "B",
    "status": "Assigned to Contractor",
    "contractor": "IV Waste",
    "rowid": "1235166",
    "final_x": "3678317.4993",
    "final_y": "521665.311116",
    "longitude": "-90.07846030134293",
    "latitude": "29.92849479859743",
    "geocoded_column": {
      "latitude": "29.92849479859743",
      "longitude": "-90.07846030134293"
    }
  },
  {
    "service_request": "2025-1235165",
    "request_type": "Trash/Recycling",
    "request_reason": "Repair Trash Cart",
    "date_created": "2025-10-22T12:15:50.000",
    "date_modified": "2025-10-22T12:15:52.000",
    "request_status": "Pending",
    "responsible_agency": "Department of Sanitation",
    "final_address": "4625 Venus St",
    "address_councildis": "D",
    "status": "Assigned to Contractor",
    "contractor": "IV Waste",
    "rowid": "1235165",
    "final_x": "3686640.32578",
    "final_y": "549833.269652",
    "longitude": "-90.05119200851419",
    "latitude": "30.00569362965101",
    "geocoded_column": {
      "latitude": "30.00569362965101",
      "longitude": "-90.05119200851419"
    }
  },