[
  {
    "service_request": "2026-1254035",
    "request_type": "Trash/Recycling",
    "request_reason": "Request a Large Item Pick Up",
    "date_created": "2026-01-22T22:26:24.000",
    "date_modified": "2026-01-22T22:26:26.000",
    "request_status": "Pending",
    "responsible_agency": "Department of Sanitation",
    "final_address": "1715 France St",
    "address_councildis": "D",
    "status": "Assigned to Contractor",
    "contractor": "IV Waste",
    "rowid": "1254035",
    "final_x": "3693020.20886",
    "final_y": "537521.33044",
    "longitude": "-90.03147850327866",
    "latitude": "29.97164242045645",
    "geocoded_column": {
      "latitude": "29.97164242045645",
      "longitude": "-90.03147850327866"
    }
  },
  {
    "service_request": "2026-1254034",
    "request_type": "Trash/Recycling",
    "request_reason": "Request a Large Item Pick Up",
    "date_created": "2026-01-22T22:16:37.000",
    "date_modified": "2026-01-22T22:16:40.000",
    "request_status": "Pending",
    "responsible_agency": "Department of Sanitation",
    "final_address": "710 Eleonore St",
    "address_councildis": "A",
    "status": "Assigned to Contractor",
    "contractor": "IV Waste",
    "rowid": "1254034",
    "final_x": "3665135.653",
    "final_y": "518843.783223",
    "longitude": "-90.12016704485383",
    "latitude": "29.92112685003835",
    "geocoded_column": {
      "latitude": "29.92112685003835",
      "longitude": "-90.12016704485383"
    }
  },
  {
    "service_request": "2026-1254033",
    "request_type": "Trash/Recycling",
    "request_reason": "Request a Large Item Pick Up",
    "date_created": "2026-01-22T21:40:40.000",
    "date_modified": "2026-01-22T21:40:48.000",
    "request_status": "Pending",
    "responsible_agency": "Department of Sanitation",
    "final_address": "2017 Louisa St",
    "address_councildis": "D",
    "status": "Assigned to Contractor",
    "contractor": "IV Waste",
    "rowid": "1254033",
    "final_x": "3690478.20572",
    "final_y": "539392.123978",
    "longitude": "-90.03943978851515",
    "latitude": "29.9768656086476",
    "geocoded_column": {
      "latitude": "29.9768656086476",
      "longitude": "-90.03943978851515"
    }
  },
  {
    "service_request": "2026-1254032",
    "request_type": "Trash/Recycling",
    "request_reason": "Replace Trash Cart",
    "date_created": "2026-01-22T21:29:48.000",
    "date_modified": "2026-01-22T21:29:50.000",
    "request_status": "Pending",
    "responsible_agency": "Department of Sanitation",
    "final_address": "1438 Henry Clay Ave",
    "address_councildis": "A",
    "status": "Assigned to Contractor",
    "contractor": "IV Waste",
    "rowid": "1254032",
    "final_x": "3664588.07168",
    "final_y": "521768.074362",
    "longitude": "-90.12179792249644",
    "latitude": "29.929183662496534",
    "geocoded_column": {
      "latitude": "29.929183662496534",
      "longitude": "-90.12179792249644"
    }
  },
  {
    "service_request": "2026-1254031",
    "request_type": "Streetlights",
    "request_reason": "Streetlight Outage/Malfunction",
    "date_created": "2026-01-22T21:28:07.000",
    "date_modified": "2026-01-22T21:28:09.000",
    "request_status": "Pending",
    "responsible_agency": "Department of Public Works",
    "final_address": "1438 Henry Clay Ave",
    "address_councildis": "A",
    "status": "Pending",
    "rowid": "1254031",
    "final_x": "3664588.07168",
    "final_y": "521768.074362",
    "longitude": "-90.12179792249644",
    "latitude": "29.929183662496534",
    "geocoded_column": {
      "latitude": "29.929183662496534",
      "longitude": "-90.12179792249644"
    }
  },
  {
    "service_request": "2026-1254030",
    "request_type": "Trash/Recycling",
    "request_reason": "Illegal Dumping",
    "date_created": "2026-01-22T20:19:28.000",
    "date_modified": "2026-01-22T20:19:30.000",
    "request_status": "Pending",
    "responsible_agency": "Department of Sanitation",
    "final_address": "11811 W Barrington Dr",
    "address_councildis": "E",
    "status": "Pending",
    "rowid": "1254030",
    "final_x": "3714063.97874",
    "final_y": "565660.341026",
    "longitude": "-89.96395780388232",
    "latitude": "30.048339539846868",
    "geocoded_column": {
      "latitude": "30.048339539846868",
      "longitude": "-89.96395780388232"
    }
  },
  {
    "service_request": "2026-1254029",
    "request_type": "Roads and Streets",
    "request_reason": "Street Subsidence (Sinking)",
    "date_created": "2026-01-22T20:12:12.000",
    "date_modified": "2026-01-22T20:12:14.000",
    "request_status": "Pending",
    "responsible_agency": "Sewerage & Water Board",
    "final_address": "76 Audubon Blvd",
    "address_councildis": "A",
    "status": "Pending",
    "rowid": "1254029",
    "final_x": "3665685.25613",
    "final_y": "527653.766335",
    "longitude": "-90.11813726209179",
    "latitude": "29.94533549199607",
    "geocoded_column": {
      "latitude": "29.94533549199607",
      "longitude": "-90.11813726209179"
    }
  },
  {
    "service_request": "2026-1254028",
    "request_type": "Abandoned Vehicles",
    "request_reason": "Abandoned/Junk Vehicles",
    "date_created": "2026-01-22T19:43:38.000",
    "date_modified": "2026-01-22T19:43:40.000",
    "request_status": "Pending",
    "responsible_agency": "Department of Public Works",
    "final_address": "14441 Curran Rd",
    "address_councildis": "E",
    "status": "Pending",
    "rowid": "1254028",
    "final_x": "3719330.74469",
    "final_y": "573346.444394",
    "longitude": "-89.94701807366536",
    "latitude": "30.069299005103698",
    "geocoded_column": {
      "latitude": "30.069299005103698",
      "longitude": "-89.94701807366536"
    }
  },
  {
    "service_request": "2026-1254027",
    "request_type": "Streetlights",
    "request_reason": "Streetlight Outage/Malfunction",
    "date_created": "2026-01-22T19:40:54.000",
    "date_modified": "2026-01-22T19:40:56.000",
    "request_status": "Pending",
    "responsible_agency": "Department of Public Works",
    "final_address": "1025 Kentucky St",
    "address_councildis": "C",
    "status": "Pending",
    "rowid": "1254027",
    "final_x": "3693301.34787",
    "final_y": "534693.044678",
    "longitude": "-90.03069217215898",
    "latitude": "29.963856849556752",
    "geocoded_column": {
      "latitude": "29.963856849556752",
      "longitude": "-90.03069217215898"
    }
  },
  {
    "service_request": "2026-1254026",
    "request_type": "Trash/Recycling",
    "request_reason": "Order Recycling Cart",
    "date_created": "2026-01-22T19:28:01.000",
    "date_modified": "2026-01-22T19:28:04.000",
    "request_status": "Pending",
    "responsible_agency": "Department of Sanitation",
    "final_address": "711 Marengo St",
    "address_councildis": "B",
    "status": "Pending",
    "rowid": "1254026",
    "final_x": "3672279.24743",
    "final_y": "518267.367414",
    "longitude": "-90.09763748648014",
    "latitude": "29.919331990156095",
    "geocoded_column": {
      "latitude": "29.919331990156095",
      "longitude": "-90.09763748648014"
    }
  },
  {
    "service_request": "2026-1254025",
    "request_type": "Health Related Request",
    "request_reason": "Homeless Encampment Complaint",
    "date_created": "2026-01-22T19:18:29.000",
    "date_modified": "2026-01-22T19:18:30.000",
    "request_status": "Pending",
    "responsible_agency": "Office Of Homeless Services And Strategy",
    "final_address": "3000 BLK Hamilton St",
    "address_councildis": "A",
    "status": "Pending",
    "rowid": "1254025",
    "final_x": "3663808.60935",
    "final_y": "535643.19589",
    "longitude": "-90.1237961858461",
    "latitude": "29.967358418579014",
    "geocoded_column": {
      "latitude": "29.967358418579014",
      "longitude": "-90.1237961858461"
    }
  },
  {
    "service_request": "2026-1254024",
    "request_type": "Trash/Recycling",
    "request_reason": "Order Second Trash Cart",
    "date_created": "2026-01-22T19:14:03.000",
    "date_modified": "2026-01-22T19:14:05.000",
    "request_status": "Pending",
    "responsible_agency": "Department of Sanitation",
    "final_address": "7541 Sheffield St",
    "address_councildis": "E",
    "status": "Assigned to Contractor",
    "contractor": "Waste Pro",
    "rowid": "1254024",
    "final_x": "3699353.5057",
    "final_y": "560046.940957",
    "longitude": "-90.01065594295905",
    "latitude": "30.033380063715068",
    "geocoded_column": {
      "latitude": "30.033380063715068",
      "longitude": "-90.01065594295905"
    }
  },
  {
    "service_request": "2026-1254023",
    "request_type": "Trash/Recycling",
    "request_reason": "Missed Trash Pick-Up",
    "date_created": "2026-01-22T18:57:22.000",
    "date_modified": "2026-01-22T18:57:25.000",
    "request_status": "Pending",
    "responsible_agency": "Department of Sanitation",
    "final_address": "4932 S Claiborne Ave",
    "address_councildis": "B",
    "status": "Assigned to Contractor",
    "contractor": "IV Waste",
    "rowid": "1254023",
    "final_x": "3668956.20961",
    "final_y": "525757.144445",
    "longitude": "-90.10787383202296",
    "latitude": "29.9400246064321",
    "geocoded_column": {
      "latitude": "29.9400246064321",
      "longitude": "-90.10787383202296"
    }
  },
  {
    "service_request": "2026-1254022",
    "request_type": "Trash/Recycling",
    "request_reason": "Missed Trash Pick-Up",
    "date_created": "2026-01-22T18:51:44.000",
    "date_modified": "2026-01-22T18:51:47.000",
    "request_status": "Pending",
    "responsible_agency": "Department of Sanitation",
    "final_address": "4932 S Claiborne Ave",
    "address_councildis": "B",
    "status": "Assigned to Contractor",
    "contractor": "IV Waste",
    "rowid": "1254022",
    "final_x": "3668956.20961",
    "final_y": "525757.144445",
    "longitude": "-90.10787383202296",
    "latitude": "29.9400246064321",
    "geocoded_column": {
      "latitude": "29.9400246064321",
      "longitude": "-90.10787383202296"
    }
  },
  {
    "service_request": "2026-1254021",
    "request_type": "Safety & Permits",
    "request_reason": "Licenses & Permits",
    "date_created": "2026-01-22T18:36:00.000",
    "date_modified": "2026-01-22T18:36:02.000",
    "request_status": "Pending",
    "responsible_agency": "Safety and Permits",
    "final_address": "97 Pinewood Ct",
    "address_councildis": "C",
    "status": "Pending",
    "rowid": "1254021",
    "final_x": "3695827.50102",
    "final_y": "523231.868987",
    "longitude": "-90.02312871190072",
    "latitude": "29.932263402849756",
    "geocoded_column": {
      "latitude": "29.932263402849756",
      "longitude": "-90.02312871190072"
    }
  },
  {
    "service_request": "2026-1254020",
    "request_type": "Trash/Recycling",
    "request_reason": "Order Recycling Cart",
    "date_created": "2026-01-22T18:21:22.000",
    "date_modified": "2026-01-22T18:21:24.000",
    "request_status": "Pending",
    "responsible_agency": "Department of Sanitation",
    "final_address": "227 Delaronde St",
    "address_councildis": "C",
    "status": "Pending",
    "rowid": "1254020",
    "final_x": "3686185.09865",
    "final_y": "530677.201858",
    "longitude": "-90.0533062275758",
    "latitude": "29.953035194195927",
    "geocoded_column": {
      "latitude": "29.953035194195927",
      "longitude": "-90.0533062275758"
    }
  },
  {
    "service_request": "2026-1254019",
    "request_type": "Streetlights",
    "request_reason": "Streetlight Outage/Malfunction",
    "date_created": "2026-01-22T18:18:16.000",
    "date_modified": "2026-01-22T18:18:18.000",
    "request_status": "Pending",
    "responsible_agency": "Department of Public Works",
    "final_address": "1918 Cadiz St",
    "address_councildis": "B",
    "status": "Pending",
    "rowid": "1254019",
    "final_x": "3669934.69057",
    "final_y": "522025.966906",
    "longitude": "-90.10491090071307",
    "latitude": "29.9297362582018",
    "geocoded_column": {
      "latitude": "29.9297362582018",
      "longitude": "-90.10491090071307"
    }
  },
  {
    "service_request": "2026-1254018",
    "request_type": "Property Maintenance",
    "request_reason": "Property Maintenance",
    "date_created": "2026-01-22T18:09:33.000",
    "date_modified": "2026-01-22T18:09:35.000",
    "request_status": "Pending",
    "responsible_agency": "Department of Code Enforcement",
    "final_address": "6326 Caldwell Dr",
    "address_councildis": "D",
    "status": "Pending",
    "rowid": "1254018",
    "final_x": "3679048.70613",
    "final_y": "556884.792346",
    "longitude": "-90.0749310164164",
    "latitude": "30.02531415535802",
    "geocoded_column": {
      "latitude": "30.02531415535802",
      "longitude": "-90.0749310164164"
    }
  },
  {
    "service_request": "2026-1254017",
    "request_type": "Streetlights",
    "request_reason": "Streetlight Outage/Malfunction",
    "date_created": "2026-01-22T18:07:43.000",
    "date_modified": "2026-01-22T18:07:45.000",
    "request_status": "Pending",
    "responsible_agency": "Department of Public Works",
    "final_address": "2415 Milan St",
    "address_councildis": "B",
    "status": "Pending",
    "rowid": "1254017",
    "final_x": "3671342.49793",
    "final_y": "523913.802108",
    "longitude": "-90.10040256341955",
    "latitude": "29.93488562199893",
    "geocoded_column": {
      "latitude": "29.93488562199893",
      "longitude": "-90.10040256341955"
    }
  },
  {
    "service_request": "2026-1254016",
    "request_type": "Trash/Recycling",
    "request_reason": "Request a Large Item Pick Up",
    "date_created": "2026-01-22T17:51:41.000",
    "date_modified": "2026-01-22T17:51:43.000",
    "request_status": "Pending",
    "responsible_agency": "Department of Sanitation",
    "final_address": "7821 Masefield St",
    "address_councildis": "E",
    "status": "Assigned to Contractor",
    "contractor": "Waste Pro",
    "rowid": "1254016",
    "final_x": "3697330.38679",
    "final_y": "560101.540573",
    "longitude": "-90.01704719557337",
    "latitude": "30.033594249698304",
    "geocoded_column": {
      "latitude": "30.033594249698304",
      "longitude": "-90.01704719557337"
    }
  },
  {
    "service_request": "2026-1254015",
    "request_type": "Trash/Recycling",
    "request_reason": "Order Recycling Cart",
    "date_created": "2026-01-22T17:50:16.000",
    "date_modified": "2026-01-22T17:50:17.000",
    "request_status": "Pending",
    "responsible_agency": "Department of Sanitation",
    "final_address": "1470 Urania St",
    "address_councildis": "B",
    "status": "Pending",
    "rowid": "1254015",
    "final_x": "3679020.6605",
    "final_y": "524112.813372",
    "longitude": "-90.07615580224486",
    "latitude": "29.935203433418685",
    "geocoded_column": {
      "latitude": "29.935203433418685",
      "longitude": "-90.07615580224486"
    }
  },
  {
    "service_request": "2026-1254014",
    "request_type": "Trash/Recycling",
    "request_reason": "Missed Trash Pick-Up",
    "date_created": "2026-01-22T17:48:58.000",
    "date_modified": "2026-01-22T17:49:01.000",
    "request_status": "Pending",
    "responsible_agency": "Department of Sanitation",
    "final_address": "4437 Magazine St",
    "address_councildis": "B",
    "status": "Assigned to Contractor",
    "contractor": "IV Waste",
    "rowid": "1254014",
    "final_x": "3670707.34875",
    "final_y": "518792.882167",
    "longitude": "-90.10258137397906",
    "latitude": "29.92082350706687",
    "geocoded_column": {
      "latitude": "29.92082350706687",
      "longitude": "-90.10258137397906"
    }
  },
  {
    "service_request": "2026-1254013",
    "request_type": "Roads and Streets",
    "request_reason": "Pothole",
    "date_created": "2026-01-22T17:37:47.000",
    "date_modified": "2026-01-22T17:37:49.000",
    "request_status": "Pending",
    "responsible_agency": "Department of Public Works",
    "final_address": "2920 St Peter St",
    "address_councildis": "A",
    "status": "Pending",
    "rowid": "1254013",
    "final_x": "3675743.81704",
    "final_y": "537494.033736",
    "longitude": "-90.08604095274623",
    "latitude": "29.97209577523707",
    "geocoded_column": {
      "latitude": "29.97209577523707",
      "longitude": "-90.08604095274623"
    }
  },
  {
    "service_request": "2026-1254012",
    "request_type": "Trash/Recycling",
    "request_reason": "Repair Recycling Cart",
    "date_created": "2026-01-22T17:30:57.000",
    "date_modified": "2026-01-22T17:30:59.000",
    "request_status": "Pending",
    "responsible_agency": "Department of Sanitation",
    "final_address": "2140 Napoleon Ave",
    "address_councildis": "B",
    "status": "Pending",
    "rowid": "1254012",
    "final_x": "3670368.90036",
    "final_y": "522932.560251",
    "longitude": "-90.10350945551085",
    "latitude": "29.932216292125137",
    "geocoded_column": {
      "latitude": "29.932216292125137",
      "longitude": "-90.10350945551085"
    }
  },
  {
    "service_request": "2026-1254011",
    "request_type": "Trash/Recycling",
    "request_reason": "Order Recycling Cart",
    "date_created": "2026-01-22T17:25:49.000",
    "date_modified": "2026-01-22T17:25:51.000",
    "request_status": "Pending",
    "responsible_agency": "Department of Sanitation",
    "final_address": "2107 Magazine St",
    "address_councildis": "B",
    "status": "Pending",
    "rowid": "1254011",
    "final_x": "3679085.93634",
    "final_y": "522307.399098",
    "longitude": "-90.07601226874984",
    "latitude": "29.930237167916765",
    "geocoded_column": {
      "latitude": "29.930237167916765",
      "longitude": "-90.07601226874984"
    }
  },
  {
    "service_request": "2026-1254010",
    "request_type": "Property Maintenance",
    "request_reason": "Property Maintenance",
    "date_created": "2026-01-22T17:22:01.000",
    "date_modified": "2026-01-22T17:22:04.000",
    "request_status": "Pending",
    "responsible_agency": "Department of Code Enforcement",
    "final_address": "2700 General De Gaulle Dr",
    "address_councildis": "C",
    "status": "Pending",
    "rowid": "1254010",
    "final_x": "3693577.74953",
    "final_y": "522218.411002",
    "longitude": "-90.03026731604857",
    "latitude": "29.929547280663122",
    "geocoded_column": {
      "latitude": "29.929547280663122",
      "longitude": "-90.03026731604857"
    }
  },
  {
    "service_request": "2026-1254009",
    "request_type": "Trash/Recycling",
    "request_reason": "Illegal Dumping",
    "date_created": "2026-01-22T17:17:52.000",
    "date_modified": "2026-01-22T17:17:55.000",
    "request_status": "Pending",
    "responsible_agency": "Department of Sanitation",
    "final_address": "7000 BLK Warfield St",
    "address_councildis": "E",
    "status": "Pending",
    "rowid": "1254009",
    "final_x": "3700957.7096",
    "final_y": "552812.008665",
    "longitude": "-90.00585139668182",
    "latitude": "30.01343576175947",
    "geocoded_column": {
      "latitude": "30.01343576175947",
      "longitude": "-90.00585139668182"
    }
  },
  {
    "service_request": "2026-1254008",
    "request_type": "Trash/Recycling",
    "request_reason": "Illegal Dumping",
    "date_created": "2026-01-22T17:15:17.000",
    "date_modified": "2026-01-22T17:15:19.000",
    "request_status": "Pending",
    "responsible_agency": "Department of Sanitation",
    "final_address": "7000 BLK Warfield St",
    "address_councildis": "E",
    "status": "Pending",
    "rowid": "1254008",
    "final_x": "3700957.7096",
    "final_y": "552812.008665",
    "longitude": "-90.00585139668182",
    "latitude": "30.01343576175947",
    "geocoded_column": {
      "latitude": "30.01343576175947",
      "longitude": "-90.00585139668182"
    }
  },
  {
    "service_request": "2026-1254007",
    "request_type": "Roads and Streets",
    "request_reason": "Pothole",
    "date_created": "2026-01-22T17:09:03.000",
    "date_modified": "2026-01-22T17:09:04.000",
    "request_status": "Pending",
    "responsible_agency": "Department of Public Works",
    "final_address": "5552 Rosemary Pl",
    "address_councildis": "A",
    "status": "Pending",
    "rowid": "1254007",
    "final_x": "3667035.42996",
    "final_y": "544319.390415",
    "longitude": "-90.11331406662427",
    "latitude": "29.991120980266118",
    "geocoded_column": {
      "latitude": "29.991120980266118",
      "longitude": "-90.11331406662427"
    }
  },
  {
    "service_request": "2026-1254006",
    "request_type": "Trash/Recycling",
    "request_reason": "Order Second Trash Cart",
    "date_created": "2026-01-22T17:08:48.000",
    "date_modified": "2026-01-22T17:08:50.000",
    "request_status": "Pending",
    "responsible_agency": "Department of Sanitation",
    "final_address": "68 Marywood Ct",
    "address_councildis": "E",
    "status": "Assigned to Contractor",
    "contractor": "Waste Pro",
    "rowid": "1254006",
    "final_x": "3712314.23896",
    "final_y": "566689.129251",
    "longitude": "-89.9694492361978",
    "latitude": "30.051225670676885",
    "geocoded_column": {
      "latitude": "30.051225670676885",
      "longitude": "-89.9694492361978"
    }
  },
  {
    "service_request": "2026-1254005",
    "request_type": "Mosquito, Termite & Rodent Control",
    "request_reason": "Non-Rodent Complaint (Possums & Snakes)",
    "date_created": "2026-01-22T16:52:06.000",
    "date_modified": "2026-01-22T16:52:08.000",
    "request_status": "Pending",
    "responsible_agency": "Mosquito, Termite & Rodent Control Board",
    "final_address": "2700 Tulane Ave",
    "address_councildis": "B",
    "status": "Pending",
    "rowid": "1254005",
    "final_x": "3673969.52104",
    "final_y": "533787.066053",
    "longitude": "-90.0917713338198",
    "latitude": "29.961955851912233",
    "geocoded_column": {
      "latitude": "29.961955851912233",
      "longitude": "-90.0917713338198"
    }
  },
  {
    "service_request": "2026-1254004",
    "request_type": "Streetlights",
    "request_reason": "Streetlight Outage/Malfunction",
    "date_created": "2026-01-22T16:48:12.000",
    "date_modified": "2026-01-22T16:48:13.000",
    "request_status": "Pending",
    "responsible_agency": "Department of Public Works",
    "final_address": "BECK ST & COMET ST",
    "address_councildis": "C",
    "status": "Pending",
    "rowid": "1254004",
    "final_x": "3700245.4",
    "final_y": "523824.48",
    "longitude": "-90.0091602959433",
    "latitude": "29.933753235678072",
    "geocoded_column": {
      "latitude": "29.933753235678072",
      "longitude": "-90.0091602959433"
    }
  },
  {
    "service_request": "2026-1254003",
    "request_type": "Trash/Recycling",
    "request_reason": "Repair Trash Cart",
    "date_created": "2026-01-22T16:45:37.000",
    "date_modified": "2026-01-22T16:45:39.000",
    "request_status": "Pending",
    "responsible_agency": "Department of Sanitation",
    "final_address": "1354 Mendez St",
    "address_councildis": "D",
    "status": "Assigned to Contractor",
    "contractor": "IV Waste",
    "rowid": "1254003",
    "final_x": "3677436.38786",
    "final_y": "552897.801303",
    "longitude": "-90.08016348770349",
    "latitude": "30.014399963098285",
    "geocoded_column": {
      "latitude": "30.014399963098285",
      "longitude": "-90.08016348770349"
    }
  },
  {
    "service_request": "2026-1254002",
    "request_type": "Trash/Recycling",
    "request_reason": "Change Size of Trash Cart",
    "date_created": "2026-01-22T16:44:52.000",
    "date_modified": "2026-01-22T16:44:53.000",
    "request_status": "Pending",
    "responsible_agency": "Department of Sanitation",
    "final_address": "2215 Octavia St",
    "address_councildis": "A",
    "status": "Assigned to Contractor",
    "contractor": "IV Waste",
    "rowid": "1254002",
    "final_x": "3667593.00487",
    "final_y": "523868.609468",
    "longitude": "-90.11224122909941",
    "latitude": "29.93487175905661",
    "geocoded_column": {
      "latitude": "29.93487175905661",
      "longitude": "-90.11224122909941"
    }
  },
  {
    "service_request": "2026-1254001",
    "request_type": "Trash/Recycling",
    "request_reason": "Return Recycling Cart",
    "date_created": "2026-01-22T16:41:07.000",
    "date_modified": "2026-01-22T16:41:08.000",
    "request_status": "Pending",
    "responsible_agency": "Department of Sanitation",
    "final_address": "2237 Monterrey St",
    "address_councildis": "D",
    "status": "Pending",
    "rowid": "1254001",
    "final_x": "3684575.26172",
    "final_y": "547149.960401",
    "longitude": "-90.05781037425487",
    "latitude": "29.998378870908606",
    "geocoded_column": {
      "latitude": "29.998378870908606",
      "longitude": "-90.05781037425487"
    }
  },
  {
    "service_request": "2026-1254000",
    "request_type": "Trash/Recycling",
    "request_reason": "Request a Large Item Pick Up",
    "date_created": "2026-01-22T16:37:55.000",
    "date_modified": "2026-01-22T16:37:58.000",
    "request_status": "Pending",
    "responsible_agency": "Department of Sanitation",
    "final_address": "5212 Perrier St",
    "address_councildis": "B",
    "status": "Assigned to Contractor",
    "contractor": "IV Waste",
    "rowid": "1254000",
    "final_x": "3667955.00449",
    "final_y": "519875.850616",
    "longitude": "-90.11123283719603",
    "latitude": "29.923882330330134",
    "geocoded_column": {
      "latitude": "29.923882330330134",
      "longitude": "-90.11123283719603"
    }
  },
  {
    "service_request": "2026-1253999",
    "request_type": "Trash/Recycling",
    "request_reason": "Request a Large Item Pick Up",
    "date_created": "2026-01-22T16:21:38.000",
    "date_modified": "2026-01-22T16:21:40.000",
    "request_status": "Pending",
    "responsible_agency": "Department of Sanitation",
    "final_address": "6029 Memphis St",
    "address_councildis": "A",
    "status": "Assigned to Contractor",
    "contractor": "IV Waste",
    "rowid": "1253999",
    "final_x": "3669300.14554",
    "final_y": "547434.948881",
    "longitude": "-90.10605492761229",
    "latitude": "29.99962119380741",
    "geocoded_column": {
      "latitude": "29.99962119380741",
      "longitude": "-90.10605492761229"
    }
  },
  {
    "service_request": "2026-1253998",
    "request_type": "Trash/Recycling",
    "request_reason": "Request a Large Item Pick Up",
    "date_created": "2026-01-22T16:10:15.000",
    "date_modified": "2026-01-22T16:10:18.000",
    "request_status": "Pending",
    "responsible_agency": "Department of Sanitation",
    "final_address": "2236 Forstall St",
    "address_councildis": "E",
    "status": "Assigned to Contractor",
    "contractor": "Waste Pro",
    "rowid": "1253998",
    "final_x": "3697427.99901",
    "final_y": "538596.010697",
    "longitude": "-90.01751914086003",
    "latitude": "29.974458967617924",
    "geocoded_column": {
      "latitude": "29.974458967617924",
      "longitude": "-90.01751914086003"
    }
  },
  {
    "service_request": "2026-1253997",
    "request_type": "Trash/Recycling",
    "request_reason": "Illegal Dumping",
    "date_created": "2026-01-22T16:03:51.000",
    "date_modified": "2026-01-22T16:03:52.000",
    "request_status": "Pending",
    "responsible_agency": "Department of Sanitation",
    "final_address": "2733 Metropolitan St",
    "address_councildis": "D",
    "status": "Pending",
    "rowid": "1253997",
    "final_x": "3690979.852",
    "final_y": "542541.544525",
    "longitude": "-90.03774296859748",
    "latitude": "29.985509804758916",
    "geocoded_column": {
      "latitude": "29.985509804758916",
      "longitude": "-90.03774296859748"
    }
  },
  {
    "service_request": "2026-1253996",
    "request_type": "Trash/Recycling",
    "request_reason": "Illegal Dumping",
    "date_created": "2026-01-22T16:02:10.000",
    "date_modified": "2026-01-22T16:02:12.000",
    "request_status": "Pending",
    "responsible_agency": "Department of Sanitation",
    "final_address": "3200 BLK Pleasure St",
    "address_councildis": "D",
    "status": "Pending",
    "rowid": "1253996",
    "final_x": "3691687.61593",
    "final_y": "544953.360012",
    "longitude": "-90.03542115172392",
    "latitude": "29.99211940343673",
    "geocoded_column": {
      "latitude": "29.99211940343673",
      "longitude": "-90.03542115172392"
    }
  },
  {
    "service_request": "2026-1253995",
    "request_type": "Property Maintenance",
    "request_reason": "Property Maintenance",
    "date_created": "2026-01-22T15:53:08.000",
    "date_modified": "2026-01-22T15:53:10.000",
    "request_status": "Pending",
    "responsible_agency": "Department of Code Enforcement",
    "final_address": "3345 Piety St",
    "address_councildis": "D",
    "status": "Pending",
    "rowid": "1253995",
    "final_x": "3692134.18653",
    "final_y": "544801.540047",
    "longitude": "-90.03401596853342",
    "latitude": "29.99168803728409",
    "geocoded_column": {
      "latitude": "29.99168803728409",
      "longitude": "-90.03401596853342"
    }
  },
  {
    "service_request": "2026-1253994",
    "request_type": "Street and Traffic Signs",
    "request_reason": "Street Name Sign Damaged or Missing",
    "date_created": "2026-01-22T15:51:04.000",
    "date_modified": "2026-01-22T15:51:05.000",
    "request_status": "Pending",
    "responsible_agency": "Department of Public Works",
    "final_address": "ALJA MEYERS PL & PIETY ST",
    "address_councildis": "D",
    "status": "Pending",
    "rowid": "1253994",
    "final_x": "3692202.2",
    "final_y": "545231.68",
    "longitude": "-90.03378571961738",
    "latitude": "29.99286864529364",
    "geocoded_column": {
      "latitude": "29.99286864529364",
      "longitude": "-90.03378571961738"
    }
  },
  {
    "service_request": "2026-1253993",
    "request_type": "Trash/Recycling",
    "request_reason": "Illegal Dumping",
    "date_created": "2026-01-22T15:49:48.000",
    "date_modified": "2026-01-22T15:49:50.000",
    "request_status": "Pending",
    "responsible_agency": "Department of Sanitation",
    "final_address": "3500 Piety St",
    "address_councildis": "D",
    "status": "Pending",
    "rowid": "1253993",
    "final_x": "3692176.99696",
    "final_y": "545271.721551",
    "longitude": "-90.03386389681481",
    "latitude": "29.99297953095138",
    "geocoded_column": {
      "latitude": "29.99297953095138",
      "longitude": "-90.03386389681481"
    }
  },
  {
    "service_request": "2026-1253992",
    "request_type": "Trash/Recycling",
    "request_reason": "Request a Large Item Pick Up",
    "date_created": "2026-01-22T15:49:02.000",
    "date_modified": "2026-01-22T15:49:05.000",
    "request_status": "Pending",
    "responsible_agency": "Department of Sanitation",
    "final_address": "6777 Colbert St",
    "address_councildis": "A",
    "status": "Assigned to Contractor",
    "contractor": "IV Waste",
    "rowid": "1253992",
    "final_x": "3667995.38932",
    "final_y": "552713.971286",
    "longitude": "-90.10999866912165",
    "latitude": "30.014175025661768",
    "geocoded_column": {
      "latitude": "30.014175025661768",
      "longitude": "-90.10999866912165"
    }
  },
  {
    "service_request": "2026-1253991",
    "request_type": "Trash/Recycling",
    "request_reason": "Request a Large Item Pick Up",
    "date_created": "2026-01-22T15:45:02.000",
    "date_modified": "2026-01-22T15:45:04.000",
    "request_status": "Pending",
    "responsible_agency": "Department of Sanitation",
    "final_address": "6530 Lincoln Beach Blvd",
    "address_councildis": "E",
    "status": "Assigned to Contractor",
    "contractor": "Waste Pro",
    "rowid": "1253991",
    "final_x": "3696932.01655",
    "final_y": "560482.980126",
    "longitude": "-90.01829224978368",
    "latitude": "30.03465563866543",
    "geocoded_column": {
      "latitude": "30.03465563866543",
      "longitude": "-90.01829224978368"
    }
  },
  {
    "service_request": "2026-1253990",
    "request_type": "Trash/Recycling",
    "request_reason": "Return Trash Cart",
    "date_created": "2026-01-22T15:44:39.000",
    "date_modified": "2026-01-22T15:44:41.000",
    "request_status": "Pending",
    "responsible_agency": "Department of Sanitation",
    "final_address": "213 N Bernadotte St",
    "address_councildis": "A",
    "status": "Assigned to Contractor",
    "contractor": "IV Waste",
    "rowid": "1253990",
    "final_x": "3669135.37031",
    "final_y": "540533.391435",
    "longitude": "-90.10680883517554",
    "latitude": "29.98064912758719",
    "geocoded_column": {
      "latitude": "29.98064912758719",
      "longitude": "-90.10680883517554"
    }
  },
  {
    "service_request": "2026-1253989",
    "request_type": "Trash/Recycling",
    "request_reason": "Request a Large Item Pick Up",
    "date_created": "2026-01-22T15:44:30.000",
    "date_modified": "2026-01-22T16:40:47.000",
    "request_status": "Pending",
    "responsible_agency": "Department of Sanitation",
    "final_address": "1215 Clouet St",
    "address_councildis": "C",
    "status": "Assigned to Contractor",
    "contractor": "IV Waste",
    "rowid": "1253989",
    "final_x": "3689155.68809",
    "final_y": "536478.011783",
    "longitude": "-90.04372028965683",
    "latitude": "29.968893823889516",
    "geocoded_column": {
      "latitude": "29.968893823889516",
      "longitude": "-90.04372028965683"
    }
  },
  {
    "service_request": "2026-1253988",
    "request_type": "Roads and Streets",
    "request_reason": "Sidewalk Damaged or Missing",
    "date_created": "2026-01-22T15:43:43.000",
    "date_modified": "2026-01-22T15:43:44.000",
    "request_status": "Pending",
    "responsible_agency": "Department of Public Works",
    "final_address": "3622 Joliet St",
    "address_councildis": "A",
    "status": "Pending",
    "rowid": "1253988",
    "final_x": "3666760.33722",
    "final_y": "535831.585031",
    "longitude": "-90.1144682209958",
    "latitude": "29.967790421776748",
    "geocoded_column": {
      "latitude": "29.967790421776748",
      "longitude": "-90.1144682209958"
    }
  },
  {
    "service_request": "2026-1253987",
    "request_type": "Abandoned Vehicles",
    "request_reason": "Abandoned/Junk Vehicles",
    "date_created": "2026-01-22T15:42:39.000",
    "date_modified": "2026-01-22T15:42:40.000",
    "request_status": "Pending",
    "responsible_agency": "Department of Public Works",
    "final_address": "1005 Milan St",
    "address_councildis": "B",
    "status": "Pending",
    "rowid": "1253987",
    "final_x": "3671795.57703",
    "final_y": "519302.344375",
    "longitude": "-90.0991290052051",
    "latitude": "29.922192180842483",
    "geocoded_column": {
      "latitude": "29.922192180842483",
      "longitude": "-90.0991290052051"
    }
  },
  {
    "service_request": "2026-1253986",
    "request_type": "Street and Traffic Signs",
    "request_reason": "Traffic or Parking Sign Damaged or Missing",
    "date_created": "2026-01-22T15:41:46.000",
    "date_modified": "2026-01-22T15:41:49.000",
    "request_status": "Pending",
    "responsible_agency": "Department of Public Works",
    "final_address": "2800 BLK Chartres St",
    "address_councildis": "C",
    "status": "Pending",
    "rowid": "1253986",
    "final_x": "3687426.94926",
    "final_y": "534428.962426",
    "longitude": "-90.04925226088652",
    "latitude": "29.96331303705737",
    "geocoded_column": {
      "latitude": "29.96331303705737",
      "longitude": "-90.04925226088652"
    }
  },
  {
    "service_request": "2026-1253985",
    "request_type": "Trash/Recycling",
    "request_reason": "Request a Large Item Pick Up",
    "date_created": "2026-01-22T15:40:56.000",
    "date_modified": "2026-01-22T16:40:21.000",
    "case_close_date": "2026-01-22T10:40:20.000",
    "request_status": "Closed",
    "responsible_agency": "Department of Sanitation",
    "final_address": "3134 Dauphine St",
    "address_councildis": "C",
    "status": "Invalid Request",
    "contractor": "IV Waste",
    "contractor_action": "Additional information required from resident",
    "rowid": "1253985",
    "final_x": "3688980.26409",
    "final_y": "534737.451654",
    "longitude": "-90.04433612362386",
    "latitude": "29.964113319776462",
    "geocoded_column": {
      "latitude": "29.964113319776462",
      "longitude": "-90.04433612362386"
    }
  },
  {
    "service_request": "2026-1253984",
    "request_type": "Street and Traffic Signs",
    "request_reason": "Stop Sign Missing or Damaged",
    "date_created": "2026-01-22T15:37:51.000",
    "date_modified": "2026-01-22T15:37:52.000",
    "request_status": "Pending",
    "responsible_agency": "Department of Public Works",
    "final_address": "FRERET ST & BROADWAY ST",
    "address_councildis": "A",
    "status": "Pending",
    "rowid": "1253984",
    "final_x": "3663759.1",
    "final_y": "525906.68",
    "longitude": "-90.12427698268613",
    "latitude": "29.94058759151493",
    "geocoded_column": {
      "latitude": "29.94058759151493",
      "longitude": "-90.12427698268613"
    }
  },
  {
    "service_request": "2026-1253983",
    "request_type": "Roads and Streets",
    "request_reason": "Pothole",
    "date_created": "2026-01-22T15:36:47.000",
    "date_modified": "2026-01-22T15:36:50.000",
    "request_status": "Pending",
    "responsible_agency": "Department of Public Works",
    "final_address": "ZIMPLE ST & LOWERLINE ST",
    "address_councildis": "A",
    "status": "Pending",
    "rowid": "1253983",
    "final_x": "3663477.0",
    "final_y": "526525.68",
    "longitude": "-90.1251470177629",
    "latitude": "29.94229782578275",
    "geocoded_column": {
      "latitude": "29.94229782578275",
      "longitude": "-90.1251470177629"
    }
  },
  {
    "service_request": "2026-1253982",
    "request_type": "Trash/Recycling",
    "request_reason": "Request a Large Item Pick Up",
    "date_created": "2026-01-22T15:33:57.000",
    "date_modified": "2026-01-22T16:39:02.000",
    "request_status": "Pending",
    "responsible_agency": "Department of Sanitation",
    "final_address": "1510 Camp St",
    "address_councildis": "B",
    "status": "Assigned to Contractor",
    "contractor": "IV Waste",
    "rowid": "1253982",
    "final_x": "3679822.49531",
    "final_y": "523830.065019",
    "longitude": "-90.07363422519695",
    "latitude": "29.934401754262023",
    "geocoded_column": {
      "latitude": "29.934401754262023",
      "longitude": "-90.07363422519695"
    }
  },
  {
    "service_request": "2026-1253981",
    "request_type": "Property Maintenance",
    "request_reason": "Property Maintenance",
    "date_created": "2026-01-22T15:28:04.000",
    "date_modified": "2026-01-22T15:28:07.000",
    "request_status": "Pending",
    "responsible_agency": "Department of Code Enforcement",
    "final_address": "2111 Chippewa St",
    "address_councildis": "B",
    "status": "Pending",
    "rowid": "1253981",
    "final_x": "3679945.09883",
    "final_y": "521112.657785",
    "longitude": "-90.07334150350486",
    "latitude": "29.92692607036438",
    "geocoded_column": {
      "latitude": "29.92692607036438",
      "longitude": "-90.07334150350486"
    }
  },
  {
    "service_request": "2026-1253980",
    "request_type": "Trash/Recycling",
    "request_reason": "Damaged Caused By Contractor",
    "date_created": "2026-01-22T15:24:59.000",
    "date_modified": "2026-01-22T15:48:08.000",
    "case_close_date": "2026-01-22T09:48:07.000",
    "request_status": "Closed",
    "responsible_agency": "Department of Sanitation",
    "final_address": "0 BLK Allard Blvd",
    "address_councildis": "A",
    "status": "Invalid Request",
    "contractor": "IV Waste",
    "contractor_action": "Invalid Request",
    "rowid": "1253980",
    "final_x": "3672889.12367",
    "final_y": "541158.059532",
    "longitude": "-90.09493149945968",
    "latitude": "29.982255733983415",
    "geocoded_column": {
      "latitude": "29.982255733983415",
      "longitude": "-90.09493149945968"
    }
  },
  {
    "service_request": "2026-1253979",
    "request_type": "Roads and Streets",
    "request_reason": "Sidewalk Damaged or Missing",
    "date_created": "2026-01-22T15:22:52.000",
    "date_modified": "2026-01-22T15:22:55.000",
    "request_status": "Pending",
    "responsible_agency": "Department of Public Works",
    "final_address": "9746 W Rockton Cir",
    "address_councildis": "E",
    "status": "Pending",
    "rowid": "1253979",
    "final_x": "3707795.18705",
    "final_y": "562648.161952",
    "longitude": "-89.98388276509061",
    "latitude": "30.040261753554535",
    "geocoded_column": {
      "latitude": "30.040261753554535",
      "longitude": "-89.98388276509061"
    }
  },
  {
    "service_request": "2026-1253978",
    "request_type": "Trash/Recycling",
    "request_reason": "Replace Trash Cart",
    "date_created": "2026-01-22T15:20:05.000",
    "date_modified": "2026-01-22T15:20:14.000",
    "request_status": "Pending",
    "responsible_agency": "Department of Sanitation",
    "final_address": "1309 Frankfort St",
    "address_councildis": "D",
    "status": "Assigned to Contractor",
    "contractor": "IV Waste",
    "rowid": "1253978",
    "final_x": "3677199.14837",
    "final_y": "555892.122329",
    "longitude": "-90.08080963347255",
    "latitude": "30.022640396111914",
    "geocoded_column": {
      "latitude": "30.022640396111914",
      "longitude": "-90.08080963347255"
    }
  },
  {
    "service_request": "2026-1253977",
    "request_type": "Trash/Recycling",
    "request_reason": "Return Trash Cart",
    "date_created": "2026-01-22T15:19:33.000",
    "date_modified": "2026-01-22T15:20:45.000",
    "request_status": "Pending",
    "responsible_agency": "Department of Sanitation",
    "final_address": "2854 Hyman Pl",
    "address_councildis": "C",
    "status": "Assigned to Contractor",
    "contractor": "Richards Disposal",
    "rowid": "1253977",
    "final_x": "3701076.20157",
    "final_y": "520478.98572",
    "longitude": "-90.00665979629251",
    "latitude": "29.92452785833219",
    "geocoded_column": {
      "latitude": "29.92452785833219",
      "longitude": "-90.00665979629251"
    }
  },
  {
    "service_request": "2026-1253976",
    "request_type": "Health Related Request",
    "request_reason": "Homeless Encampment Complaint",
    "date_created": "2026-01-22T15:18:56.000",
    "date_modified": "2026-01-22T15:18:58.000",
    "request_status": "Pending",
    "responsible_agency": "Office Of Homeless Services And Strategy",
    "final_address": "1001 S Broad St",
    "address_councildis": "B",
    "status": "Pending",
    "rowid": "1253976",
    "final_x": "3672665.86548",
    "final_y": "531542.978307",
    "longitude": "-90.0959646086739",
    "latitude": "29.955824134332325",
    "geocoded_column": {
      "latitude": "29.955824134332325",
      "longitude": "-90.0959646086739"
    }
  },
  {
    "service_request": "2026-1253975",
    "request_type": "Trash/Recycling",
    "request_reason": "Request a Large Item Pick Up",
    "date_created": "2026-01-22T15:13:01.000",
    "date_modified": "2026-01-22T15:13:03.000",
    "request_status": "Pending",
    "responsible_agency": "Department of Sanitation",
    "final_address": "7400 Camberley Dr",
    "address_councildis": "E",
    "status": "Assigned to Contractor",
    "contractor": "Waste Pro",
    "rowid": "1253975",
    "final_x": "3712809.55864",
    "final_y": "565396.878498",
    "longitude": "-89.96793237978194",
    "latitude": "30.047656285523033",
    "geocoded_column": {
      "latitude": "30.047656285523033",
      "longitude": "-89.96793237978194"
    }
  },
  {
    "service_request": "2026-1253974",
    "request_type": "Abandoned Vehicles",
    "request_reason": "Abandoned/Junk Vehicles",
    "date_created": "2026-01-22T15:11:14.000",
    "date_modified": "2026-01-22T15:12:03.000",
    "request_status": "Pending",
    "responsible_agency": "Department of Public Works",
    "final_address": "2624 Marengo St",
    "address_councildis": "B",
    "status": "Pending",
    "rowid": "1253974",
    "final_x": "3671530.98862",
    "final_y": "524675.447164",
    "longitude": "-90.09978161357321",
    "latitude": "29.936974321354022",
    "geocoded_column": {
      "latitude": "29.936974321354022",
      "longitude": "-90.09978161357321"
    }
  },
  {
    "service_request": "2026-1253973",
    "request_type": "Drainage",
    "request_reason": "Drainage Manhole Cover Missing or Damaged",
    "date_created": "2026-01-22T15:10:31.000",
    "date_modified": "2026-01-22T15:13:35.000",
    "request_status": "Pending",
    "responsible_agency": "Sewerage & Water Board",
    "final_address": "1530 S Rendon St",
    "address_councildis": "B",
    "status": "Pending",
    "rowid": "1253973",
    "final_x": "3669948.45582",
    "final_y": "531084.769986",
    "longitude": "-90.10456077767998",
    "latitude": "29.95464462081374",
    "geocoded_column": {
      "latitude": "29.95464462081374",
      "longitude": "-90.10456077767998"
    }
  },
  {
    "service_request": "2026-1253972",
    "request_type": "General Services",
    "request_reason": "General Service Request",
    "date_created": "2026-01-22T15:09:38.000",
    "date_modified": "2026-01-22T15:09:39.000",
    "request_status": "Pending",
    "responsible_agency": "Orleans Parish Communication District",
    "final_address": "1901 Clouet St",
    "address_councildis": "D",
    "status": "Pending",
    "rowid": "1253972",
    "final_x": "3689800.69212",
    "final_y": "539031.615946",
    "longitude": "-90.04159241950566",
    "latitude": "29.97589535822424",
    "geocoded_column": {
      "latitude": "29.97589535822424",
      "longitude": "-90.04159241950566"
    }
  },
  {
    "service_request": "2026-1253971",
    "request_type": "Trash/Recycling",
    "request_reason": "Repair Recycling Cart",
    "date_created": "2026-01-22T15:08:48.000",
    "date_modified": "2026-01-22T15:08:50.000",
    "request_status": "Pending",
    "responsible_agency": "Department of Sanitation",
    "final_address": "1416 Peniston St",
    "address_councildis": "B",
    "status": "Pending",
    "rowid": "1253971",
    "final_x": "3672945.38196",
    "final_y": "520701.317945",
    "longitude": "-90.09545183266077",
    "latitude": "29.926004805836286",
    "geocoded_column": {
      "latitude": "29.926004805836286",
      "longitude": "-90.09545183266077"
    }
  },
  {
    "service_request": "2026-1253970",
    "request_type": "Property Maintenance",
    "request_reason": "Property Maintenance",
    "date_created": "2026-01-22T15:07:25.000",
    "date_modified": "2026-01-22T15:13:26.000",
    "case_close_date": "2026-01-22T09:13:25.000",
    "request_status": "Closed",
    "responsible_agency": "Department of Code Enforcement",
    "final_address": "3222 Peoples Ave",
    "address_councildis": "D",
    "status": "Referred to Code Enforcement",
    "rowid": "1253970",
    "final_x": "3688612.48822",
    "final_y": "544930.300303",
    "longitude": "-90.04513565342582",
    "latitude": "29.99215141607324",
    "geocoded_column": {
      "latitude": "29.99215141607324",
      "longitude": "-90.04513565342582"
    }
  },
  {
    "service_request": "2026-1253969",
    "request_type": "Trash/Recycling",
    "request_reason": "Request a Large Item Pick Up",
    "date_created": "2026-01-22T15:05:57.000",
    "date_modified": "2026-01-22T15:06:09.000",
    "request_status": "Pending",
    "responsible_agency": "Department of Sanitation",
    "final_address": "7630 Crestmont Rd",
    "address_councildis": "E",
    "status": "Assigned to Contractor",
    "contractor": "Waste Pro",
    "rowid": "1253969",
    "final_x": "3699549.06839",
    "final_y": "560333.527069",
    "longitude": "-90.01002748895583",
    "latitude": "30.034161856021743",
    "geocoded_column": {
      "latitude": "30.034161856021743",
      "longitude": "-90.01002748895583"
    }
  },
  {
    "service_request": "2026-1253968",
    "request_type": "Trash/Recycling",
    "request_reason": "Request a Large Item Pick Up",
    "date_created": "2026-01-22T15:03:36.000",
    "date_modified": "2026-01-22T15:06:18.000",
    "request_status": "Pending",
    "responsible_agency": "Department of Sanitation",
    "final_address": "4657 Wilson Ave",
    "address_councildis": "E",
    "status": "Assigned to Contractor",
    "contractor": "Waste Pro",
    "rowid": "1253968",
    "final_x": "3703098.3361",
    "final_y": "554549.97084",
    "longitude": "-89.99902425078602",
    "latitude": "30.018146129732038",
    "geocoded_column": {
      "latitude": "30.018146129732038",
      "longitude": "-89.99902425078602"
    }
  },
  {
    "service_request": "2026-1253967",
    "request_type": "Trash/Recycling",
    "request_reason": "Repair Trash Cart",
    "date_created": "2026-01-22T15:03:12.000",
    "date_modified": "2026-01-22T15:03:14.000",
    "request_status": "Pending",
    "responsible_agency": "Department of Sanitation",
    "final_address": "2526 N Prieur St",
    "address_councildis": "D",
    "status": "Assigned to Contractor",
    "contractor": "IV Waste",
    "rowid": "1253967",
    "final_x": "3687178.43407",
    "final_y": "539410.379274",
    "longitude": "-90.04986083961931",
    "latitude": "29.977017847328664",
    "geocoded_column": {
      "latitude": "29.977017847328664",
      "longitude": "-90.04986083961931"
    }
  },
  {
    "service_request": "2026-1253966",
    "request_type": "Streetlights",
    "request_reason": "Streetlight Outage/Malfunction",
    "date_created": "2026-01-22T15:02:28.000",
    "date_modified": "2026-01-22T15:02:29.000",
    "request_status": "Pending",
    "responsible_agency": "Department of Public Works",
    "final_address": "2210 Mercedes Blvd",
    "address_councildis": "C",
    "status": "Pending",
    "rowid": "1253966",
    "final_x": "3698154.21757",
    "final_y": "522895.010683",
    "longitude": "-90.01579575967794",
    "latitude": "29.93126379941732",
    "geocoded_column": {
      "latitude": "29.93126379941732",
      "longitude": "-90.01579575967794"
    }
  },
  {
    "service_request": "2026-1253965",
    "request_type": "Trash/Recycling",
    "request_reason": "Illegal Dumping",
    "date_created": "2026-01-22T15:02:12.000",
    "date_modified": "2026-01-22T15:02:13.000",
    "request_status": "Pending",
    "responsible_agency": "Department of Sanitation",
    "final_address": "GARDEN OAKS DR & BEHRMAN HWY",
    "address_councildis": "C",
    "status": "Pending",
    "rowid": "1253965",
    "final_x": "3695857.3",
    "final_y": "517929.78",
    "longitude": "-90.02322601716256",
    "latitude": "29.917683523931114",
    "geocoded_column": {
      "latitude": "29.917683523931114",
      "longitude": "-90.02322601716256"
    }
  },
  {
    "service_request": "2026-1253964",
    "request_type": "Trash/Recycling",
    "request_reason": "Request a Large Item Pick Up",
    "date_created": "2026-01-22T14:57:25.000",
    "date_modified": "2026-01-22T14:57:27.000",
    "request_status": "Pending",
    "responsible_agency": "Department of Sanitation",
    "final_address": "400 Amethyst St",
    "address_councildis": "D",
    "status": "Assigned to Contractor",
    "contractor": "IV Waste",
    "rowid": "1253964",
    "final_x": "3667776.21857",
    "final_y": "556463.971994",
    "longitude": "-90.11056470516088",
    "latitude": "30.0244926323995",
    "geocoded_column": {
      "latitude": "30.0244926323995",
      "longitude": "-90.11056470516088"
    }
  },
  {
    "service_request": "2026-1253963",
    "request_type": "Property Maintenance",
    "request_reason": "Property Maintenance",
    "date_created": "2026-01-22T14:53:36.000",
    "date_modified": "2026-01-22T15:07:27.000",
    "case_close_date": "2026-01-22T09:07:27.000",
    "request_status": "Closed",
    "responsible_agency": "Department of Code Enforcement",
    "final_address": "6040 Wales St",
    "address_councildis": "E",
    "status": "Referred to Code Enforcement",
    "rowid": "1253963",
    "final_x": "3695284.00758",
    "final_y": "559451.573917",
    "longitude": "-90.0235374315557",
    "latitude": "30.031871569216527",
    "geocoded_column": {
      "latitude": "30.031871569216527",
      "longitude": "-90.0235374315557"
    }
  },
  {
    "service_request": "2026-1253962",
    "request_type": "Trash/Recycling",
    "request_reason": "Request a Large Item Pick Up",
    "date_created": "2026-01-22T14:47:58.000",
    "date_modified": "2026-01-22T16:38:37.000",
    "request_status": "Pending",
    "responsible_agency": "Department of Sanitation",
    "final_address": "3310 Magazine St",
    "address_councildis": "B",
    "status": "Assigned to Contractor",
    "contractor": "IV Waste",
    "rowid": "1253962",
    "final_x": "3675311.25057",
    "final_y": "519705.878392",
    "longitude": "-90.08801762084411",
    "latitude": "29.923197176868143",
    "geocoded_column": {
      "latitude": "29.923197176868143",
      "longitude": "-90.08801762084411"
    }
  },
  {
    "service_request": "2026-1253961",
    "request_type": "General Services",
    "request_reason": "General Service Request",
    "date_created": "2026-01-22T14:47:51.000",
    "date_modified": "2026-01-22T14:47:52.000",
    "request_status": "Pending",
    "responsible_agency": "Orleans Parish Communication District",
    "final_address": "257 Cherokee St",
    "address_councildis": "A",
    "status": "Pending",
    "rowid": "1253961",
    "final_x": "3661304.88096",
    "final_y": "524439.51302",
    "longitude": "-90.13207396754282",
    "latitude": "29.93662432420594",
    "geocoded_column": {
      "latitude": "29.93662432420594",
      "longitude": "-90.13207396754282"
    }
  },
  {
    "service_request": "2026-1253960",
    "request_type": "Roads and Streets",
    "request_reason": "Pothole",
    "date_created": "2026-01-22T14:44:38.000",
    "date_modified": "2026-01-22T14:44:39.000",
    "request_status": "Pending",
    "responsible_agency": "Department of Public Works",
    "final_address": "3401 Franklin Ave",
    "address_councildis": "D",
    "status": "Pending",
    "rowid": "1253960",
    "final_x": "3687265.64886",
    "final_y": "545540.847952",
    "longitude": "-90.04936842853688",
    "latitude": "29.993871768484304",
    "geocoded_column": {
      "latitude": "29.993871768484304",
      "longitude": "-90.04936842853688"
    }
  },
  {
    "service_request": "2026-1253959",
    "request_type": "Abandoned Vehicles",
    "request_reason": "Abandoned/Junk Vehicles",
    "date_created": "2026-01-22T14:43:27.000",
    "date_modified": "2026-01-22T14:43:29.000",
    "request_status": "Pending",
    "responsible_agency": "Department of Public Works",
    "final_address": "1015 N Claiborne Ave",
    "address_councildis": "D",
    "status": "Pending",
    "rowid": "1253959",
    "final_x": "3680383.01128",
    "final_y": "535722.163847",
    "longitude": "-90.07145124149515",
    "latitude": "29.967084070169896",
    "geocoded_column": {
      "latitude": "29.967084070169896",
      "longitude": "-90.07145124149515"
    }
  },
  {
    "service_request": "2026-1253958",
    "request_type": "Drainage",
    "request_reason": "Drainage Manhole Cover Missing or Damaged",
    "date_created": "2026-01-22T14:40:41.000",
    "date_modified": "2026-01-22T14:40:43.000",
    "request_status": "Pending",
    "responsible_agency": "Sewerage & Water Board",
    "final_address": "N CLAIBORNE AVE & POLAND AVE",
    "address_councildis": "D",
    "status": "Pending",
    "rowid": "1253958",
    "final_x": "3693481.9",
    "final_y": "536875.08",
    "longitude": "-90.0300436334021",
    "latitude": "29.96985102981372",
    "geocoded_column": {
      "latitude": "29.96985102981372",
      "longitude": "-90.0300436334021"
    }
  },
  {
    "service_request": "2026-1253957",
    "request_type": "Drainage",
    "request_reason": "Catch Basin Not Draining",
    "date_created": "2026-01-22T14:37:34.000",
    "date_modified": "2026-01-22T14:37:36.000",
    "request_status": "Pending",
    "responsible_agency": "Sewerage & Water Board",
    "final_address": "2020 Jackson Ave",
    "address_councildis": "B",
    "status": "Pending",
    "rowid": "1253957",
    "final_x": "3676341.37243",
    "final_y": "525291.619645",
    "longitude": "-90.0845737589662",
    "latitude": "29.93852532231721",
    "geocoded_column": {
      "latitude": "29.93852532231721",
      "longitude": "-90.0845737589662"
    }
  },
  {
    "service_request": "2026-1253956",
    "request_type": "Trash/Recycling",
    "request_reason": "Request a Large Item Pick Up",
    "date_created": "2026-01-22T14:37:07.000",
    "date_modified": "2026-01-22T14:37:09.000",
    "request_status": "Pending",
    "responsible_agency": "Department of Sanitation",
    "final_address": "7411 Crestmont Rd",
    "address_councildis": "E",
    "status": "Assigned to Contractor",
    "contractor": "Waste Pro",
    "rowid": "1253956",
    "final_x": "3699981.34359",
    "final_y": "559690.854493",
    "longitude": "-90.00868493003622",
    "latitude": "30.032381021430464",
    "geocoded_column": {
      "latitude": "30.032381021430464",
      "longitude": "-90.00868493003622"
    }
  },
  {
    "service_request": "2026-1253955",
    "request_type": "Streetlights",
    "request_reason": "Streetlight Outage/Malfunction",
    "date_created": "2026-01-22T14:34:08.000",
    "date_modified": "2026-01-22T14:36:19.000",
    "request_status": "Pending",
    "responsible_agency": "Department of Public Works",
    "final_address": "5100 BLK Timber Crest Dr",
    "address_councildis": "C",
    "status": "Pending",
    "rowid": "1253955",
    "final_x": "3703448.06387",
    "final_y": "511196.580741",
    "longitude": "-89.9995137719982",
    "latitude": "29.89892869503385",
    "geocoded_column": {
      "latitude": "29.89892869503385",
      "longitude": "-89.9995137719982"
    }
  },
  {
    "service_request": "2026-1253954",
    "request_type": "Trash/Recycling",
    "request_reason": "Order Trash Cart",
    "date_created": "2026-01-22T14:33:58.000",
    "date_modified": "2026-01-22T14:34:01.000",
    "request_status": "Pending",
    "responsible_agency": "Department of Sanitation",
    "final_address": "1808 Mardi Gras Blvd",
    "address_councildis": "C",
    "status": "Assigned to Contractor",
    "contractor": "Richards Disposal",
    "rowid": "1253954",
    "final_x": "3690785.34",
    "final_y": "525354.836797",
    "longitude": "-90.03897057145987",
    "latitude": "29.938258410982016",
    "geocoded_column": {
      "latitude": "29.938258410982016",
      "longitude": "-90.03897057145987"
    }
  },
  {
    "service_request": "2026-1253953",
    "request_type": "Trash/Recycling",
    "request_reason": "Order Trash Cart",
    "date_created": "2026-01-22T14:28:48.000",
    "date_modified": "2026-01-22T14:28:52.000",
    "request_status": "Pending",
    "responsible_agency": "Department of Sanitation",
    "final_address": "5453 Chartres St",
    "address_councildis": "E",
    "status": "Assigned to Contractor",
    "contractor": "Waste Pro",
    "rowid": "1253953",
    "final_x": "3697079.74448",
    "final_y": "532066.919427",
    "longitude": "-90.01885555795562",
    "latitude": "29.95651728432973",
    "geocoded_column": {
      "latitude": "29.95651728432973",
      "longitude": "-90.01885555795562"
    }
  },
  {
    "service_request": "2026-1253952",
    "request_type": "Trash/Recycling",
    "request_reason": "Order Recycling Cart",
    "date_created": "2026-01-22T14:26:13.000",
    "date_modified": "2026-01-22T14:28:38.000",
    "request_status": "Pending",
    "responsible_agency": "Department of Sanitation",
    "final_address": "3710 Rue Delphine",
    "address_councildis": "C",
    "status": "Pending",
    "rowid": "1253952",
    "final_x": "3703076.0241",
    "final_y": "516874.191413",
    "longitude": "-90.00047944535595",
    "latitude": "29.914552097291445",
    "geocoded_column": {
      "latitude": "29.914552097291445",
      "longitude": "-90.00047944535595"
    }
  },
  {
    "service_request": "2026-1253951",
    "request_type": "Parks & Parkways",
    "request_reason": "Request Tree Service (Right of Way/Public Property)",
    "date_created": "2026-01-22T14:23:49.000",
    "date_modified": "2026-01-22T14:25:53.000",
    "request_status": "Pending",
    "responsible_agency": "Department of Parks & Parkway",
    "final_address": "2240 Lakeshore Dr",
    "address_councildis": "D",
    "status": "Pending",
    "rowid": "1253951",
    "final_x": "3684002.70639",
    "final_y": "558700.258524",
    "longitude": "-90.0592133504409",
    "latitude": "30.030155485144437",
    "geocoded_column": {
      "latitude": "30.030155485144437",
      "longitude": "-90.0592133504409"
    }
  },
  {
    "service_request": "2026-1253950",
    "request_type": "Trash/Recycling",
    "request_reason": "Repair Recycling Cart",
    "date_created": "2026-01-22T14:21:43.000",
    "date_modified": "2026-01-22T14:21:45.000",
    "request_status": "Pending",
    "responsible_agency": "Department of Sanitation",
    "final_address": "4910 Desire Dr",
    "address_councildis": "D",
    "status": "Pending",
    "rowid": "1253950",
    "final_x": "3691599.0728",
    "final_y": "551969.86351",
    "longitude": "-90.03544979433904",
    "latitude": "30.011414975390306",
    "geocoded_column": {
      "latitude": "30.011414975390306",
      "longitude": "-90.03544979433904"
    }
  },
  {
    "service_request": "2026-1253949",
    "request_type": "Trash/Recycling",
    "request_reason": "Replace Trash Cart",
    "date_created": "2026-01-22T14:20:55.000",
    "date_modified": "2026-01-22T14:20:57.000",
    "request_status": "Pending",
    "responsible_agency": "Department of Sanitation",
    "final_address": "13504 St Marie Dr",
    "address_councildis": "E",
    "status": "Assigned to Contractor",
    "contractor": "Waste Pro",
    "rowid": "1253949",
    "final_x": "3724173.54918",
    "final_y": "568910.237733",
    "longitude": "-89.93188052580392",
    "latitude": "30.056939319803305",
    "geocoded_column": {
      "latitude": "30.056939319803305",
      "longitude": "-89.93188052580392"
    }
  },
  {
    "service_request": "2026-1253948",
    "request_type": "Trash/Recycling",
    "request_reason": "Repair Trash Cart",
    "date_created": "2026-01-22T14:20:07.000",
    "date_modified": "2026-01-22T14:26:45.000",
    "request_status": "Pending",
    "responsible_agency": "Department of Sanitation",
    "final_address": "4312 S Prieur St",
    "address_councildis": "B",
    "status": "Assigned to Contractor",
    "contractor": "IV Waste",
    "rowid": "1253948",
    "final_x": "3670513.83323",
    "final_y": "526862.969854",
    "longitude": "-90.10291867763782",
    "latitude": "29.943019369749326",
    "geocoded_column": {
      "latitude": "29.943019369749326",
      "longitude": "-90.10291867763782"
    }
  },
  {
    "service_request": "2026-1253947",
    "request_type": "Trash/Recycling",
    "request_reason": "Replace Trash Cart",
    "date_created": "2026-01-22T14:17:52.000",
    "date_modified": "2026-01-22T14:17:54.000",
    "request_status": "Pending",
    "responsible_agency": "Department of Sanitation",
    "final_address": "1607 St Ann St Apt A",
    "address_councildis": "C",
    "status": "Assigned to Contractor",
    "contractor": "IV Waste",
    "rowid": "1253947",
    "final_x": "3680259.76475",
    "final_y": "534734.548038",
    "longitude": "-90.07187479074085",
    "latitude": "29.96437219595025",
    "geocoded_column": {
      "latitude": "29.96437219595025",
      "longitude": "-90.07187479074085"
    }
  },
  {
    "service_request": "2026-1253946",
    "request_type": "Trash/Recycling",
    "request_reason": "Repair Trash Cart",
    "date_created": "2026-01-22T14:16:31.000",
    "date_modified": "2026-01-22T14:16:33.000",
    "request_status": "Pending",
    "responsible_agency": "Department of Sanitation",
    "final_address": "922 Charbonnet St",
    "address_councildis": "E",
    "status": "Assigned to Contractor",
    "contractor": "Waste Pro",
    "rowid": "1253946",
    "final_x": "3698410.3793",
    "final_y": "533004.47002",
    "longitude": "-90.01461980317758",
    "latitude": "29.959053176444797",
    "geocoded_column": {
      "latitude": "29.959053176444797",
      "longitude": "-90.01461980317758"
    }
  },
  {
    "service_request": "2026-1253945",
    "request_type": "Trash/Recycling",
    "request_reason": "Missed Trash Pick-Up",
    "date_created": "2026-01-22T14:14:58.000",
    "date_modified": "2026-01-22T15:00:16.000",
    "case_close_date": "2026-01-22T09:00:14.000",
    "request_status": "Closed",
    "responsible_agency": "Department of Sanitation",
    "final_address": "2925 Robert St",
    "address_councildis": "B",
    "status": "Invalid Request",
    "contractor": "IV Waste",
    "contractor_action": "Invalid Request",
    "rowid": "1253945",
    "final_x": "3668983.09524",
    "final_y": "526234.729662",
    "longitude": "-90.10777282265109",
    "latitude": "29.941337020766696",
    "geocoded_column": {
      "latitude": "29.941337020766696",
      "longitude": "-90.10777282265109"
    }
  },
  {
    "service_request": "2026-1253944",
    "request_type": "Street and Traffic Signs",
    "request_reason": "Traffic or Parking Sign Damaged or Missing",
    "date_created": "2026-01-22T14:08:49.000",
    "date_modified": "2026-01-22T14:08:51.000",
    "request_status": "Pending",
    "responsible_agency": "Department of Public Works",
    "final_address": "0 BLK Blanc Pl",
    "address_councildis": "B",
    "status": "Pending",
    "rowid": "1253944",
    "final_x": "3667951.08401",
    "final_y": "520874.262829",
    "longitude": "-90.11121159835395",
    "latitude": "29.926627762655404",
    "geocoded_column": {
      "latitude": "29.926627762655404",
      "longitude": "-90.11121159835395"
    }
  },
  {
    "service_request": "2026-1253943",
    "request_type": "Trash/Recycling",
    "request_reason": "Repair Recycling Cart",
    "date_created": "2026-01-22T14:07:36.000",
    "date_modified": "2026-01-22T14:07:38.000",
    "request_status": "Pending",
    "responsible_agency": "Department of Sanitation",
    "final_address": "0 BLK Architect St",
    "address_councildis": "C",
    "status": "Pending",
    "rowid": "1253943",
    "final_x": "3687142.46885",
    "final_y": "534686.498656",
    "longitude": "-90.05014150821198",
    "latitude": "29.964029935213947",
    "geocoded_column": {
      "latitude": "29.964029935213947",
      "longitude": "-90.05014150821198"
    }
  },
  {
    "service_request": "2026-1253942",
    "request_type": "Trash/Recycling",
    "request_reason": "Request a Large Item Pick Up",
    "date_created": "2026-01-22T14:07:02.000",
    "date_modified": "2026-01-22T14:07:04.000",
    "request_status": "Pending",
    "responsible_agency": "Department of Sanitation",
    "final_address": "13401 Curran Rd",
    "address_councildis": "E",
    "status": "Assigned to Contractor",
    "contractor": "Waste Pro",
    "rowid": "1253942",
    "final_x": "3716703.18597",
    "final_y": "570777.473959",
    "longitude": "-89.95542199056533",
    "latitude": "30.062322556452592",
    "geocoded_column": {
      "latitude": "30.062322556452592",
      "longitude": "-89.95542199056533"
    }
  },
  {
    "service_request": "2026-1253941",
    "request_type": "Trash/Recycling",
    "request_reason": "Request a Large Item Pick Up",
    "date_created": "2026-01-22T14:06:16.000",
    "date_modified": "2026-01-22T14:06:18.000",
    "request_status": "Pending",
    "responsible_agency": "Department of Sanitation",
    "final_address": "6711 E Hermes St",
    "address_councildis": "D",
    "status": "Assigned to Contractor",
    "contractor": "Waste Pro",
    "rowid": "1253941",
    "final_x": "3697772.47498",
    "final_y": "556245.965978",
    "longitude": "-90.01579025285787",
    "latitude": "30.022978925346404",
    "geocoded_column": {
      "latitude": "30.022978925346404",
      "longitude": "-90.01579025285787"
    }
  },
  {
    "service_request": "2026-1253940",
    "request_type": "General Services",
    "request_reason": "General Service Request",
    "date_created": "2026-01-22T14:05:48.000",
    "date_modified": "2026-01-22T14:05:49.000",
    "request_status": "Pending",
    "responsible_agency": "Orleans Parish Communication District",
    "final_address": "4315 S Miro St",
    "address_councildis": "B",
    "status": "Pending",
    "rowid": "1253940",
    "final_x": "3670418.3627",
    "final_y": "527900.283711",
    "longitude": "-90.10318494202973",
    "latitude": "29.945874463483193",
    "geocoded_column": {
      "latitude": "29.945874463483193",
      "longitude": "-90.10318494202973"
    }
  },
  {
    "service_request": "2026-1253939",
    "request_type": "Trash/Recycling",
    "request_reason": "Request a Large Item Pick Up",
    "date_created": "2026-01-22T14:04:52.000",
    "date_modified": "2026-01-22T14:04:54.000",
    "request_status": "Pending",
    "responsible_agency": "Department of Sanitation",
    "final_address": "1130 Forstall St",
    "address_councildis": "E",
    "status": "Assigned to Contractor",
    "contractor": "Waste Pro",
    "rowid": "1253939",
    "final_x": "3696247.47927",
    "final_y": "534509.821765",
    "longitude": "-90.02139524431833",
    "latitude": "29.963260628746003",
    "geocoded_column": {
      "latitude": "29.963260628746003",
      "longitude": "-90.02139524431833"
    }
  },
  {
    "service_request": "2026-1253938",
    "request_type": "Trash/Recycling",
    "request_reason": "Request a Large Item Pick Up",
    "date_created": "2026-01-22T14:01:53.000",
    "date_modified": "2026-01-22T16:37:53.000",
    "request_status": "Pending",
    "responsible_agency": "Department of Sanitation",
    "final_address": "1518 Louisa St",
    "address_councildis": "D",
    "status": "Assigned to Contractor",
    "contractor": "IV Waste",
    "rowid": "1253938",
    "final_x": "3689935.03836",
    "final_y": "537520.458888",
    "longitude": "-90.04122193620444",
    "latitude": "29.97173604522146",
    "geocoded_column": {
      "latitude": "29.97173604522146",
      "longitude": "-90.04122193620444"
    }
  },
  {
    "service_request": "2026-1253937",
    "request_type": "Street and Traffic Signs",
    "request_reason": "Traffic or Parking Sign Damaged or Missing",
    "date_created": "2026-01-22T14:01:51.000",
    "date_modified": "2026-01-22T14:01:52.000",
    "request_status": "Pending",
    "responsible_agency": "Department of Public Works",
    "final_address": "0 BLK Blanc Pl",
    "address_councildis": "B",
    "status": "Pending",
    "rowid": "1253937",
    "final_x": "3667951.08401",
    "final_y": "520874.262829",
    "longitude": "-90.11121159835395",
    "latitude": "29.926627762655404",
    "geocoded_column": {
      "latitude": "29.926627762655404",
      "longitude": "-90.11121159835395"
    }
  },
  {
    "service_request": "2026-1253936",
    "request_type": "Trash/Recycling",
    "request_reason": "Order Recycling Cart",
    "date_created": "2026-01-22T14:00:51.000",
    "date_modified": "2026-01-22T14:00:52.000",
    "request_status": "Pending",
    "responsible_agency": "Department of Sanitation",
    "final_address": "1133 Baronne St",
    "address_councildis": "B",
    "status": "Pending",
    "rowid": "1253936",
    "final_x": "3678959.42555",
    "final_y": "526951.807294",
    "longitude": "-90.07625079259851",
    "latitude": "29.94301157479345",
    "geocoded_column": {
      "latitude": "29.94301157479345",
      "longitude": "-90.07625079259851"
    }
  },
  {
    "service_request": "2026-1253935",
    "request_type": "Trash/Recycling",
    "request_reason": "Order Trash Cart",
    "date_created": "2026-01-22T14:00:02.000",
    "date_modified": "2026-01-22T14:00:04.000",
    "request_status": "Pending",
    "responsible_agency": "Department of Sanitation",
    "final_address": "1133 Baronne St",
    "address_councildis": "B",
    "status": "Assigned to Contractor",
    "contractor": "IV Waste",
    "rowid": "1253935",
    "final_x": "3678959.42555",
    "final_y": "526951.807294",
    "longitude": "-90.07625079259851",
    "latitude": "29.94301157479345",
    "geocoded_column": {
      "latitude": "29.94301157479345",
      "longitude": "-90.07625079259851"
    }
  },
  {
    "service_request": "2026-1253934",
    "request_type": "Trash/Recycling",
    "request_reason": "Request a Large Item Pick Up",
    "date_created": "2026-01-22T13:58:51.000",
    "date_modified": "2026-01-22T13:58:53.000",
    "request_status": "Pending",
    "responsible_agency": "Department of Sanitation",
    "final_address": "13026 Lemans St",
    "address_councildis": "E",
    "status": "Assigned to Contractor",
    "contractor": "Waste Pro",
    "rowid": "1253934",
    "final_x": "3723790.03327",
    "final_y": "562648.385056",
    "longitude": "-89.9333345750658",
    "latitude": "30.039734719541165",
    "geocoded_column": {
      "latitude": "30.039734719541165",
      "longitude": "-89.9333345750658"
    }
  },
  {
    "service_request": "2026-1253933",
    "request_type": "Abandoned Vehicles",
    "request_reason": "Abandoned/Junk Vehicles",
    "date_created": "2026-01-22T13:57:53.000",
    "date_modified": "2026-01-22T13:57:55.000",
    "request_status": "Pending",
    "responsible_agency": "Department of Public Works",
    "final_address": "1422 Kerlerec St",
    "address_councildis": "C",
    "status": "Pending",
    "rowid": "1253933",
    "final_x": "3681866.73832",
    "final_y": "536545.320519",
    "longitude": "-90.06673689059872",
    "latitude": "29.969302455123337",
    "geocoded_column": {
      "latitude": "29.969302455123337",
      "longitude": "-90.06673689059872"
    }
  },
  {
    "service_request": "2026-1253932",
    "request_type": "Trash/Recycling",
    "request_reason": "Request a Large Item Pick Up",
    "date_created": "2026-01-22T13:56:03.000",
    "date_modified": "2026-01-22T16:36:46.000",
    "request_status": "Pending",
    "responsible_agency": "Department of Sanitation",
    "final_address": "1432 Pauline St",
    "address_councildis": "D",
    "status": "Assigned to Contractor",
    "contractor": "IV Waste",
    "rowid": "1253932",
    "final_x": "3691532.03388",
    "final_y": "536861.298056",
    "longitude": "-90.0362019636467",
    "latitude": "29.969873971976952",
    "geocoded_column": {
      "latitude": "29.969873971976952",
      "longitude": "-90.0362019636467"
    }
  },
  {
    "service_request": "2026-1253931",
    "request_type": "Trash/Recycling",
    "request_reason": "Return Trash Cart",
    "date_created": "2026-01-22T13:45:41.000",
    "date_modified": "2026-01-22T13:45:43.000",
    "request_status": "Pending",
    "responsible_agency": "Department of Sanitation",
    "final_address": "3142 N Rampart St",
    "address_councildis": "C",
    "status": "Assigned to Contractor",
    "contractor": "IV Waste",
    "rowid": "1253931",
    "final_x": "3689228.42377",
    "final_y": "535455.125702",
    "longitude": "-90.04352694846584",
    "latitude": "29.96607899432585",
    "geocoded_column": {
      "latitude": "29.96607899432585",
      "longitude": "-90.04352694846584"
    }
  },
  {
    "service_request": "2026-1253930",
    "request_type": "Abandoned Vehicles",
    "request_reason": "Abandoned/Junk Vehicles",
    "date_created": "2026-01-22T13:42:40.000",
    "date_modified": "2026-01-22T13:42:41.000",
    "request_status": "Pending",
    "responsible_agency": "Department of Public Works",
    "final_address": "1904 Poydras St",
    "address_councildis": "B",
    "status": "Pending",
    "rowid": "1253930",
    "final_x": "3676673.84801",
    "final_y": "530737.709314",
    "longitude": "-90.08333653067666",
    "latitude": "29.95349029636172",
    "geocoded_column": {
      "latitude": "29.95349029636172",
      "longitude": "-90.08333653067666"
    }
  },
  {
    "service_request": "2026-1253929",
    "request_type": "Property Maintenance",
    "request_reason": "Property Maintenance",
    "date_created": "2026-01-22T13:31:29.000",
    "date_modified": "2026-01-22T13:51:35.000",
    "case_close_date": "2026-01-22T07:51:33.000",
    "request_status": "Closed",
    "responsible_agency": "Department of Code Enforcement",
    "final_address": "3701 Rue Renee",
    "address_councildis": "C",
    "status": "Referred to Code Enforcement",
    "rowid": "1253929",
    "final_x": "3705204.24574",
    "final_y": "516867.710965",
    "longitude": "-89.9937623374079",
    "latitude": "29.914466036735888",
    "geocoded_column": {
      "latitude": "29.914466036735888",
      "longitude": "-89.9937623374079"
    }
  },
  {
    "service_request": "2026-1253928",
    "request_type": "Trash/Recycling",
    "request_reason": "Request a Large Item Pick Up",
    "date_created": "2026-01-22T13:31:15.000",
    "date_modified": "2026-01-22T13:31:18.000",
    "request_status": "Pending",
    "responsible_agency": "Department of Sanitation",
    "final_address": "5020 Magnolia St",
    "address_councildis": "B",
    "status": "Assigned to Contractor",
    "contractor": "IV Waste",
    "rowid": "1253928",
    "final_x": "3668686.13678",
    "final_y": "524580.504828",
    "longitude": "-90.10876619591352",
    "latitude": "29.936797165852138",
    "geocoded_column": {
      "latitude": "29.936797165852138",
      "longitude": "-90.10876619591352"
    }
  },
  {
    "service_request": "2026-1253927",
    "request_type": "Trash/Recycling",
    "request_reason": "Request a Large Item Pick Up",
    "date_created": "2026-01-22T13:23:25.000",
    "date_modified": "2026-01-22T13:23:28.000",
    "request_status": "Pending",
    "responsible_agency": "Department of Sanitation",
    "final_address": "7227 Claridge Ct",
    "address_councildis": "E",
    "status": "Assigned to Contractor",
    "contractor": "Waste Pro",
    "rowid": "1253927",
    "final_x": "3704934.52471",
    "final_y": "560861.405406",
    "longitude": "-89.9929893653719",
    "latitude": "30.035441200613068",
    "geocoded_column": {
      "latitude": "30.035441200613068",
      "longitude": "-89.9929893653719"
    }
  },
  {
    "service_request": "2026-1253926",
    "request_type": "Trash/Recycling",
    "request_reason": "Request a Large Item Pick Up",
    "date_created": "2026-01-22T13:19:09.000",
    "date_modified": "2026-01-22T13:19:11.000",
    "request_status": "Pending",
    "responsible_agency": "Department of Sanitation",
    "final_address": "5613 N Villere St",
    "address_councildis": "E",
    "status": "Assigned to Contractor",
    "contractor": "Waste Pro",
    "rowid": "1253926",
    "final_x": "3698479.05207",
    "final_y": "534893.31303",
    "longitude": "-90.01433429450884",
    "latitude": "29.964244649031198",
    "geocoded_column": {
      "latitude": "29.964244649031198",
      "longitude": "-90.01433429450884"
    }
  },
  {
    "service_request": "2026-1253925",
    "request_type": "Trash/Recycling",
    "request_reason": "Order Trash Cart",
    "date_created": "2026-01-22T13:18:09.000",
    "date_modified": "2026-01-22T15:22:25.000",
    "request_status": "Pending",
    "responsible_agency": "Department of Sanitation",
    "final_address": "3109 St Thomas St",
    "address_councildis": "B",
    "status": "Assigned to Contractor",
    "contractor": "IV Waste",
    "rowid": "1253925",
    "final_x": "3677011.96616",
    "final_y": "518646.622263",
    "longitude": "-90.08268560241478",
    "latitude": "29.920233631015588",
    "geocoded_column": {
      "latitude": "29.920233631015588",
      "longitude": "-90.08268560241478"
    }
  },
  {
    "service_request": "2026-1253924",
    "request_type": "Trash/Recycling",
    "request_reason": "Request a Large Item Pick Up",
    "date_created": "2026-01-22T13:17:24.000",
    "date_modified": "2026-01-22T13:17:26.000",
    "request_status": "Pending",
    "responsible_agency": "Department of Sanitation",
    "final_address": "4502 Wilson Ave",
    "address_councildis": "E",
    "status": "Assigned to Contractor",
    "contractor": "Waste Pro",
    "rowid": "1253924",
    "final_x": "3703087.76503",
    "final_y": "553591.631959",
    "longitude": "-89.99909290959688",
    "latitude": "30.01551140307732",
    "geocoded_column": {
      "latitude": "30.01551140307732",
      "longitude": "-89.99909290959688"
    }
  },
  {
    "service_request": "2026-1253923",
    "request_type": "Trash/Recycling",
    "request_reason": "Order Second Trash Cart",
    "date_created": "2026-01-22T13:14:19.000",
    "date_modified": "2026-01-22T15:35:39.000",
    "request_status": "Pending",
    "responsible_agency": "Department of Sanitation",
    "final_address": "2929 Magazine St",
    "address_councildis": "B",
    "status": "Assigned to Contractor",
    "contractor": "IV Waste",
    "rowid": "1253923",
    "final_x": "3676418.04961",
    "final_y": "520453.062648",
    "longitude": "-90.08449817005943",
    "latitude": "29.92521857019658",
    "geocoded_column": {
      "latitude": "29.92521857019658",
      "longitude": "-90.08449817005943"
    }
  },
  {
    "service_request": "2026-1253922",
    "request_type": "Abandoned Vehicles",
    "request_reason": "Abandoned/Junk Vehicles",
    "date_created": "2026-01-22T13:11:54.000",
    "date_modified": "2026-01-22T13:11:55.000",
    "request_status": "Pending",
    "responsible_agency": "Department of Public Works",
    "final_address": "3915 Johnny Jackson Jr Blvd",
    "address_councildis": "D",
    "status": "Pending",
    "rowid": "1253922",
    "final_x": "3691820.14012",
    "final_y": "547695.20053",
    "longitude": "-90.03490439342677",
    "latitude": "29.99965433860358",
    "geocoded_column": {
      "latitude": "29.99965433860358",
      "longitude": "-90.03490439342677"
    }
  },
  {
    "service_request": "2026-1253921",
    "request_type": "Abandoned Vehicles",
    "request_reason": "Abandoned/Junk Vehicles",
    "date_created": "2026-01-22T13:07:31.000",
    "date_modified": "2026-01-22T13:07:33.000",
    "request_status": "Pending",
    "responsible_agency": "Department of Public Works",
    "final_address": "1528 Dublin St",
    "address_councildis": "A",
    "status": "Pending",
    "rowid": "1253921",
    "final_x": "3662547.14682",
    "final_y": "529598.809217",
    "longitude": "-90.12798072051595",
    "latitude": "29.950774873415405",
    "geocoded_column": {
      "latitude": "29.950774873415405",
      "longitude": "-90.12798072051595"
    }
  },
  {
    "service_request": "2026-1253920",
    "request_type": "Streetlights",
    "request_reason": "Streetlight Outage/Malfunction",
    "date_created": "2026-01-22T13:07:08.000",
    "date_modified": "2026-01-22T13:07:10.000",
    "request_status": "Pending",
    "responsible_agency": "Department of Public Works",
    "final_address": "2700 New Orleans St",
    "address_councildis": "D",
    "status": "Pending",
    "rowid": "1253920",
    "final_x": "3681866.45781",
    "final_y": "542383.629517",
    "longitude": "-90.06653393462423",
    "latitude": "29.98535578186461",
    "geocoded_column": {
      "latitude": "29.98535578186461",
      "longitude": "-90.06653393462423"
    }
  },
  {
    "service_request": "2026-1253919",
    "request_type": "Abandoned Vehicles",
    "request_reason": "Abandoned/Junk Vehicles",
    "date_created": "2026-01-22T13:06:01.000",
    "date_modified": "2026-01-22T13:06:02.000",
    "request_status": "Pending",
    "responsible_agency": "Department of Public Works",
    "final_address": "2221 N Johnson St",
    "address_councildis": "D",
    "status": "Pending",
    "rowid": "1253919",
    "final_x": "3685007.46754",
    "final_y": "539669.971786",
    "longitude": "-90.0567083021884",
    "latitude": "29.977798321263567",
    "geocoded_column": {
      "latitude": "29.977798321263567",
      "longitude": "-90.0567083021884"
    }
  },
  {
    "service_request": "2026-1253918",
    "request_type": "Trash/Recycling",
    "request_reason": "Replace Recycling Cart",
    "date_created": "2026-01-22T13:02:37.000",
    "date_modified": "2026-01-22T13:02:39.000",
    "request_status": "Pending",
    "responsible_agency": "Department of Sanitation",
    "final_address": "937 Pleasant St",
    "address_councildis": "B",
    "status": "Pending",
    "rowid": "1253918",
    "final_x": "3675779.67451",
    "final_y": "519500.729015",
    "longitude": "-90.0865460300411",
    "latitude": "29.922619075569454",
    "geocoded_column": {
      "latitude": "29.922619075569454",
      "longitude": "-90.0865460300411"
    }
  },
  {
    "service_request": "2026-1253917",
    "request_type": "Trash/Recycling",
    "request_reason": "Replace Trash Cart",
    "date_created": "2026-01-22T13:00:32.000",
    "date_modified": "2026-01-22T13:58:58.000",
    "request_status": "Pending",
    "responsible_agency": "Department of Sanitation",
    "final_address": "937 Pleasant St",
    "address_councildis": "B",
    "status": "Assigned to Contractor",
    "contractor": "IV Waste",
    "rowid": "1253917",
    "final_x": "3675779.67451",
    "final_y": "519500.729015",
    "longitude": "-90.0865460300411",
    "latitude": "29.922619075569454",
    "geocoded_column": {
      "latitude": "29.922619075569454",
      "longitude": "-90.0865460300411"
    }
  },
  {
    "service_request": "2026-1253916",
    "request_type": "Trash/Recycling",
    "request_reason": "Request a Large Item Pick Up",
    "date_created": "2026-01-22T13:00:00.000",
    "date_modified": "2026-01-22T13:00:03.000",
    "request_status": "Pending",
    "responsible_agency": "Department of Sanitation",
    "final_address": "6911 Manchester St",
    "address_councildis": "E",
    "status": "Assigned to Contractor",
    "contractor": "Waste Pro",
    "rowid": "1253916",
    "final_x": "3698700.83069",
    "final_y": "560109.602013",
    "longitude": "-90.01271617062565",
    "latitude": "30.03357305699327",
    "geocoded_column": {
      "latitude": "30.03357305699327",
      "longitude": "-90.01271617062565"
    }
  },
  {
    "service_request": "2026-1253915",
    "request_type": "Trash/Recycling",
    "request_reason": "Request a Large Item Pick Up",
    "date_created": "2026-01-22T12:49:54.000",
    "date_modified": "2026-01-22T12:49:56.000",
    "request_status": "Pending",
    "responsible_agency": "Department of Sanitation",
    "final_address": "8610 Gervais St",
    "address_councildis": "E",
    "status": "Assigned to Contractor",
    "contractor": "Waste Pro",
    "rowid": "1253915",
    "final_x": "3703974.46506",
    "final_y": "562699.662432",
    "longitude": "-89.9959554925134",
    "latitude": "30.040526529189474",
    "geocoded_column": {
      "latitude": "30.040526529189474",
      "longitude": "-89.9959554925134"
    }
  },
  {
    "service_request": "2026-1253914",
    "request_type": "Roads and Streets",
    "request_reason": "Debris in Driving Lanes",
    "date_created": "2026-01-22T12:48:34.000",
    "date_modified": "2026-01-22T12:51:20.000",
    "request_status": "Pending",
    "responsible_agency": "Department of Public Works",
    "final_address": "916 Desire St",
    "address_councildis": "C",
    "status": "Pending",
    "rowid": "1253914",
    "final_x": "3689987.85404",
    "final_y": "535068.623558",
    "longitude": "-90.04114245930435",
    "latitude": "29.964992721565494",
    "geocoded_column": {
      "latitude": "29.964992721565494",
      "longitude": "-90.04114245930435"
    }
  },
  {
    "service_request": "2026-1253913",
    "request_type": "Trash/Recycling",
    "request_reason": "Request a Large Item Pick Up",
    "date_created": "2026-01-22T12:44:42.000",
    "date_modified": "2026-01-22T12:59:39.000",
    "request_status": "Pending",
    "responsible_agency": "Department of Sanitation",
    "final_address": "7440 Northgate Dr",
    "address_councildis": "E",
    "status": "Pending",
    "contractor": "Waste Pro",
    "rowid": "1253913",
    "final_x": "3713176.22206",
    "final_y": "566066.728355",
    "longitude": "-89.96674828149989",
    "latitude": "30.04948608191033",
    "geocoded_column": {
      "latitude": "30.04948608191033",
      "longitude": "-89.96674828149989"
    }
  },
  {
    "service_request": "2026-1253912",
    "request_type": "Roads and Streets",
    "request_reason": "Pothole",
    "date_created": "2026-01-22T12:36:12.000",
    "date_modified": "2026-01-22T12:36:14.000",
    "request_status": "Pending",
    "responsible_agency": "Department of Public Works",
    "final_address": "3800 BLK Joliet St",
    "address_councildis": "A",
    "status": "Pending",
    "rowid": "1253912",
    "final_x": "3667255.65102",
    "final_y": "536303.769372",
    "longitude": "-90.11288811746958",
    "latitude": "29.969074275043106",
    "geocoded_column": {
      "latitude": "29.969074275043106",
      "longitude": "-90.11288811746958"
    }
  },
  {
    "service_request": "2026-1253911",
    "request_type": "Trash/Recycling",
    "request_reason": "Request a Large Item Pick Up",
    "date_created": "2026-01-22T12:34:35.000",
    "date_modified": "2026-01-22T12:34:36.000",
    "request_status": "Pending",
    "responsible_agency": "Department of Sanitation",
    "final_address": "859 Taft Pl",
    "address_councildis": "A",
    "status": "Assigned to Contractor",
    "contractor": "IV Waste",
    "rowid": "1253911",
    "final_x": "3673779.51867",
    "final_y": "539852.676234",
    "longitude": "-90.0921638545366",
    "latitude": "29.978639886454335",
    "geocoded_column": {
      "latitude": "29.978639886454335",
      "longitude": "-90.0921638545366"
    }
  },
  {
    "service_request": "2026-1253910",
    "request_type": "Trash/Recycling",
    "request_reason": "Return Trash Cart",
    "date_created": "2026-01-22T12:33:08.000",
    "date_modified": "2026-01-22T12:33:10.000",
    "request_status": "Pending",
    "responsible_agency": "Department of Sanitation",
    "final_address": "1729 Calhoun St",
    "address_councildis": "A",
    "status": "Assigned to Contractor",
    "contractor": "IV Waste",
    "rowid": "1253910",
    "final_x": "3665231.09485",
    "final_y": "523635.942203",
    "longitude": "-90.11970556024689",
    "latitude": "29.934300996731718",
    "geocoded_column": {
      "latitude": "29.934300996731718",
      "longitude": "-90.11970556024689"
    }
  },
  {
    "service_request": "2026-1253909",
    "request_type": "Trash/Recycling",
    "request_reason": "Request a Large Item Pick Up",
    "date_created": "2026-01-22T12:32:27.000",
    "date_modified": "2026-01-22T12:32:28.000",
    "request_status": "Pending",
    "responsible_agency": "Department of Sanitation",
    "final_address": "1914 Burgundy St",
    "address_councildis": "C",
    "status": "Assigned to Contractor",
    "contractor": "IV Waste",
    "rowid": "1253909",
    "final_x": "3684079.51746",
    "final_y": "535470.422022",
    "longitude": "-90.05978650389177",
    "latitude": "29.96627941471409",
    "geocoded_column": {
      "latitude": "29.96627941471409",
      "longitude": "-90.05978650389177"
    }
  },
  {
    "service_request": "2026-1253908",
    "request_type": "Trash/Recycling",
    "request_reason": "Illegal Dumping",
    "date_created": "2026-01-22T12:32:06.000",
    "date_modified": "2026-01-22T12:32:09.000",
    "request_status": "Pending",
    "responsible_agency": "Department of Sanitation",
    "final_address": "205 Pacific Ave",
    "address_councildis": "C",
    "status": "Pending",
    "rowid": "1253908",
    "final_x": "3688522.62723",
    "final_y": "531099.78189",
    "longitude": "-90.04591036516511",
    "latitude": "29.954125135684023",
    "geocoded_column": {
      "latitude": "29.954125135684023",
      "longitude": "-90.04591036516511"
    }
  },
  {
    "service_request": "2026-1253907",
    "request_type": "Trash/Recycling",
    "request_reason": "Request a Large Item Pick Up",
    "date_created": "2026-01-22T12:29:51.000",
    "date_modified": "2026-01-22T12:29:53.000",
    "request_status": "Pending",
    "responsible_agency": "Department of Sanitation",
    "final_address": "3311 Bringier St",
    "address_councildis": "C",
    "status": "Assigned to Contractor",
    "contractor": "Richards Disposal",
    "rowid": "1253907",
    "final_x": "3696434.00656",
    "final_y": "525041.095613",
    "longitude": "-90.02114863470436",
    "latitude": "29.937219070627375",
    "geocoded_column": {
      "latitude": "29.937219070627375",
      "longitude": "-90.02114863470436"
    }
  },
  {
    "service_request": "2026-1253906",
    "request_type": "Trash/Recycling",
    "request_reason": "Repair Trash Cart",
    "date_created": "2026-01-22T12:24:33.000",
    "date_modified": "2026-01-22T12:24:35.000",
    "request_status": "Pending",
    "responsible_agency": "Department of Sanitation",
    "final_address": "11312 Midpoint Dr",
    "address_councildis": "E",
    "status": "Assigned to Contractor",
    "contractor": "Waste Pro",
    "rowid": "1253906",
    "final_x": "3718726.69369",
    "final_y": "559635.258333",
    "longitude": "-89.94945109046446",
    "latitude": "30.031618973087294",
    "geocoded_column": {
      "latitude": "30.031618973087294",
      "longitude": "-89.94945109046446"
    }
  },
  {
    "service_request": "2026-1253905",
    "request_type": "Trash/Recycling",
    "request_reason": "Request a Large Item Pick Up",
    "date_created": "2026-01-22T12:16:16.000",
    "date_modified": "2026-01-22T13:03:34.000",
    "request_status": "Pending",
    "responsible_agency": "Department of Sanitation",
    "final_address": "1631 Piety St",
    "address_councildis": "D",
    "status": "Assigned to Contractor",
    "contractor": "IV Waste",
    "rowid": "1253905",
    "final_x": "3690413.11235",
    "final_y": "537950.121481",
    "longitude": "-90.03969679055287",
    "latitude": "29.97290263350378",
    "geocoded_column": {
      "latitude": "29.97290263350378",
      "longitude": "-90.03969679055287"
    }
  },
  {
    "service_request": "2026-1253904",
    "request_type": "Trash/Recycling",
    "request_reason": "Request a Large Item Pick Up",
    "date_created": "2026-01-22T12:15:07.000",
    "date_modified": "2026-01-22T13:03:08.000",
    "request_status": "Pending",
    "responsible_agency": "Department of Sanitation",
    "final_address": "2025 Camp St",
    "address_councildis": "B",
    "status": "Assigned to Contractor",
    "contractor": "IV Waste",
    "rowid": "1253904",
    "final_x": "3679085.97288",
    "final_y": "522763.965882",
    "longitude": "-90.07599633784011",
    "latitude": "29.93149257576924",
    "geocoded_column": {
      "latitude": "29.93149257576924",
      "longitude": "-90.07599633784011"
    }
  },
  {
    "service_request": "2026-1253903",
    "request_type": "Trash/Recycling",
    "request_reason": "Request a Large Item Pick Up",
    "date_created": "2026-01-22T12:06:19.000",
    "date_modified": "2026-01-22T12:06:21.000",
    "request_status": "Pending",
    "responsible_agency": "Department of Sanitation",
    "final_address": "2121 Robin St",
    "address_councildis": "D",
    "status": "Assigned to Contractor",
    "contractor": "IV Waste",
    "rowid": "1253903",
    "final_x": "3683168.96328",
    "final_y": "551849.116374",
    "longitude": "-90.06208816927378",
    "latitude": "30.01134282565246",
    "geocoded_column": {
      "latitude": "30.01134282565246",
      "longitude": "-90.06208816927378"
    }
  },
  {
    "service_request": "2026-1253902",
    "request_type": "Trash/Recycling",
    "request_reason": "Repair Trash Cart",
    "date_created": "2026-01-22T12:05:34.000",
    "date_modified": "2026-01-22T12:05:39.000",
    "request_status": "Pending",
    "responsible_agency": "Department of Sanitation",
    "final_address": "2500 Memorial Park Dr",
    "address_councildis": "C",
    "status": "Assigned to Contractor",
    "contractor": "Richards Disposal",
    "rowid": "1253902",
    "final_x": "3692443.42889",
    "final_y": "521531.695673",
    "longitude": "-90.03387273121588",
    "latitude": "29.927694466911927",
    "geocoded_column": {
      "latitude": "29.927694466911927",
      "longitude": "-90.03387273121588"
    }
  },
  {
    "service_request": "2026-1253901",
    "request_type": "Roads and Streets",
    "request_reason": "Sidewalk Damaged or Missing",
    "date_created": "2026-01-22T12:05:31.000",
    "date_modified": "2026-01-22T12:05:34.000",
    "request_status": "Pending",
    "responsible_agency": "Department of Public Works",
    "final_address": "1230 Desire St",
    "address_councildis": "C",
    "status": "Pending",
    "rowid": "1253901",
    "final_x": "3690294.39222",
    "final_y": "536359.475847",
    "longitude": "-90.04012842636956",
    "latitude": "29.968532603557186",
    "geocoded_column": {
      "latitude": "29.968532603557186",
      "longitude": "-90.04012842636956"
    }
  },
  {
    "service_request": "2026-1253900",
    "request_type": "Roads and Streets",
    "request_reason": "Sidewalk Damaged or Missing",
    "date_created": "2026-01-22T12:04:10.000",
    "date_modified": "2026-01-22T12:04:12.000",
    "request_status": "Pending",
    "responsible_agency": "Department of Public Works",
    "final_address": "5900 N Derbigny St",
    "address_councildis": "E",
    "status": "Pending",
    "rowid": "1253900",
    "final_x": "3699710.13764",
    "final_y": "535652.547718",
    "longitude": "-90.01041897241666",
    "latitude": "29.96629324878551",
    "geocoded_column": {
      "latitude": "29.96629324878551",
      "longitude": "-90.01041897241666"
    }
  },
  {
    "service_request": "2026-1253899",
    "request_type": "Safety & Permits",
    "request_reason": "Zoning Enforcement",
    "date_created": "2026-01-22T12:01:13.000",
    "date_modified": "2026-01-22T12:01:15.000",
    "request_status": "Pending",
    "responsible_agency": "Safety and Permits",
    "final_address": "2600 BLK Dauphine St",
    "address_councildis": "C",
    "status": "Pending",
    "rowid": "1253899",
    "final_x": "3686979.22181",
    "final_y": "535288.159854",
    "longitude": "-90.05063575722144",
    "latitude": "29.96568932032339",
    "geocoded_column": {
      "latitude": "29.96568932032339",
      "longitude": "-90.05063575722144"
    }
  },
  {
    "service_request": "2026-1253898",
    "request_type": "Trash/Recycling",
    "request_reason": "Request a Large Item Pick Up",
    "date_created": "2026-01-22T12:00:54.000",
    "date_modified": "2026-01-22T12:00:55.000",
    "request_status": "Pending",
    "responsible_agency": "Department of Sanitation",
    "final_address": "4657 Chantilly Dr",
    "address_councildis": "E",
    "status": "Assigned to Contractor",
    "contractor": "Waste Pro",
    "rowid": "1253898",
    "final_x": "3701002.63217",
    "final_y": "553779.226711",
    "longitude": "-90.00567405799599",
    "latitude": "30.016093812742938",
    "geocoded_column": {
      "latitude": "30.016093812742938",
      "longitude": "-90.00567405799599"
    }
  },
  {
    "service_request": "2026-1253897",
    "request_type": "Trash/Recycling",
    "request_reason": "Request a Large Item Pick Up",
    "date_created": "2026-01-22T11:59:47.000",
    "date_modified": "2026-01-22T11:59:49.000",
    "request_status": "Pending",
    "responsible_agency": "Department of Sanitation",
    "final_address": "11201 Curran Rd",
    "address_councildis": "E",
    "status": "Assigned to Contractor",
    "contractor": "Waste Pro",
    "rowid": "1253897",
    "final_x": "3710899.246",
    "final_y": "566462.064483",
    "longitude": "-89.97393003427456",
    "latitude": "30.050647569079704",
    "geocoded_column": {
      "latitude": "30.050647569079704",
      "longitude": "-89.97393003427456"
    }
  },