[
  {
    "service_request": "2023-1034623",
    "request_type": "Roads/Drainage",
    "request_reason": "Pothole",
    "date_created": "2023-09-13T01:44:51.000",
    "date_modified": "2023-09-13T01:44:51.000",
    "request_status": "Pending",
    "responsible_agency": "Department of Public Works",
    "final_address": "1509 Valmont St",
    "address_councildis": "B",
    "status": "Pending",
    "rowid": "1034623",
    "final_x": "3667781.74388",
    "final_y": "520516.710776",
    "longitude": "-90.11175819366206",
    "latitude": "29.9256495730252",
    "geocoded_column": {
      "latitude": "29.9256495730252",
      "longitude": "-90.11175819366206"
    }
  },
  {
    "service_request": "2023-1034622",
    "request_type": "Trash/Recycling",
    "request_reason": "Request a Large Item Pick Up",
    "date_created": "2023-09-13T01:37:40.000",
    "date_modified": "2023-09-13T01:37:41.000",
    "request_status": "Pending",
    "responsible_agency": "Department of Sanitation",
    "final_address": "3043 Elmwood Park Dr",
    "address_councildis": "C",
    "status": "Assigned to Contractor",
    "contractor": "Richards Disposal",
    "rowid": "1034622",
    "final_x": "3693997.12944",
    "final_y": "519103.263799",
    "longitude": "-90.02905535254935",
    "latitude": "29.92096855979572",
    "geocoded_column": {
      "latitude": "29.92096855979572",
      "longitude": "-90.02905535254935"
    }
  },
  {
    "service_request": "2023-1034621",
    "request_type": "Trash/Recycling",
    "request_reason": "Illegal Dumping",
    "date_created": "2023-09-13T01:35:15.000",
    "date_modified": "2023-09-13T01:35:15.000",
    "request_status": "Pending",
    "responsible_agency": "Department of Sanitation",
    "final_address": "3043 Elmwood Park Dr",
    "address_councildis": "C",
    "status": "Pending",
    "rowid": "1034621",
    "final_x": "3693997.12944",
    "final_y": "519103.263799",
    "longitude": "-90.02905535254935",
    "latitude": "29.92096855979572",
    "geocoded_column": {
      "latitude": "29.92096855979572",
      "longitude": "-90.02905535254935"
    }
  },
  {
    "service_request": "2023-1034620",
    "request_type": "Trash/Recycling",
    "request_reason": "MIssed Recycling Pick-Up",
    "date_created": "2023-09-13T01:26:21.000",
    "date_modified": "2023-09-13T01:26:22.000",
    "request_status": "Pending",
    "responsible_agency": "Department of Sanitation",
    "final_address": "3043 Elmwood Park Dr",
    "address_councildis": "C",
    "status": "Assigned to Contractor",
    "contractor": "Richards Disposal",
    "rowid": "1034620",
    "final_x": "3693997.12944",
    "final_y": "519103.263799",
    "longitude": "-90.02905535254935",
    "latitude": "29.92096855979572",
    "geocoded_column": {
      "latitude": "29.92096855979572",
      "longitude": "-90.02905535254935"
    }
  },
  {
    "service_request": "2023-1034619",
    "request_type": "Roads/Drainage",
    "request_reason": "Pothole",
    "date_created": "2023-09-13T00:21:33.000",
    "date_modified": "2023-09-13T00:21:33.000",
    "request_status": "Pending",
    "responsible_agency": "Department of Public Works",
    "final_address": "1836 Valence St",
    "address_councildis": "B",
    "status": "Pending",
    "rowid": "1034619",
    "final_x": "3669548.88276",
    "final_y": "521749.076666",
    "longitude": "-90.10613819354518",
    "latitude": "29.928986265896693",
    "geocoded_column": {
      "latitude": "29.928986265896693",
      "longitude": "-90.10613819354518"
    }
  },
  {
    "service_request": "2023-1034618",
    "request_type": "Property Maintenance",
    "request_reason": "Property Maintenance",
    "date_created": "2023-09-13T00:15:53.000",
    "date_modified": "2023-09-13T00:15:53.000",
    "request_status": "Pending",
    "responsible_agency": "Department of Code Enforcement",
    "final_address": "3737 Huntlee Dr",
    "address_councildis": "C",
    "status": "Pending",
    "rowid": "1034618",
    "final_x": "3701604.30173",
    "final_y": "517244.230453",
    "longitude": "-90.00511113773923",
    "latitude": "29.91561656850582",
    "geocoded_column": {
      "latitude": "29.91561656850582",
      "longitude": "-90.00511113773923"
    }
  },
  {
    "service_request": "2023-1034617",
    "request_type": "Trash/Recycling",
    "request_reason": "Request a Large Item Pick Up",
    "date_created": "2023-09-12T22:11:58.000",
    "date_modified": "2023-09-12T22:11:59.000",
    "request_status": "Pending",
    "responsible_agency": "Department of Sanitation",
    "final_address": "310 Huntlee Dr",
    "address_councildis": "C",
    "status": "Assigned to Contractor",
    "contractor": "Richards Disposal",
    "rowid": "1034617",
    "final_x": "3701984.30468",
    "final_y": "522556.674298",
    "longitude": "-90.00371713920508",
    "latitude": "29.93021184091118",
    "geocoded_column": {
      "latitude": "29.93021184091118",
      "longitude": "-90.00371713920508"
    }
  },
  {
    "service_request": "2023-1034616",
    "request_type": "Property Maintenance",
    "request_reason": "Property Maintenance",
    "date_created": "2023-09-12T22:10:22.000",
    "date_modified": "2023-09-12T22:10:22.000",
    "request_status": "Pending",
    "responsible_agency": "Department of Code Enforcement",
    "final_address": "1664 Filmore Ave",
    "address_councildis": "D",
    "status": "Pending",
    "rowid": "1034616",
    "final_x": "3679757.41179",
    "final_y": "551803.112278",
    "longitude": "-90.07286824928626",
    "latitude": "30.01131996152149",
    "geocoded_column": {
      "latitude": "30.01131996152149",
      "longitude": "-90.07286824928626"
    }
  },
  {
    "service_request": "2023-1034615",
    "request_type": "Traffic Signals/Signs/Striping/Streetlights",
    "request_reason": "Street Light Outage/Malfunction",
    "date_created": "2023-09-12T22:04:48.000",
    "date_modified": "2023-09-12T22:04:48.000",
    "request_status": "Pending",
    "responsible_agency": "Department of Public Works",
    "final_address": "1660 Filmore Ave",
    "address_councildis": "D",
    "status": "Assigned to Contractor",
    "contractor": "Legacy Professional Services",
    "rowid": "1034615",
    "final_x": "3679696.06843",
    "final_y": "551798.867734",
    "longitude": "-90.07306220540782",
    "latitude": "30.01131014586556",
    "geocoded_column": {
      "latitude": "30.01131014586556",
      "longitude": "-90.07306220540782"
    }
  },
  {
    "service_request": "2023-1034614",
    "request_type": "Trash/Recycling",
    "request_reason": "Order Trash Cart",
    "date_created": "2023-09-12T22:01:27.000",
    "date_modified": "2023-09-12T22:01:28.000",
    "request_status": "Pending",
    "responsible_agency": "Department of Sanitation",
    "final_address": "4017 Mcfarland St",
    "address_councildis": "D",
    "status": "Assigned to Contractor",
    "contractor": "IV Waste",
    "rowid": "1034614",
    "final_x": "3689465.10806",
    "final_y": "547971.818706",
    "longitude": "-90.04233415971821",
    "latitude": "30.000488105939837",
    "geocoded_column": {
      "latitude": "30.000488105939837",
      "longitude": "-90.04233415971821"
    }
  },
  {
    "service_request": "2023-1034613",
    "request_type": "Traffic Signals/Signs/Striping/Streetlights",
    "request_reason": "Street Light Outage/Malfunction",
    "date_created": "2023-09-12T21:58:49.000",
    "date_modified": "2023-09-12T21:58:50.000",
    "request_status": "Pending",
    "responsible_agency": "Department of Public Works",
    "final_address": "1239 Seville Dr",
    "address_councildis": "D",
    "status": "Assigned to Contractor",
    "contractor": "Legacy Professional Services",
    "rowid": "1034613",
    "final_x": "3677096.75029",
    "final_y": "551187.663253",
    "longitude": "-90.081295614549",
    "latitude": "30.009707905628115",
    "geocoded_column": {
      "latitude": "30.009707905628115",
      "longitude": "-90.081295614549"
    }
  },
  {
    "service_request": "2023-1034612",
    "request_type": "Property Maintenance",
    "request_reason": "Property Maintenance",
    "date_created": "2023-09-12T21:50:53.000",
    "date_modified": "2023-09-12T21:50:53.000",
    "request_status": "Pending",
    "responsible_agency": "Department of Code Enforcement",
    "final_address": "1008 Adams St",
    "address_councildis": "A",
    "status": "Pending",
    "rowid": "1034612",
    "final_x": "3662619.99079",
    "final_y": "526962.534526",
    "longitude": "-90.12783828914003",
    "latitude": "29.943523855716094",
    "geocoded_column": {
      "latitude": "29.943523855716094",
      "longitude": "-90.12783828914003"
    }
  },
  {
    "service_request": "2023-1034611",
    "request_type": "Traffic Signals/Signs/Striping/Streetlights",
    "request_reason": "Street Light Outage/Malfunction",
    "date_created": "2023-09-12T21:41:46.000",
    "date_modified": "2023-09-12T21:41:47.000",
    "request_status": "Pending",
    "responsible_agency": "Department of Public Works",
    "status": "Assigned to Contractor",
    "contractor": "Legacy Professional Services",
    "rowid": "1034611",
    "longitude": "0.0",
    "latitude": "0.0",
    "geocoded_column": {
      "latitude": "0.0",
      "longitude": "0.0"
    }
  },
  {
    "service_request": "2023-1034610",
    "request_type": "Trash/Recycling",
    "request_reason": "Request a Large Item Pick Up",
    "date_created": "2023-09-12T21:40:00.000",
    "date_modified": "2023-09-12T21:40:01.000",
    "request_status": "Pending",
    "responsible_agency": "Department of Sanitation",
    "final_address": "2408 Hyman Pl",
    "address_councildis": "C",
    "status": "Assigned to Contractor",
    "contractor": "Richards Disposal",
    "rowid": "1034610",
    "final_x": "3701135.68266",
    "final_y": "522303.285754",
    "longitude": "-90.00640534818567",
    "latitude": "29.929542159642157",
    "geocoded_column": {
      "latitude": "29.929542159642157",
      "longitude": "-90.00640534818567"
    }
  },
  {
    "service_request": "2023-1034608",
    "request_type": "Roads/Drainage",
    "request_reason": "Pothole",
    "date_created": "2023-09-12T21:32:06.000",
    "date_modified": "2023-09-12T21:32:06.000",
    "request_status": "Pending",
    "responsible_agency": "Department of Public Works",
    "final_address": "1421 Constantinople St",
    "address_councildis": "B",
    "status": "Pending",
    "rowid": "1034608",
    "final_x": "3672433.24257",
    "final_y": "520667.657465",
    "longitude": "-90.09706965638372",
    "latitude": "29.925927453713577",
    "geocoded_column": {
      "latitude": "29.925927453713577",
      "longitude": "-90.09706965638372"
    }
  },
  {
    "service_request": "2023-1034607",
    "request_type": "Traffic Signals/Signs/Striping/Streetlights",
    "request_reason": "Street Light Outage/Malfunction",
    "date_created": "2023-09-12T21:30:12.000",
    "date_modified": "2023-09-12T21:30:13.000",
    "request_status": "Pending",
    "responsible_agency": "Department of Public Works",
    "final_address": "1231 Seville Dr",
    "address_councildis": "D",
    "status": "Assigned to Contractor",
    "contractor": "Legacy Professional Services",
    "rowid": "1034607",
    "final_x": "3677036.87752",
    "final_y": "551182.821973",
    "longitude": "-90.08148494118241",
    "latitude": "30.009696392567847",
    "geocoded_column": {
      "latitude": "30.009696392567847",
      "longitude": "-90.08148494118241"
    }
  },
  {
    "service_request": "2023-1034606",
    "request_type": "Traffic Signals/Signs/Striping/Streetlights",
    "request_reason": "Street Light Outage/Malfunction",
    "date_created": "2023-09-12T21:24:57.000",
    "date_modified": "2023-09-12T21:24:58.000",
    "request_status": "Pending",
    "responsible_agency": "Department of Public Works",
    "status": "Assigned to Contractor",
    "contractor": "Legacy Professional Services",
    "rowid": "1034606",
    "longitude": "0.0",
    "latitude": "0.0",
    "geocoded_column": {
      "latitude": "0.0",
      "longitude": "0.0"
    }
  },
  {
    "service_request": "2023-1034605",
    "request_type": "Traffic Signals/Signs/Striping/Streetlights",
    "request_reason": "Street Light Outage/Malfunction",
    "date_created": "2023-09-12T21:21:23.000",
    "date_modified": "2023-09-12T21:21:24.000",
    "request_status": "Pending",
    "responsible_agency": "Department of Public Works",
    "final_address": "WEST END BLVD & SAPPHIRE ST",
    "address_councildis": "D",
    "status": "Assigned to Contractor",
    "contractor": "Legacy Professional Services",
    "rowid": "1034605",
    "final_x": "3667020.1",
    "final_y": "555417.48",
    "longitude": "-90.11298913331144",
    "latitude": "30.021637315567204",
    "geocoded_column": {
      "latitude": "30.021637315567204",
      "longitude": "-90.11298913331144"
    }
  },
  {
    "service_request": "2023-1034604",
    "request_type": "Roads/Drainage",
    "request_reason": "Pothole",
    "date_created": "2023-09-12T21:20:26.000",
    "date_modified": "2023-09-12T21:20:26.000",
    "request_status": "Pending",
    "responsible_agency": "Department of Public Works",
    "final_address": "1312 Milan St",
    "address_councildis": "B",
    "status": "Pending",
    "rowid": "1034604",
    "final_x": "3671625.82823",
    "final_y": "520286.919608",
    "longitude": "-90.09963137110304",
    "latitude": "29.92490447494246",
    "geocoded_column": {
      "latitude": "29.92490447494246",
      "longitude": "-90.09963137110304"
    }
  },
  {
    "service_request": "2023-1034603",
    "request_type": "Traffic Signals/Signs/Striping/Streetlights",
    "request_reason": "Street Light Outage/Malfunction",
    "date_created": "2023-09-12T21:14:32.000",
    "date_modified": "2023-09-12T21:14:32.000",
    "request_status": "Pending",
    "responsible_agency": "Department of Public Works",
    "status": "Assigned to Contractor",
    "contractor": "Legacy Professional Services",
    "rowid": "1034603",
    "longitude": "0.0",
    "latitude": "0.0",
    "geocoded_column": {
      "latitude": "0.0",
      "longitude": "0.0"
    }
  },
  {
    "service_request": "2023-1034602",
    "request_type": "Traffic Signals/Signs/Striping/Streetlights",
    "request_reason": "Street Light Outage/Malfunction",
    "date_created": "2023-09-12T21:06:50.000",
    "date_modified": "2023-09-12T21:06:51.000",
    "request_status": "Pending",
    "responsible_agency": "Department of Public Works",
    "final_address": "200 Lakeshore Prkwy",
    "address_councildis": "D",
    "status": "Assigned to Contractor",
    "contractor": "Legacy Professional Services",
    "rowid": "1034602",
    "final_x": "3667199.01741",
    "final_y": "556472.106394",
    "longitude": "-90.11238829221853",
    "latitude": "30.02453192294092",
    "geocoded_column": {
      "latitude": "30.02453192294092",
      "longitude": "-90.11238829221853"
    }
  },
  {
    "service_request": "2023-1034601",
    "request_type": "Property Maintenance",
    "request_reason": "Property Maintenance",
    "date_created": "2023-09-12T20:38:58.000",
    "date_modified": "2023-09-12T20:38:58.000",
    "request_status": "Pending",
    "responsible_agency": "Department of Code Enforcement",
    "final_address": "5042 Toulon St",
    "address_councildis": "E",
    "status": "Pending",
    "rowid": "1034601",
    "final_x": "3723591.50022",
    "final_y": "561562.215583",
    "longitude": "-89.93400391160907",
    "latitude": "30.036754867934103",
    "geocoded_column": {
      "latitude": "30.036754867934103",
      "longitude": "-89.93400391160907"
    }
  },
  {
    "service_request": "2023-1034600",
    "request_type": "Traffic Signals/Signs/Striping/Streetlights",
    "request_reason": "Street Light Outage/Malfunction",
    "date_created": "2023-09-12T20:37:26.000",
    "date_modified": "2023-09-12T20:37:27.000",
    "request_status": "Pending",
    "responsible_agency": "Department of Public Works",
    "final_address": "301 Decatur St",
    "address_councildis": "C",
    "status": "Assigned to Contractor",
    "contractor": "Legacy Professional Services",
    "rowid": "1034600",
    "final_x": "3682266.63861",
    "final_y": "530879.472258",
    "longitude": "-90.0656719309739",
    "latitude": "29.953711149639627",
    "geocoded_column": {
      "latitude": "29.953711149639627",
      "longitude": "-90.0656719309739"
    }
  },
  {
    "service_request": "2023-1034599",
    "request_type": "Trash/Recycling",
    "request_reason": "MIssed Recycling Pick-Up",
    "date_created": "2023-09-12T20:34:03.000",
    "date_modified": "2023-09-12T20:34:03.000",
    "request_status": "Pending",
    "responsible_agency": "Department of Sanitation",
    "final_address": "204 Brunswick Ct",
    "address_councildis": "C",
    "status": "Assigned to Contractor",
    "contractor": "Richards Disposal",
    "rowid": "1034599",
    "final_x": "3706179.81828",
    "final_y": "517247.912117",
    "longitude": "-89.99066906082668",
    "latitude": "29.915480062086957",
    "geocoded_column": {
      "latitude": "29.915480062086957",
      "longitude": "-89.99066906082668"
    }
  },
  {
    "service_request": "2023-1034598",
    "request_type": "Parks & Parkways",
    "request_reason": "Request Tree Service (Right of Way/Public Property)",
    "date_created": "2023-09-12T20:20:46.000",
    "date_modified": "2023-09-12T20:25:28.000",
    "request_status": "Pending",
    "responsible_agency": "Department of Parks & Parkway",
    "final_address": "BEHRMAN HWY & TULLIS DR",
    "address_councildis": "C",
    "status": "Pending",
    "rowid": "1034598",
    "final_x": "3697481.2",
    "final_y": "514235.98",
    "longitude": "-90.01823411181259",
    "latitude": "29.90747566580172",
    "geocoded_column": {
      "latitude": "29.90747566580172",
      "longitude": "-90.01823411181259"
    }
  },
  {
    "service_request": "2023-1034597",
    "request_type": "Traffic Signals/Signs/Striping/Streetlights",
    "request_reason": "Street Light Outage/Malfunction",
    "date_created": "2023-09-12T20:18:24.000",
    "date_modified": "2023-09-12T20:18:24.000",
    "request_status": "Pending",
    "responsible_agency": "Department of Public Works",
    "final_address": "TALL SPRUCE DR & TULLIS DR",
    "address_councildis": "C",
    "status": "Assigned to Contractor",
    "contractor": "Legacy Professional Services",
    "rowid": "1034597",
    "final_x": "3702869.7",
    "final_y": "511885.58",
    "longitude": "-90.0013137120795",
    "latitude": "29.900841709951383",
    "geocoded_column": {
      "latitude": "29.900841709951383",
      "longitude": "-90.0013137120795"
    }
  },
  {
    "service_request": "2023-1034596",
    "request_type": "Abandoned Vehicles",
    "request_reason": "Abandoned/Junk Vehicles",
    "date_created": "2023-09-12T20:12:45.000",
    "date_modified": "2023-09-12T20:12:45.000",
    "request_status": "Pending",
    "responsible_agency": "Department of Public Works",
    "final_address": "1538 Marigny St",
    "address_councildis": "C",
    "status": "Pending",
    "rowid": "1034596",
    "final_x": "3685192.1741",
    "final_y": "538112.511817",
    "longitude": "-90.056179763173",
    "latitude": "29.973510191821294",
    "geocoded_column": {
      "latitude": "29.973510191821294",
      "longitude": "-90.056179763173"
    }
  },
  {
    "service_request": "2023-1034595",
    "request_type": "Trash/Recycling",
    "request_reason": "Order Trash Cart",
    "date_created": "2023-09-12T20:11:12.000",
    "date_modified": "2023-09-12T20:11:13.000",
    "request_status": "Pending",
    "responsible_agency": "Department of Sanitation",
    "final_address": "4017 Mcfarland St",
    "address_councildis": "D",
    "status": "Assigned to Contractor",
    "contractor": "IV Waste",
    "rowid": "1034595",
    "final_x": "3689465.10806",
    "final_y": "547971.818706",
    "longitude": "-90.04233415971821",
    "latitude": "30.000488105939837",
    "geocoded_column": {
      "latitude": "30.000488105939837",
      "longitude": "-90.04233415971821"
    }
  },
  {
    "service_request": "2023-1034594",
    "request_type": "Abandoned Vehicles",
    "request_reason": "Abandoned/Junk Vehicles",
    "date_created": "2023-09-12T20:10:33.000",
    "date_modified": "2023-09-12T20:10:33.000",
    "request_status": "Pending",
    "responsible_agency": "Department of Public Works",
    "final_address": "1612 Marigny St",
    "address_councildis": "D",
    "status": "Pending",
    "rowid": "1034594",
    "final_x": "3685227.87311",
    "final_y": "538301.255113",
    "longitude": "-90.05606037376376",
    "latitude": "29.97402807580728",
    "geocoded_column": {
      "latitude": "29.97402807580728",
      "longitude": "-90.05606037376376"
    }
  },
  {
    "service_request": "2023-1034593",
    "request_type": "Abandoned Vehicles",
    "request_reason": "Abandoned/Junk Vehicles",
    "date_created": "2023-09-12T20:06:44.000",
    "date_modified": "2023-09-12T20:06:44.000",
    "request_status": "Pending",
    "responsible_agency": "Department of Public Works",
    "final_address": "1728 Marigny St",
    "address_councildis": "D",
    "status": "Pending",
    "rowid": "1034593",
    "final_x": "3685189.96156",
    "final_y": "538782.334857",
    "longitude": "-90.05616317182334",
    "latitude": "29.97535203882532",
    "geocoded_column": {
      "latitude": "29.97535203882532",
      "longitude": "-90.05616317182334"
    }
  },
  {
    "service_request": "2023-1034592",
    "request_type": "Roads/Drainage",
    "request_reason": "Street Subsidence (Sinking)",
    "date_created": "2023-09-12T20:03:48.000",
    "date_modified": "2023-09-12T20:03:49.000",
    "request_status": "Pending",
    "responsible_agency": "Department of Public Works",
    "final_address": "S CARROLLTON AVE & TULANE AVE",
    "address_councildis": "A",
    "status": "Pending",
    "rowid": "1034592",
    "final_x": "3669337.8",
    "final_y": "536308.78",
    "longitude": "-90.10631235722039",
    "latitude": "29.96902690865695",
    "geocoded_column": {
      "latitude": "29.96902690865695",
      "longitude": "-90.10631235722039"
    }
  },
  {
    "service_request": "2023-1034591",
    "request_type": "Traffic Signals/Signs/Striping/Streetlights",
    "request_reason": "Striping/Road Surface Markings",
    "date_created": "2023-09-12T19:41:57.000",
    "date_modified": "2023-09-12T19:41:57.000",
    "request_status": "Pending",
    "responsible_agency": "Department of Public Works",
    "final_address": "3325 Iberville St",
    "address_councildis": "B",
    "status": "Pending",
    "rowid": "1034591",
    "final_x": "3673681.31912",
    "final_y": "536970.707208",
    "longitude": "-90.0925725694529",
    "latitude": "29.970718376243024",
    "geocoded_column": {
      "latitude": "29.970718376243024",
      "longitude": "-90.0925725694529"
    }
  },
  {
    "service_request": "2023-1034590",
    "request_type": "Trash/Recycling",
    "request_reason": "Replace Trash Cart",
    "date_created": "2023-09-12T19:35:35.000",
    "date_modified": "2023-09-12T19:35:35.000",
    "request_status": "Pending",
    "responsible_agency": "Department of Sanitation",
    "final_address": "2125 Soniat St",
    "address_councildis": "B",
    "status": "Assigned to Contractor",
    "contractor": "Richards Disposal",
    "rowid": "1034590",
    "final_x": "3668532.63514",
    "final_y": "523439.032251",
    "longitude": "-90.10928930595556",
    "latitude": "29.93366299236606",
    "geocoded_column": {
      "latitude": "29.93366299236606",
      "longitude": "-90.10928930595556"
    }
  },
  {
    "service_request": "2023-1034589",
    "request_type": "Trash/Recycling",
    "request_reason": "Repair Trash Cart",
    "date_created": "2023-09-12T19:21:23.000",
    "date_modified": "2023-09-12T19:21:24.000",
    "request_status": "Pending",
    "responsible_agency": "Department of Sanitation",
    "final_address": "2008 Milan St Apt 2A",
    "address_councildis": "B",
    "status": "Assigned to Contractor",
    "contractor": "Richards Disposal",
    "rowid": "1034589",
    "final_x": "3671336.21697",
    "final_y": "522502.03161",
    "longitude": "-90.10047034673158",
    "latitude": "29.931003893917886",
    "geocoded_column": {
      "latitude": "29.931003893917886",
      "longitude": "-90.10047034673158"
    }
  },
  {
    "service_request": "2023-1034588",
    "request_type": "Abandoned Vehicles",
    "request_reason": "Abandoned/Junk Vehicles",
    "date_created": "2023-09-12T19:14:31.000",
    "date_modified": "2023-09-12T19:14:31.000",
    "request_status": "Pending",
    "responsible_agency": "Department of Public Works",
    "final_address": "8607 Hickory St",
    "address_councildis": "A",
    "status": "Pending",
    "rowid": "1034588",
    "final_x": "3662039.89472",
    "final_y": "531199.314114",
    "longitude": "-90.12952928006426",
    "latitude": "29.955190408559368",
    "geocoded_column": {
      "latitude": "29.955190408559368",
      "longitude": "-90.12952928006426"
    }
  },
  {
    "service_request": "2023-1034587",
    "request_type": "Trash/Recycling",
    "request_reason": "MIssed Recycling Pick-Up",
    "date_created": "2023-09-12T19:03:58.000",
    "date_modified": "2023-09-12T19:03:59.000",
    "request_status": "Pending",
    "responsible_agency": "Department of Sanitation",
    "final_address": "7733 Mackenzie St",
    "address_councildis": "E",
    "status": "Assigned to Contractor",
    "contractor": "Waste Pro",
    "rowid": "1034587",
    "final_x": "3710712.55473",
    "final_y": "566611.420067",
    "longitude": "-89.97451449681382",
    "latitude": "30.051064325184704",
    "geocoded_column": {
      "latitude": "30.051064325184704",
      "longitude": "-89.97451449681382"
    }
  },
  {
    "service_request": "2023-1034586",
    "request_type": "Trash/Recycling",
    "request_reason": "Missed Trash Pick-Up",
    "date_created": "2023-09-12T19:02:02.000",
    "date_modified": "2023-09-12T19:02:03.000",
    "request_status": "Pending",
    "responsible_agency": "Department of Sanitation",
    "final_address": "GENERAL TAYLOR & DRYADES ST",
    "address_councildis": "B",
    "status": "Assigned to Contractor",
    "contractor": "Richards Disposal",
    "rowid": "1034586",
    "final_x": "3672385.0",
    "final_y": "522109.18",
    "longitude": "-90.09717285273055",
    "latitude": "29.92989260863924",
    "geocoded_column": {
      "latitude": "29.92989260863924",
      "longitude": "-90.09717285273055"
    }
  },
  {
    "service_request": "2023-1034585",
    "request_type": "Trash/Recycling",
    "request_reason": "Request a Large Item Pick Up",
    "date_created": "2023-09-12T19:01:41.000",
    "date_modified": "2023-09-12T19:01:42.000",
    "request_status": "Pending",
    "responsible_agency": "Department of Sanitation",
    "final_address": "1308 Ursulines Ave",
    "address_councildis": "C",
    "status": "Assigned to Contractor",
    "contractor": "Richards Disposal",
    "rowid": "1034585",
    "final_x": "3681596.99592",
    "final_y": "535013.26215",
    "longitude": "-90.06764220151743",
    "latitude": "29.965098017072226",
    "geocoded_column": {
      "latitude": "29.965098017072226",
      "longitude": "-90.06764220151743"
    }
  },
  {
    "service_request": "2023-1034584",
    "request_type": "Traffic Signals/Signs/Striping/Streetlights",
    "request_reason": "Traffic Signal Malfunctioning/Damaged",
    "date_created": "2023-09-12T18:55:24.000",
    "date_modified": "2023-09-12T18:55:24.000",
    "request_status": "Pending",
    "responsible_agency": "Department of Public Works",
    "final_address": "CALLIOPE ST & TCHOUPITOULAS ST",
    "address_councildis": "B",
    "status": "Pending",
    "rowid": "1034584",
    "final_x": "3681916.5",
    "final_y": "525711.48",
    "longitude": "-90.06695787144201",
    "latitude": "29.939511554279065",
    "geocoded_column": {
      "latitude": "29.939511554279065",
      "longitude": "-90.06695787144201"
    }
  },
  {
    "service_request": "2023-1034583",
    "request_type": "Trash/Recycling",
    "request_reason": "Request a Large Item Pick Up",
    "date_created": "2023-09-12T18:55:20.000",
    "date_modified": "2023-09-12T18:55:20.000",
    "request_status": "Pending",
    "responsible_agency": "Department of Sanitation",
    "final_address": "10131 Airwood St",
    "address_councildis": "E",
    "status": "Assigned to Contractor",
    "contractor": "Waste Pro",
    "rowid": "1034583",
    "final_x": "3713062.62117",
    "final_y": "556247.541978",
    "longitude": "-89.96747726254482",
    "latitude": "30.02249097364672",
    "geocoded_column": {
      "latitude": "30.02249097364672",
      "longitude": "-89.96747726254482"
    }
  },
  {
    "service_request": "2023-1034582",
    "request_type": "Trash/Recycling",
    "request_reason": "Request a Large Item Pick Up",
    "date_created": "2023-09-12T18:51:11.000",
    "date_modified": "2023-09-12T18:51:12.000",
    "request_status": "Pending",
    "responsible_agency": "Department of Sanitation",
    "final_address": "4712 Charlene Dr",
    "address_councildis": "E",
    "status": "Assigned to Contractor",
    "contractor": "Waste Pro",
    "rowid": "1034582",
    "final_x": "3707865.74961",
    "final_y": "555319.713689",
    "longitude": "-89.9839325130393",
    "latitude": "30.02010911494464",
    "geocoded_column": {
      "latitude": "30.02010911494464",
      "longitude": "-89.9839325130393"
    }
  },
  {
    "service_request": "2023-1034581",
    "request_type": "Mosquito, Termite & Rodent Control",
    "request_reason": "Rodent Complaint (Rats)",
    "date_created": "2023-09-12T18:39:14.000",
    "date_modified": "2023-09-12T18:39:14.000",
    "request_status": "Pending",
    "responsible_agency": "Mosquito, Termite & Rodent Control Board",
    "final_address": "1028 Joliet St",
    "address_councildis": "A",
    "status": "Pending",
    "rowid": "1034581",
    "final_x": "3660569.14432",
    "final_y": "529032.0592",
    "longitude": "-90.13424500580207",
    "latitude": "29.949273557312065",
    "geocoded_column": {
      "latitude": "29.949273557312065",
      "longitude": "-90.13424500580207"
    }
  },
  {
    "service_request": "2023-1034580",
    "request_type": "Trash/Recycling",
    "request_reason": "Missed Trash Pick-Up",
    "date_created": "2023-09-12T18:37:30.000",
    "date_modified": "2023-09-12T18:54:17.000",
    "request_status": "Pending",
    "responsible_agency": "Department of Sanitation",
    "final_address": "11511 Morrison Rd",
    "address_councildis": "E",
    "status": "Assigned to Contractor",
    "contractor": "Waste Pro",
    "rowid": "1034580",
    "final_x": "3712545.59979",
    "final_y": "566033.916643",
    "longitude": "-89.96874265081156",
    "latitude": "30.04941652807791",
    "geocoded_column": {
      "latitude": "30.04941652807791",
      "longitude": "-89.96874265081156"
    }
  },
  {
    "service_request": "2023-1034579",
    "request_type": "Property Maintenance",
    "request_reason": "Property Maintenance",
    "date_created": "2023-09-12T18:33:52.000",
    "date_modified": "2023-09-12T18:33:52.000",
    "request_status": "Pending",
    "responsible_agency": "Department of Code Enforcement",
    "final_address": "924 N Rocheblave St",
    "address_councildis": "D",
    "status": "Pending",
    "rowid": "1034579",
    "final_x": "3678129.06837",
    "final_y": "537067.932296",
    "longitude": "-90.07852266921049",
    "latitude": "29.970852533432534",
    "geocoded_column": {
      "latitude": "29.970852533432534",
      "longitude": "-90.07852266921049"
    }
  },
  {
    "service_request": "2023-1034578",
    "request_type": "Trash/Recycling",
    "request_reason": "Request a Large Item Pick Up",
    "date_created": "2023-09-12T18:25:26.000",
    "date_modified": "2023-09-12T18:25:27.000",
    "request_status": "Pending",
    "responsible_agency": "Department of Sanitation",
    "final_address": "4631 Spain St",
    "address_councildis": "D",
    "status": "Assigned to Contractor",
    "contractor": "IV Waste",
    "rowid": "1034578",
    "final_x": "3685099.40399",
    "final_y": "549768.357524",
    "longitude": "-90.0560624105502",
    "latitude": "30.005562464637144",
    "geocoded_column": {
      "latitude": "30.005562464637144",
      "longitude": "-90.0560624105502"
    }
  },
  {
    "service_request": "2023-1034577",
    "request_type": "Trash/Recycling",
    "request_reason": "Illegal Dumping",
    "date_created": "2023-09-12T18:23:27.000",
    "date_modified": "2023-09-12T18:23:27.000",
    "request_status": "Pending",
    "responsible_agency": "Department of Sanitation",
    "final_address": "1400 BLK Saint Ferdinand St",
    "address_councildis": "C",
    "status": "Pending",
    "rowid": "1034577",
    "final_x": "3688048.94178",
    "final_y": "537617.380262",
    "longitude": "-90.04717506749725",
    "latitude": "29.972060891577854",
    "geocoded_column": {
      "latitude": "29.972060891577854",
      "longitude": "-90.04717506749725"
    }
  },
  {
    "service_request": "2023-1034576",
    "request_type": "Traffic Signals/Signs/Striping/Streetlights",
    "request_reason": "Street Light Outage/Malfunction",
    "date_created": "2023-09-12T18:21:53.000",
    "date_modified": "2023-09-12T18:21:53.000",
    "request_status": "Pending",
    "responsible_agency": "Department of Public Works",
    "final_address": "1514 General Collins Ave",
    "address_councildis": "C",
    "status": "Assigned to Contractor",
    "contractor": "Legacy Professional Services",
    "rowid": "1034576",
    "final_x": "3698621.60842",
    "final_y": "525579.719037",
    "longitude": "-90.01422270615639",
    "latitude": "29.938631032744322",
    "geocoded_column": {
      "latitude": "29.938631032744322",
      "longitude": "-90.01422270615639"
    }
  },
  {
    "service_request": "2023-1034575",
    "request_type": "Roads/Drainage",
    "request_reason": "Street Flooding / Drainage",
    "date_created": "2023-09-12T18:20:17.000",
    "date_modified": "2023-09-12T18:20:17.000",
    "request_status": "Pending",
    "responsible_agency": "Department of Public Works",
    "final_address": "2711 Cupid St",
    "address_councildis": "C",
    "status": "Pending",
    "rowid": "1034575",
    "final_x": "3700271.34429",
    "final_y": "520845.131257",
    "longitude": "-90.00918708424761",
    "latitude": "29.925560231652884",
    "geocoded_column": {
      "latitude": "29.925560231652884",
      "longitude": "-90.00918708424761"
    }
  },
  {
    "service_request": "2023-1034573",
    "request_type": "Property Maintenance",
    "request_reason": "Property Maintenance",
    "date_created": "2023-09-12T18:13:47.000",
    "date_modified": "2023-09-12T18:13:48.000",
    "request_status": "Pending",
    "responsible_agency": "Department of Code Enforcement",
    "final_address": "3218 Peoples Ave",
    "address_councildis": "D",
    "status": "Pending",
    "rowid": "1034573",
    "final_x": "3688615.18121",
    "final_y": "544900.482255",
    "longitude": "-90.04512820574988",
    "latitude": "29.99206934391893",
    "geocoded_column": {
      "latitude": "29.99206934391893",
      "longitude": "-90.04512820574988"
    }
  },
  {
    "service_request": "2023-1034572",
    "request_type": "Traffic Signals/Signs/Striping/Streetlights",
    "request_reason": "Street Light Outage/Malfunction",
    "date_created": "2023-09-12T18:13:30.000",
    "date_modified": "2023-09-12T18:13:31.000",
    "request_status": "Pending",
    "responsible_agency": "Department of Public Works",
    "final_address": "2683 Cupid St",
    "address_councildis": "C",
    "status": "Assigned to Contractor",
    "contractor": "Legacy Professional Services",
    "rowid": "1034572",
    "final_x": "3700276.29424",
    "final_y": "520961.531513",
    "longitude": "-90.00916721264609",
    "latitude": "29.92588013501409",
    "geocoded_column": {
      "latitude": "29.92588013501409",
      "longitude": "-90.00916721264609"
    }
  },
  {
    "service_request": "2023-1034571",
    "request_type": "Abandoned Vehicles",
    "request_reason": "Abandoned/Junk Vehicles",
    "date_created": "2023-09-12T18:09:58.000",
    "date_modified": "2023-09-12T18:09:58.000",
    "request_status": "Pending",
    "responsible_agency": "Department of Public Works",
    "final_address": "Palmyra Street & South Carrollton Avenue",
    "address_councildis": "A",
    "status": "Pending",
    "rowid": "1034571",
    "final_x": "3670557.16731",
    "final_y": "537751.564809",
    "longitude": "-90.10241255488828",
    "latitude": "29.972958121769008",
    "geocoded_column": {
      "latitude": "29.972958121769008",
      "longitude": "-90.10241255488828"
    }
  },
  {
    "service_request": "2023-1034570",
    "request_type": "Trash/Recycling",
    "request_reason": "Replace Trash Cart",
    "date_created": "2023-09-12T18:08:16.000",
    "date_modified": "2023-09-12T18:08:17.000",
    "request_status": "Pending",
    "responsible_agency": "Department of Sanitation",
    "final_address": "208 S Norman C Francis Prkwy",
    "address_councildis": "B",
    "status": "Assigned to Contractor",
    "contractor": "Richards Disposal",
    "rowid": "1034570",
    "final_x": "3672999.80225",
    "final_y": "536229.407367",
    "longitude": "-90.09475019267448",
    "latitude": "29.96870032606649",
    "geocoded_column": {
      "latitude": "29.96870032606649",
      "longitude": "-90.09475019267448"
    }
  },
  {
    "service_request": "2023-1034569",
    "request_type": "Abandoned Vehicles",
    "request_reason": "Abandoned/Junk Vehicles",
    "date_created": "2023-09-12T18:07:38.000",
    "date_modified": "2023-09-12T18:07:38.000",
    "request_status": "Pending",
    "responsible_agency": "Department of Public Works",
    "final_address": "1400 BLK Saint Ferdinand St",
    "address_councildis": "C",
    "status": "Pending",
    "rowid": "1034569",
    "final_x": "3688048.94178",
    "final_y": "537617.380262",
    "longitude": "-90.04717506749725",
    "latitude": "29.972060891577854",
    "geocoded_column": {
      "latitude": "29.972060891577854",
      "longitude": "-90.04717506749725"
    }
  },
  {
    "service_request": "2023-1034568",
    "request_type": "Trash/Recycling",
    "request_reason": "Missed Trash Pick-Up",
    "date_created": "2023-09-12T18:04:36.000",
    "date_modified": "2023-09-12T18:04:37.000",
    "request_status": "Pending",
    "responsible_agency": "Department of Sanitation",
    "final_address": "4008 America St",
    "address_councildis": "E",
    "status": "Assigned to Contractor",
    "contractor": "Waste Pro",
    "rowid": "1034568",
    "final_x": "3700013.9297",
    "final_y": "551616.106453",
    "longitude": "-90.00887689972433",
    "latitude": "30.01017751302915",
    "geocoded_column": {
      "latitude": "30.01017751302915",
      "longitude": "-90.00887689972433"
    }
  },
  {
    "service_request": "2023-1034567",
    "request_type": "Traffic Signals/Signs/Striping/Streetlights",
    "request_reason": "Street Light Outage/Malfunction",
    "date_created": "2023-09-12T17:56:03.000",
    "date_modified": "2023-09-12T17:56:03.000",
    "request_status": "Pending",
    "responsible_agency": "Department of Public Works",
    "final_address": "GERMAIN ST & GENERAL HAIG ST",
    "address_councildis": "A",
    "status": "Assigned to Contractor",
    "contractor": "Legacy Professional Services",
    "rowid": "1034567",
    "final_x": "3670589.2",
    "final_y": "547745.68",
    "longitude": "-90.10197219800011",
    "latitude": "30.00043756969051",
    "geocoded_column": {
      "latitude": "30.00043756969051",
      "longitude": "-90.10197219800011"
    }
  },
  {
    "service_request": "2023-1034566",
    "request_type": "Trash/Recycling",
    "request_reason": "Missed Trash Pick-Up",
    "date_created": "2023-09-12T17:51:55.000",
    "date_modified": "2023-09-12T17:51:56.000",
    "request_status": "Pending",
    "responsible_agency": "Department of Sanitation",
    "final_address": "630 Majestic Pl",
    "address_councildis": "C",
    "status": "Assigned to Contractor",
    "contractor": "Richards Disposal",
    "rowid": "1034566",
    "final_x": "3687952.87113",
    "final_y": "526312.277438",
    "longitude": "-90.04787900936857",
    "latitude": "29.940978723276704",
    "geocoded_column": {
      "latitude": "29.940978723276704",
      "longitude": "-90.04787900936857"
    }
  },
  {
    "service_request": "2023-1034565",
    "request_type": "Trash/Recycling",
    "request_reason": "Request a Large Item Pick Up",
    "date_created": "2023-09-12T17:49:30.000",
    "date_modified": "2023-09-12T17:49:31.000",
    "request_status": "Pending",
    "responsible_agency": "Department of Sanitation",
    "final_address": "215 Cherokee St",
    "address_councildis": "A",
    "status": "Assigned to Contractor",
    "contractor": "Richards Disposal",
    "rowid": "1034565",
    "final_x": "3661119.808",
    "final_y": "524241.707836",
    "longitude": "-90.13266479755916",
    "latitude": "29.936085756048673",
    "geocoded_column": {
      "latitude": "29.936085756048673",
      "longitude": "-90.13266479755916"
    }
  },
  {
    "service_request": "2023-1034564",
    "request_type": "Traffic Signals/Signs/Striping/Streetlights",
    "request_reason": "Traffic Signal Malfunctioning/Damaged",
    "date_created": "2023-09-12T17:43:03.000",
    "date_modified": "2023-09-12T17:43:04.000",
    "request_status": "Pending",
    "responsible_agency": "Department of Public Works",
    "final_address": "EARHART BLVD & S NORMAN C FRANCIS PKWY",
    "address_councildis": "B",
    "status": "Pending",
    "rowid": "1034564",
    "final_x": "3669903.8",
    "final_y": "531879.48",
    "longitude": "-90.10467487626596",
    "latitude": "29.956831128087114",
    "geocoded_column": {
      "latitude": "29.956831128087114",
      "longitude": "-90.10467487626596"
    }
  },
  {
    "service_request": "2023-1034563",
    "request_type": "Safety & Permits",
    "request_reason": "Licenses & Permits",
    "date_created": "2023-09-12T17:31:54.000",
    "date_modified": "2023-09-12T17:31:54.000",
    "request_status": "Pending",
    "responsible_agency": "Safety and Permits",
    "final_address": "1826 Fats Domino Ave",
    "address_councildis": "E",
    "status": "Pending",
    "rowid": "1034563",
    "final_x": "3698693.04157",
    "final_y": "536634.158087",
    "longitude": "-90.01359522010313",
    "latitude": "29.969024574653155",
    "geocoded_column": {
      "latitude": "29.969024574653155",
      "longitude": "-90.01359522010313"
    }
  },
  {
    "service_request": "2023-1034562",
    "request_type": "Trash/Recycling",
    "request_reason": "Missed Trash Pick-Up",
    "date_created": "2023-09-12T17:29:38.000",
    "date_modified": "2023-09-12T17:29:39.000",
    "request_status": "Pending",
    "responsible_agency": "Department of Sanitation",
    "final_address": "5330 Camp St",
    "address_councildis": "B",
    "status": "Assigned to Contractor",
    "contractor": "Richards Disposal",
    "rowid": "1034562",
    "final_x": "3667254.12948",
    "final_y": "519003.313463",
    "longitude": "-90.11347457721239",
    "latitude": "29.921503664049855",
    "geocoded_column": {
      "latitude": "29.921503664049855",
      "longitude": "-90.11347457721239"
    }
  },
  {
    "service_request": "2023-1034561",
    "request_type": "Property Maintenance",
    "request_reason": "Property Maintenance",
    "date_created": "2023-09-12T17:24:02.000",
    "date_modified": "2023-09-12T17:24:02.000",
    "request_status": "Pending",
    "responsible_agency": "Department of Code Enforcement",
    "final_address": "1883 Gentilly Blvd",
    "address_councildis": "A",
    "status": "Pending",
    "rowid": "1034561",
    "final_x": "3678830.12802",
    "final_y": "542947.866445",
    "longitude": "-90.07610488702912",
    "latitude": "29.98699918888917",
    "geocoded_column": {
      "latitude": "29.98699918888917",
      "longitude": "-90.07610488702912"
    }
  },
  {
    "service_request": "2023-1034560",
    "request_type": "Trash/Recycling",
    "request_reason": "Illegal Dumping",
    "date_created": "2023-09-12T17:22:23.000",
    "date_modified": "2023-09-12T17:22:23.000",
    "request_status": "Pending",
    "responsible_agency": "Department of Sanitation",
    "final_address": "1900 BLK General Ogden St",
    "address_councildis": "A",
    "status": "Pending",
    "rowid": "1034560",
    "final_x": "3661642.41913",
    "final_y": "532224.918606",
    "longitude": "-90.13075037896166",
    "latitude": "29.958021965469758",
    "geocoded_column": {
      "latitude": "29.958021965469758",
      "longitude": "-90.13075037896166"
    }
  },
  {
    "service_request": "2023-1034559",
    "request_type": "Property Maintenance",
    "request_reason": "Property Maintenance",
    "date_created": "2023-09-12T17:22:16.000",
    "date_modified": "2023-09-12T17:22:16.000",
    "request_status": "Pending",
    "responsible_agency": "Department of Code Enforcement",
    "final_address": "1885 Gentilly Blvd",
    "address_councildis": "A",
    "status": "Pending",
    "rowid": "1034559",
    "final_x": "3678857.0925",
    "final_y": "542985.083661",
    "longitude": "-90.07601842609301",
    "latitude": "29.987100709698577",
    "geocoded_column": {
      "latitude": "29.987100709698577",
      "longitude": "-90.07601842609301"
    }
  },
  {
    "service_request": "2023-1034558",
    "request_type": "Property Maintenance",
    "request_reason": "Property Maintenance",
    "date_created": "2023-09-12T17:17:07.000",
    "date_modified": "2023-09-12T17:17:07.000",
    "request_status": "Pending",
    "responsible_agency": "Department of Code Enforcement",
    "final_address": "9034 Cohn St",
    "address_councildis": "A",
    "status": "Pending",
    "rowid": "1034558",
    "final_x": "3661053.53152",
    "final_y": "532474.338052",
    "longitude": "-90.13260167775128",
    "latitude": "29.958724769418644",
    "geocoded_column": {
      "latitude": "29.958724769418644",
      "longitude": "-90.13260167775128"
    }
  },
  {
    "service_request": "2023-1034557",
    "request_type": "Abandoned Vehicles",
    "request_reason": "Abandoned/Junk Vehicles",
    "date_created": "2023-09-12T17:06:33.000",
    "date_modified": "2023-09-12T17:15:10.000",
    "request_status": "Pending",
    "responsible_agency": "Department of Public Works",
    "final_address": "N PRIEUR ST & ORLEANS AVE",
    "address_councildis": "D",
    "status": "Pending",
    "rowid": "1034557",
    "final_x": "3678999.6",
    "final_y": "535370.38",
    "longitude": "-90.07583225569398",
    "latitude": "29.966158603522178",
    "geocoded_column": {
      "latitude": "29.966158603522178",
      "longitude": "-90.07583225569398"
    }
  },
  {
    "service_request": "2023-1034556",
    "request_type": "Trash/Recycling",
    "request_reason": "Request a Large Item Pick Up",
    "date_created": "2023-09-12T17:03:50.000",
    "date_modified": "2023-09-12T17:09:15.000",
    "request_status": "Pending",
    "responsible_agency": "Department of Sanitation",
    "final_address": "23 Christopher Ct",
    "address_councildis": "E",
    "status": "Assigned to Contractor",
    "contractor": "Waste Pro",
    "rowid": "1034556",
    "final_x": "3716606.24517",
    "final_y": "570267.632039",
    "longitude": "-89.95574779472973",
    "latitude": "30.060923907855518",
    "geocoded_column": {
      "latitude": "30.060923907855518",
      "longitude": "-89.95574779472973"
    }
  },
  {
    "service_request": "2023-1034555",
    "request_type": "Roads/Drainage",
    "request_reason": "Pothole",
    "date_created": "2023-09-12T17:03:21.000",
    "date_modified": "2023-09-12T17:09:14.000",
    "request_status": "Pending",
    "responsible_agency": "Department of Public Works",
    "final_address": "CONSTANCE ST & FELICITY ST",
    "address_councildis": "B",
    "status": "Pending",
    "rowid": "1034555",
    "final_x": "3680313.0",
    "final_y": "522729.18",
    "longitude": "-90.0721239697431",
    "latitude": "29.931359846787213",
    "geocoded_column": {
      "latitude": "29.931359846787213",
      "longitude": "-90.0721239697431"
    }
  },
  {
    "service_request": "2023-1034554",
    "request_type": "Trash/Recycling",
    "request_reason": "Order Recycling Cart",
    "date_created": "2023-09-12T17:01:59.000",
    "date_modified": "2023-09-12T17:01:59.000",
    "request_status": "Pending",
    "responsible_agency": "Department of Sanitation",
    "final_address": "3450 Magazine St",
    "address_councildis": "B",
    "status": "Pending",
    "rowid": "1034554",
    "final_x": "3674611.81595",
    "final_y": "519354.234039",
    "longitude": "-90.09023751421243",
    "latitude": "29.92225115115243",
    "geocoded_column": {
      "latitude": "29.92225115115243",
      "longitude": "-90.09023751421243"
    }
  },
  {
    "service_request": "2023-1034553",
    "request_type": "Trash/Recycling",
    "request_reason": "Order Trash Cart",
    "date_created": "2023-09-12T17:00:21.000",
    "date_modified": "2023-09-12T17:09:08.000",
    "request_status": "Pending",
    "responsible_agency": "Department of Sanitation",
    "final_address": "3450 Magazine St",
    "address_councildis": "B",
    "status": "Assigned to Contractor",
    "contractor": "Richards Disposal",
    "rowid": "1034553",
    "final_x": "3674611.81595",
    "final_y": "519354.234039",
    "longitude": "-90.09023751421243",
    "latitude": "29.92225115115243",
    "geocoded_column": {
      "latitude": "29.92225115115243",
      "longitude": "-90.09023751421243"
    }
  },
  {
    "service_request": "2023-1034552",
    "request_type": "Traffic Signals/Signs/Striping/Streetlights",
    "request_reason": "Traffic Signal Malfunctioning/Damaged",
    "date_created": "2023-09-12T16:59:56.000",
    "date_modified": "2023-09-12T17:09:08.000",
    "request_status": "Pending",
    "responsible_agency": "Department of Public Works",
    "final_address": "EARHART BLVD & S NORMAN C FRANCIS PKWY",
    "address_councildis": "B",
    "status": "Pending",
    "rowid": "1034552",
    "final_x": "3669650.3",
    "final_y": "531842.58",
    "longitude": "-90.10547659956615",
    "latitude": "29.956737137022944",
    "geocoded_column": {
      "latitude": "29.956737137022944",
      "longitude": "-90.10547659956615"
    }
  },
  {
    "service_request": "2023-1034551",
    "request_type": "Trash/Recycling",
    "request_reason": "Repair Trash Cart",
    "date_created": "2023-09-12T16:53:35.000",
    "date_modified": "2023-09-12T17:08:59.000",
    "request_status": "Pending",
    "responsible_agency": "Department of Sanitation",
    "final_address": "417 Seattle St",
    "address_councildis": "A",
    "status": "Assigned to Contractor",
    "contractor": "IV Waste",
    "rowid": "1034551",
    "final_x": "3664814.66509",
    "final_y": "552221.980502",
    "longitude": "-90.12006466218736",
    "latitude": "30.012915212667792",
    "geocoded_column": {
      "latitude": "30.012915212667792",
      "longitude": "-90.12006466218736"
    }
  },
  {
    "service_request": "2023-1034550",
    "request_type": "Roads/Drainage",
    "request_reason": "Pothole",
    "date_created": "2023-09-12T16:50:32.000",
    "date_modified": "2023-09-12T16:50:32.000",
    "request_status": "Pending",
    "responsible_agency": "Department of Public Works",
    "final_address": "5731 Hurst St",
    "address_councildis": "A",
    "status": "Pending",
    "rowid": "1034550",
    "final_x": "3666265.75079",
    "final_y": "521691.120249",
    "longitude": "-90.11650437177222",
    "latitude": "29.928923180872253",
    "geocoded_column": {
      "latitude": "29.928923180872253",
      "longitude": "-90.11650437177222"
    }
  },
  {
    "service_request": "2023-1034549",
    "request_type": "Traffic Signals/Signs/Striping/Streetlights",
    "request_reason": "Traffic Sign Missing/Damaged",
    "date_created": "2023-09-12T16:42:52.000",
    "date_modified": "2023-09-12T16:42:52.000",
    "request_status": "Pending",
    "responsible_agency": "Department of Public Works",
    "final_address": "JOSEPH ST & STORY ST",
    "address_councildis": "A",
    "status": "Pending",
    "rowid": "1034549",
    "final_x": "3667725.4",
    "final_y": "526096.88",
    "longitude": "-90.11174826143508",
    "latitude": "29.94099490721617",
    "geocoded_column": {
      "latitude": "29.94099490721617",
      "longitude": "-90.11174826143508"
    }
  },
  {
    "service_request": "2023-1034548",
    "request_type": "Roads/Drainage",
    "request_reason": "Damaged Sidewalk",
    "date_created": "2023-09-12T16:42:06.000",
    "date_modified": "2023-09-12T16:42:06.000",
    "request_status": "Pending",
    "responsible_agency": "Department of Public Works",
    "final_address": "92 E Park Pl",
    "address_councildis": "A",
    "status": "Pending",
    "rowid": "1034548",
    "final_x": "3670156.76007",
    "final_y": "544679.961743",
    "longitude": "-90.1034422586301",
    "latitude": "29.992020676262108",
    "geocoded_column": {
      "latitude": "29.992020676262108",
      "longitude": "-90.1034422586301"
    }
  },
  {
    "service_request": "2023-1034547",
    "request_type": "Trash/Recycling",
    "request_reason": "Replace Trash Cart",
    "date_created": "2023-09-12T16:39:07.000",
    "date_modified": "2023-09-12T16:50:01.000",
    "request_status": "Pending",
    "responsible_agency": "Department of Sanitation",
    "final_address": "215 S Bernadotte St",
    "address_councildis": "A",
    "status": "Assigned to Contractor",
    "contractor": "Richards Disposal",
    "rowid": "1034547",
    "final_x": "3668454.5058",
    "final_y": "539650.074762",
    "longitude": "-90.10898911949421",
    "latitude": "29.978240327213893",
    "geocoded_column": {
      "latitude": "29.978240327213893",
      "longitude": "-90.10898911949421"
    }
  },
  {
    "service_request": "2023-1034546",
    "request_type": "Trash/Recycling",
    "request_reason": "Order Trash Cart",
    "date_created": "2023-09-12T16:38:58.000",
    "date_modified": "2023-09-12T16:49:50.000",
    "request_status": "Pending",
    "responsible_agency": "Department of Sanitation",
    "final_address": "3724 S Liberty St",
    "address_councildis": "B",
    "status": "Assigned to Contractor",
    "contractor": "Richards Disposal",
    "rowid": "1034546",
    "final_x": "3672401.33691",
    "final_y": "523524.735419",
    "longitude": "-90.09707306678291",
    "latitude": "29.933784444572446",
    "geocoded_column": {
      "latitude": "29.933784444572446",
      "longitude": "-90.09707306678291"
    }
  },
  {
    "service_request": "2023-1034545",
    "request_type": "Roads/Drainage",
    "request_reason": "WaterMain Break",
    "date_created": "2023-09-12T16:31:25.000",
    "date_modified": "2023-09-12T16:31:25.000",
    "request_status": "Pending",
    "responsible_agency": "Department of Public Works",
    "final_address": "3141 Desaix Blvd",
    "address_councildis": "D",
    "status": "Pending",
    "rowid": "1034545",
    "final_x": "3678729.06779",
    "final_y": "543650.897614",
    "longitude": "-90.07639974048726",
    "latitude": "29.988935327328903",
    "geocoded_column": {
      "latitude": "29.988935327328903",
      "longitude": "-90.07639974048726"
    }
  },
  {
    "service_request": "2023-1034544",
    "request_type": "Parks & Parkways",
    "request_reason": "Request Tree Service (Right of Way/Public Property)",
    "date_created": "2023-09-12T16:29:53.000",
    "date_modified": "2023-09-12T16:36:34.000",
    "request_status": "Pending",
    "responsible_agency": "Department of Parks & Parkway",
    "final_address": "3318 Plymouth Pl",
    "address_councildis": "C",
    "status": "Pending",
    "rowid": "1034544",
    "final_x": "3702871.65278",
    "final_y": "518972.820343",
    "longitude": "-90.00104748897007",
    "latitude": "29.920329141190052",
    "geocoded_column": {
      "latitude": "29.920329141190052",
      "longitude": "-90.00104748897007"
    }
  },
  {
    "service_request": "2023-1034543",
    "request_type": "Roads/Drainage",
    "request_reason": "Pothole",
    "date_created": "2023-09-12T16:28:50.000",
    "date_modified": "2023-09-12T16:28:50.000",
    "request_status": "Pending",
    "responsible_agency": "Department of Public Works",
    "final_address": "1420 Valence St",
    "address_councildis": "B",
    "status": "Pending",
    "rowid": "1034543",
    "final_x": "3669700.59668",
    "final_y": "520355.41356",
    "longitude": "-90.10570639693285",
    "latitude": "29.925149667961925",
    "geocoded_column": {
      "latitude": "29.925149667961925",
      "longitude": "-90.10570639693285"
    }
  },
  {
    "service_request": "2023-1034542",
    "request_type": "Trash/Recycling",
    "request_reason": "Repair Trash Cart",
    "date_created": "2023-09-12T16:28:12.000",
    "date_modified": "2023-09-12T16:34:13.000",
    "request_status": "Pending",
    "responsible_agency": "Department of Sanitation",
    "final_address": "2441 Cumberland Ct",
    "address_councildis": "C",
    "status": "Assigned to Contractor",
    "contractor": "Richards Disposal",
    "rowid": "1034542",
    "final_x": "3704961.47473",
    "final_y": "522230.691962",
    "longitude": "-89.994330790457",
    "latitude": "29.929220176057356",
    "geocoded_column": {
      "latitude": "29.929220176057356",
      "longitude": "-89.994330790457"
    }
  },
  {
    "service_request": "2023-1034541",
    "request_type": "Trash/Recycling",
    "request_reason": "Order Recycling Cart",
    "date_created": "2023-09-12T16:27:35.000",
    "date_modified": "2023-09-12T16:33:36.000",
    "request_status": "Pending",
    "responsible_agency": "Department of Sanitation",
    "final_address": "2441 Cumberland Ct",
    "address_councildis": "C",
    "status": "Pending",
    "rowid": "1034541",
    "final_x": "3704961.47473",
    "final_y": "522230.691962",
    "longitude": "-89.994330790457",
    "latitude": "29.929220176057356",
    "geocoded_column": {
      "latitude": "29.929220176057356",
      "longitude": "-89.994330790457"
    }
  },
  {
    "service_request": "2023-1034540",
    "request_type": "Roads/Drainage",
    "request_reason": "Pothole",
    "date_created": "2023-09-12T16:23:42.000",
    "date_modified": "2023-09-12T16:23:42.000",
    "request_status": "Pending",
    "responsible_agency": "Department of Public Works",
    "final_address": "5717 Hurst St",
    "address_councildis": "A",
    "status": "Pending",
    "rowid": "1034540",
    "final_x": "3666238.39418",
    "final_y": "521686.968249",
    "longitude": "-90.11659087061466",
    "latitude": "29.928912562979253",
    "geocoded_column": {
      "latitude": "29.928912562979253",
      "longitude": "-90.11659087061466"
    }
  },
  {
    "service_request": "2023-1034539",
    "request_type": "Trash/Recycling",
    "request_reason": "Missed Trash Pick-Up",
    "date_created": "2023-09-12T16:22:49.000",
    "date_modified": "2023-09-12T16:26:58.000",
    "request_status": "Pending",
    "responsible_agency": "Department of Sanitation",
    "final_address": "1925 Orleans Ave",
    "address_councildis": "D",
    "status": "Assigned to Contractor",
    "contractor": "Richards Disposal",
    "rowid": "1034539",
    "final_x": "3679141.87631",
    "final_y": "535326.062726",
    "longitude": "-90.07538448678316",
    "latitude": "29.96603245203055",
    "geocoded_column": {
      "latitude": "29.96603245203055",
      "longitude": "-90.07538448678316"
    }
  },
  {
    "service_request": "2023-1034538",
    "request_type": "Trash/Recycling",
    "request_reason": "Replace Trash Cart",
    "date_created": "2023-09-12T16:21:26.000",
    "date_modified": "2023-09-12T16:24:54.000",
    "request_status": "Pending",
    "responsible_agency": "Department of Sanitation",
    "final_address": "1925 Orleans Ave",
    "address_councildis": "D",
    "status": "Assigned to Contractor",
    "contractor": "Richards Disposal",
    "rowid": "1034538",
    "final_x": "3679141.87631",
    "final_y": "535326.062726",
    "longitude": "-90.07538448678316",
    "latitude": "29.96603245203055",
    "geocoded_column": {
      "latitude": "29.96603245203055",
      "longitude": "-90.07538448678316"
    }
  },
  {
    "service_request": "2023-1034537",
    "request_type": "Traffic Signals/Signs/Striping/Streetlights",
    "request_reason": "Street Light Outage/Malfunction",
    "date_created": "2023-09-12T16:18:18.000",
    "date_modified": "2023-09-12T16:20:25.000",
    "request_status": "Pending",
    "responsible_agency": "Department of Public Works",
    "final_address": "2828 Danbury Dr",
    "address_councildis": "C",
    "status": "Assigned to Contractor",
    "contractor": "Legacy Professional Services",
    "rowid": "1034537",
    "final_x": "3703676.75454",
    "final_y": "520227.193656",
    "longitude": "-89.99846005587756",
    "latitude": "29.92375246975277",
    "geocoded_column": {
      "latitude": "29.92375246975277",
      "longitude": "-89.99846005587756"
    }
  },
  {
    "service_request": "2023-1034536",
    "request_type": "Property Maintenance",
    "request_reason": "Property Maintenance",
    "date_created": "2023-09-12T16:16:56.000",
    "date_modified": "2023-09-12T16:16:56.000",
    "request_status": "Pending",
    "responsible_agency": "Department of Code Enforcement",
    "final_address": "7523 Zimple St",
    "address_councildis": "A",
    "status": "Pending",
    "rowid": "1034536",
    "final_x": "3663182.41831",
    "final_y": "526841.03091",
    "longitude": "-90.12606659199297",
    "latitude": "29.94317347756813",
    "geocoded_column": {
      "latitude": "29.94317347756813",
      "longitude": "-90.12606659199297"
    }
  },
  {
    "service_request": "2023-1034535",
    "request_type": "Mosquito, Termite & Rodent Control",
    "request_reason": "Non-Rodent Complaint (Mice, Possums, Snakes)",
    "date_created": "2023-09-12T16:15:54.000",
    "date_modified": "2023-09-12T16:15:54.000",
    "request_status": "Pending",
    "responsible_agency": "Mosquito, Termite & Rodent Control Board",
    "final_address": "7112 Grey Oaks Dr",
    "address_councildis": "E",
    "status": "Pending",
    "rowid": "1034535",
    "final_x": "3702051.7898",
    "final_y": "559440.870557",
    "longitude": "-90.00215138973584",
    "latitude": "30.031627686867537",
    "geocoded_column": {
      "latitude": "30.031627686867537",
      "longitude": "-90.00215138973584"
    }
  },
  {
    "service_request": "2023-1034533",
    "request_type": "Trash/Recycling",
    "request_reason": "Request a Large Item Pick Up",
    "date_created": "2023-09-12T16:10:57.000",
    "date_modified": "2023-09-12T16:10:57.000",
    "request_status": "Pending",
    "responsible_agency": "Department of Sanitation",
    "final_address": "7914 Michigan St",
    "address_councildis": "E",
    "status": "Assigned to Contractor",
    "contractor": "Waste Pro",
    "rowid": "1034533",
    "final_x": "3711106.21086",
    "final_y": "567459.160612",
    "longitude": "-89.97323848924515",
    "latitude": "30.053382425880244",
    "geocoded_column": {
      "latitude": "30.053382425880244",
      "longitude": "-89.97323848924515"
    }
  },
  {
    "service_request": "2023-1034532",
    "request_type": "Trash/Recycling",
    "request_reason": "Request a Large Item Pick Up",
    "date_created": "2023-09-12T16:10:50.000",
    "date_modified": "2023-09-12T16:10:51.000",
    "request_status": "Pending",
    "responsible_agency": "Department of Sanitation",
    "final_address": "7718 Mackenzie St",
    "address_councildis": "E",
    "status": "Assigned to Contractor",
    "contractor": "Waste Pro",
    "rowid": "1034532",
    "final_x": "3710700.35096",
    "final_y": "566483.786083",
    "longitude": "-89.97455785221632",
    "latitude": "30.050713781321445",
    "geocoded_column": {
      "latitude": "30.050713781321445",
      "longitude": "-89.97455785221632"
    }
  },
  {
    "service_request": "2023-1034531",
    "request_type": "Roads/Drainage",
    "request_reason": "Alley Way",
    "date_created": "2023-09-12T16:10:41.000",
    "date_modified": "2023-09-12T16:10:41.000",
    "request_status": "Pending",
    "responsible_agency": "Department of Public Works",
    "final_address": "6153 General Haig St",
    "address_councildis": "A",
    "status": "Pending",
    "rowid": "1034531",
    "final_x": "3670677.66932",
    "final_y": "548147.300818",
    "longitude": "-90.10167907952194",
    "latitude": "30.001539272547998",
    "geocoded_column": {
      "latitude": "30.001539272547998",
      "longitude": "-90.10167907952194"
    }
  },
  {
    "service_request": "2023-1034528",
    "request_type": "Parks & Parkways",
    "request_reason": "Request Tree Service (Right of Way/Public Property)",
    "date_created": "2023-09-12T16:10:16.000",
    "date_modified": "2023-09-12T16:11:22.000",
    "request_status": "Pending",
    "responsible_agency": "Department of Parks & Parkway",
    "final_address": "4100 Fiesta St",
    "address_councildis": "C",
    "status": "Pending",
    "rowid": "1034528",
    "final_x": "3698933.532",
    "final_y": "522388.836346",
    "longitude": "-90.0133539854416",
    "latitude": "29.92984733197228",
    "geocoded_column": {
      "latitude": "29.92984733197228",
      "longitude": "-90.0133539854416"
    }
  },
  {
    "service_request": "2023-1034527",
    "request_type": "Trash/Recycling",
    "request_reason": "Replace Recycling Cart",
    "date_created": "2023-09-12T16:05:35.000",
    "date_modified": "2023-09-12T16:05:35.000",
    "request_status": "Pending",
    "responsible_agency": "Department of Sanitation",
    "final_address": "3535 St Charles Ave",
    "address_councildis": "B",
    "status": "Pending",
    "rowid": "1034527",
    "final_x": "3673577.80142",
    "final_y": "521439.679737",
    "longitude": "-90.09343024503025",
    "latitude": "29.928016261592074",
    "geocoded_column": {
      "latitude": "29.928016261592074",
      "longitude": "-90.09343024503025"
    }
  },
  {
    "service_request": "2023-1034525",
    "request_type": "Roads/Drainage",
    "request_reason": "Pothole",
    "date_created": "2023-09-12T16:01:38.000",
    "date_modified": "2023-09-12T16:01:38.000",
    "request_status": "Pending",
    "responsible_agency": "Department of Public Works",
    "final_address": "0 BLK Allard Blvd",
    "address_councildis": "A",
    "status": "Pending",
    "rowid": "1034525",
    "final_x": "3672889.12367",
    "final_y": "541158.059532",
    "longitude": "-90.09493149945968",
    "latitude": "29.982255733983415",
    "geocoded_column": {
      "latitude": "29.982255733983415",
      "longitude": "-90.09493149945968"
    }
  },
  {
    "service_request": "2023-1034524",
    "request_type": "Trash/Recycling",
    "request_reason": "Order Recycling Cart",
    "date_created": "2023-09-12T16:01:08.000",
    "date_modified": "2023-09-12T16:01:08.000",
    "request_status": "Pending",
    "responsible_agency": "Department of Sanitation",
    "final_address": "333 St Joseph St",
    "address_councildis": "B",
    "status": "Pending",
    "rowid": "1034524",
    "final_x": "3681866.63349",
    "final_y": "527111.330175",
    "longitude": "-90.06706646658978",
    "latitude": "29.943362189899286",
    "geocoded_column": {
      "latitude": "29.943362189899286",
      "longitude": "-90.06706646658978"
    }
  },
  {
    "service_request": "2023-1034523",
    "request_type": "Trash/Recycling",
    "request_reason": "Request a Large Item Pick Up",
    "date_created": "2023-09-12T16:00:47.000",
    "date_modified": "2023-09-12T16:00:48.000",
    "request_status": "Pending",
    "responsible_agency": "Department of Sanitation",
    "final_address": "7914 Michigan St",
    "address_councildis": "E",
    "status": "Assigned to Contractor",
    "contractor": "Waste Pro",
    "rowid": "1034523",
    "final_x": "3711106.21086",
    "final_y": "567459.160612",
    "longitude": "-89.97323848924515",
    "latitude": "30.053382425880244",
    "geocoded_column": {
      "latitude": "30.053382425880244",
      "longitude": "-89.97323848924515"
    }
  },
  {
    "service_request": "2023-1034522",
    "request_type": "Abandoned Vehicles",
    "request_reason": "Abandoned/Junk Vehicles",
    "date_created": "2023-09-12T15:58:55.000",
    "date_modified": "2023-09-12T15:58:55.000",
    "request_status": "Pending",
    "responsible_agency": "Department of Public Works",
    "final_address": "4115 S Prieur St",
    "address_councildis": "B",
    "status": "Pending",
    "rowid": "1034522",
    "final_x": "3671080.71739",
    "final_y": "527028.873406",
    "longitude": "-90.1011232481914",
    "latitude": "29.943458800337595",
    "geocoded_column": {
      "latitude": "29.943458800337595",
      "longitude": "-90.1011232481914"
    }
  },
  {
    "service_request": "2023-1034521",
    "request_type": "Trash/Recycling",
    "request_reason": "Order Trash Cart",
    "date_created": "2023-09-12T15:58:51.000",
    "date_modified": "2023-09-12T15:58:52.000",
    "request_status": "Pending",
    "responsible_agency": "Department of Sanitation",
    "final_address": "1515 N Rocheblave St",
    "address_councildis": "D",
    "status": "Assigned to Contractor",
    "contractor": "IV Waste",
    "rowid": "1034521",
    "final_x": "3679564.91746",
    "final_y": "539067.04801",
    "longitude": "-90.07391868515039",
    "latitude": "29.976306099190207",
    "geocoded_column": {
      "latitude": "29.976306099190207",
      "longitude": "-90.07391868515039"
    }
  },
  {
    "service_request": "2023-1034520",
    "request_type": "Trash/Recycling",
    "request_reason": "Missed Trash Pick-Up",
    "date_created": "2023-09-12T15:56:45.000",
    "date_modified": "2023-09-12T15:56:46.000",
    "request_status": "Pending",
    "responsible_agency": "Department of Sanitation",
    "final_address": "4528 S Prieur St",
    "address_councildis": "B",
    "status": "Assigned to Contractor",
    "contractor": "Richards Disposal",
    "rowid": "1034520",
    "final_x": "3669590.52577",
    "final_y": "526788.594814",
    "longitude": "-90.10583630959438",
    "latitude": "29.942842092014516",
    "geocoded_column": {
      "latitude": "29.942842092014516",
      "longitude": "-90.10583630959438"
    }
  },
  {
    "service_request": "2023-1034519",
    "request_type": "Trash/Recycling",
    "request_reason": "Request a Large Item Pick Up",
    "date_created": "2023-09-12T15:54:29.000",
    "date_modified": "2023-09-12T15:54:30.000",
    "request_status": "Pending",
    "responsible_agency": "Department of Sanitation",
    "final_address": "10336 Deerfield Dr",
    "address_councildis": "E",
    "status": "Assigned to Contractor",
    "contractor": "Waste Pro",
    "rowid": "1034519",
    "final_x": "3710329.35973",
    "final_y": "563637.228257",
    "longitude": "-89.97583700473423",
    "latitude": "30.042898984656638",
    "geocoded_column": {
      "latitude": "30.042898984656638",
      "longitude": "-89.97583700473423"
    }
  },
  {
    "service_request": "2023-1034518",
    "request_type": "Trash/Recycling",
    "request_reason": "Order Recycling Cart",
    "date_created": "2023-09-12T15:53:53.000",
    "date_modified": "2023-09-12T15:53:53.000",
    "request_status": "Pending",
    "responsible_agency": "Department of Sanitation",
    "final_address": "5501 Woodlawn Pl",
    "address_councildis": "A",
    "status": "Pending",
    "rowid": "1034518",
    "final_x": "3667494.84327",
    "final_y": "544033.63323",
    "longitude": "-90.11187250382518",
    "latitude": "29.990321787568508",
    "geocoded_column": {
      "latitude": "29.990321787568508",
      "longitude": "-90.11187250382518"
    }
  },
  {
    "service_request": "2023-1034517",
    "request_type": "Trash/Recycling",
    "request_reason": "MIssed Recycling Pick-Up",
    "date_created": "2023-09-12T15:52:56.000",
    "date_modified": "2023-09-12T15:52:58.000",
    "request_status": "Pending",
    "responsible_agency": "Department of Sanitation",
    "final_address": "912 N Prieur St",
    "address_councildis": "D",
    "status": "Assigned to Contractor",
    "contractor": "Richards Disposal",
    "rowid": "1034517",
    "final_x": "3679458.41999",
    "final_y": "535919.212487",
    "longitude": "-90.07436426949279",
    "latitude": "29.96765385189829",
    "geocoded_column": {
      "latitude": "29.96765385189829",
      "longitude": "-90.07436426949279"
    }
  },
  {
    "service_request": "2023-1034516",
    "request_type": "Trash/Recycling",
    "request_reason": "MIssed Recycling Pick-Up",
    "date_created": "2023-09-12T15:52:44.000",
    "date_modified": "2023-09-12T15:52:45.000",
    "request_status": "Pending",
    "responsible_agency": "Department of Sanitation",
    "final_address": "436 S Gayoso St",
    "address_councildis": "B",
    "status": "Assigned to Contractor",
    "contractor": "Richards Disposal",
    "rowid": "1034516",
    "final_x": "3673433.09844",
    "final_y": "534604.912517",
    "longitude": "-90.09343732954409",
    "latitude": "29.964220626513818",
    "geocoded_column": {
      "latitude": "29.964220626513818",
      "longitude": "-90.09343732954409"
    }
  },
  {
    "service_request": "2023-1034515",
    "request_type": "Roads/Drainage",
    "request_reason": "Pothole",
    "date_created": "2023-09-12T15:49:05.000",
    "date_modified": "2023-09-12T15:49:05.000",
    "request_status": "Pending",
    "responsible_agency": "Department of Public Works",
    "final_address": "4916 Carondelet St",
    "address_councildis": "B",
    "status": "Pending",
    "rowid": "1034515",
    "final_x": "3668888.81063",
    "final_y": "521012.255673",
    "longitude": "-90.10824678520471",
    "latitude": "29.926979664804104",
    "geocoded_column": {
      "latitude": "29.926979664804104",
      "longitude": "-90.10824678520471"
    }
  },
  {
    "service_request": "2023-1034514",
    "request_type": "Trash/Recycling",
    "request_reason": "Repair Trash Cart",
    "date_created": "2023-09-12T15:49:02.000",
    "date_modified": "2023-09-12T15:49:03.000",
    "request_status": "Pending",
    "responsible_agency": "Department of Sanitation",
    "final_address": "1614 Louisa St",
    "address_councildis": "D",
    "status": "Assigned to Contractor",
    "contractor": "IV Waste",
    "rowid": "1034514",
    "final_x": "3690026.67862",
    "final_y": "537864.370761",
    "longitude": "-90.04092027253148",
    "latitude": "29.972678839765894",
    "geocoded_column": {
      "latitude": "29.972678839765894",
      "longitude": "-90.04092027253148"
    }
  },
  {
    "service_request": "2023-1034513",
    "request_type": "Trash/Recycling",
    "request_reason": "Order Recycling Cart",
    "date_created": "2023-09-12T15:48:53.000",
    "date_modified": "2023-09-12T15:48:53.000",
    "request_status": "Pending",
    "responsible_agency": "Department of Sanitation",
    "final_address": "912 N Prieur St",
    "address_councildis": "D",
    "status": "Pending",
    "rowid": "1034513",
    "final_x": "3679458.41999",
    "final_y": "535919.212487",
    "longitude": "-90.07436426949279",
    "latitude": "29.96765385189829",
    "geocoded_column": {
      "latitude": "29.96765385189829",
      "longitude": "-90.07436426949279"
    }
  },
  {
    "service_request": "2023-1034512",
    "request_type": "Traffic Signals/Signs/Striping/Streetlights",
    "request_reason": "Traffic Sign Missing/Damaged",
    "date_created": "2023-09-12T15:45:26.000",
    "date_modified": "2023-09-12T15:45:27.000",
    "request_status": "Pending",
    "responsible_agency": "Department of Public Works",
    "final_address": "2007 Mandeville St",
    "address_councildis": "D",
    "status": "Pending",
    "rowid": "1034512",
    "final_x": "3685539.80425",
    "final_y": "539763.823114",
    "longitude": "-90.05502369522901",
    "latitude": "29.97804006060663",
    "geocoded_column": {
      "latitude": "29.97804006060663",
      "longitude": "-90.05502369522901"
    }
  },
  {
    "service_request": "2023-1034511",
    "request_type": "Roads/Drainage",
    "request_reason": "Pothole",
    "date_created": "2023-09-12T15:44:26.000",
    "date_modified": "2023-09-12T15:44:27.000",
    "request_status": "Pending",
    "responsible_agency": "Department of Public Works",
    "final_address": "2007 Mandeville St",
    "address_councildis": "D",
    "status": "Pending",
    "rowid": "1034511",
    "final_x": "3685539.80425",
    "final_y": "539763.823114",
    "longitude": "-90.05502369522901",
    "latitude": "29.97804006060663",
    "geocoded_column": {
      "latitude": "29.97804006060663",
      "longitude": "-90.05502369522901"
    }
  },
  {
    "service_request": "2023-1034510",
    "request_type": "Roads/Drainage",
    "request_reason": "Pothole",
    "date_created": "2023-09-12T15:41:00.000",
    "date_modified": "2023-09-12T15:41:00.000",
    "request_status": "Pending",
    "responsible_agency": "Department of Public Works",
    "final_address": "4216 Chestnut St",
    "address_councildis": "B",
    "status": "Pending",
    "rowid": "1034510",
    "final_x": "3671574.31393",
    "final_y": "519539.203703",
    "longitude": "-90.09981939416457",
    "latitude": "29.922850019854593",
    "geocoded_column": {
      "latitude": "29.922850019854593",
      "longitude": "-90.09981939416457"
    }
  },
  {
    "service_request": "2023-1034509",
    "request_type": "Parks & Parkways",
    "request_reason": "Request Tree Service (Right of Way/Public Property)",
    "date_created": "2023-09-12T15:40:05.000",
    "date_modified": "2023-09-12T15:40:05.000",
    "request_status": "Pending",
    "responsible_agency": "Department of Parks & Parkway",
    "final_address": "100 BLK Finland Pl",
    "address_councildis": "C",
    "status": "Pending",
    "rowid": "1034509",
    "final_x": "3705818.192",
    "final_y": "520760.179724",
    "longitude": "-89.9916806743897",
    "latitude": "29.925149225580853",
    "geocoded_column": {
      "latitude": "29.925149225580853",
      "longitude": "-89.9916806743897"
    }
  },
  {
    "service_request": "2023-1034508",
    "request_type": "Safety & Permits",
    "request_reason": "Licenses & Permits",
    "date_created": "2023-09-12T15:37:20.000",
    "date_modified": "2023-09-12T15:37:20.000",
    "request_status": "Pending",
    "responsible_agency": "Safety and Permits",
    "status": "Pending",
    "rowid": "1034508",
    "longitude": "0.0",
    "latitude": "0.0",
    "geocoded_column": {
      "latitude": "0.0",
      "longitude": "0.0"
    }
  },
  {
    "service_request": "2023-1034506",
    "request_type": "Parks & Parkways",
    "request_reason": "Request Tree Service (Right of Way/Public Property)",
    "date_created": "2023-09-12T15:33:50.000",
    "date_modified": "2023-09-12T15:33:50.000",
    "request_status": "Pending",
    "responsible_agency": "Department of Parks & Parkway",
    "final_address": "6928 Dorian St",
    "address_councildis": "D",
    "status": "Pending",
    "rowid": "1034506",
    "final_x": "3696214.85303",
    "final_y": "556383.801114",
    "longitude": "-90.02070697512308",
    "latitude": "30.023407074363494",
    "geocoded_column": {
      "latitude": "30.023407074363494",
      "longitude": "-90.02070697512308"
    }
  },
  {
    "service_request": "2023-1034505",
    "request_type": "Trash/Recycling",
    "request_reason": "MIssed Recycling Pick-Up",
    "date_created": "2023-09-12T15:33:41.000",
    "date_modified": "2023-09-12T15:33:42.000",
    "request_status": "Pending",
    "responsible_agency": "Department of Sanitation",
    "final_address": "7830 Masefield St",
    "address_councildis": "E",
    "status": "Assigned to Contractor",
    "contractor": "Waste Pro",
    "rowid": "1034505",
    "final_x": "3697165.43306",
    "final_y": "560113.770717",
    "longitude": "-90.01756802129448",
    "latitude": "30.033633087143397",
    "geocoded_column": {
      "latitude": "30.033633087143397",
      "longitude": "-90.01756802129448"
    }
  },
  {
    "service_request": "2023-1034504",
    "request_type": "Roads/Drainage",
    "request_reason": "Pothole",
    "date_created": "2023-09-12T15:33:19.000",
    "date_modified": "2023-09-12T15:33:19.000",
    "request_status": "Pending",
    "responsible_agency": "Department of Public Works",
    "final_address": "1315 Peniston St",
    "address_councildis": "B",
    "status": "Pending",
    "rowid": "1034504",
    "final_x": "3673101.31451",
    "final_y": "520423.11276",
    "longitude": "-90.09496908964098",
    "latitude": "29.925235197927364",
    "geocoded_column": {
      "latitude": "29.925235197927364",
      "longitude": "-90.09496908964098"
    }
  },
  {
    "service_request": "2023-1034503",
    "request_type": "Trash/Recycling",
    "request_reason": "Request a Large Item Pick Up",
    "date_created": "2023-09-12T15:28:15.000",
    "date_modified": "2023-09-12T15:28:15.000",
    "request_status": "Pending",
    "responsible_agency": "Department of Sanitation",
    "final_address": "4427 Walmsley Ave",
    "address_councildis": "B",
    "status": "Assigned to Contractor",
    "contractor": "Richards Disposal",
    "rowid": "1034503",
    "final_x": "3669434.69383",
    "final_y": "530213.539009",
    "longitude": "-90.10621250551023",
    "latitude": "29.95226416088779",
    "geocoded_column": {
      "latitude": "29.95226416088779",
      "longitude": "-90.10621250551023"
    }
  },
  {
    "service_request": "2023-1034502",
    "request_type": "Trash/Recycling",
    "request_reason": "Request a Large Item Pick Up",
    "date_created": "2023-09-12T15:27:01.000",
    "date_modified": "2023-09-12T15:27:02.000",
    "request_status": "Pending",
    "responsible_agency": "Department of Sanitation",
    "final_address": "4816 Odin St",
    "address_councildis": "D",
    "status": "Assigned to Contractor",
    "contractor": "IV Waste",
    "rowid": "1034502",
    "final_x": "3691449.51113",
    "final_y": "553851.692119",
    "longitude": "-90.0358549965301",
    "latitude": "30.016593962415726",
    "geocoded_column": {
      "latitude": "30.016593962415726",
      "longitude": "-90.0358549965301"
    }
  },
  {
    "service_request": "2023-1034501",
    "request_type": "Roads/Drainage",
    "request_reason": "Pothole",
    "date_created": "2023-09-12T15:26:49.000",
    "date_modified": "2023-09-12T15:26:49.000",
    "request_status": "Pending",
    "responsible_agency": "Department of Public Works",
    "final_address": "1423 General Pershing St",
    "address_councildis": "B",
    "status": "Pending",
    "rowid": "1034501",
    "final_x": "3671330.69185",
    "final_y": "520571.244024",
    "longitude": "-90.1005533659415",
    "latitude": "29.925695010510914",
    "geocoded_column": {
      "latitude": "29.925695010510914",
      "longitude": "-90.1005533659415"
    }
  },
  {
    "service_request": "2023-1034500",
    "request_type": "Traffic Signals/Signs/Striping/Streetlights",
    "request_reason": "Street Name Sign Damaged or Missing",
    "date_created": "2023-09-12T15:25:47.000",
    "date_modified": "2023-09-12T15:25:47.000",
    "request_status": "Pending",
    "responsible_agency": "Department of Public Works",
    "final_address": "DANTE ST & BIRCH ST",
    "address_councildis": "A",
    "status": "Pending",
    "rowid": "1034500",
    "final_x": "3662372.4",
    "final_y": "529898.78",
    "longitude": "-90.1285225256805",
    "latitude": "29.951604749893043",
    "geocoded_column": {
      "latitude": "29.951604749893043",
      "longitude": "-90.1285225256805"
    }
  },
  {
    "service_request": "2023-1034499",
    "request_type": "Roads/Drainage",
    "request_reason": "Pothole",
    "date_created": "2023-09-12T15:20:49.000",
    "date_modified": "2023-09-12T15:20:49.000",
    "request_status": "Pending",
    "responsible_agency": "Department of Public Works",
    "final_address": "1407 Valence St",
    "address_councildis": "B",
    "status": "Pending",
    "rowid": "1034499",
    "final_x": "3669839.25287",
    "final_y": "520292.863992",
    "longitude": "-90.10527081865904",
    "latitude": "29.924973591096933",
    "geocoded_column": {
      "latitude": "29.924973591096933",
      "longitude": "-90.10527081865904"
    }
  },
  {
    "service_request": "2023-1034498",
    "request_type": "Trash/Recycling",
    "request_reason": "Missed Trash Pick-Up",
    "date_created": "2023-09-12T15:16:30.000",
    "date_modified": "2023-09-12T15:16:30.000",
    "request_status": "Pending",
    "responsible_agency": "Department of Sanitation",
    "final_address": "7052 Boston Dr",
    "address_councildis": "E",
    "status": "Assigned to Contractor",
    "contractor": "Waste Pro",
    "rowid": "1034498",
    "final_x": "3706310.03089",
    "final_y": "560763.432094",
    "longitude": "-89.98864620025891",
    "latitude": "30.035127499567288",
    "geocoded_column": {
      "latitude": "30.035127499567288",
      "longitude": "-89.98864620025891"
    }
  },
  {
    "service_request": "2023-1034497",
    "request_type": "Roads/Drainage",
    "request_reason": "Pothole",
    "date_created": "2023-09-12T15:14:55.000",
    "date_modified": "2023-09-12T15:14:55.000",
    "request_status": "Pending",
    "responsible_agency": "Department of Public Works",
    "final_address": "1421 Constantinople St",
    "address_councildis": "B",
    "status": "Pending",
    "rowid": "1034497",
    "final_x": "3672433.24257",
    "final_y": "520667.657465",
    "longitude": "-90.09706965638372",
    "latitude": "29.925927453713577",
    "geocoded_column": {
      "latitude": "29.925927453713577",
      "longitude": "-90.09706965638372"
    }
  },
  {
    "service_request": "2023-1034496",
    "request_type": "Property Maintenance",
    "request_reason": "Property Maintenance",
    "date_created": "2023-09-12T15:13:07.000",
    "date_modified": "2023-09-12T15:13:07.000",
    "request_status": "Pending",
    "responsible_agency": "Department of Code Enforcement",
    "final_address": "1623 Painters St",
    "address_councildis": "D",
    "status": "Pending",
    "rowid": "1034496",
    "final_x": "3687428.79401",
    "final_y": "538547.266057",
    "longitude": "-90.04910067679349",
    "latitude": "29.974636876563075",
    "geocoded_column": {
      "latitude": "29.974636876563075",
      "longitude": "-90.04910067679349"
    }
  },
  {
    "service_request": "2023-1034495",
    "request_type": "Trash/Recycling",
    "request_reason": "Missed Trash Pick-Up",
    "date_created": "2023-09-12T15:11:17.000",
    "date_modified": "2023-09-12T15:11:17.000",
    "request_status": "Pending",
    "responsible_agency": "Department of Sanitation",
    "final_address": "4000 BLK America St",
    "address_councildis": "E",
    "status": "Assigned to Contractor",
    "contractor": "Waste Pro",
    "rowid": "1034495",
    "final_x": "3700056.29539",
    "final_y": "551579.424516",
    "longitude": "-90.00874439136156",
    "latitude": "30.010075304980965",
    "geocoded_column": {
      "latitude": "30.010075304980965",
      "longitude": "-90.00874439136156"
    }
  },
  {
    "service_request": "2023-1034494",
    "request_type": "Trash/Recycling",
    "request_reason": "Repair Trash Cart",
    "date_created": "2023-09-12T15:07:23.000",
    "date_modified": "2023-09-12T15:07:24.000",
    "request_status": "Pending",
    "responsible_agency": "Department of Sanitation",
    "final_address": "2409 Chelsea Dr",
    "address_councildis": "C",
    "status": "Assigned to Contractor",
    "contractor": "Richards Disposal",
    "rowid": "1034494",
    "final_x": "3704753.28247",
    "final_y": "522640.50329",
    "longitude": "-89.99497289781988",
    "latitude": "29.93035370195327",
    "geocoded_column": {
      "latitude": "29.93035370195327",
      "longitude": "-89.99497289781988"
    }
  },
  {
    "service_request": "2023-1034493",
    "request_type": "Roads/Drainage",
    "request_reason": "Pothole",
    "date_created": "2023-09-12T15:06:03.000",
    "date_modified": "2023-09-12T15:06:03.000",
    "request_status": "Pending",
    "responsible_agency": "Department of Public Works",
    "final_address": "1312 Milan St",
    "address_councildis": "B",
    "status": "Pending",
    "rowid": "1034493",
    "final_x": "3671625.82823",
    "final_y": "520286.919608",
    "longitude": "-90.09963137110304",
    "latitude": "29.92490447494246",
    "geocoded_column": {
      "latitude": "29.92490447494246",
      "longitude": "-90.09963137110304"
    }
  },
  {
    "service_request": "2023-1034492",
    "request_type": "Trash/Recycling",
    "request_reason": "Request a Large Item Pick Up",
    "date_created": "2023-09-12T15:04:13.000",
    "date_modified": "2023-09-12T15:04:14.000",
    "request_status": "Pending",
    "responsible_agency": "Department of Sanitation",
    "final_address": "726 S Lopez St",
    "address_councildis": "B",
    "status": "Assigned to Contractor",
    "contractor": "Richards Disposal",
    "rowid": "1034492",
    "final_x": "3672238.19495",
    "final_y": "533998.336005",
    "longitude": "-90.0972314063837",
    "latitude": "29.962588242640226",
    "geocoded_column": {
      "latitude": "29.962588242640226",
      "longitude": "-90.0972314063837"
    }
  },
  {
    "service_request": "2023-1034491",
    "request_type": "Abandoned Vehicles",
    "request_reason": "Vehicle Blocking Your Driveway",
    "date_created": "2023-09-12T15:02:07.000",
    "date_modified": "2023-09-12T15:02:07.000",
    "request_status": "Pending",
    "responsible_agency": "Department of Public Works",
    "final_address": "7140 Tudor Ct",
    "address_councildis": "E",
    "status": "Pending",
    "rowid": "1034491",
    "final_x": "3703719.78186",
    "final_y": "559864.128029",
    "longitude": "-89.9968648904306",
    "latitude": "30.032738092311874",
    "geocoded_column": {
      "latitude": "30.032738092311874",
      "longitude": "-89.9968648904306"
    }
  },
  {
    "service_request": "2023-1034490",
    "request_type": "Trash/Recycling",
    "request_reason": "Order Recycling Cart",
    "date_created": "2023-09-12T15:00:05.000",
    "date_modified": "2023-09-12T15:00:05.000",
    "request_status": "Pending",
    "responsible_agency": "Department of Sanitation",
    "final_address": "5512 Camp St",
    "address_councildis": "A",
    "status": "Pending",
    "rowid": "1034490",
    "final_x": "3666380.47412",
    "final_y": "519170.566007",
    "longitude": "-90.1162267296249",
    "latitude": "29.921989101601685",
    "geocoded_column": {
      "latitude": "29.921989101601685",
      "longitude": "-90.1162267296249"
    }
  },
  {
    "service_request": "2023-1034488",
    "request_type": "Trash/Recycling",
    "request_reason": "MIssed Recycling Pick-Up",
    "date_created": "2023-09-12T14:56:02.000",
    "date_modified": "2023-09-12T14:56:03.000",
    "request_status": "Pending",
    "responsible_agency": "Department of Sanitation",
    "final_address": "1501 General Collins Ave",
    "address_councildis": "C",
    "status": "Assigned to Contractor",
    "contractor": "Richards Disposal",
    "rowid": "1034488",
    "final_x": "3698439.04848",
    "final_y": "525686.486397",
    "longitude": "-90.01479518509042",
    "latitude": "29.938930383504733",
    "geocoded_column": {
      "latitude": "29.938930383504733",
      "longitude": "-90.01479518509042"
    }
  },
  {
    "service_request": "2023-1034487",
    "request_type": "Property Maintenance",
    "request_reason": "Property Maintenance",
    "date_created": "2023-09-12T14:54:47.000",
    "date_modified": "2023-09-12T14:54:47.000",
    "request_status": "Pending",
    "responsible_agency": "Department of Code Enforcement",
    "status": "Pending",
    "rowid": "1034487",
    "longitude": "0.0",
    "latitude": "0.0",
    "geocoded_column": {
      "latitude": "0.0",
      "longitude": "0.0"
    }
  },
  {
    "service_request": "2023-1034486",
    "request_type": "Trash/Recycling",
    "request_reason": "MIssed Recycling Pick-Up",
    "date_created": "2023-09-12T14:54:01.000",
    "date_modified": "2023-09-12T14:54:01.000",
    "request_status": "Pending",
    "responsible_agency": "Department of Sanitation",
    "final_address": "618 Valence St",
    "address_councildis": "B",
    "status": "Assigned to Contractor",
    "contractor": "Richards Disposal",
    "rowid": "1034486",
    "final_x": "3669977.49281",
    "final_y": "517823.957174",
    "longitude": "-90.10491799079445",
    "latitude": "29.918180805530916",
    "geocoded_column": {
      "latitude": "29.918180805530916",
      "longitude": "-90.10491799079445"
    }
  },
  {
    "service_request": "2023-1034485",
    "request_type": "Trash/Recycling",
    "request_reason": "Request a Large Item Pick Up",
    "date_created": "2023-09-12T14:52:53.000",
    "date_modified": "2023-09-12T14:52:53.000",
    "request_status": "Pending",
    "responsible_agency": "Department of Sanitation",
    "final_address": "4500 Annette St",
    "address_councildis": "D",
    "status": "Assigned to Contractor",
    "contractor": "IV Waste",
    "rowid": "1034485",
    "final_x": "3682061.91189",
    "final_y": "549086.365331",
    "longitude": "-90.06568235894706",
    "latitude": "30.003779981597706",
    "geocoded_column": {
      "latitude": "30.003779981597706",
      "longitude": "-90.06568235894706"
    }
  },
  {
    "service_request": "2023-1034484",
    "request_type": "Trash/Recycling",
    "request_reason": "Request a Large Item Pick Up",
    "date_created": "2023-09-12T14:48:47.000",
    "date_modified": "2023-09-12T14:48:48.000",
    "request_status": "Pending",
    "responsible_agency": "Department of Sanitation",
    "final_address": "1607 Charlton Dr",
    "address_councildis": "D",
    "status": "Assigned to Contractor",
    "contractor": "IV Waste",
    "rowid": "1034484",
    "final_x": "3679564.3885",
    "final_y": "550813.071637",
    "longitude": "-90.07351247928032",
    "latitude": "30.008603542730807",
    "geocoded_column": {
      "latitude": "30.008603542730807",
      "longitude": "-90.07351247928032"
    }
  },
  {
    "service_request": "2023-1034482",
    "request_type": "Property Maintenance",
    "request_reason": "Property Maintenance",
    "date_created": "2023-09-12T14:45:22.000",
    "date_modified": "2023-09-12T14:45:22.000",
    "request_status": "Pending",
    "responsible_agency": "Department of Code Enforcement",
    "final_address": "2623 Hudson Pl",
    "address_councildis": "C",
    "status": "Pending",
    "rowid": "1034482",
    "final_x": "3703343.58506",
    "final_y": "521326.709625",
    "longitude": "-89.99947133986437",
    "latitude": "29.926786425697088",
    "geocoded_column": {
      "latitude": "29.926786425697088",
      "longitude": "-89.99947133986437"
    }
  },
  {
    "service_request": "2023-1034481",
    "request_type": "Roads/Drainage",
    "request_reason": "Catch Basin - Clogged",
    "date_created": "2023-09-12T14:45:17.000",
    "date_modified": "2023-09-12T14:45:17.000",
    "request_status": "Pending",
    "responsible_agency": "Department of Public Works",
    "final_address": "1401 S Rendon St",
    "address_councildis": "B",
    "status": "Pending",
    "rowid": "1034481",
    "final_x": "3670077.35284",
    "final_y": "531554.604995",
    "longitude": "-90.10413785485666",
    "latitude": "29.955932710853986",
    "geocoded_column": {
      "latitude": "29.955932710853986",
      "longitude": "-90.10413785485666"
    }
  },
  {
    "service_request": "2023-1034480",
    "request_type": "Abandoned Vehicles",
    "request_reason": "Abandoned/Junk Vehicles",
    "date_created": "2023-09-12T14:42:51.000",
    "date_modified": "2023-09-12T14:42:51.000",
    "request_status": "Pending",
    "responsible_agency": "Department of Public Works",
    "final_address": "4500 BLK Hickerson Dr",
    "address_councildis": "E",
    "status": "Inspected",
    "rowid": "1034480",
    "final_x": "3710499.46742",
    "final_y": "554518.727036",
    "longitude": "-89.97564086239218",
    "latitude": "30.017821168766478",
    "geocoded_column": {
      "latitude": "30.017821168766478",
      "longitude": "-89.97564086239218"
    }
  },
  {
    "service_request": "2023-1034479",
    "request_type": "Property Maintenance",
    "request_reason": "Property Maintenance",
    "date_created": "2023-09-12T14:42:06.000",
    "date_modified": "2023-09-12T14:42:52.000",
    "request_status": "Pending",
    "responsible_agency": "Department of Code Enforcement",
    "final_address": "3500 BLK General De Gaulle Dr",
    "address_councildis": "C",
    "status": "Pending",
    "rowid": "1034479",
    "final_x": "3696619.85311",
    "final_y": "520396.951776",
    "longitude": "-90.02072986552753",
    "latitude": "29.92444341364837",
    "geocoded_column": {
      "latitude": "29.92444341364837",
      "longitude": "-90.02072986552753"
    }
  },
  {
    "service_request": "2023-1034478",
    "request_type": "Trash/Recycling",
    "request_reason": "MIssed Recycling Pick-Up",
    "date_created": "2023-09-12T14:41:39.000",
    "date_modified": "2023-09-12T14:41:40.000",
    "request_status": "Pending",
    "responsible_agency": "Department of Sanitation",
    "final_address": "1522 St Ann St",
    "address_councildis": "C",
    "status": "Assigned to Contractor",
    "contractor": "Richards Disposal",
    "rowid": "1034478",
    "final_x": "3680355.31906",
    "final_y": "534560.738245",
    "longitude": "-90.07157908192595",
    "latitude": "29.963891385492946",
    "geocoded_column": {
      "latitude": "29.963891385492946",
      "longitude": "-90.07157908192595"
    }
  },
  {
    "service_request": "2023-1034477",
    "request_type": "Trash/Recycling",
    "request_reason": "Request a Large Item Pick Up",
    "date_created": "2023-09-12T14:39:47.000",
    "date_modified": "2023-09-12T14:39:47.000",
    "request_status": "Pending",
    "responsible_agency": "Department of Sanitation",
    "final_address": "7481 Pitt St Apt 2",
    "address_councildis": "A",
    "status": "Assigned to Contractor",
    "contractor": "Richards Disposal",
    "rowid": "1034477",
    "final_x": "3660868.81696",
    "final_y": "523912.851196",
    "longitude": "-90.13346805866965",
    "latitude": "29.935188733104102",
    "geocoded_column": {
      "latitude": "29.935188733104102",
      "longitude": "-90.13346805866965"
    }
  },
  {
    "service_request": "2023-1034476",
    "request_type": "Trash/Recycling",
    "request_reason": "Request a Large Item Pick Up",
    "date_created": "2023-09-12T14:39:35.000",
    "date_modified": "2023-09-12T14:39:36.000",
    "request_status": "Pending",
    "responsible_agency": "Department of Sanitation",
    "final_address": "11206 Curran Rd",
    "address_councildis": "E",
    "status": "Assigned to Contractor",
    "contractor": "Waste Pro",
    "rowid": "1034476",
    "final_x": "3710943.82385",
    "final_y": "566339.236387",
    "longitude": "-89.97379374672605",
    "latitude": "30.050308387300632",
    "geocoded_column": {
      "latitude": "30.050308387300632",
      "longitude": "-89.97379374672605"
    }
  },