[
  {
    "service_request": "2024-1075740",
    "request_type": "Roads/Drainage",
    "request_reason": "Pothole",
    "date_created": "2024-03-14T22:55:18.000",
    "date_modified": "2024-03-14T22:55:18.000",
    "request_status": "Pending",
    "responsible_agency": "Department of Public Works",
    "final_address": "6030 Chestnut St",
    "address_councildis": "A",
    "status": "Pending",
    "rowid": "1075740",
    "final_x": "3664661.37773",
    "final_y": "519852.51884",
    "longitude": "-90.1216304547064",
    "latitude": "29.923914355909606",
    "geocoded_column": {
      "latitude": "29.923914355909606",
      "longitude": "-90.1216304547064"
    }
  },
  {
    "service_request": "2024-1075739",
    "request_type": "Roads/Drainage",
    "request_reason": "Pothole",
    "date_created": "2024-03-14T22:51:55.000",
    "date_modified": "2024-03-14T22:51:55.000",
    "request_status": "Pending",
    "responsible_agency": "Department of Public Works",
    "final_address": "5935 Coliseum St",
    "address_councildis": "A",
    "status": "Pending",
    "rowid": "1075739",
    "final_x": "3665220.92672",
    "final_y": "520215.433528",
    "longitude": "-90.11985201992287",
    "latitude": "29.924895975237057",
    "geocoded_column": {
      "latitude": "29.924895975237057",
      "longitude": "-90.11985201992287"
    }
  },
  {
    "service_request": "2024-1075738",
    "request_type": "Property Maintenance",
    "request_reason": "Property Maintenance",
    "date_created": "2024-03-14T22:50:13.000",
    "date_modified": "2024-03-14T22:50:13.000",
    "request_status": "Pending",
    "responsible_agency": "Department of Code Enforcement",
    "final_address": "2938 Ursulines Ave",
    "address_councildis": "A",
    "status": "Pending",
    "rowid": "1075738",
    "final_x": "3676527.46056",
    "final_y": "538901.495882",
    "longitude": "-90.08351759158572",
    "latitude": "29.97594233594543",
    "geocoded_column": {
      "latitude": "29.97594233594543",
      "longitude": "-90.08351759158572"
    }
  },
  {
    "service_request": "2024-1075737",
    "request_type": "Trash/Recycling",
    "request_reason": "Replace Trash Cart",
    "date_created": "2024-03-14T22:31:23.000",
    "date_modified": "2024-03-14T22:31:24.000",
    "request_status": "Pending",
    "responsible_agency": "Department of Sanitation",
    "final_address": "3118 Annunciation St",
    "address_councildis": "B",
    "status": "Assigned to Contractor",
    "contractor": "Richards Disposal",
    "rowid": "1075737",
    "final_x": "3676593.22152",
    "final_y": "519157.550519",
    "longitude": "-90.0839897968226",
    "latitude": "29.921651079715435",
    "geocoded_column": {
      "latitude": "29.921651079715435",
      "longitude": "-90.0839897968226"
    }
  },
  {
    "service_request": "2024-1075736",
    "request_type": "Roads/Drainage",
    "request_reason": "Pothole",
    "date_created": "2024-03-14T22:30:17.000",
    "date_modified": "2024-03-14T22:30:17.000",
    "request_status": "Pending",
    "responsible_agency": "Department of Public Works",
    "final_address": "6215 Hurst St",
    "address_councildis": "A",
    "status": "Pending",
    "rowid": "1075736",
    "final_x": "3664668.32039",
    "final_y": "522243.373626",
    "longitude": "-90.12152872358996",
    "latitude": "29.93048825206563",
    "geocoded_column": {
      "latitude": "29.93048825206563",
      "longitude": "-90.12152872358996"
    }
  },
  {
    "service_request": "2024-1075735",
    "request_type": "Trash/Recycling",
    "request_reason": "Order Recycling Cart",
    "date_created": "2024-03-14T22:29:21.000",
    "date_modified": "2024-03-14T22:29:21.000",
    "request_status": "Pending",
    "responsible_agency": "Department of Sanitation",
    "final_address": "7323 Cohn St Apt D",
    "address_councildis": "A",
    "status": "Pending",
    "rowid": "1075735",
    "final_x": "3665171.86157",
    "final_y": "528885.335296",
    "longitude": "-90.11971703435381",
    "latitude": "29.948736870598268",
    "geocoded_column": {
      "latitude": "29.948736870598268",
      "longitude": "-90.11971703435381"
    }
  },
  {
    "service_request": "2024-1075734",
    "request_type": "Safety & Permits",
    "request_reason": "Licenses & Permits",
    "date_created": "2024-03-14T22:21:18.000",
    "date_modified": "2024-03-14T22:21:18.000",
    "request_status": "Pending",
    "responsible_agency": "Safety and Permits",
    "final_address": "1526 Pauger St",
    "address_councildis": "C",
    "status": "Pending",
    "rowid": "1075734",
    "final_x": "3683890.07209",
    "final_y": "535352.817926",
    "longitude": "-90.0603888938303",
    "latitude": "29.96596183235175",
    "geocoded_column": {
      "latitude": "29.96596183235175",
      "longitude": "-90.0603888938303"
    }
  },
  {
    "service_request": "2024-1075733",
    "request_type": "Safety & Permits",
    "request_reason": "Licenses & Permits",
    "date_created": "2024-03-14T22:20:16.000",
    "date_modified": "2024-03-14T22:20:16.000",
    "request_status": "Pending",
    "responsible_agency": "Safety and Permits",
    "final_address": "1526 Pauger St",
    "address_councildis": "C",
    "status": "Pending",
    "rowid": "1075733",
    "final_x": "3683890.07209",
    "final_y": "535352.817926",
    "longitude": "-90.0603888938303",
    "latitude": "29.96596183235175",
    "geocoded_column": {
      "latitude": "29.96596183235175",
      "longitude": "-90.0603888938303"
    }
  },
  {
    "service_request": "2024-1075732",
    "request_type": "Roads/Drainage",
    "request_reason": "Pothole",
    "date_created": "2024-03-14T21:40:57.000",
    "date_modified": "2024-03-14T21:40:57.000",
    "request_status": "Pending",
    "responsible_agency": "Department of Public Works",
    "final_address": "2633 Burgundy St",
    "address_councildis": "C",
    "status": "Pending",
    "rowid": "1075732",
    "final_x": "3687185.90697",
    "final_y": "535646.203462",
    "longitude": "-90.04997039092378",
    "latitude": "29.966667452106925",
    "geocoded_column": {
      "latitude": "29.966667452106925",
      "longitude": "-90.04997039092378"
    }
  },
  {
    "service_request": "2024-1075731",
    "request_type": "Traffic Signals/Signs/Striping/Streetlights",
    "request_reason": "Traffic Signal Malfunctioning/Damaged",
    "date_created": "2024-03-14T21:38:22.000",
    "date_modified": "2024-03-14T21:38:22.000",
    "request_status": "Pending",
    "responsible_agency": "Department of Public Works",
    "final_address": "2600 BLK Dauphine St",
    "address_councildis": "C",
    "status": "Pending",
    "rowid": "1075731",
    "final_x": "3686979.22181",
    "final_y": "535288.159854",
    "longitude": "-90.05063575722144",
    "latitude": "29.96568932032339",
    "geocoded_column": {
      "latitude": "29.96568932032339",
      "longitude": "-90.05063575722144"
    }
  },
  {
    "service_request": "2024-1075730",
    "request_type": "Roads/Drainage",
    "request_reason": "Damaged Sidewalk",
    "date_created": "2024-03-14T21:36:44.000",
    "date_modified": "2024-03-14T21:36:44.000",
    "request_status": "Pending",
    "responsible_agency": "Department of Public Works",
    "final_address": "4125 N Rampart St",
    "address_councildis": "C",
    "status": "Pending",
    "rowid": "1075730",
    "final_x": "3692219.5791",
    "final_y": "534768.07943",
    "longitude": "-90.0341055942122",
    "latitude": "29.96409693972644",
    "geocoded_column": {
      "latitude": "29.96409693972644",
      "longitude": "-90.0341055942122"
    }
  },
  {
    "service_request": "2024-1075729",
    "request_type": "Property Maintenance",
    "request_reason": "Property Maintenance",
    "date_created": "2024-03-14T20:58:50.000",
    "date_modified": "2024-03-14T20:58:50.000",
    "request_status": "Pending",
    "responsible_agency": "Department of Code Enforcement",
    "final_address": "532 S Genois St",
    "address_councildis": "B",
    "status": "Pending",
    "rowid": "1075729",
    "final_x": "3671496.01262",
    "final_y": "535662.064774",
    "longitude": "-90.09951855081586",
    "latitude": "29.96718493451268",
    "geocoded_column": {
      "latitude": "29.96718493451268",
      "longitude": "-90.09951855081586"
    }
  },
  {
    "service_request": "2024-1075728",
    "request_type": "Trash/Recycling",
    "request_reason": "Missed Trash Pick-Up",
    "date_created": "2024-03-14T20:27:17.000",
    "date_modified": "2024-03-14T20:27:17.000",
    "request_status": "Pending",
    "responsible_agency": "Department of Sanitation",
    "final_address": "1832 Felicity St, New Orleans, Louisiana, 70113",
    "address_councildis": "B",
    "status": "Assigned to Contractor",
    "contractor": "Richards Disposal",
    "rowid": "1075728",
    "final_x": "3677652.66779",
    "final_y": "525347.990973",
    "longitude": "-90.08043191648206",
    "latitude": "29.93864096489939",
    "geocoded_column": {
      "latitude": "29.93864096489939",
      "longitude": "-90.08043191648206"
    }
  },
  {
    "service_request": "2024-1075727",
    "request_type": "Property Maintenance",
    "request_reason": "Property Maintenance",
    "date_created": "2024-03-14T20:11:32.000",
    "date_modified": "2024-03-14T20:11:32.000",
    "request_status": "Pending",
    "responsible_agency": "Department of Code Enforcement",
    "final_address": "5590 Canal Blvd",
    "address_councildis": "A",
    "status": "Pending",
    "rowid": "1075727",
    "final_x": "3668096.76583",
    "final_y": "544537.448527",
    "longitude": "-90.10995418815875",
    "latitude": "29.991689450453148",
    "geocoded_column": {
      "latitude": "29.991689450453148",
      "longitude": "-90.10995418815875"
    }
  },
  {
    "service_request": "2024-1075726",
    "request_type": "Traffic Signals/Signs/Striping/Streetlights",
    "request_reason": "Street Light Outage/Malfunction",
    "date_created": "2024-03-14T19:55:53.000",
    "date_modified": "2024-03-14T19:55:54.000",
    "request_status": "Pending",
    "responsible_agency": "Department of Public Works",
    "final_address": "100 BLK N Rocheblave St",
    "address_councildis": "B",
    "status": "Assigned to Contractor",
    "contractor": "Legacy Professional Services",
    "rowid": "1075726",
    "final_x": "3676284.63493",
    "final_y": "534698.202701",
    "longitude": "-90.08442919791207",
    "latitude": "29.964391991269945",
    "geocoded_column": {
      "latitude": "29.964391991269945",
      "longitude": "-90.08442919791207"
    }
  },
  {
    "service_request": "2024-1075725",
    "request_type": "Trash/Recycling",
    "request_reason": "Replace Trash Cart",
    "date_created": "2024-03-14T19:38:46.000",
    "date_modified": "2024-03-14T19:38:47.000",
    "request_status": "Pending",
    "responsible_agency": "Department of Sanitation",
    "final_address": "1304 Eighth St",
    "address_councildis": "B",
    "status": "Assigned to Contractor",
    "contractor": "Richards Disposal",
    "rowid": "1075725",
    "final_x": "3675630.89281",
    "final_y": "520854.094073",
    "longitude": "-90.08696920670174",
    "latitude": "29.926344843296636",
    "geocoded_column": {
      "latitude": "29.926344843296636",
      "longitude": "-90.08696920670174"
    }
  },
  {
    "service_request": "2024-1075723",
    "request_type": "Parks & Parkways",
    "request_reason": "Request Tree Service (Right of Way/Public Property)",
    "date_created": "2024-03-14T19:20:05.000",
    "date_modified": "2024-03-14T19:20:05.000",
    "request_status": "Pending",
    "responsible_agency": "Department of Parks & Parkway",
    "final_address": "222 Stafford Pl",
    "address_councildis": "A",
    "status": "Pending",
    "rowid": "1075723",
    "final_x": "3665774.18477",
    "final_y": "553835.226839",
    "longitude": "-90.11697898162045",
    "latitude": "30.0173231038136",
    "geocoded_column": {
      "latitude": "30.0173231038136",
      "longitude": "-90.11697898162045"
    }
  },
  {
    "service_request": "2024-1075722",
    "request_type": "Parks & Parkways",
    "request_reason": "Request Tree Service (Right of Way/Public Property)",
    "date_created": "2024-03-14T19:18:18.000",
    "date_modified": "2024-03-14T19:18:18.000",
    "request_status": "Pending",
    "responsible_agency": "Department of Parks & Parkway",
    "final_address": "222 Stafford Pl",
    "address_councildis": "A",
    "status": "Pending",
    "rowid": "1075722",
    "final_x": "3665774.18477",
    "final_y": "553835.226839",
    "longitude": "-90.11697898162045",
    "latitude": "30.0173231038136",
    "geocoded_column": {
      "latitude": "30.0173231038136",
      "longitude": "-90.11697898162045"
    }
  },
  {
    "service_request": "2024-1075721",
    "request_type": "Health Related Request",
    "request_reason": "Noise Ordinance Complaint",
    "date_created": "2024-03-14T19:17:23.000",
    "date_modified": "2024-03-14T19:17:23.000",
    "request_status": "Pending",
    "responsible_agency": "Health Department",
    "final_address": "2100 BLK S Saratoga St",
    "address_councildis": "B",
    "status": "Pending",
    "rowid": "1075721",
    "final_x": "3676610.43808",
    "final_y": "525324.788377",
    "longitude": "-90.08372314831698",
    "latitude": "29.93860845974572",
    "geocoded_column": {
      "latitude": "29.93860845974572",
      "longitude": "-90.08372314831698"
    }
  },
  {
    "service_request": "2024-1075720",
    "request_type": "Trash/Recycling",
    "request_reason": "MIssed Recycling Pick-Up",
    "date_created": "2024-03-14T19:14:24.000",
    "date_modified": "2024-03-14T19:14:25.000",
    "request_status": "Pending",
    "responsible_agency": "Department of Sanitation",
    "final_address": "1930 Josephine St",
    "address_councildis": "B",
    "status": "Assigned to Contractor",
    "contractor": "Richards Disposal",
    "rowid": "1075720",
    "final_x": "3676934.0829",
    "final_y": "525159.730941",
    "longitude": "-90.08270705430522",
    "latitude": "29.938144897016212",
    "geocoded_column": {
      "latitude": "29.938144897016212",
      "longitude": "-90.08270705430522"
    }
  },
  {
    "service_request": "2024-1075719",
    "request_type": "Utility Poles",
    "request_reason": "Utility Pole Leaning",
    "date_created": "2024-03-14T18:52:55.000",
    "date_modified": "2024-03-14T18:53:01.000",
    "request_status": "Pending",
    "responsible_agency": "Utility Company Collective",
    "final_address": "2846 Allen St",
    "address_councildis": "D",
    "status": "Pending",
    "rowid": "1075719",
    "final_x": "3682197.06645",
    "final_y": "542790.168141",
    "longitude": "-90.06547547183365",
    "latitude": "29.98646356574015",
    "geocoded_column": {
      "latitude": "29.98646356574015",
      "longitude": "-90.06547547183365"
    }
  },
  {
    "service_request": "2024-1075718",
    "request_type": "Trash/Recycling",
    "request_reason": "Missed Trash Pick-Up",
    "date_created": "2024-03-14T18:48:49.000",
    "date_modified": "2024-03-14T18:48:50.000",
    "request_status": "Pending",
    "responsible_agency": "Department of Sanitation",
    "final_address": "1241 Annunciation St",
    "address_councildis": "B",
    "status": "Assigned to Contractor",
    "contractor": "Richards Disposal",
    "rowid": "1075718",
    "final_x": "3681306.06972",
    "final_y": "525122.871229",
    "longitude": "-90.06890558695363",
    "latitude": "29.937911612279795",
    "geocoded_column": {
      "latitude": "29.937911612279795",
      "longitude": "-90.06890558695363"
    }
  },
  {
    "service_request": "2024-1075717",
    "request_type": "Roads/Drainage",
    "request_reason": "Pothole",
    "date_created": "2024-03-14T18:44:23.000",
    "date_modified": "2024-03-14T18:44:23.000",
    "request_status": "Pending",
    "responsible_agency": "Department of Public Works",
    "final_address": "1721 Constantinople St",
    "address_councildis": "B",
    "status": "Pending",
    "rowid": "1075717",
    "final_x": "3672289.84257",
    "final_y": "521617.886841",
    "longitude": "-90.09748997670037",
    "latitude": "29.928544532916415",
    "geocoded_column": {
      "latitude": "29.928544532916415",
      "longitude": "-90.09748997670037"
    }
  },
  {
    "service_request": "2024-1075716",
    "request_type": "Roads/Drainage",
    "request_reason": "Damaged Sidewalk",
    "date_created": "2024-03-14T18:41:48.000",
    "date_modified": "2024-03-14T18:41:48.000",
    "request_status": "Pending",
    "responsible_agency": "Department of Public Works",
    "final_address": "1600 BLK Canal St",
    "address_councildis": "B",
    "status": "Pending",
    "rowid": "1075716",
    "final_x": "3678530.16882",
    "final_y": "532644.284565",
    "longitude": "-90.07740906934869",
    "latitude": "29.95867692324275",
    "geocoded_column": {
      "latitude": "29.95867692324275",
      "longitude": "-90.07740906934869"
    }
  },
  {
    "service_request": "2024-1075715",
    "request_type": "Roads/Drainage",
    "request_reason": "Pothole",
    "date_created": "2024-03-14T18:41:15.000",
    "date_modified": "2024-03-14T18:41:15.000",
    "request_status": "Pending",
    "responsible_agency": "Department of Public Works",
    "final_address": "4000 Constance St",
    "address_councildis": "B",
    "status": "Pending",
    "rowid": "1075715",
    "final_x": "3672526.53006",
    "final_y": "518524.538359",
    "longitude": "-90.09684817851132",
    "latitude": "29.92003179335413",
    "geocoded_column": {
      "latitude": "29.92003179335413",
      "longitude": "-90.09684817851132"
    }
  },
  {
    "service_request": "2024-1075714",
    "request_type": "Trash/Recycling",
    "request_reason": "Replace Trash Cart",
    "date_created": "2024-03-14T18:35:11.000",
    "date_modified": "2024-03-14T18:35:11.000",
    "request_status": "Pending",
    "responsible_agency": "Department of Sanitation",
    "final_address": "2221 Burgundy St",
    "address_councildis": "C",
    "status": "Assigned to Contractor",
    "contractor": "IV Waste",
    "rowid": "1075714",
    "final_x": "3685311.16341",
    "final_y": "535636.58503",
    "longitude": "-90.0558911463796",
    "latitude": "29.966698607441813",
    "geocoded_column": {
      "latitude": "29.966698607441813",
      "longitude": "-90.0558911463796"
    }
  },
  {
    "service_request": "2024-1075713",
    "request_type": "Traffic Signals/Signs/Striping/Streetlights",
    "request_reason": "Street Light Outage/Malfunction",
    "date_created": "2024-03-14T18:25:35.000",
    "date_modified": "2024-03-14T18:25:36.000",
    "request_status": "Pending",
    "responsible_agency": "Department of Public Works",
    "final_address": "7500 BLK Jonlee Dr",
    "address_councildis": "E",
    "status": "Assigned to Contractor",
    "contractor": "Legacy Professional Services",
    "rowid": "1075713",
    "final_x": "3717224.62752",
    "final_y": "570336.918169",
    "longitude": "-89.95379048771754",
    "latitude": "30.061093959481568",
    "geocoded_column": {
      "latitude": "30.061093959481568",
      "longitude": "-89.95379048771754"
    }
  },
  {
    "service_request": "2024-1075712",
    "request_type": "Abandoned Vehicles",
    "request_reason": "Abandoned/Junk Vehicles",
    "date_created": "2024-03-14T18:18:11.000",
    "date_modified": "2024-03-14T18:18:11.000",
    "request_status": "Pending",
    "responsible_agency": "Department of Public Works",
    "final_address": "7542 Jonlee Dr",
    "address_councildis": "E",
    "status": "Pending",
    "rowid": "1075712",
    "final_x": "3717274.77848",
    "final_y": "570156.440103",
    "longitude": "-89.95363883238086",
    "latitude": "30.060596059485054",
    "geocoded_column": {
      "latitude": "30.060596059485054",
      "longitude": "-89.95363883238086"
    }
  },
  {
    "service_request": "2024-1075711",
    "request_type": "Property Maintenance",
    "request_reason": "Property Maintenance",
    "date_created": "2024-03-14T18:04:58.000",
    "date_modified": "2024-03-14T18:04:58.000",
    "request_status": "Pending",
    "responsible_agency": "Department of Code Enforcement",
    "final_address": "883 Filmore Ave",
    "address_councildis": "A",
    "status": "Pending",
    "rowid": "1075711",
    "final_x": "3670209.36698",
    "final_y": "551996.765526",
    "longitude": "-90.10302792346816",
    "latitude": "30.012137783765635",
    "geocoded_column": {
      "latitude": "30.012137783765635",
      "longitude": "-90.10302792346816"
    }
  },
  {
    "service_request": "2024-1075710",
    "request_type": "Trash/Recycling",
    "request_reason": "Missed Trash Pick-Up",
    "date_created": "2024-03-14T17:53:04.000",
    "date_modified": "2024-03-14T17:53:05.000",
    "request_status": "Pending",
    "responsible_agency": "Department of Sanitation",
    "final_address": "4532 LaSalle St",
    "address_councildis": "B",
    "status": "Assigned to Contractor",
    "contractor": "Richards Disposal",
    "rowid": "1075710",
    "final_x": "3669940.70202",
    "final_y": "523595.417851",
    "longitude": "-90.10483880482997",
    "latitude": "29.934051567701044",
    "geocoded_column": {
      "latitude": "29.934051567701044",
      "longitude": "-90.10483880482997"
    }
  },
  {
    "service_request": "2024-1075708",
    "request_type": "Trash/Recycling",
    "request_reason": "Missed Trash Pick-Up",
    "date_created": "2024-03-14T17:45:10.000",
    "date_modified": "2024-03-14T17:45:11.000",
    "request_status": "Pending",
    "responsible_agency": "Department of Sanitation",
    "final_address": "3015 Carondelet St",
    "address_councildis": "B",
    "status": "Assigned to Contractor",
    "contractor": "Richards Disposal",
    "rowid": "1075708",
    "final_x": "3674871.98971",
    "final_y": "522343.308602",
    "longitude": "-90.08931381443753",
    "latitude": "29.93046237769801",
    "geocoded_column": {
      "latitude": "29.93046237769801",
      "longitude": "-90.08931381443753"
    }
  },
  {
    "service_request": "2024-1075707",
    "request_type": "Trash/Recycling",
    "request_reason": "Request a Large Item Pick Up",
    "date_created": "2024-03-14T17:37:59.000",
    "date_modified": "2024-03-14T17:38:00.000",
    "request_status": "Pending",
    "responsible_agency": "Department of Sanitation",
    "final_address": "1528 Painters St",
    "address_councildis": "C",
    "status": "Assigned to Contractor",
    "contractor": "IV Waste",
    "rowid": "1075707",
    "final_x": "3687400.29154",
    "final_y": "538176.777609",
    "longitude": "-90.04920380745604",
    "latitude": "29.973619041844042",
    "geocoded_column": {
      "latitude": "29.973619041844042",
      "longitude": "-90.04920380745604"
    }
  },
  {
    "service_request": "2024-1075706",
    "request_type": "Property Maintenance",
    "request_reason": "Property Maintenance",
    "date_created": "2024-03-14T17:36:10.000",
    "date_modified": "2024-03-14T17:36:10.000",
    "request_status": "Pending",
    "responsible_agency": "Department of Code Enforcement",
    "final_address": "5641 Milne St",
    "address_councildis": "A",
    "status": "Pending",
    "rowid": "1075706",
    "final_x": "3666872.10721",
    "final_y": "545057.395535",
    "longitude": "-90.11380515606258",
    "latitude": "29.993155022715687",
    "geocoded_column": {
      "latitude": "29.993155022715687",
      "longitude": "-90.11380515606258"
    }
  },
  {
    "service_request": "2024-1075705",
    "request_type": "Trash/Recycling",
    "request_reason": "MIssed Recycling Pick-Up",
    "date_created": "2024-03-14T17:35:59.000",
    "date_modified": "2024-03-14T17:36:00.000",
    "request_status": "Pending",
    "responsible_agency": "Department of Sanitation",
    "final_address": "5523 Magazine St",
    "address_councildis": "A",
    "status": "Assigned to Contractor",
    "contractor": "Richards Disposal",
    "rowid": "1075705",
    "final_x": "3666252.95425",
    "final_y": "518906.549047",
    "longitude": "-90.11663810711416",
    "latitude": "29.921266861735837",
    "geocoded_column": {
      "latitude": "29.921266861735837",
      "longitude": "-90.11663810711416"
    }
  },
  {
    "service_request": "2024-1075704",
    "request_type": "Traffic Signals/Signs/Striping/Streetlights",
    "request_reason": "Traffic Signal Malfunctioning/Damaged",
    "date_created": "2024-03-14T17:35:48.000",
    "date_modified": "2024-03-14T17:35:48.000",
    "request_status": "Pending",
    "responsible_agency": "Department of Public Works",
    "final_address": "2000 BLK General Meyer Ave",
    "address_councildis": "C",
    "status": "Pending",
    "rowid": "1075704",
    "final_x": "3691647.34272",
    "final_y": "527819.344411",
    "longitude": "-90.03616107504644",
    "latitude": "29.945008160380617",
    "geocoded_column": {
      "latitude": "29.945008160380617",
      "longitude": "-90.03616107504644"
    }
  },
  {
    "service_request": "2024-1075703",
    "request_type": "Trash/Recycling",
    "request_reason": "Missed Trash Pick-Up",
    "date_created": "2024-03-14T17:33:32.000",
    "date_modified": "2024-03-14T17:33:32.000",
    "request_status": "Pending",
    "responsible_agency": "Department of Sanitation",
    "final_address": "729 Milan St",
    "address_councildis": "B",
    "status": "Assigned to Contractor",
    "contractor": "Richards Disposal",
    "rowid": "1075703",
    "final_x": "3671886.04161",
    "final_y": "518367.984246",
    "longitude": "-90.09887522022899",
    "latitude": "29.919620308353295",
    "geocoded_column": {
      "latitude": "29.919620308353295",
      "longitude": "-90.09887522022899"
    }
  },
  {
    "service_request": "2024-1075702",
    "request_type": "Property Maintenance",
    "request_reason": "Property Maintenance",
    "date_created": "2024-03-14T17:31:31.000",
    "date_modified": "2024-03-14T17:31:31.000",
    "request_status": "Pending",
    "responsible_agency": "Department of Code Enforcement",
    "final_address": "3400 BLK Saint Ferdinand St",
    "address_councildis": "D",
    "status": "Pending",
    "rowid": "1075702",
    "final_x": "3689998.21347",
    "final_y": "546258.758976",
    "longitude": "-90.04071110000946",
    "latitude": "29.99576128791652",
    "geocoded_column": {
      "latitude": "29.99576128791652",
      "longitude": "-90.04071110000946"
    }
  },
  {
    "service_request": "2024-1075701",
    "request_type": "Traffic Signals/Signs/Striping/Streetlights",
    "request_reason": "Street Name Sign Damaged or Missing",
    "date_created": "2024-03-14T17:29:45.000",
    "date_modified": "2024-03-14T17:29:45.000",
    "request_status": "Pending",
    "responsible_agency": "Department of Public Works",
    "final_address": "EUTERPE ST & ORETHA CASTLE HALEY BLVD",
    "address_councildis": "B",
    "status": "Pending",
    "rowid": "1075701",
    "final_x": "3677731.6",
    "final_y": "525744.18",
    "longitude": "-90.08016903929348",
    "latitude": "29.93972798066013",
    "geocoded_column": {
      "latitude": "29.93972798066013",
      "longitude": "-90.08016903929348"
    }
  },
  {
    "service_request": "2024-1075700",
    "request_type": "Trash/Recycling",
    "request_reason": "Illegal Dumping",
    "date_created": "2024-03-14T17:29:43.000",
    "date_modified": "2024-03-14T17:29:43.000",
    "request_status": "Pending",
    "responsible_agency": "Department of Sanitation",
    "final_address": "1220 Thayer St",
    "address_councildis": "C",
    "status": "Pending",
    "rowid": "1075700",
    "final_x": "3689443.45539",
    "final_y": "526909.011838",
    "longitude": "-90.04315176715076",
    "latitude": "29.942573475466236",
    "geocoded_column": {
      "latitude": "29.942573475466236",
      "longitude": "-90.04315176715076"
    }
  },
  {
    "service_request": "2024-1075699",
    "request_type": "Traffic Signals/Signs/Striping/Streetlights",
    "request_reason": "Street Name Sign Damaged or Missing",
    "date_created": "2024-03-14T17:29:05.000",
    "date_modified": "2024-03-14T17:29:05.000",
    "request_status": "Pending",
    "responsible_agency": "Department of Public Works",
    "final_address": "ORETHA CASTLE HALEY BLVD & TERPSICHORE ST",
    "address_councildis": "B",
    "status": "Pending",
    "rowid": "1075699",
    "final_x": "3677895.2",
    "final_y": "525996.78",
    "longitude": "-90.07964380525168",
    "latitude": "29.94041762641895",
    "geocoded_column": {
      "latitude": "29.94041762641895",
      "longitude": "-90.07964380525168"
    }
  },
  {
    "service_request": "2024-1075698",
    "request_type": "Traffic Signals/Signs/Striping/Streetlights",
    "request_reason": "Street Name Sign Damaged or Missing",
    "date_created": "2024-03-14T17:28:15.000",
    "date_modified": "2024-03-14T17:28:15.000",
    "request_status": "Pending",
    "responsible_agency": "Department of Public Works",
    "final_address": "FRERET ST & 6TH ST",
    "address_councildis": "B",
    "status": "Pending",
    "rowid": "1075698",
    "final_x": "3673688.5",
    "final_y": "525010.88",
    "longitude": "-90.09295875893164",
    "latitude": "29.937832610423452",
    "geocoded_column": {
      "latitude": "29.937832610423452",
      "longitude": "-90.09295875893164"
    }
  },
  {
    "service_request": "2024-1075697",
    "request_type": "Traffic Signals/Signs/Striping/Streetlights",
    "request_reason": "Street Name Sign Damaged or Missing",
    "date_created": "2024-03-14T17:27:40.000",
    "date_modified": "2024-03-14T17:27:40.000",
    "request_status": "Pending",
    "responsible_agency": "Department of Public Works",
    "final_address": "FRERET ST & TOLEDANO ST",
    "address_councildis": "B",
    "status": "Pending",
    "rowid": "1075697",
    "final_x": "3673257.2",
    "final_y": "524695.88",
    "longitude": "-90.09433116381894",
    "latitude": "29.93697929364763",
    "geocoded_column": {
      "latitude": "29.93697929364763",
      "longitude": "-90.09433116381894"
    }
  },
  {
    "service_request": "2024-1075696",
    "request_type": "Roads/Drainage",
    "request_reason": "Pothole",
    "date_created": "2024-03-14T17:24:39.000",
    "date_modified": "2024-03-14T17:24:39.000",
    "request_status": "Pending",
    "responsible_agency": "Department of Public Works",
    "final_address": "1220 Thayer St",
    "address_councildis": "C",
    "status": "Pending",
    "rowid": "1075696",
    "final_x": "3689443.45539",
    "final_y": "526909.011838",
    "longitude": "-90.04315176715076",
    "latitude": "29.942573475466236",
    "geocoded_column": {
      "latitude": "29.942573475466236",
      "longitude": "-90.04315176715076"
    }
  },
  {
    "service_request": "2024-1075695",
    "request_type": "Abandoned Vehicles",
    "request_reason": "Abandoned/Junk Vehicles",
    "date_created": "2024-03-14T17:21:10.000",
    "date_modified": "2024-03-14T17:21:10.000",
    "request_status": "Pending",
    "responsible_agency": "Department of Public Works",
    "final_address": "1230 Thayer St",
    "address_councildis": "C",
    "status": "Pending",
    "rowid": "1075695",
    "final_x": "3689435.8406",
    "final_y": "526759.662974",
    "longitude": "-90.0431811178726",
    "latitude": "29.942163052747105",
    "geocoded_column": {
      "latitude": "29.942163052747105",
      "longitude": "-90.0431811178726"
    }
  },
  {
    "service_request": "2024-1075691",
    "request_type": "Trash/Recycling",
    "request_reason": "Request a Large Item Pick Up",
    "date_created": "2024-03-14T17:00:48.000",
    "date_modified": "2024-03-14T17:00:49.000",
    "request_status": "Pending",
    "responsible_agency": "Department of Sanitation",
    "final_address": "10940 Harrow Rd",
    "address_councildis": "E",
    "status": "Assigned to Contractor",
    "contractor": "Waste Pro",
    "rowid": "1075691",
    "final_x": "3711778.88235",
    "final_y": "563817.623201",
    "longitude": "-89.97124919197346",
    "latitude": "30.043347700071017",
    "geocoded_column": {
      "latitude": "30.043347700071017",
      "longitude": "-89.97124919197346"
    }
  },
  {
    "service_request": "2024-1075690",
    "request_type": "Trash/Recycling",
    "request_reason": "Missed Trash Pick-Up",
    "date_created": "2024-03-14T16:57:47.000",
    "date_modified": "2024-03-14T16:57:47.000",
    "request_status": "Pending",
    "responsible_agency": "Department of Sanitation",
    "final_address": "2314 Delery St",
    "address_councildis": "E",
    "status": "Assigned to Contractor",
    "contractor": "Waste Pro",
    "rowid": "1075690",
    "final_x": "3702208.70065",
    "final_y": "537434.866696",
    "longitude": "-90.00246323893724",
    "latitude": "29.971114425544155",
    "geocoded_column": {
      "latitude": "29.971114425544155",
      "longitude": "-90.00246323893724"
    }
  },
  {
    "service_request": "2024-1075689",
    "request_type": "Roads/Drainage",
    "request_reason": "Catch Basin - Broken/Damage",
    "date_created": "2024-03-14T16:53:27.000",
    "date_modified": "2024-03-14T16:53:28.000",
    "request_status": "Pending",
    "responsible_agency": "Department of Public Works",
    "final_address": "GIROD ST & W STADIUM DR & SUPERDOME EXIT",
    "address_councildis": "B",
    "status": "Pending",
    "rowid": "1075689",
    "final_x": "3676555.2",
    "final_y": "529655.38",
    "longitude": "-90.08374844076428",
    "latitude": "29.950517810294958",
    "geocoded_column": {
      "latitude": "29.950517810294958",
      "longitude": "-90.08374844076428"
    }
  },
  {
    "service_request": "2024-1075688",
    "request_type": "Roads/Drainage",
    "request_reason": "Pothole",
    "date_created": "2024-03-14T16:46:30.000",
    "date_modified": "2024-03-14T16:46:30.000",
    "request_status": "Pending",
    "responsible_agency": "Department of Public Works",
    "final_address": "3318 Law St Apt A",
    "address_councildis": "D",
    "status": "Pending",
    "rowid": "1075688",
    "final_x": "3691352.1014",
    "final_y": "541337.519052",
    "longitude": "-90.03661022773872",
    "latitude": "29.982187588030314",
    "geocoded_column": {
      "latitude": "29.982187588030314",
      "longitude": "-90.03661022773872"
    }
  },
  {
    "service_request": "2024-1075687",
    "request_type": "Trash/Recycling",
    "request_reason": "Missed Trash Pick-Up",
    "date_created": "2024-03-14T16:45:46.000",
    "date_modified": "2024-03-14T16:45:46.000",
    "request_status": "Pending",
    "responsible_agency": "Department of Sanitation",
    "final_address": "10230 Heritage Dr",
    "address_councildis": "E",
    "status": "Assigned to Contractor",
    "contractor": "Waste Pro",
    "rowid": "1075687",
    "final_x": "3709486.47909",
    "final_y": "564200.013025",
    "longitude": "-89.97847979533526",
    "latitude": "30.044473847454434",
    "geocoded_column": {
      "latitude": "30.044473847454434",
      "longitude": "-89.97847979533526"
    }
  },
  {
    "service_request": "2024-1075686",
    "request_type": "Trash/Recycling",
    "request_reason": "Request a Large Item Pick Up",
    "date_created": "2024-03-14T16:43:12.000",
    "date_modified": "2024-03-14T16:43:13.000",
    "request_status": "Pending",
    "responsible_agency": "Department of Sanitation",
    "final_address": "3201 Lamarque St",
    "address_councildis": "C",
    "status": "Assigned to Contractor",
    "contractor": "Richards Disposal",
    "rowid": "1075686",
    "final_x": "3696036.63325",
    "final_y": "526608.391934",
    "longitude": "-90.02234654835868",
    "latitude": "29.941541100836744",
    "geocoded_column": {
      "latitude": "29.941541100836744",
      "longitude": "-90.02234654835868"
    }
  },
  {
    "service_request": "2024-1075685",
    "request_type": "Trash/Recycling",
    "request_reason": "Order Trash Cart",
    "date_created": "2024-03-14T16:43:08.000",
    "date_modified": "2024-03-14T16:43:09.000",
    "request_status": "Pending",
    "responsible_agency": "Department of Sanitation",
    "final_address": "2312 Conti St",
    "address_councildis": "B",
    "status": "Assigned to Contractor",
    "contractor": "Richards Disposal",
    "rowid": "1075685",
    "final_x": "3677290.24974",
    "final_y": "535052.699206",
    "longitude": "-90.08124131074672",
    "latitude": "29.965336560014894",
    "geocoded_column": {
      "latitude": "29.965336560014894",
      "longitude": "-90.08124131074672"
    }
  },
  {
    "service_request": "2024-1075684",
    "request_type": "Abandoned Vehicles",
    "request_reason": "Abandoned/Junk Vehicles",
    "date_created": "2024-03-14T16:42:33.000",
    "date_modified": "2024-03-14T16:42:33.000",
    "request_status": "Pending",
    "responsible_agency": "Department of Public Works",
    "final_address": "2062 Benefit St",
    "address_councildis": "D",
    "status": "Pending",
    "rowid": "1075684",
    "final_x": "3683443.31868",
    "final_y": "544298.719311",
    "longitude": "-90.06148615030355",
    "latitude": "29.99057357221183",
    "geocoded_column": {
      "latitude": "29.99057357221183",
      "longitude": "-90.06148615030355"
    }
  },
  {
    "service_request": "2024-1075683",
    "request_type": "Trash/Recycling",
    "request_reason": "Replace Recycling Cart",
    "date_created": "2024-03-14T16:38:07.000",
    "date_modified": "2024-03-14T16:38:07.000",
    "request_status": "Pending",
    "responsible_agency": "Department of Sanitation",
    "final_address": "4724 Music St",
    "address_councildis": "D",
    "status": "Pending",
    "rowid": "1075683",
    "final_x": "3685557.17628",
    "final_y": "550393.497748",
    "longitude": "-90.05459416755399",
    "latitude": "30.00726733445943",
    "geocoded_column": {
      "latitude": "30.00726733445943",
      "longitude": "-90.05459416755399"
    }
  },
  {
    "service_request": "2024-1075682",
    "request_type": "Trash/Recycling",
    "request_reason": "Request a Large Item Pick Up",
    "date_created": "2024-03-14T16:35:25.000",
    "date_modified": "2024-03-14T16:35:26.000",
    "request_status": "Pending",
    "responsible_agency": "Department of Sanitation",
    "final_address": "4510 Arthur Dr",
    "address_councildis": "E",
    "status": "Assigned to Contractor",
    "contractor": "Waste Pro",
    "rowid": "1075682",
    "final_x": "3707763.11979",
    "final_y": "554022.3574",
    "longitude": "-89.98430504937915",
    "latitude": "30.016545210799524",
    "geocoded_column": {
      "latitude": "30.016545210799524",
      "longitude": "-89.98430504937915"
    }
  },
  {
    "service_request": "2024-1075681",
    "request_type": "Trash/Recycling",
    "request_reason": "Missed Trash Pick-Up",
    "date_created": "2024-03-14T16:29:49.000",
    "date_modified": "2024-03-14T16:29:49.000",
    "request_status": "Pending",
    "responsible_agency": "Department of Sanitation",
    "final_address": "12960 N Lake Carmel Dr",
    "address_councildis": "E",
    "status": "Assigned to Contractor",
    "contractor": "Waste Pro",
    "rowid": "1075681",
    "final_x": "3716442.16863",
    "final_y": "568529.653669",
    "longitude": "-89.95633245098513",
    "latitude": "30.05615060907572",
    "geocoded_column": {
      "latitude": "30.05615060907572",
      "longitude": "-89.95633245098513"
    }
  },
  {
    "service_request": "2024-1075680",
    "request_type": "Trash/Recycling",
    "request_reason": "MIssed Recycling Pick-Up",
    "date_created": "2024-03-14T16:29:11.000",
    "date_modified": "2024-03-14T16:29:11.000",
    "request_status": "Pending",
    "responsible_agency": "Department of Sanitation",
    "final_address": "1431 Constance St, New Orleans, Louisiana, 70130",
    "address_councildis": "B",
    "status": "Assigned to Contractor",
    "contractor": "Richards Disposal",
    "rowid": "1075680",
    "final_x": "3680635.16514",
    "final_y": "524194.270716",
    "longitude": "-90.07105598366722",
    "latitude": "29.935378608323525",
    "geocoded_column": {
      "latitude": "29.935378608323525",
      "longitude": "-90.07105598366722"
    }
  },
  {
    "service_request": "2024-1075679",
    "request_type": "Traffic Signals/Signs/Striping/Streetlights",
    "request_reason": "Street Light Outage/Malfunction",
    "date_created": "2024-03-14T16:20:46.000",
    "date_modified": "2024-03-14T16:20:46.000",
    "request_status": "Pending",
    "responsible_agency": "Department of Public Works",
    "final_address": "CALLIOPE ST & S PETERS ST",
    "address_councildis": "B",
    "status": "Assigned to Contractor",
    "contractor": "Legacy Professional Services",
    "rowid": "1075679",
    "final_x": "3682432.8",
    "final_y": "525229.98",
    "longitude": "-90.06534466674316",
    "latitude": "29.938171889887382",
    "geocoded_column": {
      "latitude": "29.938171889887382",
      "longitude": "-90.06534466674316"
    }
  },
  {
    "service_request": "2024-1075678",
    "request_type": "Trash/Recycling",
    "request_reason": "Repair Trash Cart",
    "date_created": "2024-03-14T16:20:27.000",
    "date_modified": "2024-03-14T16:20:28.000",
    "request_status": "Pending",
    "responsible_agency": "Department of Sanitation",
    "final_address": "1427 Louisiana Ave HM",
    "address_councildis": "B",
    "status": "Assigned to Contractor",
    "contractor": "Richards Disposal",
    "rowid": "1075678",
    "final_x": "3674589.48296",
    "final_y": "520850.277561",
    "longitude": "-90.09025677898256",
    "latitude": "29.92636545558405",
    "geocoded_column": {
      "latitude": "29.92636545558405",
      "longitude": "-90.09025677898256"
    }
  },
  {
    "service_request": "2024-1075677",
    "request_type": "Traffic Signals/Signs/Striping/Streetlights",
    "request_reason": "Street Light Outage/Malfunction",
    "date_created": "2024-03-14T16:19:18.000",
    "date_modified": "2024-03-14T16:19:18.000",
    "request_status": "Pending",
    "responsible_agency": "Department of Public Works",
    "final_address": "54 Park Timbers Dr",
    "address_councildis": "C",
    "status": "Assigned to Contractor",
    "contractor": "Legacy Professional Services",
    "rowid": "1075677",
    "final_x": "3699450.66884",
    "final_y": "517068.063669",
    "longitude": "-90.01191518833774",
    "latitude": "29.91520063748767",
    "geocoded_column": {
      "latitude": "29.91520063748767",
      "longitude": "-90.01191518833774"
    }
  },
  {
    "service_request": "2024-1075676",
    "request_type": "Roads/Drainage",
    "request_reason": "Catch Basin - Clogged",
    "date_created": "2024-03-14T16:18:49.000",
    "date_modified": "2024-03-14T16:18:49.000",
    "request_status": "Pending",
    "responsible_agency": "Department of Public Works",
    "final_address": "3318 Law St Apt C",
    "address_councildis": "D",
    "status": "Pending",
    "rowid": "1075676",
    "final_x": "3691354.96598",
    "final_y": "541350.2795",
    "longitude": "-90.03660072392954",
    "latitude": "29.982222585556453",
    "geocoded_column": {
      "latitude": "29.982222585556453",
      "longitude": "-90.03660072392954"
    }
  },
  {
    "service_request": "2024-1075675",
    "request_type": "Abandoned Vehicles",
    "request_reason": "Abandoned/Junk Vehicles",
    "date_created": "2024-03-14T16:16:13.000",
    "date_modified": "2024-03-14T16:16:13.000",
    "request_status": "Pending",
    "responsible_agency": "Department of Public Works",
    "final_address": "4927 De Montluzin St",
    "address_councildis": "D",
    "status": "Pending",
    "rowid": "1075675",
    "final_x": "3687148.01455",
    "final_y": "551229.225685",
    "longitude": "-90.04953869628984",
    "latitude": "30.00951636935868",
    "geocoded_column": {
      "latitude": "30.00951636935868",
      "longitude": "-90.04953869628984"
    }
  },
  {
    "service_request": "2024-1075674",
    "request_type": "Traffic Signals/Signs/Striping/Streetlights",
    "request_reason": "Traffic Sign Missing/Damaged",
    "date_created": "2024-03-14T16:16:10.000",
    "date_modified": "2024-03-14T16:16:10.000",
    "request_status": "Pending",
    "responsible_agency": "Department of Public Works",
    "final_address": "2239 St Claude Ave",
    "address_councildis": "C",
    "status": "Pending",
    "rowid": "1075674",
    "final_x": "3685452.01986",
    "final_y": "536447.798023",
    "longitude": "-90.05541775244144",
    "latitude": "29.96892484287943",
    "geocoded_column": {
      "latitude": "29.96892484287943",
      "longitude": "-90.05541775244144"
    }
  },
  {
    "service_request": "2024-1075673",
    "request_type": "Trash/Recycling",
    "request_reason": "Order Recycling Cart",
    "date_created": "2024-03-14T16:14:55.000",
    "date_modified": "2024-03-14T16:14:56.000",
    "request_status": "Pending",
    "responsible_agency": "Department of Sanitation",
    "final_address": "4220 General Ogden St",
    "address_councildis": "A",
    "status": "Pending",
    "rowid": "1075673",
    "final_x": "3667104.88621",
    "final_y": "538348.129801",
    "longitude": "-90.11329550189211",
    "latitude": "29.974699998702857",
    "geocoded_column": {
      "latitude": "29.974699998702857",
      "longitude": "-90.11329550189211"
    }
  },
  {
    "service_request": "2024-1075672",
    "request_type": "Roads/Drainage",
    "request_reason": "Catch Basin - Clogged",
    "date_created": "2024-03-14T16:14:29.000",
    "date_modified": "2024-03-14T16:14:29.000",
    "request_status": "Pending",
    "responsible_agency": "Department of Public Works",
    "final_address": "4220 General Ogden St",
    "address_councildis": "A",
    "status": "Pending",
    "rowid": "1075672",
    "final_x": "3667104.88621",
    "final_y": "538348.129801",
    "longitude": "-90.11329550189211",
    "latitude": "29.974699998702857",
    "geocoded_column": {
      "latitude": "29.974699998702857",
      "longitude": "-90.11329550189211"
    }
  },
  {
    "service_request": "2024-1075671",
    "request_type": "Trash/Recycling",
    "request_reason": "MIssed Recycling Pick-Up",
    "date_created": "2024-03-14T16:10:28.000",
    "date_modified": "2024-03-14T16:10:29.000",
    "request_status": "Pending",
    "responsible_agency": "Department of Sanitation",
    "final_address": "7026 S Claiborne Ave",
    "address_councildis": "A",
    "status": "Assigned to Contractor",
    "contractor": "Richards Disposal",
    "rowid": "1075671",
    "final_x": "3666411.97549",
    "final_y": "529160.377088",
    "longitude": "-90.1157922237702",
    "latitude": "29.949456972113836",
    "geocoded_column": {
      "latitude": "29.949456972113836",
      "longitude": "-90.1157922237702"
    }
  },
  {
    "service_request": "2024-1075670",
    "request_type": "Roads/Drainage",
    "request_reason": "Accessibility Ramps, Curbs and Sidewalk Repair",
    "date_created": "2024-03-14T16:07:27.000",
    "date_modified": "2024-03-14T16:07:27.000",
    "request_status": "Pending",
    "responsible_agency": "Department of Public Works",
    "final_address": "1350 Bourbon St",
    "address_councildis": "C",
    "status": "Pending",
    "rowid": "1075670",
    "final_x": "3683700.26441",
    "final_y": "534514.026181",
    "longitude": "-90.06101771273805",
    "latitude": "29.963661240674625",
    "geocoded_column": {
      "latitude": "29.963661240674625",
      "longitude": "-90.06101771273805"
    }
  },
  {
    "service_request": "2024-1075669",
    "request_type": "Trash/Recycling",
    "request_reason": "Start Trash Service",
    "date_created": "2024-03-14T16:04:11.000",
    "date_modified": "2024-03-14T16:04:12.000",
    "request_status": "Pending",
    "responsible_agency": "Department of Sanitation",
    "final_address": "2014 Third St",
    "address_councildis": "B",
    "status": "Assigned to Contractor",
    "contractor": "Richards Disposal",
    "rowid": "1075669",
    "final_x": "3675534.40347",
    "final_y": "524160.074556",
    "longitude": "-90.08716029808377",
    "latitude": "29.93543810086901",
    "geocoded_column": {
      "latitude": "29.93543810086901",
      "longitude": "-90.08716029808377"
    }
  },
  {
    "service_request": "2024-1075668",
    "request_type": "Trash/Recycling",
    "request_reason": "Order Recycling Cart",
    "date_created": "2024-03-14T15:57:37.000",
    "date_modified": "2024-03-14T15:57:38.000",
    "request_status": "Pending",
    "responsible_agency": "Department of Sanitation",
    "final_address": "4618 Gallatin St",
    "address_councildis": "C",
    "status": "Pending",
    "rowid": "1075668",
    "final_x": "3702150.59818",
    "final_y": "522428.252282",
    "longitude": "-90.00319688708471",
    "latitude": "29.92985341804357",
    "geocoded_column": {
      "latitude": "29.92985341804357",
      "longitude": "-90.00319688708471"
    }
  },
  {
    "service_request": "2024-1075667",
    "request_type": "Trash/Recycling",
    "request_reason": "Repair Trash Cart",
    "date_created": "2024-03-14T15:56:32.000",
    "date_modified": "2024-03-14T15:56:32.000",
    "request_status": "Pending",
    "responsible_agency": "Department of Sanitation",
    "final_address": "201 S Alexander St",
    "address_councildis": "A",
    "status": "Assigned to Contractor",
    "contractor": "Richards Disposal",
    "rowid": "1075667",
    "final_x": "3669694.63297",
    "final_y": "538844.247945",
    "longitude": "-90.10509962164365",
    "latitude": "29.975988081965586",
    "geocoded_column": {
      "latitude": "29.975988081965586",
      "longitude": "-90.10509962164365"
    }
  },
  {
    "service_request": "2024-1075666",
    "request_type": "Trash/Recycling",
    "request_reason": "Replace Trash Cart",
    "date_created": "2024-03-14T15:54:29.000",
    "date_modified": "2024-03-14T15:54:30.000",
    "request_status": "Pending",
    "responsible_agency": "Department of Sanitation",
    "final_address": "5828 Magnolia St",
    "address_councildis": "A",
    "status": "Assigned to Contractor",
    "contractor": "Richards Disposal",
    "rowid": "1075666",
    "final_x": "3666802.00109",
    "final_y": "524902.680572",
    "longitude": "-90.114703708006",
    "latitude": "29.937738278607156",
    "geocoded_column": {
      "latitude": "29.937738278607156",
      "longitude": "-90.114703708006"
    }
  },
  {
    "service_request": "2024-1075665",
    "request_type": "Trash/Recycling",
    "request_reason": "Missed Trash Pick-Up",
    "date_created": "2024-03-14T15:53:46.000",
    "date_modified": "2024-03-14T15:53:46.000",
    "request_status": "Pending",
    "responsible_agency": "Department of Sanitation",
    "final_address": "201 S Alexander St",
    "address_councildis": "A",
    "status": "Assigned to Contractor",
    "contractor": "Richards Disposal",
    "rowid": "1075665",
    "final_x": "3669694.63297",
    "final_y": "538844.247945",
    "longitude": "-90.10509962164365",
    "latitude": "29.975988081965586",
    "geocoded_column": {
      "latitude": "29.975988081965586",
      "longitude": "-90.10509962164365"
    }
  },
  {
    "service_request": "2024-1075664",
    "request_type": "Trash/Recycling",
    "request_reason": "Replace Recycling Cart",
    "date_created": "2024-03-14T15:53:29.000",
    "date_modified": "2024-03-14T15:54:05.000",
    "request_status": "Pending",
    "responsible_agency": "Department of Sanitation",
    "final_address": "3312 Napoleon Ave",
    "address_councildis": "B",
    "status": "Pending",
    "rowid": "1075664",
    "final_x": "3670101.37345",
    "final_y": "527013.058942",
    "longitude": "-90.10421583475613",
    "latitude": "29.943444237890454",
    "geocoded_column": {
      "latitude": "29.943444237890454",
      "longitude": "-90.10421583475613"
    }
  },
  {
    "service_request": "2024-1075663",
    "request_type": "Trash/Recycling",
    "request_reason": "Repair Trash Cart",
    "date_created": "2024-03-14T15:52:10.000",
    "date_modified": "2024-03-14T15:52:10.000",
    "request_status": "Pending",
    "responsible_agency": "Department of Sanitation",
    "final_address": "5828 Clara St",
    "address_councildis": "A",
    "status": "Assigned to Contractor",
    "contractor": "Richards Disposal",
    "rowid": "1075663",
    "final_x": "3666876.68391",
    "final_y": "525238.932861",
    "longitude": "-90.11445663523014",
    "latitude": "29.93866068041521",
    "geocoded_column": {
      "latitude": "29.93866068041521",
      "longitude": "-90.11445663523014"
    }
  },
  {
    "service_request": "2024-1075662",
    "request_type": "Trash/Recycling",
    "request_reason": "Missed Trash Pick-Up",
    "date_created": "2024-03-14T15:51:45.000",
    "date_modified": "2024-03-14T15:51:45.000",
    "request_status": "Pending",
    "responsible_agency": "Department of Sanitation",
    "final_address": "4600 Charlene Dr",
    "address_councildis": "E",
    "status": "Assigned to Contractor",
    "contractor": "Waste Pro",
    "rowid": "1075662",
    "final_x": "3707946.48107",
    "final_y": "554518.318872",
    "longitude": "-89.98370725416333",
    "latitude": "30.017902975729307",
    "geocoded_column": {
      "latitude": "30.017902975729307",
      "longitude": "-89.98370725416333"
    }
  },
  {
    "service_request": "2024-1075661",
    "request_type": "Trash/Recycling",
    "request_reason": "Request a Large Item Pick Up",
    "date_created": "2024-03-14T15:50:29.000",
    "date_modified": "2024-03-14T15:51:18.000",
    "request_status": "Pending",
    "responsible_agency": "Department of Sanitation",
    "final_address": "4016 Monroe St",
    "address_councildis": "A",
    "status": "Assigned to Contractor",
    "contractor": "Richards Disposal",
    "rowid": "1075661",
    "final_x": "3667157.89377",
    "final_y": "537303.101704",
    "longitude": "-90.11316323588255",
    "latitude": "29.971824968704915",
    "geocoded_column": {
      "latitude": "29.971824968704915",
      "longitude": "-90.11316323588255"
    }
  },
  {
    "service_request": "2024-1075660",
    "request_type": "Trash/Recycling",
    "request_reason": "MIssed Recycling Pick-Up",
    "date_created": "2024-03-14T15:50:20.000",
    "date_modified": "2024-03-14T15:50:20.000",
    "request_status": "Pending",
    "responsible_agency": "Department of Sanitation",
    "final_address": "200 BLK S Solomon St",
    "address_councildis": "A",
    "status": "Assigned to Contractor",
    "contractor": "Richards Disposal",
    "rowid": "1075660",
    "final_x": "3670219.33374",
    "final_y": "538242.937737",
    "longitude": "-90.10346284464782",
    "latitude": "29.974319206480768",
    "geocoded_column": {
      "latitude": "29.974319206480768",
      "longitude": "-90.10346284464782"
    }
  },
  {
    "service_request": "2024-1075659",
    "request_type": "Trash/Recycling",
    "request_reason": "Illegal Dumping",
    "date_created": "2024-03-14T15:47:31.000",
    "date_modified": "2024-03-14T15:47:32.000",
    "request_status": "Pending",
    "responsible_agency": "Department of Sanitation",
    "final_address": "2012 Annette St",
    "address_councildis": "D",
    "status": "Pending",
    "rowid": "1075659",
    "final_x": "3682829.03125",
    "final_y": "539594.001866",
    "longitude": "-90.06359120843166",
    "latitude": "29.977655986926482",
    "geocoded_column": {
      "latitude": "29.977655986926482",
      "longitude": "-90.06359120843166"
    }
  },
  {
    "service_request": "2024-1075658",
    "request_type": "Trash/Recycling",
    "request_reason": "Request a Large Item Pick Up",
    "date_created": "2024-03-14T15:47:18.000",
    "date_modified": "2024-03-14T15:47:19.000",
    "request_status": "Pending",
    "responsible_agency": "Department of Sanitation",
    "final_address": "3837 Wall Blvd",
    "address_councildis": "C",
    "status": "Assigned to Contractor",
    "contractor": "Richards Disposal",
    "rowid": "1075658",
    "final_x": "3698055.33571",
    "final_y": "523632.393147",
    "longitude": "-90.01608115488668",
    "latitude": "29.933294473097042",
    "geocoded_column": {
      "latitude": "29.933294473097042",
      "longitude": "-90.01608115488668"
    }
  },
  {
    "service_request": "2024-1075657",
    "request_type": "Property Maintenance",
    "request_reason": "Property Maintenance",
    "date_created": "2024-03-14T15:44:21.000",
    "date_modified": "2024-03-14T15:44:21.000",
    "request_status": "Pending",
    "responsible_agency": "Department of Code Enforcement",
    "final_address": "923 N Galvez St",
    "address_councildis": "D",
    "status": "Pending",
    "rowid": "1075657",
    "final_x": "3678879.8683",
    "final_y": "536451.851143",
    "longitude": "-90.0761728951354",
    "latitude": "29.969135892209753",
    "geocoded_column": {
      "latitude": "29.969135892209753",
      "longitude": "-90.0761728951354"
    }
  },
  {
    "service_request": "2024-1075656",
    "request_type": "Trash/Recycling",
    "request_reason": "Order Trash Cart",
    "date_created": "2024-03-14T15:44:15.000",
    "date_modified": "2024-03-14T15:44:15.000",
    "request_status": "Pending",
    "responsible_agency": "Department of Sanitation",
    "final_address": "4408 Laine Ave",
    "address_councildis": "E",
    "status": "Assigned to Contractor",
    "contractor": "Waste Pro",
    "rowid": "1075656",
    "final_x": "3705845.90865",
    "final_y": "553463.905815",
    "longitude": "-89.99038324687696",
    "latitude": "30.015071608658236",
    "geocoded_column": {
      "latitude": "30.015071608658236",
      "longitude": "-89.99038324687696"
    }
  },
  {
    "service_request": "2024-1075655",
    "request_type": "Property Maintenance",
    "request_reason": "Property Maintenance",
    "date_created": "2024-03-14T15:42:58.000",
    "date_modified": "2024-03-14T15:42:58.000",
    "request_status": "Pending",
    "responsible_agency": "Department of Code Enforcement",
    "final_address": "923 N Galvez St",
    "address_councildis": "D",
    "status": "Pending",
    "rowid": "1075655",
    "final_x": "3678879.8683",
    "final_y": "536451.851143",
    "longitude": "-90.0761728951354",
    "latitude": "29.969135892209753",
    "geocoded_column": {
      "latitude": "29.969135892209753",
      "longitude": "-90.0761728951354"
    }
  },
  {
    "service_request": "2024-1075654",
    "request_type": "Trash/Recycling",
    "request_reason": "Request a Large Item Pick Up",
    "date_created": "2024-03-14T15:40:57.000",
    "date_modified": "2024-03-14T15:40:58.000",
    "request_status": "Pending",
    "responsible_agency": "Department of Sanitation",
    "final_address": "4948 Chrysler St",
    "address_councildis": "E",
    "status": "Assigned to Contractor",
    "contractor": "Waste Pro",
    "rowid": "1075654",
    "final_x": "3715130.14245",
    "final_y": "557801.687899",
    "longitude": "-89.96088564470875",
    "latitude": "30.026696331180947",
    "geocoded_column": {
      "latitude": "30.026696331180947",
      "longitude": "-89.96088564470875"
    }
  },
  {
    "service_request": "2024-1075653",
    "request_type": "Property Maintenance",
    "request_reason": "Property Maintenance",
    "date_created": "2024-03-14T15:38:37.000",
    "date_modified": "2024-03-14T15:46:47.000",
    "case_close_date": "2024-03-14T10:46:47.000",
    "request_status": "Closed",
    "responsible_agency": "Department of Code Enforcement",
    "final_address": "5715 Bullard Ave",
    "address_councildis": "E",
    "status": "Resolved",
    "rowid": "1075653",
    "final_x": "3716821.73676",
    "final_y": "562570.821792",
    "longitude": "-89.95535922041469",
    "latitude": "30.039753711205492",
    "geocoded_column": {
      "latitude": "30.039753711205492",
      "longitude": "-89.95535922041469"
    }
  },
  {
    "service_request": "2024-1075652",
    "request_type": "Trash/Recycling",
    "request_reason": "Repair Trash Cart",
    "date_created": "2024-03-14T15:36:19.000",
    "date_modified": "2024-03-14T15:36:19.000",
    "request_status": "Pending",
    "responsible_agency": "Department of Sanitation",
    "final_address": "33 Vivian Ct",
    "address_councildis": "C",
    "status": "Assigned to Contractor",
    "contractor": "Richards Disposal",
    "rowid": "1075652",
    "final_x": "3702239.98532",
    "final_y": "521112.719289",
    "longitude": "-90.00296292620659",
    "latitude": "29.926233304902638",
    "geocoded_column": {
      "latitude": "29.926233304902638",
      "longitude": "-90.00296292620659"
    }
  },
  {
    "service_request": "2024-1075651",
    "request_type": "Trash/Recycling",
    "request_reason": "Request a Large Item Pick Up",
    "date_created": "2024-03-14T15:34:59.000",
    "date_modified": "2024-03-14T15:35:29.000",
    "request_status": "Pending",
    "responsible_agency": "Department of Sanitation",
    "final_address": "434 33Rd St",
    "address_councildis": "A",
    "status": "Assigned to Contractor",
    "contractor": "IV Waste",
    "rowid": "1075651",
    "final_x": "3664595.30912",
    "final_y": "550939.101269",
    "longitude": "-90.12080060233498",
    "latitude": "30.009394125647024",
    "geocoded_column": {
      "latitude": "30.009394125647024",
      "longitude": "-90.12080060233498"
    }
  },
  {
    "service_request": "2024-1075650",
    "request_type": "Abandoned Vehicles",
    "request_reason": "Abandoned/Junk Vehicles",
    "date_created": "2024-03-14T15:34:20.000",
    "date_modified": "2024-03-14T15:34:20.000",
    "request_status": "Pending",
    "responsible_agency": "Department of Public Works",
    "final_address": "329 Diana St",
    "address_councildis": "C",
    "status": "Pending",
    "rowid": "1075650",
    "final_x": "3686485.60534",
    "final_y": "527486.260095",
    "longitude": "-90.05246998985923",
    "latitude": "29.9442519574268",
    "geocoded_column": {
      "latitude": "29.9442519574268",
      "longitude": "-90.05246998985923"
    }
  },
  {
    "service_request": "2024-1075649",
    "request_type": "Roads/Drainage",
    "request_reason": "Pothole",
    "date_created": "2024-03-14T15:32:20.000",
    "date_modified": "2024-03-14T15:32:21.000",
    "request_status": "Pending",
    "responsible_agency": "Department of Public Works",
    "final_address": "2125 Laharpe St",
    "address_councildis": "D",
    "status": "Pending",
    "rowid": "1075649",
    "final_x": "3680415.81231",
    "final_y": "538762.038921",
    "longitude": "-90.07124191662122",
    "latitude": "29.97544168662399",
    "geocoded_column": {
      "latitude": "29.97544168662399",
      "longitude": "-90.07124191662122"
    }
  },
  {
    "service_request": "2024-1075648",
    "request_type": "Abandoned Vehicles",
    "request_reason": "Vehicle Blocking Your Driveway",
    "date_created": "2024-03-14T15:31:34.000",
    "date_modified": "2024-03-14T15:31:34.000",
    "request_status": "Pending",
    "responsible_agency": "Department of Public Works",
    "final_address": "1121 Teche St",
    "address_councildis": "C",
    "status": "Pending",
    "rowid": "1075648",
    "final_x": "3686564.54012",
    "final_y": "527338.319551",
    "longitude": "-90.0522259931883",
    "latitude": "29.943842744647146",
    "geocoded_column": {
      "latitude": "29.943842744647146",
      "longitude": "-90.0522259931883"
    }
  },
  {
    "service_request": "2024-1075647",
    "request_type": "Abandoned Vehicles",
    "request_reason": "Vehicle Blocking Your Driveway",
    "date_created": "2024-03-14T15:30:01.000",
    "date_modified": "2024-03-14T15:30:01.000",
    "request_status": "Pending",
    "responsible_agency": "Department of Public Works",
    "final_address": "1121 Teche St",
    "address_councildis": "C",
    "status": "Pending",
    "rowid": "1075647",
    "final_x": "3686564.54012",
    "final_y": "527338.319551",
    "longitude": "-90.0522259931883",
    "latitude": "29.943842744647146",
    "geocoded_column": {
      "latitude": "29.943842744647146",
      "longitude": "-90.0522259931883"
    }
  },
  {
    "service_request": "2024-1075646",
    "request_type": "Abandoned Vehicles",
    "request_reason": "Abandoned/Junk Vehicles",
    "date_created": "2024-03-14T15:29:42.000",
    "date_modified": "2024-03-14T15:29:42.000",
    "request_status": "Pending",
    "responsible_agency": "Department of Public Works",
    "final_address": "212 Fairfax Pl",
    "address_councildis": "C",
    "status": "Pending",
    "rowid": "1075646",
    "final_x": "3706552.23723",
    "final_y": "517507.575606",
    "longitude": "-89.98948396504859",
    "latitude": "29.916182042258402",
    "geocoded_column": {
      "latitude": "29.916182042258402",
      "longitude": "-89.98948396504859"
    }
  },
  {
    "service_request": "2024-1075645",
    "request_type": "Trash/Recycling",
    "request_reason": "Request a Large Item Pick Up",
    "date_created": "2024-03-14T15:28:28.000",
    "date_modified": "2024-03-14T15:28:29.000",
    "request_status": "Pending",
    "responsible_agency": "Department of Sanitation",
    "final_address": "1404 Strand Ct",
    "address_councildis": "E",
    "status": "Assigned to Contractor",
    "contractor": "Waste Pro",
    "rowid": "1075645",
    "final_x": "3699753.10589",
    "final_y": "534500.147781",
    "longitude": "-90.0103252997759",
    "latitude": "29.963123197703002",
    "geocoded_column": {
      "latitude": "29.963123197703002",
      "longitude": "-90.0103252997759"
    }
  },
  {
    "service_request": "2024-1075644",
    "request_type": "Trash/Recycling",
    "request_reason": "Return Trash Cart",
    "date_created": "2024-03-14T15:25:21.000",
    "date_modified": "2024-03-14T15:25:21.000",
    "request_status": "Pending",
    "responsible_agency": "Department of Sanitation",
    "final_address": "6519 E Hermes St",
    "address_councildis": "D",
    "status": "Assigned to Contractor",
    "contractor": "Waste Pro",
    "rowid": "1075644",
    "final_x": "3698031.80682",
    "final_y": "555458.326873",
    "longitude": "-90.0149994610959",
    "latitude": "30.02080501578286",
    "geocoded_column": {
      "latitude": "30.02080501578286",
      "longitude": "-90.0149994610959"
    }
  },
  {
    "service_request": "2024-1075642",
    "request_type": "Traffic Signals/Signs/Striping/Streetlights",
    "request_reason": "Traffic Signal Malfunctioning/Damaged",
    "date_created": "2024-03-14T15:24:22.000",
    "date_modified": "2024-03-14T15:24:23.000",
    "request_status": "Pending",
    "responsible_agency": "Department of Public Works",
    "final_address": "1100 BLK Poydras St",
    "address_councildis": "B",
    "status": "Pending",
    "rowid": "1075642",
    "final_x": "3679243.68183",
    "final_y": "529756.839552",
    "longitude": "-90.0752560894246",
    "latitude": "29.950715898861848",
    "geocoded_column": {
      "latitude": "29.950715898861848",
      "longitude": "-90.0752560894246"
    }
  },
  {
    "service_request": "2024-1075641",
    "request_type": "Trash/Recycling",
    "request_reason": "Request a Large Item Pick Up",
    "date_created": "2024-03-14T15:22:01.000",
    "date_modified": "2024-03-14T15:22:02.000",
    "request_status": "Pending",
    "responsible_agency": "Department of Sanitation",
    "final_address": "5439 N Johnson St",
    "address_councildis": "E",
    "status": "Assigned to Contractor",
    "contractor": "Waste Pro",
    "rowid": "1075641",
    "final_x": "3698428.34103",
    "final_y": "537286.578312",
    "longitude": "-90.01440744127811",
    "latitude": "29.970826876224013",
    "geocoded_column": {
      "latitude": "29.970826876224013",
      "longitude": "-90.01440744127811"
    }
  },
  {
    "service_request": "2024-1075640",
    "request_type": "Roads/Drainage",
    "request_reason": "Street Subsidence (Sinking)",
    "date_created": "2024-03-14T15:19:57.000",
    "date_modified": "2024-03-14T15:24:15.000",
    "request_status": "Pending",
    "responsible_agency": "Department of Public Works",
    "final_address": "600 BLK S Norman C Francis Pkwy",
    "address_councildis": "B",
    "status": "Inspected",
    "rowid": "1075640",
    "final_x": "3672032.32946",
    "final_y": "535028.248301",
    "longitude": "-90.09784643530955",
    "latitude": "29.965426261805117",
    "geocoded_column": {
      "latitude": "29.965426261805117",
      "longitude": "-90.09784643530955"
    }
  },
  {
    "service_request": "2024-1075639",
    "request_type": "Trash/Recycling",
    "request_reason": "Replace Trash Cart",
    "date_created": "2024-03-14T15:15:31.000",
    "date_modified": "2024-03-14T15:15:32.000",
    "request_status": "Pending",
    "responsible_agency": "Department of Sanitation",
    "final_address": "6235 Oxford St",
    "address_councildis": "C",
    "status": "Assigned to Contractor",
    "contractor": "Richards Disposal",
    "rowid": "1075639",
    "final_x": "3707252.1226",
    "final_y": "519666.999992",
    "longitude": "-89.98719479431776",
    "latitude": "29.922097119330754",
    "geocoded_column": {
      "latitude": "29.922097119330754",
      "longitude": "-89.98719479431776"
    }
  },
  {
    "service_request": "2024-1075638",
    "request_type": "Trash/Recycling",
    "request_reason": "Request a Large Item Pick Up",
    "date_created": "2024-03-14T15:15:26.000",
    "date_modified": "2024-03-14T15:15:27.000",
    "request_status": "Pending",
    "responsible_agency": "Department of Sanitation",
    "final_address": "7619 Oak St",
    "address_councildis": "A",
    "status": "Assigned to Contractor",
    "contractor": "Richards Disposal",
    "rowid": "1075638",
    "final_x": "3663211.76653",
    "final_y": "527292.183615",
    "longitude": "-90.12595892290929",
    "latitude": "29.94441315299879",
    "geocoded_column": {
      "latitude": "29.94441315299879",
      "longitude": "-90.12595892290929"
    }
  },
  {
    "service_request": "2024-1075637",
    "request_type": "Property Maintenance",
    "request_reason": "Property Maintenance",
    "date_created": "2024-03-14T15:14:04.000",
    "date_modified": "2024-03-14T15:34:41.000",
    "case_close_date": "2024-03-14T10:34:41.000",
    "request_status": "Closed",
    "responsible_agency": "Department of Code Enforcement",
    "final_address": "923 N Galvez St",
    "address_councildis": "D",
    "status": "Resolved",
    "rowid": "1075637",
    "final_x": "3678879.8683",
    "final_y": "536451.851143",
    "longitude": "-90.0761728951354",
    "latitude": "29.969135892209753",
    "geocoded_column": {
      "latitude": "29.969135892209753",
      "longitude": "-90.0761728951354"
    }
  },
  {
    "service_request": "2024-1075636",
    "request_type": "Trash/Recycling",
    "request_reason": "Missed Trash Pick-Up",
    "date_created": "2024-03-14T15:11:01.000",
    "date_modified": "2024-03-14T15:11:02.000",
    "request_status": "Pending",
    "responsible_agency": "Department of Sanitation",
    "final_address": "5434 N Tonti St",
    "address_councildis": "E",
    "status": "Assigned to Contractor",
    "contractor": "Waste Pro",
    "rowid": "1075636",
    "final_x": "3698722.59306",
    "final_y": "538343.385609",
    "longitude": "-90.01343971726627",
    "latitude": "29.973723399103985",
    "geocoded_column": {
      "latitude": "29.973723399103985",
      "longitude": "-90.01343971726627"
    }
  },
  {
    "service_request": "2024-1075635",
    "request_type": "Trash/Recycling",
    "request_reason": "Repair Trash Cart",
    "date_created": "2024-03-14T15:08:13.000",
    "date_modified": "2024-03-14T15:08:14.000",
    "request_status": "Pending",
    "responsible_agency": "Department of Sanitation",
    "final_address": "4935 Warren Dr",
    "address_councildis": "E",
    "status": "Assigned to Contractor",
    "contractor": "Waste Pro",
    "rowid": "1075635",
    "final_x": "3713421.70098",
    "final_y": "557332.457371",
    "longitude": "-89.9663017703026",
    "latitude": "30.02546228827129",
    "geocoded_column": {
      "latitude": "30.02546228827129",
      "longitude": "-89.9663017703026"
    }
  },
  {
    "service_request": "2024-1075634",
    "request_type": "Property Maintenance",
    "request_reason": "Property Maintenance",
    "date_created": "2024-03-14T15:06:00.000",
    "date_modified": "2024-03-14T15:15:33.000",
    "case_close_date": "2024-03-14T10:15:33.000",
    "request_status": "Closed",
    "responsible_agency": "Department of Code Enforcement",
    "final_address": "6747 Memphis St",
    "address_councildis": "A",
    "status": "Resolved",
    "rowid": "1075634",
    "final_x": "3669739.67143",
    "final_y": "552316.155478",
    "longitude": "-90.10450107756539",
    "latitude": "30.013029852110783",
    "geocoded_column": {
      "latitude": "30.013029852110783",
      "longitude": "-90.10450107756539"
    }
  },
  {
    "service_request": "2024-1075633",
    "request_type": "Trash/Recycling",
    "request_reason": "Repair Recycling Cart",
    "date_created": "2024-03-14T15:05:24.000",
    "date_modified": "2024-03-14T15:05:24.000",
    "request_status": "Pending",
    "responsible_agency": "Department of Sanitation",
    "final_address": "6304 Magazine St",
    "address_councildis": "A",
    "status": "Pending",
    "rowid": "1075633",
    "final_x": "3663365.39917",
    "final_y": "519714.570168",
    "longitude": "-90.12572600219224",
    "latitude": "29.923572660102824",
    "geocoded_column": {
      "latitude": "29.923572660102824",
      "longitude": "-90.12572600219224"
    }
  },
  {
    "service_request": "2024-1075632",
    "request_type": "Trash/Recycling",
    "request_reason": "Illegal Dumping",
    "date_created": "2024-03-14T15:02:28.000",
    "date_modified": "2024-03-14T15:02:29.000",
    "request_status": "Pending",
    "responsible_agency": "Department of Sanitation",
    "final_address": "2600 BLK Florida Ave",
    "address_councildis": "D",
    "status": "Pending",
    "rowid": "1075632",
    "final_x": "3686913.02673",
    "final_y": "542389.398277",
    "longitude": "-90.05059375129038",
    "latitude": "29.98521726745714",
    "geocoded_column": {
      "latitude": "29.98521726745714",
      "longitude": "-90.05059375129038"
    }
  },
  {
    "service_request": "2024-1075631",
    "request_type": "Trash/Recycling",
    "request_reason": "Repair Trash Cart",
    "date_created": "2024-03-14T15:02:19.000",
    "date_modified": "2024-03-14T15:02:20.000",
    "request_status": "Pending",
    "responsible_agency": "Department of Sanitation",
    "final_address": "5217 Forest Park Ln",
    "address_councildis": "C",
    "status": "Assigned to Contractor",
    "contractor": "Richards Disposal",
    "rowid": "1075631",
    "final_x": "3703805.07326",
    "final_y": "510456.897839",
    "longitude": "-89.99841430732789",
    "latitude": "29.896883384869827",
    "geocoded_column": {
      "latitude": "29.896883384869827",
      "longitude": "-89.99841430732789"
    }
  },
  {
    "service_request": "2024-1075630",
    "request_type": "Trash/Recycling",
    "request_reason": "Repair Trash Cart",
    "date_created": "2024-03-14T14:59:55.000",
    "date_modified": "2024-03-14T14:59:55.000",
    "request_status": "Pending",
    "responsible_agency": "Department of Sanitation",
    "final_address": "2823 Chippewa St",
    "address_councildis": "B",
    "status": "Assigned to Contractor",
    "contractor": "Richards Disposal",
    "rowid": "1075630",
    "final_x": "3677679.75598",
    "final_y": "519485.610487",
    "longitude": "-90.08054875189302",
    "latitude": "29.92252051889523",
    "geocoded_column": {
      "latitude": "29.92252051889523",
      "longitude": "-90.08054875189302"
    }
  },
  {
    "service_request": "2024-1075629",
    "request_type": "Trash/Recycling",
    "request_reason": "Order Recycling Cart",
    "date_created": "2024-03-14T14:56:43.000",
    "date_modified": "2024-03-14T14:56:43.000",
    "request_status": "Pending",
    "responsible_agency": "Department of Sanitation",
    "final_address": "2616 Franklin Ave",
    "address_councildis": "D",
    "status": "Pending",
    "rowid": "1075629",
    "final_x": "3687372.98742",
    "final_y": "542228.215565",
    "longitude": "-90.0491466377709",
    "latitude": "29.98475990597532",
    "geocoded_column": {
      "latitude": "29.98475990597532",
      "longitude": "-90.0491466377709"
    }
  },
  {
    "service_request": "2024-1075628",
    "request_type": "Trash/Recycling",
    "request_reason": "Repair Trash Cart",
    "date_created": "2024-03-14T14:56:16.000",
    "date_modified": "2024-03-14T14:56:17.000",
    "request_status": "Pending",
    "responsible_agency": "Department of Sanitation",
    "final_address": "2616 Franklin Ave",
    "address_councildis": "D",
    "status": "Assigned to Contractor",
    "contractor": "IV Waste",
    "rowid": "1075628",
    "final_x": "3687372.98742",
    "final_y": "542228.215565",
    "longitude": "-90.0491466377709",
    "latitude": "29.98475990597532",
    "geocoded_column": {
      "latitude": "29.98475990597532",
      "longitude": "-90.0491466377709"
    }
  },
  {
    "service_request": "2024-1075627",
    "request_type": "Trash/Recycling",
    "request_reason": "Missed Trash Pick-Up",
    "date_created": "2024-03-14T14:55:50.000",
    "date_modified": "2024-03-14T14:55:51.000",
    "request_status": "Pending",
    "responsible_agency": "Department of Sanitation",
    "final_address": "1738 Burdette St",
    "address_councildis": "A",
    "status": "Assigned to Contractor",
    "contractor": "Richards Disposal",
    "rowid": "1075627",
    "final_x": "3664159.81133",
    "final_y": "529175.380352",
    "longitude": "-90.12290284822443",
    "latitude": "29.949563836214093",
    "geocoded_column": {
      "latitude": "29.949563836214093",
      "longitude": "-90.12290284822443"
    }
  },
  {
    "service_request": "2024-1075626",
    "request_type": "Roads/Drainage",
    "request_reason": "Catch Basin - Clogged",
    "date_created": "2024-03-14T14:49:52.000",
    "date_modified": "2024-03-14T14:49:53.000",
    "request_status": "Pending",
    "responsible_agency": "Department of Public Works",
    "final_address": "8635 S Claiborne Ave",
    "address_councildis": "A",
    "status": "Pending",
    "rowid": "1075626",
    "final_x": "3663380.55271",
    "final_y": "532999.683716",
    "longitude": "-90.125236020125",
    "latitude": "29.960102043178896",
    "geocoded_column": {
      "latitude": "29.960102043178896",
      "longitude": "-90.125236020125"
    }
  },
  {
    "service_request": "2024-1075623",
    "request_type": "Trash/Recycling",
    "request_reason": "Order Trash Cart",
    "date_created": "2024-03-14T14:44:40.000",
    "date_modified": "2024-03-14T14:44:40.000",
    "request_status": "Pending",
    "responsible_agency": "Department of Sanitation",
    "final_address": "2628 Lamanche St",
    "address_councildis": "E",
    "status": "Assigned to Contractor",
    "contractor": "Waste Pro",
    "rowid": "1075623",
    "final_x": "3699863.31031",
    "final_y": "539575.416138",
    "longitude": "-90.00979216364432",
    "latitude": "29.97707485683801",
    "geocoded_column": {
      "latitude": "29.97707485683801",
      "longitude": "-90.00979216364432"
    }
  },
  {
    "service_request": "2024-1075622",
    "request_type": "Trash/Recycling",
    "request_reason": "Request a Large Item Pick Up",
    "date_created": "2024-03-14T14:37:24.000",
    "date_modified": "2024-03-14T14:37:24.000",
    "request_status": "Pending",
    "responsible_agency": "Department of Sanitation",
    "final_address": "3816 Peach Tree Ct",
    "address_councildis": "C",
    "status": "Assigned to Contractor",
    "contractor": "Richards Disposal",
    "rowid": "1075622",
    "final_x": "3703938.66718",
    "final_y": "512678.132721",
    "longitude": "-89.99791102170968",
    "latitude": "29.90298674896479",
    "geocoded_column": {
      "latitude": "29.90298674896479",
      "longitude": "-89.99791102170968"
    }
  },
  {
    "service_request": "2024-1075621",
    "request_type": "Trash/Recycling",
    "request_reason": "Request a Large Item Pick Up",
    "date_created": "2024-03-14T14:37:04.000",
    "date_modified": "2024-03-14T14:37:04.000",
    "request_status": "Pending",
    "responsible_agency": "Department of Sanitation",
    "final_address": "7520 W Laverne St",
    "address_councildis": "D",
    "status": "Assigned to Contractor",
    "contractor": "Waste Pro",
    "rowid": "1075621",
    "final_x": "3695193.01763",
    "final_y": "558382.802076",
    "longitude": "-90.02386356044055",
    "latitude": "30.028935714293628",
    "geocoded_column": {
      "latitude": "30.028935714293628",
      "longitude": "-90.02386356044055"
    }
  },
  {
    "service_request": "2024-1075620",
    "request_type": "Trash/Recycling",
    "request_reason": "Request a Large Item Pick Up",
    "date_created": "2024-03-14T14:36:52.000",
    "date_modified": "2024-03-14T14:36:53.000",
    "request_status": "Pending",
    "responsible_agency": "Department of Sanitation",
    "final_address": "5018 Burgundy St, New Orleans, Louisiana, 70117",
    "address_councildis": "E",
    "status": "Assigned to Contractor",
    "contractor": "Waste Pro",
    "rowid": "1075620",
    "final_x": "3695908.84438",
    "final_y": "533419.425732",
    "longitude": "-90.02250400049503",
    "latitude": "29.96027308209797",
    "geocoded_column": {
      "latitude": "29.96027308209797",
      "longitude": "-90.02250400049503"
    }
  },
  {
    "service_request": "2024-1075619",
    "request_type": "Roads/Drainage",
    "request_reason": "Catch Basin - Clogged",
    "date_created": "2024-03-14T14:35:42.000",
    "date_modified": "2024-03-14T14:39:37.000",
    "request_status": "Pending",
    "responsible_agency": "Department of Public Works",
    "final_address": "3500 St Charles Ave",
    "address_councildis": "B",
    "status": "Pending",
    "rowid": "1075619",
    "final_x": "3673765.55617",
    "final_y": "521211.953017",
    "longitude": "-90.09284532799195",
    "latitude": "29.927384498735318",
    "geocoded_column": {
      "latitude": "29.927384498735318",
      "longitude": "-90.09284532799195"
    }
  },
  {
    "service_request": "2024-1075618",
    "request_type": "Roads/Drainage",
    "request_reason": "Pothole",
    "date_created": "2024-03-14T14:32:07.000",
    "date_modified": "2024-03-14T14:32:07.000",
    "request_status": "Pending",
    "responsible_agency": "Department of Public Works",
    "final_address": "4500 BLK Hayne Blvd",
    "address_councildis": "D",
    "status": "Pending",
    "rowid": "1075618",
    "final_x": "3689622.52032",
    "final_y": "558431.774",
    "longitude": "-90.0414643379794",
    "latitude": "30.02924423298519",
    "geocoded_column": {
      "latitude": "30.02924423298519",
      "longitude": "-90.0414643379794"
    }
  },
  {
    "service_request": "2024-1075617",
    "request_type": "Trash/Recycling",
    "request_reason": "Request a Large Item Pick Up",
    "date_created": "2024-03-14T14:26:44.000",
    "date_modified": "2024-03-14T14:26:45.000",
    "request_status": "Pending",
    "responsible_agency": "Department of Sanitation",
    "final_address": "1925 Pleasure St",
    "address_councildis": "D",
    "status": "Assigned to Contractor",
    "contractor": "IV Waste",
    "rowid": "1075617",
    "final_x": "3682268.48533",
    "final_y": "545006.581007",
    "longitude": "-90.06517240541672",
    "latitude": "29.992555745097967",
    "geocoded_column": {
      "latitude": "29.992555745097967",
      "longitude": "-90.06517240541672"
    }
  },
  {
    "service_request": "2024-1075616",
    "request_type": "Trash/Recycling",
    "request_reason": "Order Trash Cart",
    "date_created": "2024-03-14T14:18:08.000",
    "date_modified": "2024-03-14T14:18:09.000",
    "request_status": "Pending",
    "responsible_agency": "Department of Sanitation",
    "final_address": "6730 Pauline Dr",
    "address_councildis": "D",
    "status": "Assigned to Contractor",
    "contractor": "IV Waste",
    "rowid": "1075616",
    "final_x": "3690703.01033",
    "final_y": "558518.402076",
    "longitude": "-90.03804693404177",
    "latitude": "30.029448887517788",
    "geocoded_column": {
      "latitude": "30.029448887517788",
      "longitude": "-90.03804693404177"
    }
  },
  {
    "service_request": "2024-1075615",
    "request_type": "Trash/Recycling",
    "request_reason": "Replace Trash Cart",
    "date_created": "2024-03-14T14:17:57.000",
    "date_modified": "2024-03-14T14:17:58.000",
    "request_status": "Pending",
    "responsible_agency": "Department of Sanitation",
    "final_address": "3209 Milan St",
    "address_councildis": "B",
    "status": "Assigned to Contractor",
    "contractor": "Richards Disposal",
    "rowid": "1075615",
    "final_x": "3671067.10433",
    "final_y": "526746.70899",
    "longitude": "-90.10117580801932",
    "latitude": "29.942683342636148",
    "geocoded_column": {
      "latitude": "29.942683342636148",
      "longitude": "-90.10117580801932"
    }
  },
  {
    "service_request": "2024-1075614",
    "request_type": "Traffic Signals/Signs/Striping/Streetlights",
    "request_reason": "Street Light Outage/Malfunction",
    "date_created": "2024-03-14T14:17:22.000",
    "date_modified": "2024-03-14T14:17:22.000",
    "request_status": "Pending",
    "responsible_agency": "Department of Public Works",
    "final_address": "7537 Dominique Pl",
    "address_councildis": "E",
    "status": "Assigned to Contractor",
    "contractor": "Legacy Professional Services",
    "rowid": "1075614",
    "final_x": "3725522.928",
    "final_y": "570091.408679",
    "longitude": "-89.92756959716746",
    "latitude": "30.06014159303055",
    "geocoded_column": {
      "latitude": "30.06014159303055",
      "longitude": "-89.92756959716746"
    }
  },
  {
    "service_request": "2024-1075613",
    "request_type": "Health Related Request",
    "request_reason": "Noise Ordinance Complaint",
    "date_created": "2024-03-14T14:17:02.000",
    "date_modified": "2024-03-14T14:17:02.000",
    "request_status": "Pending",
    "responsible_agency": "Health Department",
    "final_address": "609 Royal St",
    "address_councildis": "C",
    "status": "Pending",
    "rowid": "1075613",
    "final_x": "3682359.78773",
    "final_y": "532248.014723",
    "longitude": "-90.06532998517771",
    "latitude": "29.957471342415",
    "geocoded_column": {
      "latitude": "29.957471342415",
      "longitude": "-90.06532998517771"
    }
  },
  {
    "service_request": "2024-1075612",
    "request_type": "Trash/Recycling",
    "request_reason": "Request a Large Item Pick Up",
    "date_created": "2024-03-14T14:16:33.000",
    "date_modified": "2024-03-14T14:16:34.000",
    "request_status": "Pending",
    "responsible_agency": "Department of Sanitation",
    "final_address": "5330 Bundy Rd",
    "address_councildis": "E",
    "status": "Assigned to Contractor",
    "contractor": "Waste Pro",
    "rowid": "1075612",
    "final_x": "3708553.91953",
    "final_y": "557734.940187",
    "longitude": "-89.98166811113856",
    "latitude": "30.026727743095456",
    "geocoded_column": {
      "latitude": "30.026727743095456",
      "longitude": "-89.98166811113856"
    }
  },
  {
    "service_request": "2024-1075611",
    "request_type": "Trash/Recycling",
    "request_reason": "Replace Trash Cart",
    "date_created": "2024-03-14T14:13:57.000",
    "date_modified": "2024-03-14T14:13:57.000",
    "request_status": "Pending",
    "responsible_agency": "Department of Sanitation",
    "final_address": "3108 Annunciation St",
    "address_councildis": "B",
    "status": "Assigned to Contractor",
    "contractor": "Richards Disposal",
    "rowid": "1075611",
    "final_x": "3676664.88923",
    "final_y": "519199.510327",
    "longitude": "-90.08376212815573",
    "latitude": "29.92176430682138",
    "geocoded_column": {
      "latitude": "29.92176430682138",
      "longitude": "-90.08376212815573"
    }
  },
  {
    "service_request": "2024-1075610",
    "request_type": "Trash/Recycling",
    "request_reason": "Request a Large Item Pick Up",
    "date_created": "2024-03-14T14:12:33.000",
    "date_modified": "2024-03-14T14:12:34.000",
    "request_status": "Pending",
    "responsible_agency": "Department of Sanitation",
    "final_address": "3245 Metropolitan St",
    "address_councildis": "D",
    "status": "Assigned to Contractor",
    "contractor": "IV Waste",
    "rowid": "1075610",
    "final_x": "3691495.16688",
    "final_y": "544561.135887",
    "longitude": "-90.03604308445078",
    "latitude": "29.991046921604504",
    "geocoded_column": {
      "latitude": "29.991046921604504",
      "longitude": "-90.03604308445078"
    }
  },
  {
    "service_request": "2024-1075609",
    "request_type": "Trash/Recycling",
    "request_reason": "Request a Large Item Pick Up",
    "date_created": "2024-03-14T14:11:14.000",
    "date_modified": "2024-03-14T14:11:15.000",
    "request_status": "Pending",
    "responsible_agency": "Department of Sanitation",
    "final_address": "7540 Briarheath Dr",
    "address_councildis": "E",
    "status": "Assigned to Contractor",
    "contractor": "Waste Pro",
    "rowid": "1075609",
    "final_x": "3714972.50904",
    "final_y": "566812.17738",
    "longitude": "-89.96104275428132",
    "latitude": "30.051476733811644",
    "geocoded_column": {
      "latitude": "30.051476733811644",
      "longitude": "-89.96104275428132"
    }
  },
  {
    "service_request": "2024-1075608",
    "request_type": "Trash/Recycling",
    "request_reason": "Return Recycling Cart",
    "date_created": "2024-03-14T14:09:20.000",
    "date_modified": "2024-03-14T14:09:20.000",
    "request_status": "Pending",
    "responsible_agency": "Department of Sanitation",
    "final_address": "2559 Jonquil St",
    "address_councildis": "D",
    "status": "Pending",
    "rowid": "1075608",
    "final_x": "3686825.24124",
    "final_y": "547235.447441",
    "longitude": "-90.05069968851804",
    "latitude": "29.998544869280465",
    "geocoded_column": {
      "latitude": "29.998544869280465",
      "longitude": "-90.05069968851804"
    }
  },
  {
    "service_request": "2024-1075607",
    "request_type": "Trash/Recycling",
    "request_reason": "Request a Large Item Pick Up",
    "date_created": "2024-03-14T14:07:55.000",
    "date_modified": "2024-03-14T14:07:56.000",
    "request_status": "Pending",
    "responsible_agency": "Department of Sanitation",
    "final_address": "2208 Deslonde St",
    "address_councildis": "E",
    "status": "Assigned to Contractor",
    "contractor": "Waste Pro",
    "rowid": "1075607",
    "final_x": "3696520.99344",
    "final_y": "538625.747593",
    "longitude": "-90.02038259069441",
    "latitude": "29.974569341222495",
    "geocoded_column": {
      "latitude": "29.974569341222495",
      "longitude": "-90.02038259069441"
    }
  },
  {
    "service_request": "2024-1075606",
    "request_type": "Abandoned Vehicles",
    "request_reason": "Abandoned/Junk Vehicles",
    "date_created": "2024-03-14T14:07:38.000",
    "date_modified": "2024-03-14T14:07:38.000",
    "request_status": "Pending",
    "responsible_agency": "Department of Public Works",
    "final_address": "BURDETTE ST & SYCAMORE ST",
    "address_councildis": "A",
    "status": "Pending",
    "rowid": "1075606",
    "final_x": "3665165.4",
    "final_y": "530214.18",
    "longitude": "-90.11969299638733",
    "latitude": "29.95239095141575",
    "geocoded_column": {
      "latitude": "29.95239095141575",
      "longitude": "-90.11969299638733"
    }
  },
  {
    "service_request": "2024-1075605",
    "request_type": "Traffic Signals/Signs/Striping/Streetlights",
    "request_reason": "Street Light Outage/Malfunction",
    "date_created": "2024-03-14T14:03:39.000",
    "date_modified": "2024-03-14T14:04:27.000",
    "request_status": "Pending",
    "responsible_agency": "Department of Public Works",
    "final_address": "LAKE FOREST BLVD & WRIGHT RD",
    "address_councildis": "E",
    "status": "Assigned to Contractor",
    "contractor": "Legacy Professional Services",
    "rowid": "1075605",
    "final_x": "3714954.0",
    "final_y": "560822.88",
    "longitude": "-89.96132792080115",
    "latitude": "30.03500920221173",
    "geocoded_column": {
      "latitude": "30.03500920221173",
      "longitude": "-89.96132792080115"
    }
  },
  {
    "service_request": "2024-1075604",
    "request_type": "Trash/Recycling",
    "request_reason": "Request a Large Item Pick Up",
    "date_created": "2024-03-14T14:02:44.000",
    "date_modified": "2024-03-14T14:02:45.000",
    "request_status": "Pending",
    "responsible_agency": "Department of Sanitation",
    "final_address": "2200 BLK Josephine St",
    "address_councildis": "B",
    "status": "Assigned to Contractor",
    "contractor": "Richards Disposal",
    "rowid": "1075604",
    "final_x": "3676412.60317",
    "final_y": "525892.373528",
    "longitude": "-90.084328201944",
    "latitude": "29.940175063258575",
    "geocoded_column": {
      "latitude": "29.940175063258575",
      "longitude": "-90.084328201944"
    }
  },
  {
    "service_request": "2024-1075603",
    "request_type": "Trash/Recycling",
    "request_reason": "Missed Trash Pick-Up",
    "date_created": "2024-03-14T14:02:20.000",
    "date_modified": "2024-03-14T14:02:21.000",
    "request_status": "Pending",
    "responsible_agency": "Department of Sanitation",
    "final_address": "7701 Briarwood Dr",
    "address_councildis": "E",
    "status": "Assigned to Contractor",
    "contractor": "Waste Pro",
    "rowid": "1075603",
    "final_x": "3717305.42501",
    "final_y": "571219.882216",
    "longitude": "-89.95350148139627",
    "latitude": "30.063519068160694",
    "geocoded_column": {
      "latitude": "30.063519068160694",
      "longitude": "-89.95350148139627"
    }
  },
  {
    "service_request": "2024-1075602",
    "request_type": "Trash/Recycling",
    "request_reason": "Request a Large Item Pick Up",
    "date_created": "2024-03-14T13:55:40.000",
    "date_modified": "2024-03-14T13:55:41.000",
    "request_status": "Pending",
    "responsible_agency": "Department of Sanitation",
    "final_address": "1736 Congress St",
    "address_councildis": "D",
    "status": "Assigned to Contractor",
    "contractor": "IV Waste",
    "rowid": "1075602",
    "final_x": "3691305.05161",
    "final_y": "538114.291209",
    "longitude": "-90.03687402036758",
    "latitude": "29.973326323333282",
    "geocoded_column": {
      "latitude": "29.973326323333282",
      "longitude": "-90.03687402036758"
    }
  },
  {
    "service_request": "2024-1075601",
    "request_type": "Trash/Recycling",
    "request_reason": "Replace Trash Cart",
    "date_created": "2024-03-14T13:53:21.000",
    "date_modified": "2024-03-14T13:53:22.000",
    "request_status": "Pending",
    "responsible_agency": "Department of Sanitation",
    "final_address": "7801 Sail St",
    "address_councildis": "E",
    "status": "Assigned to Contractor",
    "contractor": "Waste Pro",
    "rowid": "1075601",
    "final_x": "3720264.38988",
    "final_y": "573906.715114",
    "longitude": "-89.94404515674853",
    "latitude": "30.070808420608856",
    "geocoded_column": {
      "latitude": "30.070808420608856",
      "longitude": "-89.94404515674853"
    }
  },
  {
    "service_request": "2024-1075600",
    "request_type": "Property Maintenance",
    "request_reason": "Property Maintenance",
    "date_created": "2024-03-14T13:53:13.000",
    "date_modified": "2024-03-14T15:41:09.000",
    "case_close_date": "2024-03-14T10:41:09.000",
    "request_status": "Closed",
    "responsible_agency": "Department of Code Enforcement",
    "final_address": "1415 Terpsichore St",
    "address_councildis": "B",
    "status": "Resolved",
    "rowid": "1075600",
    "final_x": "3679732.4116",
    "final_y": "524914.863676",
    "longitude": "-90.07388097453784",
    "latitude": "29.937387315137112",
    "geocoded_column": {
      "latitude": "29.937387315137112",
      "longitude": "-90.07388097453784"
    }
  },
  {
    "service_request": "2024-1075599",
    "request_type": "Trash/Recycling",
    "request_reason": "Order Trash Cart",
    "date_created": "2024-03-14T13:52:26.000",
    "date_modified": "2024-03-14T13:52:27.000",
    "request_status": "Pending",
    "responsible_agency": "Department of Sanitation",
    "final_address": "2121 Josephine St",
    "address_councildis": "B",
    "status": "Assigned to Contractor",
    "contractor": "Richards Disposal",
    "rowid": "1075599",
    "final_x": "3676676.93518",
    "final_y": "525611.222845",
    "longitude": "-90.08350334605383",
    "latitude": "29.9393940661282",
    "geocoded_column": {
      "latitude": "29.9393940661282",
      "longitude": "-90.08350334605383"
    }
  },
  {
    "service_request": "2024-1075598",
    "request_type": "Roads/Drainage",
    "request_reason": "Pothole",
    "date_created": "2024-03-14T13:52:25.000",
    "date_modified": "2024-03-14T13:52:25.000",
    "request_status": "Pending",
    "responsible_agency": "Department of Public Works",
    "final_address": "500 BLK Madison St",
    "address_councildis": "C",
    "status": "Pending",
    "rowid": "1075598",
    "final_x": "3683349.78287",
    "final_y": "532569.690226",
    "longitude": "-90.06219261077536",
    "latitude": "29.958325679335868",
    "geocoded_column": {
      "latitude": "29.958325679335868",
      "longitude": "-90.06219261077536"
    }
  },
  {
    "service_request": "2024-1075597",
    "request_type": "Safety & Permits",
    "request_reason": "Licenses & Permits",
    "date_created": "2024-03-14T13:52:12.000",
    "date_modified": "2024-03-14T13:52:13.000",
    "request_status": "Pending",
    "responsible_agency": "Safety and Permits",
    "final_address": "5414 Feliciana Dr",
    "address_councildis": "D",
    "status": "Pending",
    "rowid": "1075597",
    "final_x": "3689960.31376",
    "final_y": "553373.280599",
    "longitude": "-90.04057726459655",
    "latitude": "30.015324790521024",
    "geocoded_column": {
      "latitude": "30.015324790521024",
      "longitude": "-90.04057726459655"
    }
  },
  {
    "service_request": "2024-1075596",
    "request_type": "Trash/Recycling",
    "request_reason": "Missed Trash Pick-Up",
    "date_created": "2024-03-14T13:46:54.000",
    "date_modified": "2024-03-14T14:56:24.000",
    "case_close_date": "2024-03-14T09:56:24.000",
    "request_status": "Closed",
    "responsible_agency": "Department of Sanitation",
    "final_address": "2521 Elder St",
    "address_councildis": "D",
    "status": "Invalid Request",
    "contractor": "IV Waste",
    "contractor_action": "Invalid Pick-Up",
    "rowid": "1075596",
    "final_x": "3686751.39714",
    "final_y": "545790.117456",
    "longitude": "-90.05098405909224",
    "latitude": "29.994573004719264",
    "geocoded_column": {
      "latitude": "29.994573004719264",
      "longitude": "-90.05098405909224"
    }
  },
  {
    "service_request": "2024-1075595",
    "request_type": "Roads/Drainage",
    "request_reason": "Catch Basin - Clogged",
    "date_created": "2024-03-14T13:46:40.000",
    "date_modified": "2024-03-14T13:46:40.000",
    "request_status": "Pending",
    "responsible_agency": "Department of Public Works",
    "final_address": "7724 Colapissa St",
    "address_councildis": "B",
    "status": "Pending",
    "rowid": "1075595",
    "final_x": "3667405.42202",
    "final_y": "532560.07642",
    "longitude": "-90.11254109069988",
    "latitude": "29.95877597049756",
    "geocoded_column": {
      "latitude": "29.95877597049756",
      "longitude": "-90.11254109069988"
    }
  },