[
  {
    "service_request": "2024-1097596",
    "request_type": "Trash/Recycling",
    "request_reason": "Request a Large Item Pick Up",
    "date_created": "2024-05-28T23:24:02.000",
    "date_modified": "2024-05-28T23:24:03.000",
    "request_status": "Pending",
    "responsible_agency": "Department of Sanitation",
    "final_address": "7541 Pineridge St",
    "address_councildis": "E",
    "status": "Assigned to Contractor",
    "contractor": "Waste Pro",
    "rowid": "1097596",
    "final_x": "3719328.38207",
    "final_y": "571740.584744",
    "longitude": "-89.94708695820057",
    "latitude": "30.064883644627454",
    "geocoded_column": {
      "latitude": "30.064883644627454",
      "longitude": "-89.94708695820057"
    }
  },
  {
    "service_request": "2024-1097595",
    "request_type": "Trash/Recycling",
    "request_reason": "Request a Large Item Pick Up",
    "date_created": "2024-05-28T22:23:10.000",
    "date_modified": "2024-05-28T22:23:11.000",
    "request_status": "Pending",
    "responsible_agency": "Department of Sanitation",
    "final_address": "2017 S Carrollton Ave",
    "address_councildis": "A",
    "status": "Assigned to Contractor",
    "contractor": "IV Waste",
    "rowid": "1097595",
    "final_x": "3664046.80346",
    "final_y": "530411.398594",
    "longitude": "-90.12321845088105",
    "latitude": "29.952965768936053",
    "geocoded_column": {
      "latitude": "29.952965768936053",
      "longitude": "-90.12321845088105"
    }
  },
  {
    "service_request": "2024-1097594",
    "request_type": "Trash/Recycling",
    "request_reason": "Replace Trash Cart",
    "date_created": "2024-05-28T22:21:46.000",
    "date_modified": "2024-05-28T22:21:46.000",
    "request_status": "Pending",
    "responsible_agency": "Department of Sanitation",
    "final_address": "5541 New England Dr",
    "address_councildis": "E",
    "status": "Assigned to Contractor",
    "contractor": "Waste Pro",
    "rowid": "1097594",
    "final_x": "3723772.15807",
    "final_y": "563819.609761",
    "longitude": "-89.93334584153907",
    "latitude": "30.04295570498817",
    "geocoded_column": {
      "latitude": "30.04295570498817",
      "longitude": "-89.93334584153907"
    }
  },
  {
    "service_request": "2024-1097593",
    "request_type": "Property Maintenance",
    "request_reason": "Property Maintenance",
    "date_created": "2024-05-28T22:13:20.000",
    "date_modified": "2024-05-28T22:13:20.000",
    "request_status": "Pending",
    "responsible_agency": "Department of Code Enforcement",
    "final_address": "1901 General Taylor St",
    "address_councildis": "B",
    "status": "Pending",
    "rowid": "1097593",
    "final_x": "3672418.45812",
    "final_y": "522147.750522",
    "longitude": "-90.09706591722149",
    "latitude": "29.92999767260379",
    "geocoded_column": {
      "latitude": "29.92999767260379",
      "longitude": "-90.09706591722149"
    }
  },
  {
    "service_request": "2024-1097591",
    "request_type": "Roads/Drainage",
    "request_reason": "Street Subsidence (Sinking)",
    "date_created": "2024-05-28T21:39:38.000",
    "date_modified": "2024-05-28T21:39:38.000",
    "request_status": "Pending",
    "responsible_agency": "Department of Public Works",
    "final_address": "9319 Palmetto St",
    "address_councildis": "A",
    "status": "Pending",
    "rowid": "1097591",
    "final_x": "3665055.05844",
    "final_y": "538290.148361",
    "longitude": "-90.11977133232848",
    "latitude": "29.974600422833525",
    "geocoded_column": {
      "latitude": "29.974600422833525",
      "longitude": "-90.11977133232848"
    }
  },
  {
    "service_request": "2024-1097590",
    "request_type": "Roads/Drainage",
    "request_reason": "Street Subsidence (Sinking)",
    "date_created": "2024-05-28T21:37:01.000",
    "date_modified": "2024-05-28T21:37:01.000",
    "request_status": "Pending",
    "responsible_agency": "Department of Public Works",
    "final_address": "8605 Palmetto St",
    "address_councildis": "A",
    "status": "Pending",
    "rowid": "1097590",
    "final_x": "3666844.10196",
    "final_y": "536447.306119",
    "longitude": "-90.11418299981905",
    "latitude": "29.969480999959913",
    "geocoded_column": {
      "latitude": "29.969480999959913",
      "longitude": "-90.11418299981905"
    }
  },
  {
    "service_request": "2024-1097589",
    "request_type": "Roads/Drainage",
    "request_reason": "Catch Basin - Clogged",
    "date_created": "2024-05-28T21:35:53.000",
    "date_modified": "2024-05-28T21:35:53.000",
    "request_status": "Pending",
    "responsible_agency": "Department of Public Works",
    "final_address": "538 Hagan St",
    "address_councildis": "A",
    "status": "Pending",
    "rowid": "1097589",
    "final_x": "3674398.87508",
    "final_y": "538070.229257",
    "longitude": "-90.09026876657985",
    "latitude": "29.97372030406642",
    "geocoded_column": {
      "latitude": "29.97372030406642",
      "longitude": "-90.09026876657985"
    }
  },
  {
    "service_request": "2024-1097588",
    "request_type": "Traffic Signals/Signs/Striping/Streetlights",
    "request_reason": "Street Light Outage/Malfunction",
    "date_created": "2024-05-28T21:29:06.000",
    "date_modified": "2024-05-28T21:29:06.000",
    "request_status": "Pending",
    "responsible_agency": "Department of Public Works",
    "final_address": "1647 Dufossat St",
    "address_councildis": "B",
    "status": "Assigned to Contractor",
    "contractor": "Legacy Professional Services",
    "rowid": "1097588",
    "final_x": "3668222.78055",
    "final_y": "521624.656825",
    "longitude": "-90.11032864068387",
    "latitude": "29.9286831367378",
    "geocoded_column": {
      "latitude": "29.9286831367378",
      "longitude": "-90.11032864068387"
    }
  },
  {
    "service_request": "2024-1097587",
    "request_type": "Mosquito, Termite & Rodent Control",
    "request_reason": "Rodent Complaint (Rats)",
    "date_created": "2024-05-28T21:28:12.000",
    "date_modified": "2024-05-28T21:28:12.000",
    "request_status": "Pending",
    "responsible_agency": "Mosquito, Termite & Rodent Control Board",
    "final_address": "2727 Dreux Ave",
    "address_councildis": "D",
    "status": "Pending",
    "rowid": "1097587",
    "final_x": "3687548.82095",
    "final_y": "552342.40943",
    "longitude": "-90.04823296813034",
    "latitude": "30.012564862710217",
    "geocoded_column": {
      "latitude": "30.012564862710217",
      "longitude": "-90.04823296813034"
    }
  },
  {
    "service_request": "2024-1097586",
    "request_type": "Trash/Recycling",
    "request_reason": "Request a Large Item Pick Up",
    "date_created": "2024-05-28T21:17:20.000",
    "date_modified": "2024-05-28T21:17:20.000",
    "request_status": "Pending",
    "responsible_agency": "Department of Sanitation",
    "final_address": "4842 Gabriel Dr",
    "address_councildis": "E",
    "status": "Assigned to Contractor",
    "contractor": "Waste Pro",
    "rowid": "1097586",
    "final_x": "3708759.61144",
    "final_y": "556382.21609",
    "longitude": "-89.98106859726059",
    "latitude": "30.023001607871134",
    "geocoded_column": {
      "latitude": "30.023001607871134",
      "longitude": "-89.98106859726059"
    }
  },
  {
    "service_request": "2024-1097585",
    "request_type": "Trash/Recycling",
    "request_reason": "Order Trash Cart",
    "date_created": "2024-05-28T20:51:46.000",
    "date_modified": "2024-05-28T20:51:46.000",
    "request_status": "Pending",
    "responsible_agency": "Department of Sanitation",
    "final_address": "4321 Pitt St",
    "address_councildis": "B",
    "status": "Assigned to Contractor",
    "contractor": "IV Waste",
    "rowid": "1097585",
    "final_x": "3671080.14894",
    "final_y": "520640.804665",
    "longitude": "-90.10134189506657",
    "latitude": "29.925893689496792",
    "geocoded_column": {
      "latitude": "29.925893689496792",
      "longitude": "-90.10134189506657"
    }
  },
  {
    "service_request": "2024-1097584",
    "request_type": "Trash/Recycling",
    "request_reason": "Request a Large Item Pick Up",
    "date_created": "2024-05-28T20:50:49.000",
    "date_modified": "2024-05-28T20:50:49.000",
    "request_status": "Pending",
    "responsible_agency": "Department of Sanitation",
    "final_address": "10911 Guildford Rd",
    "address_councildis": "E",
    "status": "Assigned to Contractor",
    "contractor": "Waste Pro",
    "rowid": "1097584",
    "final_x": "3711385.91768",
    "final_y": "564035.096545",
    "longitude": "-89.97248295085919",
    "latitude": "30.043958502612004",
    "geocoded_column": {
      "latitude": "30.043958502612004",
      "longitude": "-89.97248295085919"
    }
  },
  {
    "service_request": "2024-1097583",
    "request_type": "Abandoned Vehicles",
    "request_reason": "Abandoned/Junk Vehicles",
    "date_created": "2024-05-28T20:29:29.000",
    "date_modified": "2024-05-28T20:29:29.000",
    "request_status": "Pending",
    "responsible_agency": "Department of Public Works",
    "final_address": "4006 Royal St",
    "address_councildis": "C",
    "status": "Pending",
    "rowid": "1097583",
    "final_x": "3691492.69449",
    "final_y": "533757.879429",
    "longitude": "-90.03643712995255",
    "latitude": "29.961341885972022",
    "geocoded_column": {
      "latitude": "29.961341885972022",
      "longitude": "-90.03643712995255"
    }
  },
  {
    "service_request": "2024-1097582",
    "request_type": "Traffic Signals/Signs/Striping/Streetlights",
    "request_reason": "Street Light Outage/Malfunction",
    "date_created": "2024-05-28T20:27:29.000",
    "date_modified": "2024-05-28T20:27:29.000",
    "request_status": "Pending",
    "responsible_agency": "Department of Public Works",
    "final_address": "4010 Royal St",
    "address_councildis": "C",
    "status": "Assigned to Contractor",
    "contractor": "Legacy Professional Services",
    "rowid": "1097582",
    "final_x": "3691531.04169",
    "final_y": "533744.778373",
    "longitude": "-90.03631650495889",
    "latitude": "29.961304669175572",
    "geocoded_column": {
      "latitude": "29.961304669175572",
      "longitude": "-90.03631650495889"
    }
  },
  {
    "service_request": "2024-1097581",
    "request_type": "Trash/Recycling",
    "request_reason": "Request a Large Item Pick Up",
    "date_created": "2024-05-28T20:27:10.000",
    "date_modified": "2024-05-28T20:27:10.000",
    "request_status": "Pending",
    "responsible_agency": "Department of Sanitation",
    "final_address": "6909 Wuerpel St",
    "address_councildis": "A",
    "status": "Assigned to Contractor",
    "contractor": "IV Waste",
    "rowid": "1097581",
    "final_x": "3667344.76525",
    "final_y": "553706.618263",
    "longitude": "-90.11202089319859",
    "latitude": "30.016923539159194",
    "geocoded_column": {
      "latitude": "30.016923539159194",
      "longitude": "-90.11202089319859"
    }
  },
  {
    "service_request": "2024-1097580",
    "request_type": "Traffic Signals/Signs/Striping/Streetlights",
    "request_reason": "Traffic Sign Missing/Damaged",
    "date_created": "2024-05-28T20:24:43.000",
    "date_modified": "2024-05-28T20:24:43.000",
    "request_status": "Pending",
    "responsible_agency": "Department of Public Works",
    "final_address": "OLIVIER ST & ELIZA ST",
    "address_councildis": "C",
    "status": "Pending",
    "rowid": "1097580",
    "final_x": "3687262.4",
    "final_y": "529919.48",
    "longitude": "-90.04993138792888",
    "latitude": "29.950918583582993",
    "geocoded_column": {
      "latitude": "29.950918583582993",
      "longitude": "-90.04993138792888"
    }
  },
  {
    "service_request": "2024-1097579",
    "request_type": "Trash/Recycling",
    "request_reason": "Request a Large Item Pick Up",
    "date_created": "2024-05-28T20:17:13.000",
    "date_modified": "2024-05-28T20:17:13.000",
    "request_status": "Pending",
    "responsible_agency": "Department of Sanitation",
    "final_address": "3809 Nashville Ave, New Orleans, Louisiana, 70125",
    "status": "Assigned to Contractor",
    "rowid": "1097579",
    "longitude": "0.0",
    "latitude": "0.0",
    "geocoded_column": {
      "latitude": "0.0",
      "longitude": "0.0"
    }
  },
  {
    "service_request": "2024-1097578",
    "request_type": "Property Maintenance",
    "request_reason": "Property Maintenance",
    "date_created": "2024-05-28T20:11:14.000",
    "date_modified": "2024-05-28T20:11:14.000",
    "request_status": "Pending",
    "responsible_agency": "Department of Code Enforcement",
    "final_address": "FLORIDA BLVD & ROSEMARY PL",
    "address_councildis": "A",
    "status": "Pending",
    "rowid": "1097578",
    "final_x": "3667290.6",
    "final_y": "545522.48",
    "longitude": "-90.11246754979324",
    "latitude": "29.99442159187987",
    "geocoded_column": {
      "latitude": "29.99442159187987",
      "longitude": "-90.11246754979324"
    }
  },
  {
    "service_request": "2024-1097577",
    "request_type": "Trash/Recycling",
    "request_reason": "Replace Recycling Cart",
    "date_created": "2024-05-28T20:08:00.000",
    "date_modified": "2024-05-28T20:08:00.000",
    "request_status": "Pending",
    "responsible_agency": "Department of Sanitation",
    "final_address": "862 Polk St",
    "address_councildis": "A",
    "status": "Pending",
    "rowid": "1097577",
    "final_x": "3669623.61934",
    "final_y": "547083.008977",
    "longitude": "-90.10504497697622",
    "latitude": "29.998643950621393",
    "geocoded_column": {
      "latitude": "29.998643950621393",
      "longitude": "-90.10504497697622"
    }
  },
  {
    "service_request": "2024-1097576",
    "request_type": "Traffic Signals/Signs/Striping/Streetlights",
    "request_reason": "Street Light Knocked Down/Leaning",
    "date_created": "2024-05-28T20:07:05.000",
    "date_modified": "2024-05-28T20:07:06.000",
    "request_status": "Pending",
    "responsible_agency": "Department of Public Works",
    "final_address": "CANAL BLVD & I 610 W",
    "address_councildis": "A",
    "status": "Pending",
    "contractor": "Legacy Professional Services",
    "rowid": "1097576",
    "final_x": "3668412.5",
    "final_y": "545867.28",
    "longitude": "-90.10891196106962",
    "latitude": "29.99533675738892",
    "geocoded_column": {
      "latitude": "29.99533675738892",
      "longitude": "-90.10891196106962"
    }
  },
  {
    "service_request": "2024-1097575",
    "request_type": "Trash/Recycling",
    "request_reason": "Repair Trash Cart",
    "date_created": "2024-05-28T19:56:38.000",
    "date_modified": "2024-05-28T19:56:39.000",
    "request_status": "Pending",
    "responsible_agency": "Department of Sanitation",
    "final_address": "904 Florida Blvd",
    "address_councildis": "A",
    "status": "Assigned to Contractor",
    "contractor": "IV Waste",
    "rowid": "1097575",
    "final_x": "3669719.82183",
    "final_y": "545143.570255",
    "longitude": "-90.10480676008345",
    "latitude": "29.993308328421705",
    "geocoded_column": {
      "latitude": "29.993308328421705",
      "longitude": "-90.10480676008345"
    }
  },
  {
    "service_request": "2024-1097574",
    "request_type": "Trash/Recycling",
    "request_reason": "Missed Trash Pick-Up",
    "date_created": "2024-05-28T19:55:22.000",
    "date_modified": "2024-05-28T19:55:23.000",
    "request_status": "Pending",
    "responsible_agency": "Department of Sanitation",
    "final_address": "904 Florida Blvd",
    "address_councildis": "A",
    "status": "Assigned to Contractor",
    "contractor": "IV Waste",
    "rowid": "1097574",
    "final_x": "3669719.82183",
    "final_y": "545143.570255",
    "longitude": "-90.10480676008345",
    "latitude": "29.993308328421705",
    "geocoded_column": {
      "latitude": "29.993308328421705",
      "longitude": "-90.10480676008345"
    }
  },
  {
    "service_request": "2024-1097573",
    "request_type": "Trash/Recycling",
    "request_reason": "Request a Large Item Pick Up",
    "date_created": "2024-05-28T19:47:50.000",
    "date_modified": "2024-05-28T19:47:50.000",
    "request_status": "Pending",
    "responsible_agency": "Department of Sanitation",
    "final_address": "7721 Plum St",
    "address_councildis": "A",
    "status": "Assigned to Contractor",
    "contractor": "IV Waste",
    "rowid": "1097573",
    "final_x": "3663175.93779",
    "final_y": "527791.552319",
    "longitude": "-90.1260554332369",
    "latitude": "29.945787295084752",
    "geocoded_column": {
      "latitude": "29.945787295084752",
      "longitude": "-90.1260554332369"
    }
  },
  {
    "service_request": "2024-1097572",
    "request_type": "Roads/Drainage",
    "request_reason": "Pothole",
    "date_created": "2024-05-28T19:45:37.000",
    "date_modified": "2024-05-28T19:45:37.000",
    "request_status": "Pending",
    "responsible_agency": "Department of Public Works",
    "final_address": "609 Ricks Pl",
    "address_councildis": "C",
    "status": "Pending",
    "rowid": "1097572",
    "final_x": "3687858.77315",
    "final_y": "524551.129788",
    "longitude": "-90.04823845286734",
    "latitude": "29.936139064938512",
    "geocoded_column": {
      "latitude": "29.936139064938512",
      "longitude": "-90.04823845286734"
    }
  },
  {
    "service_request": "2024-1097571",
    "request_type": "Roads/Drainage",
    "request_reason": "Pothole",
    "date_created": "2024-05-28T19:44:21.000",
    "date_modified": "2024-05-28T19:44:21.000",
    "request_status": "Pending",
    "responsible_agency": "Department of Public Works",
    "final_address": "615 Ricks Pl",
    "address_councildis": "C",
    "status": "Pending",
    "rowid": "1097571",
    "final_x": "3687933.69628",
    "final_y": "524555.919036",
    "longitude": "-90.04800174950856",
    "latitude": "29.936149923036467",
    "geocoded_column": {
      "latitude": "29.936149923036467",
      "longitude": "-90.04800174950856"
    }
  },
  {
    "service_request": "2024-1097570",
    "request_type": "Trash/Recycling",
    "request_reason": "Repair Trash Cart",
    "date_created": "2024-05-28T19:15:49.000",
    "date_modified": "2024-05-28T19:15:49.000",
    "request_status": "Pending",
    "responsible_agency": "Department of Sanitation",
    "final_address": "315 Broadway St",
    "address_councildis": "A",
    "status": "Assigned to Contractor",
    "contractor": "IV Waste",
    "rowid": "1097570",
    "final_x": "3661595.11078",
    "final_y": "522575.06265",
    "longitude": "-90.13121944712512",
    "latitude": "29.93148930311977",
    "geocoded_column": {
      "latitude": "29.93148930311977",
      "longitude": "-90.13121944712512"
    }
  },
  {
    "service_request": "2024-1097569",
    "request_type": "Property Maintenance",
    "request_reason": "Property Maintenance",
    "date_created": "2024-05-28T18:52:32.000",
    "date_modified": "2024-05-28T18:52:32.000",
    "request_status": "Pending",
    "responsible_agency": "Department of Code Enforcement",
    "final_address": "2610 Behrman Hwy",
    "address_councildis": "C",
    "status": "Pending",
    "rowid": "1097569",
    "final_x": "3692767.65027",
    "final_y": "520833.639737",
    "longitude": "-90.03287425567028",
    "latitude": "29.92576493478977",
    "geocoded_column": {
      "latitude": "29.92576493478977",
      "longitude": "-90.03287425567028"
    }
  },
  {
    "service_request": "2024-1097568",
    "request_type": "Property Maintenance",
    "request_reason": "Property Maintenance",
    "date_created": "2024-05-28T18:51:58.000",
    "date_modified": "2024-05-28T18:51:58.000",
    "request_status": "Pending",
    "responsible_agency": "Department of Code Enforcement",
    "final_address": "2530 Behrman Hwy",
    "address_councildis": "C",
    "status": "Pending",
    "rowid": "1097568",
    "final_x": "3692694.80649",
    "final_y": "520914.069945",
    "longitude": "-90.03310131960312",
    "latitude": "29.925988363749667",
    "geocoded_column": {
      "latitude": "29.925988363749667",
      "longitude": "-90.03310131960312"
    }
  },
  {
    "service_request": "2024-1097567",
    "request_type": "Property Maintenance",
    "request_reason": "Property Maintenance",
    "date_created": "2024-05-28T18:51:16.000",
    "date_modified": "2024-05-28T18:51:16.000",
    "request_status": "Pending",
    "responsible_agency": "Department of Code Enforcement",
    "final_address": "2600 Behrman Hwy",
    "address_councildis": "C",
    "status": "Pending",
    "rowid": "1097567",
    "final_x": "3692749.28867",
    "final_y": "520880.119097",
    "longitude": "-90.03293055235815",
    "latitude": "29.92589331033643",
    "geocoded_column": {
      "latitude": "29.92589331033643",
      "longitude": "-90.03293055235815"
    }
  },
  {
    "service_request": "2024-1097566",
    "request_type": "Property Maintenance",
    "request_reason": "Property Maintenance",
    "date_created": "2024-05-28T18:50:39.000",
    "date_modified": "2024-05-28T18:50:39.000",
    "request_status": "Pending",
    "responsible_agency": "Department of Code Enforcement",
    "final_address": "2605 Memorial Park Dr",
    "address_councildis": "C",
    "status": "Pending",
    "rowid": "1097566",
    "final_x": "3692837.01699",
    "final_y": "521008.039161",
    "longitude": "-90.03264903748617",
    "latitude": "29.926242309385856",
    "geocoded_column": {
      "latitude": "29.926242309385856",
      "longitude": "-90.03264903748617"
    }
  },
  {
    "service_request": "2024-1097565",
    "request_type": "Abandoned Vehicles",
    "request_reason": "Abandoned/Junk Vehicles",
    "date_created": "2024-05-28T18:50:27.000",
    "date_modified": "2024-05-28T18:50:27.000",
    "request_status": "Pending",
    "responsible_agency": "Department of Public Works",
    "final_address": "4718 Coliseum St",
    "address_councildis": "B",
    "status": "Pending",
    "rowid": "1097565",
    "final_x": "3669676.51758",
    "final_y": "519655.528248",
    "longitude": "-90.10580607534123",
    "latitude": "29.923225915079065",
    "geocoded_column": {
      "latitude": "29.923225915079065",
      "longitude": "-90.10580607534123"
    }
  },
  {
    "service_request": "2024-1097564",
    "request_type": "Property Maintenance",
    "request_reason": "Property Maintenance",
    "date_created": "2024-05-28T18:49:55.000",
    "date_modified": "2024-05-28T18:49:55.000",
    "request_status": "Pending",
    "responsible_agency": "Department of Code Enforcement",
    "final_address": "2535 Memorial Park Dr",
    "address_councildis": "C",
    "status": "Pending",
    "rowid": "1097564",
    "final_x": "3692796.73923",
    "final_y": "521052.483641",
    "longitude": "-90.03277458992366",
    "latitude": "29.92636577379837",
    "geocoded_column": {
      "latitude": "29.92636577379837",
      "longitude": "-90.03277458992366"
    }
  },
  {
    "service_request": "2024-1097563",
    "request_type": "Property Maintenance",
    "request_reason": "Property Maintenance",
    "date_created": "2024-05-28T18:49:38.000",
    "date_modified": "2024-05-28T18:49:38.000",
    "request_status": "Pending",
    "responsible_agency": "Department of Code Enforcement",
    "final_address": "2606 Gordon St",
    "address_councildis": "E",
    "status": "Pending",
    "rowid": "1097563",
    "final_x": "3701309.80452",
    "final_y": "538869.135625",
    "longitude": "-90.00524955372448",
    "latitude": "29.975086821609285",
    "geocoded_column": {
      "latitude": "29.975086821609285",
      "longitude": "-90.00524955372448"
    }
  },
  {
    "service_request": "2024-1097562",
    "request_type": "Property Maintenance",
    "request_reason": "Property Maintenance",
    "date_created": "2024-05-28T18:49:18.000",
    "date_modified": "2024-05-28T18:49:18.000",
    "request_status": "Pending",
    "responsible_agency": "Department of Code Enforcement",
    "final_address": "2525 Memorial Park Dr",
    "address_councildis": "C",
    "status": "Pending",
    "rowid": "1097562",
    "final_x": "3692766.18371",
    "final_y": "521079.566969",
    "longitude": "-90.03287007438414",
    "latitude": "29.92644119738659",
    "geocoded_column": {
      "latitude": "29.92644119738659",
      "longitude": "-90.03287007438414"
    }
  },
  {
    "service_request": "2024-1097561",
    "request_type": "Trash/Recycling",
    "request_reason": "Request a Large Item Pick Up",
    "date_created": "2024-05-28T18:41:50.000",
    "date_modified": "2024-05-28T18:41:50.000",
    "request_status": "Pending",
    "responsible_agency": "Department of Sanitation",
    "final_address": "2737 Lavender St",
    "address_councildis": "D",
    "status": "Assigned to Contractor",
    "contractor": "IV Waste",
    "rowid": "1097561",
    "final_x": "3688122.25833",
    "final_y": "547055.447441",
    "longitude": "-90.04660880465295",
    "latitude": "29.998009949728633",
    "geocoded_column": {
      "latitude": "29.998009949728633",
      "longitude": "-90.04660880465295"
    }
  },
  {
    "service_request": "2024-1097560",
    "request_type": "Trash/Recycling",
    "request_reason": "Request a Large Item Pick Up",
    "date_created": "2024-05-28T18:26:48.000",
    "date_modified": "2024-05-28T18:26:49.000",
    "request_status": "Pending",
    "responsible_agency": "Department of Sanitation",
    "final_address": "4761 Lennox Blvd",
    "address_councildis": "C",
    "status": "Assigned to Contractor",
    "contractor": "Richards Disposal",
    "rowid": "1097560",
    "final_x": "3700642.93188",
    "final_y": "513042.697265",
    "longitude": "-90.00829892014367",
    "latitude": "29.904094383029726",
    "geocoded_column": {
      "latitude": "29.904094383029726",
      "longitude": "-90.00829892014367"
    }
  },
  {
    "service_request": "2024-1097559",
    "request_type": "Trash/Recycling",
    "request_reason": "Request a Large Item Pick Up",
    "date_created": "2024-05-28T18:23:22.000",
    "date_modified": "2024-05-28T18:53:45.000",
    "case_close_date": "2024-05-28T13:53:45.000",
    "request_status": "Closed",
    "responsible_agency": "Department of Sanitation",
    "final_address": "11301 Prentiss Ave",
    "address_councildis": "E",
    "status": "Duplicate Request",
    "contractor": "Waste Pro",
    "contractor_action": "Duplicate",
    "rowid": "1097559",
    "final_x": "3717039.43122",
    "final_y": "556840.331994",
    "longitude": "-89.95488911059726",
    "latitude": "30.023989967248013",
    "geocoded_column": {
      "latitude": "30.023989967248013",
      "longitude": "-89.95488911059726"
    }
  },
  {
    "service_request": "2024-1097558",
    "request_type": "Trash/Recycling",
    "request_reason": "Replace Recycling Cart",
    "date_created": "2024-05-28T18:10:16.000",
    "date_modified": "2024-05-28T18:10:16.000",
    "request_status": "Pending",
    "responsible_agency": "Department of Sanitation",
    "final_address": "1719 Pressburg Dr",
    "address_councildis": "D",
    "status": "Pending",
    "rowid": "1097558",
    "final_x": "3679794.87112",
    "final_y": "554234.067096",
    "longitude": "-90.07266539957693",
    "latitude": "30.018003074652906",
    "geocoded_column": {
      "latitude": "30.018003074652906",
      "longitude": "-90.07266539957693"
    }
  },
  {
    "service_request": "2024-1097557",
    "request_type": "Trash/Recycling",
    "request_reason": "Request a Large Item Pick Up",
    "date_created": "2024-05-28T18:07:38.000",
    "date_modified": "2024-05-28T18:07:39.000",
    "request_status": "Pending",
    "responsible_agency": "Department of Sanitation",
    "final_address": "11301 Prentiss Ave",
    "address_councildis": "E",
    "status": "Assigned to Contractor",
    "contractor": "Waste Pro",
    "rowid": "1097557",
    "final_x": "3717039.43122",
    "final_y": "556840.331994",
    "longitude": "-89.95488911059726",
    "latitude": "30.023989967248013",
    "geocoded_column": {
      "latitude": "30.023989967248013",
      "longitude": "-89.95488911059726"
    }
  },
  {
    "service_request": "2024-1097556",
    "request_type": "Abandoned Vehicles",
    "request_reason": "Abandoned/Junk Vehicles",
    "date_created": "2024-05-28T18:06:39.000",
    "date_modified": "2024-05-28T18:06:39.000",
    "request_status": "Pending",
    "responsible_agency": "Department of Public Works",
    "final_address": "4718 Coliseum St",
    "address_councildis": "B",
    "status": "Pending",
    "rowid": "1097556",
    "final_x": "3669676.51758",
    "final_y": "519655.528248",
    "longitude": "-90.10580607534123",
    "latitude": "29.923225915079065",
    "geocoded_column": {
      "latitude": "29.923225915079065",
      "longitude": "-90.10580607534123"
    }
  },
  {
    "service_request": "2024-1097554",
    "request_type": "Healthy Homes",
    "request_reason": "Healthy Homes",
    "date_created": "2024-05-28T17:57:21.000",
    "date_modified": "2024-05-28T17:57:21.000",
    "request_status": "Pending",
    "responsible_agency": "Department of Code Enforcement",
    "final_address": "3322 Canal St",
    "address_councildis": "B",
    "status": "Pending",
    "rowid": "1097554",
    "final_x": "3673357.11624",
    "final_y": "536511.574727",
    "longitude": "-90.09361213136305",
    "latitude": "29.9694655660717",
    "geocoded_column": {
      "latitude": "29.9694655660717",
      "longitude": "-90.09361213136305"
    }
  },
  {
    "service_request": "2024-1097553",
    "request_type": "Trash/Recycling",
    "request_reason": "Request a Large Item Pick Up",
    "date_created": "2024-05-28T17:56:24.000",
    "date_modified": "2024-05-28T17:56:25.000",
    "request_status": "Pending",
    "responsible_agency": "Department of Sanitation",
    "final_address": "1806 N Robertson St",
    "address_councildis": "C",
    "status": "Assigned to Contractor",
    "contractor": "IV Waste",
    "rowid": "1097553",
    "final_x": "3683504.68777",
    "final_y": "537639.05108",
    "longitude": "-90.06152578913024",
    "latitude": "29.97225994892519",
    "geocoded_column": {
      "latitude": "29.97225994892519",
      "longitude": "-90.06152578913024"
    }
  },
  {
    "service_request": "2024-1097552",
    "request_type": "Parks & Parkways",
    "request_reason": "Request Tree Service (Right of Way/Public Property)",
    "date_created": "2024-05-28T17:56:08.000",
    "date_modified": "2024-05-28T17:56:08.000",
    "request_status": "Pending",
    "responsible_agency": "Department of Parks & Parkway",
    "final_address": "400 BLK Mound Ave",
    "address_councildis": "A",
    "status": "Pending",
    "rowid": "1097552",
    "final_x": "3667151.13187",
    "final_y": "543888.281434",
    "longitude": "-90.11296309337011",
    "latitude": "29.989932189809373",
    "geocoded_column": {
      "latitude": "29.989932189809373",
      "longitude": "-90.11296309337011"
    }
  },
  {
    "service_request": "2024-1097551",
    "request_type": "Parks & Parkways",
    "request_reason": "Request Tree Service (Right of Way/Public Property)",
    "date_created": "2024-05-28T17:55:42.000",
    "date_modified": "2024-05-28T17:55:42.000",
    "request_status": "Pending",
    "responsible_agency": "Department of Parks & Parkway",
    "final_address": "6200 St Charles Ave",
    "address_councildis": "A",
    "status": "Pending",
    "rowid": "1097551",
    "final_x": "3665015.65242",
    "final_y": "522892.342139",
    "longitude": "-90.1204105578782",
    "latitude": "29.932262605146033",
    "geocoded_column": {
      "latitude": "29.932262605146033",
      "longitude": "-90.1204105578782"
    }
  },
  {
    "service_request": "2024-1097550",
    "request_type": "Abandoned Vehicles",
    "request_reason": "Abandoned/Junk Vehicles",
    "date_created": "2024-05-28T17:53:05.000",
    "date_modified": "2024-05-28T17:53:05.000",
    "request_status": "Pending",
    "responsible_agency": "Department of Public Works",
    "final_address": "4030 General Ogden St",
    "address_councildis": "A",
    "status": "Pending",
    "rowid": "1097550",
    "final_x": "3666717.50804",
    "final_y": "537842.400713",
    "longitude": "-90.11453593181162",
    "latitude": "29.973320748333926",
    "geocoded_column": {
      "latitude": "29.973320748333926",
      "longitude": "-90.11453593181162"
    }
  },
  {
    "service_request": "2024-1097549",
    "request_type": "Roads/Drainage",
    "request_reason": "Catch Basin - Broken/Damage",
    "date_created": "2024-05-28T17:50:32.000",
    "date_modified": "2024-05-28T17:50:32.000",
    "request_status": "Pending",
    "responsible_agency": "Department of Public Works",
    "final_address": "4500 BLK Toulouse St",
    "address_councildis": "A",
    "status": "Pending",
    "rowid": "1097549",
    "final_x": "3670720.89048",
    "final_y": "540865.993187",
    "longitude": "-90.1017897677463",
    "latitude": "29.981516907803467",
    "geocoded_column": {
      "latitude": "29.981516907803467",
      "longitude": "-90.1017897677463"
    }
  },
  {
    "service_request": "2024-1097548",
    "request_type": "Roads/Drainage",
    "request_reason": "Pothole",
    "date_created": "2024-05-28T17:44:22.000",
    "date_modified": "2024-05-28T17:44:22.000",
    "request_status": "Pending",
    "responsible_agency": "Department of Public Works",
    "final_address": "220 Hay Pl",
    "address_councildis": "A",
    "status": "Pending",
    "rowid": "1097548",
    "final_x": "3665941.35181",
    "final_y": "554126.601368",
    "longitude": "-90.11644102184513",
    "latitude": "30.018119400853024",
    "geocoded_column": {
      "latitude": "30.018119400853024",
      "longitude": "-90.11644102184513"
    }
  },
  {
    "service_request": "2024-1097547",
    "request_type": "Trash/Recycling",
    "request_reason": "Illegal Dumping",
    "date_created": "2024-05-28T17:40:29.000",
    "date_modified": "2024-05-28T17:40:29.000",
    "request_status": "Pending",
    "responsible_agency": "Department of Sanitation",
    "final_address": "12900 BLK Michoud Blvd",
    "address_councildis": "E",
    "status": "Pending",
    "rowid": "1097547",
    "final_x": "3725153.28916",
    "final_y": "570749.833353",
    "longitude": "-89.92871247876184",
    "latitude": "30.061964446429403",
    "geocoded_column": {
      "latitude": "30.061964446429403",
      "longitude": "-89.92871247876184"
    }
  },
  {
    "service_request": "2024-1097546",
    "request_type": "Roads/Drainage",
    "request_reason": "Pothole",
    "date_created": "2024-05-28T17:39:42.000",
    "date_modified": "2024-05-28T17:39:42.000",
    "request_status": "Pending",
    "responsible_agency": "Department of Public Works",
    "final_address": "220 Hay Pl",
    "address_councildis": "A",
    "status": "Pending",
    "rowid": "1097546",
    "final_x": "3665941.35181",
    "final_y": "554126.601368",
    "longitude": "-90.11644102184513",
    "latitude": "30.018119400853024",
    "geocoded_column": {
      "latitude": "30.018119400853024",
      "longitude": "-90.11644102184513"
    }
  },
  {
    "service_request": "2024-1097545",
    "request_type": "Roads/Drainage",
    "request_reason": "Catch Basin - Clogged",
    "date_created": "2024-05-28T17:37:39.000",
    "date_modified": "2024-05-28T17:37:39.000",
    "request_status": "Pending",
    "responsible_agency": "Department of Public Works",
    "final_address": "8701 Pritchard Pl",
    "address_councildis": "A",
    "status": "Pending",
    "rowid": "1097545",
    "final_x": "3664491.29236",
    "final_y": "534366.411589",
    "longitude": "-90.1216828899228",
    "latitude": "29.963827849252564",
    "geocoded_column": {
      "latitude": "29.963827849252564",
      "longitude": "-90.1216828899228"
    }
  },
  {
    "service_request": "2024-1097544",
    "request_type": "Trash/Recycling",
    "request_reason": "Request a Large Item Pick Up",
    "date_created": "2024-05-28T17:35:03.000",
    "date_modified": "2024-05-28T17:35:03.000",
    "request_status": "Pending",
    "responsible_agency": "Department of Sanitation",
    "final_address": "117 Mary Jane Ln",
    "address_councildis": "E",
    "status": "Assigned to Contractor",
    "contractor": "Waste Pro",
    "rowid": "1097544",
    "final_x": "3718050.72511",
    "final_y": "571574.47204",
    "longitude": "-89.95113205009822",
    "latitude": "30.064469343373524",
    "geocoded_column": {
      "latitude": "30.064469343373524",
      "longitude": "-89.95113205009822"
    }
  },
  {
    "service_request": "2024-1097543",
    "request_type": "Roads/Drainage",
    "request_reason": "Catch Basin - Broken/Damage",
    "date_created": "2024-05-28T17:30:45.000",
    "date_modified": "2024-05-28T17:30:45.000",
    "request_status": "Pending",
    "responsible_agency": "Department of Public Works",
    "final_address": "7033 Yorktown Dr",
    "address_councildis": "E",
    "status": "Pending",
    "rowid": "1097543",
    "final_x": "3706212.361",
    "final_y": "560600.030238",
    "longitude": "-89.98896090871574",
    "latitude": "30.034681360001134",
    "geocoded_column": {
      "latitude": "30.034681360001134",
      "longitude": "-89.98896090871574"
    }
  },
  {
    "service_request": "2024-1097542",
    "request_type": "Trash/Recycling",
    "request_reason": "Request a Large Item Pick Up",
    "date_created": "2024-05-28T17:30:22.000",
    "date_modified": "2024-05-28T17:30:23.000",
    "request_status": "Pending",
    "responsible_agency": "Department of Sanitation",
    "final_address": "1034 Crete St",
    "address_councildis": "A",
    "status": "Assigned to Contractor",
    "contractor": "IV Waste",
    "rowid": "1097542",
    "final_x": "3677601.98056",
    "final_y": "538572.382153",
    "longitude": "-90.08013531564096",
    "latitude": "29.975005115929118",
    "geocoded_column": {
      "latitude": "29.975005115929118",
      "longitude": "-90.08013531564096"
    }
  },
  {
    "service_request": "2024-1097541",
    "request_type": "Trash/Recycling",
    "request_reason": "Request a Large Item Pick Up",
    "date_created": "2024-05-28T17:24:33.000",
    "date_modified": "2024-05-28T17:24:33.000",
    "request_status": "Pending",
    "responsible_agency": "Department of Sanitation",
    "final_address": "3103 Banks St Apt 2A",
    "address_councildis": "B",
    "status": "Assigned to Contractor",
    "contractor": "IV Waste",
    "rowid": "1097541",
    "final_x": "3673362.06952",
    "final_y": "535198.216518",
    "longitude": "-90.09364136264686",
    "latitude": "29.965854126324125",
    "geocoded_column": {
      "latitude": "29.965854126324125",
      "longitude": "-90.09364136264686"
    }
  },
  {
    "service_request": "2024-1097540",
    "request_type": "Abandoned Vehicles",
    "request_reason": "Abandoned/Junk Vehicles",
    "date_created": "2024-05-28T17:23:19.000",
    "date_modified": "2024-05-28T17:23:19.000",
    "request_status": "Pending",
    "responsible_agency": "Department of Public Works",
    "final_address": "5699 Tullis Dr Apt A",
    "address_councildis": "C",
    "status": "Pending",
    "rowid": "1097540",
    "final_x": "3705148.00497",
    "final_y": "512538.495025",
    "longitude": "-89.99409955824882",
    "latitude": "29.902563982841997",
    "geocoded_column": {
      "latitude": "29.902563982841997",
      "longitude": "-89.99409955824882"
    }
  },
  {
    "service_request": "2024-1097539",
    "request_type": "Property Maintenance",
    "request_reason": "Property Maintenance",
    "date_created": "2024-05-28T17:23:05.000",
    "date_modified": "2024-05-28T17:23:05.000",
    "request_status": "Pending",
    "responsible_agency": "Department of Code Enforcement",
    "final_address": "2934 Dryades St",
    "address_councildis": "B",
    "status": "Pending",
    "rowid": "1097539",
    "final_x": "3674690.69294",
    "final_y": "522984.281723",
    "longitude": "-90.08986418296821",
    "latitude": "29.932230256792028",
    "geocoded_column": {
      "latitude": "29.932230256792028",
      "longitude": "-90.08986418296821"
    }
  },
  {
    "service_request": "2024-1097538",
    "request_type": "Property Maintenance",
    "request_reason": "Property Maintenance",
    "date_created": "2024-05-28T17:22:38.000",
    "date_modified": "2024-05-28T17:22:38.000",
    "request_status": "Pending",
    "responsible_agency": "Department of Code Enforcement",
    "final_address": "1821 Seventh St",
    "address_councildis": "B",
    "status": "Pending",
    "rowid": "1097538",
    "final_x": "3674763.826",
    "final_y": "522866.680699",
    "longitude": "-90.0896373382226",
    "latitude": "29.931904709708405",
    "geocoded_column": {
      "latitude": "29.931904709708405",
      "longitude": "-90.0896373382226"
    }
  },
  {
    "service_request": "2024-1097537",
    "request_type": "Roads/Drainage",
    "request_reason": "Pothole",
    "date_created": "2024-05-28T17:21:37.000",
    "date_modified": "2024-05-28T17:21:37.000",
    "request_status": "Pending",
    "responsible_agency": "Department of Public Works",
    "final_address": "5200 BLK Conti St",
    "address_councildis": "A",
    "status": "Pending",
    "rowid": "1097537",
    "final_x": "3668455.66797",
    "final_y": "541817.306245",
    "longitude": "-90.10891230572616",
    "latitude": "29.984199446089924",
    "geocoded_column": {
      "latitude": "29.984199446089924",
      "longitude": "-90.10891230572616"
    }
  },
  {
    "service_request": "2024-1097536",
    "request_type": "Trash/Recycling",
    "request_reason": "Return Trash Cart",
    "date_created": "2024-05-28T17:20:57.000",
    "date_modified": "2024-05-28T17:20:58.000",
    "request_status": "Pending",
    "responsible_agency": "Department of Sanitation",
    "final_address": "4322 S Saratoga St",
    "address_councildis": "B",
    "status": "Assigned to Contractor",
    "contractor": "IV Waste",
    "rowid": "1097536",
    "final_x": "3670905.78868",
    "final_y": "522575.28281",
    "longitude": "-90.10182666884441",
    "latitude": "29.93121803839879",
    "geocoded_column": {
      "latitude": "29.93121803839879",
      "longitude": "-90.10182666884441"
    }
  },
  {
    "service_request": "2024-1097535",
    "request_type": "Abandoned Vehicles",
    "request_reason": "Abandoned/Junk Vehicles",
    "date_created": "2024-05-28T17:17:44.000",
    "date_modified": "2024-05-28T17:17:44.000",
    "request_status": "Pending",
    "responsible_agency": "Department of Public Works",
    "final_address": "13000 Michoud Blvd",
    "address_councildis": "E",
    "status": "Pending",
    "rowid": "1097535",
    "final_x": "3725206.92864",
    "final_y": "571018.173607",
    "longitude": "-89.928532526993",
    "latitude": "30.062700460418675",
    "geocoded_column": {
      "latitude": "30.062700460418675",
      "longitude": "-89.928532526993"
    }
  },
  {
    "service_request": "2024-1097534",
    "request_type": "Trash/Recycling",
    "request_reason": "Request a Large Item Pick Up",
    "date_created": "2024-05-28T17:15:53.000",
    "date_modified": "2024-05-28T17:15:54.000",
    "request_status": "Pending",
    "responsible_agency": "Department of Sanitation",
    "final_address": "3900 Prytania St",
    "address_councildis": "B",
    "status": "Assigned to Contractor",
    "contractor": "IV Waste",
    "rowid": "1097534",
    "final_x": "3672723.27707",
    "final_y": "520461.066168",
    "longitude": "-90.0961611426503",
    "latitude": "29.9253507863756",
    "geocoded_column": {
      "latitude": "29.9253507863756",
      "longitude": "-90.0961611426503"
    }
  },
  {
    "service_request": "2024-1097533",
    "request_type": "Abandoned Vehicles",
    "request_reason": "Abandoned/Junk Vehicles",
    "date_created": "2024-05-28T17:14:44.000",
    "date_modified": "2024-05-28T17:14:44.000",
    "request_status": "Pending",
    "responsible_agency": "Department of Public Works",
    "final_address": "13000 Michoud Blvd",
    "address_councildis": "E",
    "status": "Pending",
    "rowid": "1097533",
    "final_x": "3725206.92864",
    "final_y": "571018.173607",
    "longitude": "-89.928532526993",
    "latitude": "30.062700460418675",
    "geocoded_column": {
      "latitude": "30.062700460418675",
      "longitude": "-89.928532526993"
    }
  },
  {
    "service_request": "2024-1097532",
    "request_type": "Abandoned Vehicles",
    "request_reason": "Abandoned/Junk Vehicles",
    "date_created": "2024-05-28T17:13:34.000",
    "date_modified": "2024-05-28T17:13:34.000",
    "request_status": "Pending",
    "responsible_agency": "Department of Public Works",
    "final_address": "5800 BLK Tullis Dr",
    "address_councildis": "C",
    "status": "Pending",
    "rowid": "1097532",
    "final_x": "3705788.10381",
    "final_y": "513196.21224",
    "longitude": "-89.99205514717478",
    "latitude": "29.904351894017385",
    "geocoded_column": {
      "latitude": "29.904351894017385",
      "longitude": "-89.99205514717478"
    }
  },
  {
    "service_request": "2024-1097531",
    "request_type": "Traffic Signals/Signs/Striping/Streetlights",
    "request_reason": "Street Light Outage/Malfunction",
    "date_created": "2024-05-28T17:12:27.000",
    "date_modified": "2024-05-28T17:12:28.000",
    "request_status": "Pending",
    "responsible_agency": "Department of Public Works",
    "final_address": "4700 Charlmark Dr",
    "address_councildis": "E",
    "status": "Assigned to Contractor",
    "contractor": "Legacy Professional Services",
    "rowid": "1097531",
    "final_x": "3711379.3068",
    "final_y": "555718.899673",
    "longitude": "-89.97281591323471",
    "latitude": "30.021092479393705",
    "geocoded_column": {
      "latitude": "30.021092479393705",
      "longitude": "-89.97281591323471"
    }
  },
  {
    "service_request": "2024-1097530",
    "request_type": "Traffic Signals/Signs/Striping/Streetlights",
    "request_reason": "Street Name Sign Damaged or Missing",
    "date_created": "2024-05-28T17:10:08.000",
    "date_modified": "2024-05-28T17:10:08.000",
    "request_status": "Pending",
    "responsible_agency": "Department of Public Works",
    "final_address": "3000 BLK Pittari Pl",
    "address_councildis": "C",
    "status": "Pending",
    "rowid": "1097530",
    "final_x": "3709694.2958",
    "final_y": "518668.018554",
    "longitude": "-89.97952320138587",
    "latitude": "29.919271154744635",
    "geocoded_column": {
      "latitude": "29.919271154744635",
      "longitude": "-89.97952320138587"
    }
  },
  {
    "service_request": "2024-1097529",
    "request_type": "Abandoned Vehicles",
    "request_reason": "Abandoned/Junk Vehicles",
    "date_created": "2024-05-28T17:08:42.000",
    "date_modified": "2024-05-28T17:08:42.000",
    "request_status": "Pending",
    "responsible_agency": "Department of Public Works",
    "final_address": "130 Sherwood Forest Dr",
    "address_councildis": "A",
    "status": "Pending",
    "rowid": "1097529",
    "final_x": "3673131.19758",
    "final_y": "540974.400395",
    "longitude": "-90.09417318409015",
    "latitude": "29.981743538172804",
    "geocoded_column": {
      "latitude": "29.981743538172804",
      "longitude": "-90.09417318409015"
    }
  },
  {
    "service_request": "2024-1097528",
    "request_type": "Abandoned Vehicles",
    "request_reason": "Abandoned/Junk Vehicles",
    "date_created": "2024-05-28T17:06:44.000",
    "date_modified": "2024-05-28T17:06:44.000",
    "request_status": "Pending",
    "responsible_agency": "Department of Public Works",
    "final_address": "130 Sherwood Forest Dr",
    "address_councildis": "A",
    "status": "Pending",
    "rowid": "1097528",
    "final_x": "3673131.19758",
    "final_y": "540974.400395",
    "longitude": "-90.09417318409015",
    "latitude": "29.981743538172804",
    "geocoded_column": {
      "latitude": "29.981743538172804",
      "longitude": "-90.09417318409015"
    }
  },
  {
    "service_request": "2024-1097527",
    "request_type": "Traffic Signals/Signs/Striping/Streetlights",
    "request_reason": "Street Light Outage/Malfunction",
    "date_created": "2024-05-28T17:03:24.000",
    "date_modified": "2024-05-28T17:03:24.000",
    "request_status": "Pending",
    "responsible_agency": "Department of Public Works",
    "final_address": "CANAL ST & ROYAL ST",
    "address_councildis": "C",
    "status": "Assigned to Contractor",
    "contractor": "Legacy Professional Services",
    "rowid": "1097527",
    "final_x": "3681217.0",
    "final_y": "530712.28",
    "longitude": "-90.06899207564706",
    "latitude": "29.95328331567276",
    "geocoded_column": {
      "latitude": "29.95328331567276",
      "longitude": "-90.06899207564706"
    }
  },
  {
    "service_request": "2024-1097526",
    "request_type": "Abandoned Vehicles",
    "request_reason": "Abandoned/Junk Vehicles",
    "date_created": "2024-05-28T17:02:26.000",
    "date_modified": "2024-05-28T17:02:26.000",
    "request_status": "Pending",
    "responsible_agency": "Department of Public Works",
    "final_address": " & FOREST ISLE DR",
    "address_councildis": "C",
    "status": "Pending",
    "rowid": "1097526",
    "final_x": "3705876.93",
    "final_y": "512778.89",
    "longitude": "-89.99179023228741",
    "latitude": "29.903201541007117",
    "geocoded_column": {
      "latitude": "29.903201541007117",
      "longitude": "-89.99179023228741"
    }
  },
  {
    "service_request": "2024-1097525",
    "request_type": "Abandoned Vehicles",
    "request_reason": "Abandoned/Junk Vehicles",
    "date_created": "2024-05-28T16:57:28.000",
    "date_modified": "2024-05-28T16:57:28.000",
    "request_status": "Pending",
    "responsible_agency": "Department of Public Works",
    "final_address": "BORDEAUX ST & DRYADES ST",
    "address_councildis": "B",
    "status": "Pending",
    "rowid": "1097525",
    "final_x": "3669271.1",
    "final_y": "521796.08",
    "longitude": "-90.1070135131152",
    "latitude": "29.929123687571064",
    "geocoded_column": {
      "latitude": "29.929123687571064",
      "longitude": "-90.1070135131152"
    }
  },
  {
    "service_request": "2024-1097524",
    "request_type": "Property Maintenance",
    "request_reason": "Property Maintenance",
    "date_created": "2024-05-28T16:57:09.000",
    "date_modified": "2024-05-28T16:57:09.000",
    "request_status": "Pending",
    "responsible_agency": "Department of Code Enforcement",
    "final_address": "7410 W Laverne St",
    "address_councildis": "D",
    "status": "Pending",
    "rowid": "1097524",
    "final_x": "3695310.68138",
    "final_y": "558006.046363",
    "longitude": "-90.02350535808644",
    "latitude": "30.027896081788107",
    "geocoded_column": {
      "latitude": "30.027896081788107",
      "longitude": "-90.02350535808644"
    }
  },
  {
    "service_request": "2024-1097523",
    "request_type": "Property Maintenance",
    "request_reason": "Property Maintenance",
    "date_created": "2024-05-28T16:53:27.000",
    "date_modified": "2024-05-28T16:53:27.000",
    "request_status": "Pending",
    "responsible_agency": "Department of Code Enforcement",
    "final_address": "7410 W Laverne St",
    "address_councildis": "D",
    "status": "Pending",
    "rowid": "1097523",
    "final_x": "3695310.68138",
    "final_y": "558006.046363",
    "longitude": "-90.02350535808644",
    "latitude": "30.027896081788107",
    "geocoded_column": {
      "latitude": "30.027896081788107",
      "longitude": "-90.02350535808644"
    }
  },
  {
    "service_request": "2024-1097522",
    "request_type": "Trash/Recycling",
    "request_reason": "Request a Large Item Pick Up",
    "date_created": "2024-05-28T16:51:45.000",
    "date_modified": "2024-05-28T16:51:46.000",
    "request_status": "Pending",
    "responsible_agency": "Department of Sanitation",
    "final_address": "3880 Mimosa Dr",
    "address_councildis": "C",
    "status": "Assigned to Contractor",
    "contractor": "Richards Disposal",
    "rowid": "1097522",
    "final_x": "3704392.10212",
    "final_y": "513044.836401",
    "longitude": "-89.99646649920797",
    "latitude": "29.903980520791503",
    "geocoded_column": {
      "latitude": "29.903980520791503",
      "longitude": "-89.99646649920797"
    }
  },
  {
    "service_request": "2024-1097521",
    "request_type": "Property Maintenance",
    "request_reason": "Property Maintenance",
    "date_created": "2024-05-28T16:51:41.000",
    "date_modified": "2024-05-28T16:51:41.000",
    "request_status": "Pending",
    "responsible_agency": "Department of Code Enforcement",
    "final_address": "7410 W Laverne St",
    "address_councildis": "D",
    "status": "Pending",
    "rowid": "1097521",
    "final_x": "3695310.68138",
    "final_y": "558006.046363",
    "longitude": "-90.02350535808644",
    "latitude": "30.027896081788107",
    "geocoded_column": {
      "latitude": "30.027896081788107",
      "longitude": "-90.02350535808644"
    }
  },
  {
    "service_request": "2024-1097520",
    "request_type": "Trash/Recycling",
    "request_reason": "Request a Large Item Pick Up",
    "date_created": "2024-05-28T16:51:16.000",
    "date_modified": "2024-05-28T16:51:16.000",
    "request_status": "Pending",
    "responsible_agency": "Department of Sanitation",
    "final_address": "4660 Wright Rd",
    "address_councildis": "E",
    "status": "Assigned to Contractor",
    "contractor": "Waste Pro",
    "rowid": "1097520",
    "final_x": "3716647.66552",
    "final_y": "556543.747738",
    "longitude": "-89.95613826416984",
    "latitude": "30.023187431526804",
    "geocoded_column": {
      "latitude": "30.023187431526804",
      "longitude": "-89.95613826416984"
    }
  },
  {
    "service_request": "2024-1097519",
    "request_type": "Parks & Parkways",
    "request_reason": "Request Tree Service (Right of Way/Public Property)",
    "date_created": "2024-05-28T16:49:17.000",
    "date_modified": "2024-05-28T16:49:17.000",
    "request_status": "Pending",
    "responsible_agency": "Department of Parks & Parkway",
    "final_address": "1621 Lowerline St",
    "address_councildis": "A",
    "status": "Pending",
    "rowid": "1097519",
    "final_x": "3664645.15853",
    "final_y": "528105.776575",
    "longitude": "-90.12140610110195",
    "latitude": "29.94660866409202",
    "geocoded_column": {
      "latitude": "29.94660866409202",
      "longitude": "-90.12140610110195"
    }
  },
  {
    "service_request": "2024-1097518",
    "request_type": "Trash/Recycling",
    "request_reason": "Illegal Dumping",
    "date_created": "2024-05-28T16:48:19.000",
    "date_modified": "2024-05-28T16:48:19.000",
    "request_status": "Pending",
    "responsible_agency": "Department of Sanitation",
    "final_address": "2629 St Philip St",
    "address_councildis": "D",
    "status": "Pending",
    "rowid": "1097518",
    "final_x": "3677653.79067",
    "final_y": "537704.505224",
    "longitude": "-90.08000166700606",
    "latitude": "29.97261719391189",
    "geocoded_column": {
      "latitude": "29.97261719391189",
      "longitude": "-90.08000166700606"
    }
  },
  {
    "service_request": "2024-1097517",
    "request_type": "Parks & Parkways",
    "request_reason": "Request Tree Service (Right of Way/Public Property)",
    "date_created": "2024-05-28T16:47:41.000",
    "date_modified": "2024-05-28T16:47:42.000",
    "request_status": "Pending",
    "responsible_agency": "Department of Parks & Parkway",
    "final_address": "4827 Hickerson Dr",
    "address_councildis": "E",
    "status": "Pending",
    "rowid": "1097517",
    "final_x": "3710303.65854",
    "final_y": "556427.332442",
    "longitude": "-89.97618811155473",
    "latitude": "30.02307546584284",
    "geocoded_column": {
      "latitude": "30.02307546584284",
      "longitude": "-89.97618811155473"
    }
  },
  {
    "service_request": "2024-1097516",
    "request_type": "Trash/Recycling",
    "request_reason": "Order Recycling Cart",
    "date_created": "2024-05-28T16:47:33.000",
    "date_modified": "2024-05-28T16:47:33.000",
    "request_status": "Pending",
    "responsible_agency": "Department of Sanitation",
    "final_address": "3416 Washington Ave",
    "address_councildis": "B",
    "status": "Pending",
    "rowid": "1097516",
    "final_x": "3672212.26907",
    "final_y": "527905.853439",
    "longitude": "-90.09752077621275",
    "latitude": "29.945836700704305",
    "geocoded_column": {
      "latitude": "29.945836700704305",
      "longitude": "-90.09752077621275"
    }
  },
  {
    "service_request": "2024-1097515",
    "request_type": "Roads/Drainage",
    "request_reason": "Debris in Roadway",
    "date_created": "2024-05-28T16:45:40.000",
    "date_modified": "2024-05-28T16:45:40.000",
    "request_status": "Pending",
    "responsible_agency": "Department of Public Works",
    "final_address": "13000 BLK Michoud Blvd",
    "address_councildis": "E",
    "status": "Pending",
    "rowid": "1097515",
    "final_x": "3725373.52363",
    "final_y": "571103.462239",
    "longitude": "-89.92800261555675",
    "latitude": "30.062929351011412",
    "geocoded_column": {
      "latitude": "30.062929351011412",
      "longitude": "-89.92800261555675"
    }
  },
  {
    "service_request": "2024-1097512",
    "request_type": "Trash/Recycling",
    "request_reason": "Order Trash Cart",
    "date_created": "2024-05-28T16:37:55.000",
    "date_modified": "2024-05-28T16:37:56.000",
    "request_status": "Pending",
    "responsible_agency": "Department of Sanitation",
    "final_address": "714 Newton St",
    "address_councildis": "C",
    "status": "Assigned to Contractor",
    "contractor": "Richards Disposal",
    "rowid": "1097512",
    "final_x": "3687599.48764",
    "final_y": "528019.712959",
    "longitude": "-90.04893427665927",
    "latitude": "29.945684487146647",
    "geocoded_column": {
      "latitude": "29.945684487146647",
      "longitude": "-90.04893427665927"
    }
  },
  {
    "service_request": "2024-1097511",
    "request_type": "Trash/Recycling",
    "request_reason": "Request a Large Item Pick Up",
    "date_created": "2024-05-28T16:37:04.000",
    "date_modified": "2024-05-28T16:37:05.000",
    "request_status": "Pending",
    "responsible_agency": "Department of Sanitation",
    "final_address": "1223 St Mary St",
    "address_councildis": "B",
    "status": "Assigned to Contractor",
    "contractor": "IV Waste",
    "rowid": "1097511",
    "final_x": "3679360.03887",
    "final_y": "523289.465275",
    "longitude": "-90.07511292785954",
    "latitude": "29.932929254375523",
    "geocoded_column": {
      "latitude": "29.932929254375523",
      "longitude": "-90.07511292785954"
    }
  },
  {
    "service_request": "2024-1097510",
    "request_type": "Trash/Recycling",
    "request_reason": "Request a Large Item Pick Up",
    "date_created": "2024-05-28T16:35:59.000",
    "date_modified": "2024-05-28T16:36:00.000",
    "request_status": "Pending",
    "responsible_agency": "Department of Sanitation",
    "final_address": "2738 Bruxelles St",
    "address_councildis": "D",
    "status": "Assigned to Contractor",
    "contractor": "IV Waste",
    "rowid": "1097510",
    "final_x": "3680283.85397",
    "final_y": "542541.958797",
    "longitude": "-90.0715272146362",
    "latitude": "29.985839146834444",
    "geocoded_column": {
      "latitude": "29.985839146834444",
      "longitude": "-90.0715272146362"
    }
  },
  {
    "service_request": "2024-1097509",
    "request_type": "Trash/Recycling",
    "request_reason": "Request a Large Item Pick Up",
    "date_created": "2024-05-28T16:33:57.000",
    "date_modified": "2024-05-28T16:33:58.000",
    "request_status": "Pending",
    "responsible_agency": "Department of Sanitation",
    "final_address": "7061 Salem Dr",
    "address_councildis": "E",
    "status": "Assigned to Contractor",
    "contractor": "Waste Pro",
    "rowid": "1097509",
    "final_x": "3706622.48132",
    "final_y": "561020.052382",
    "longitude": "-89.98764929093619",
    "latitude": "30.035823018408948",
    "geocoded_column": {
      "latitude": "30.035823018408948",
      "longitude": "-89.98764929093619"
    }
  },
  {
    "service_request": "2024-1097508",
    "request_type": "Traffic Signals/Signs/Striping/Streetlights",
    "request_reason": "Street Light Outage/Malfunction",
    "date_created": "2024-05-28T16:30:28.000",
    "date_modified": "2024-05-28T16:30:28.000",
    "request_status": "Pending",
    "responsible_agency": "Department of Public Works",
    "final_address": "8001 Hickory St",
    "address_councildis": "A",
    "status": "Assigned to Contractor",
    "contractor": "Legacy Professional Services",
    "rowid": "1097508",
    "final_x": "3663712.68627",
    "final_y": "529687.265409",
    "longitude": "-90.12429757677877",
    "latitude": "29.950984334930467",
    "geocoded_column": {
      "latitude": "29.950984334930467",
      "longitude": "-90.12429757677877"
    }
  },
  {
    "service_request": "2024-1097507",
    "request_type": "Property Maintenance",
    "request_reason": "Property Maintenance",
    "date_created": "2024-05-28T16:25:25.000",
    "date_modified": "2024-05-28T16:25:25.000",
    "request_status": "Pending",
    "responsible_agency": "Department of Code Enforcement",
    "final_address": "2224 Conti St",
    "address_councildis": "B",
    "status": "Pending",
    "rowid": "1097507",
    "final_x": "3677459.49403",
    "final_y": "534919.793606",
    "longitude": "-90.08071143346186",
    "latitude": "29.964966028480188",
    "geocoded_column": {
      "latitude": "29.964966028480188",
      "longitude": "-90.08071143346186"
    }
  },
  {
    "service_request": "2024-1097506",
    "request_type": "Roads/Drainage",
    "request_reason": "Catch Basin - Clogged",
    "date_created": "2024-05-28T16:24:28.000",
    "date_modified": "2024-05-28T16:24:28.000",
    "request_status": "Pending",
    "responsible_agency": "Department of Public Works",
    "final_address": "7427 Kenyon Rd",
    "address_councildis": "E",
    "status": "Pending",
    "rowid": "1097506",
    "final_x": "3704522.97822",
    "final_y": "561873.916447",
    "longitude": "-89.99425251942358",
    "latitude": "30.038238438575902",
    "geocoded_column": {
      "latitude": "30.038238438575902",
      "longitude": "-89.99425251942358"
    }
  },
  {
    "service_request": "2024-1097505",
    "request_type": "Property Maintenance",
    "request_reason": "Property Maintenance",
    "date_created": "2024-05-28T16:24:02.000",
    "date_modified": "2024-05-28T16:27:49.000",
    "request_status": "Pending",
    "responsible_agency": "Department of Code Enforcement",
    "final_address": "2233 Conti St",
    "address_councildis": "B",
    "status": "Pending",
    "rowid": "1097505",
    "final_x": "3677447.79368",
    "final_y": "535015.91463",
    "longitude": "-90.08074506425",
    "latitude": "29.965230680366066",
    "geocoded_column": {
      "latitude": "29.965230680366066",
      "longitude": "-90.08074506425"
    }
  },
  {
    "service_request": "2024-1097504",
    "request_type": "Roads/Drainage",
    "request_reason": "Street Flooding / Drainage",
    "date_created": "2024-05-28T16:22:58.000",
    "date_modified": "2024-05-28T16:22:58.000",
    "request_status": "Pending",
    "responsible_agency": "Department of Public Works",
    "final_address": "1724 Short St",
    "address_councildis": "A",
    "status": "Pending",
    "rowid": "1097504",
    "final_x": "3663581.13715",
    "final_y": "529535.328769",
    "longitude": "-90.12471800490535",
    "latitude": "29.95057037419214",
    "geocoded_column": {
      "latitude": "29.95057037419214",
      "longitude": "-90.12471800490535"
    }
  },
  {
    "service_request": "2024-1097503",
    "request_type": "Trash/Recycling",
    "request_reason": "Illegal Dumping",
    "date_created": "2024-05-28T16:22:40.000",
    "date_modified": "2024-05-28T16:22:40.000",
    "request_status": "Pending",
    "responsible_agency": "Department of Sanitation",
    "final_address": "UPPERLINE ST & S DERBIGNY ST",
    "address_councildis": "B",
    "status": "Pending",
    "rowid": "1097503",
    "final_x": "3669243.6",
    "final_y": "526146.58",
    "longitude": "-90.10695333534119",
    "latitude": "29.941086973770634",
    "geocoded_column": {
      "latitude": "29.941086973770634",
      "longitude": "-90.10695333534119"
    }
  },
  {
    "service_request": "2024-1097502",
    "request_type": "Roads/Drainage",
    "request_reason": "Street Flooding / Drainage",
    "date_created": "2024-05-28T16:21:24.000",
    "date_modified": "2024-05-28T16:21:24.000",
    "request_status": "Pending",
    "responsible_agency": "Department of Public Works",
    "final_address": "1722 Short St",
    "address_councildis": "A",
    "status": "Pending",
    "rowid": "1097502",
    "final_x": "3663574.36915",
    "final_y": "529527.418241",
    "longitude": "-90.12473963830979",
    "latitude": "29.950548819082776",
    "geocoded_column": {
      "latitude": "29.950548819082776",
      "longitude": "-90.12473963830979"
    }
  },
  {
    "service_request": "2024-1097501",
    "request_type": "Trash/Recycling",
    "request_reason": "Request a Large Item Pick Up",
    "date_created": "2024-05-28T16:20:12.000",
    "date_modified": "2024-05-28T16:20:13.000",
    "request_status": "Pending",
    "responsible_agency": "Department of Sanitation",
    "final_address": "4918 Stephen Girard Ave",
    "address_councildis": "D",
    "status": "Assigned to Contractor",
    "contractor": "IV Waste",
    "rowid": "1097501",
    "final_x": "3692284.19491",
    "final_y": "550835.857813",
    "longitude": "-90.03332586953013",
    "latitude": "30.008275523801267",
    "geocoded_column": {
      "latitude": "30.008275523801267",
      "longitude": "-90.03332586953013"
    }
  },
  {
    "service_request": "2024-1097499",
    "request_type": "Roads/Drainage",
    "request_reason": "Street Flooding / Drainage",
    "date_created": "2024-05-28T16:18:57.000",
    "date_modified": "2024-05-28T16:18:57.000",
    "request_status": "Pending",
    "responsible_agency": "Department of Public Works",
    "final_address": "1727 Short St",
    "address_councildis": "A",
    "status": "Pending",
    "rowid": "1097499",
    "final_x": "3663660.26752",
    "final_y": "529506.800257",
    "longitude": "-90.12446910120045",
    "latitude": "29.950489634724374",
    "geocoded_column": {
      "latitude": "29.950489634724374",
      "longitude": "-90.12446910120045"
    }
  },
  {
    "service_request": "2024-1097498",
    "request_type": "Trash/Recycling",
    "request_reason": "Request a Large Item Pick Up",
    "date_created": "2024-05-28T16:17:20.000",
    "date_modified": "2024-05-28T16:17:21.000",
    "request_status": "Pending",
    "responsible_agency": "Department of Sanitation",
    "final_address": "6747 General Haig St",
    "address_councildis": "A",
    "status": "Assigned to Contractor",
    "contractor": "IV Waste",
    "rowid": "1097498",
    "final_x": "3671096.99028",
    "final_y": "552216.587094",
    "longitude": "-90.10021605605695",
    "latitude": "30.012715979896253",
    "geocoded_column": {
      "latitude": "30.012715979896253",
      "longitude": "-90.10021605605695"
    }
  },
  {
    "service_request": "2024-1097497",
    "request_type": "Roads/Drainage",
    "request_reason": "Pothole",
    "date_created": "2024-05-28T16:16:25.000",
    "date_modified": "2024-05-28T16:16:25.000",
    "request_status": "Pending",
    "responsible_agency": "Department of Public Works",
    "final_address": "1312 Milan St",
    "address_councildis": "B",
    "status": "Pending",
    "rowid": "1097497",
    "final_x": "3671625.82823",
    "final_y": "520286.919608",
    "longitude": "-90.09963137110304",
    "latitude": "29.92490447494246",
    "geocoded_column": {
      "latitude": "29.92490447494246",
      "longitude": "-90.09963137110304"
    }
  },
  {
    "service_request": "2024-1097496",
    "request_type": "Roads/Drainage",
    "request_reason": "Pothole",
    "date_created": "2024-05-28T16:15:16.000",
    "date_modified": "2024-05-28T16:15:16.000",
    "request_status": "Pending",
    "responsible_agency": "Department of Public Works",
    "final_address": "4216 Chestnut St",
    "address_councildis": "B",
    "status": "Pending",
    "rowid": "1097496",
    "final_x": "3671574.31393",
    "final_y": "519539.203703",
    "longitude": "-90.09981939416457",
    "latitude": "29.922850019854593",
    "geocoded_column": {
      "latitude": "29.922850019854593",
      "longitude": "-90.09981939416457"
    }
  },
  {
    "service_request": "2024-1097495",
    "request_type": "Trash/Recycling",
    "request_reason": "Illegal Dumping",
    "date_created": "2024-05-28T16:14:00.000",
    "date_modified": "2024-05-28T16:14:01.000",
    "request_status": "Pending",
    "responsible_agency": "Department of Sanitation",
    "final_address": "5825 Argonne Blvd",
    "address_councildis": "A",
    "status": "Pending",
    "rowid": "1097495",
    "final_x": "3670123.47092",
    "final_y": "546014.561296",
    "longitude": "-90.10350216508002",
    "latitude": "29.995691347017306",
    "geocoded_column": {
      "latitude": "29.995691347017306",
      "longitude": "-90.10350216508002"
    }
  },
  {
    "service_request": "2024-1097494",
    "request_type": "Trash/Recycling",
    "request_reason": "Request a Large Item Pick Up",
    "date_created": "2024-05-28T16:12:57.000",
    "date_modified": "2024-05-28T16:12:58.000",
    "request_status": "Pending",
    "responsible_agency": "Department of Sanitation",
    "final_address": "1842 Broadway St",
    "address_councildis": "A",
    "status": "Assigned to Contractor",
    "contractor": "IV Waste",
    "rowid": "1097494",
    "final_x": "3665485.36692",
    "final_y": "528563.683264",
    "longitude": "-90.11873792568811",
    "latitude": "29.94784329749813",
    "geocoded_column": {
      "latitude": "29.94784329749813",
      "longitude": "-90.11873792568811"
    }
  },
  {
    "service_request": "2024-1097493",
    "request_type": "Roads/Drainage",
    "request_reason": "Pothole",
    "date_created": "2024-05-28T16:12:48.000",
    "date_modified": "2024-05-28T16:12:48.000",
    "request_status": "Pending",
    "responsible_agency": "Department of Public Works",
    "final_address": "14500 BLK Morrison Rd",
    "address_councildis": "E",
    "status": "Pending",
    "rowid": "1097493",
    "final_x": "3720741.3554",
    "final_y": "572568.103667",
    "longitude": "-89.94258871091535",
    "latitude": "30.06711189505254",
    "geocoded_column": {
      "latitude": "30.06711189505254",
      "longitude": "-89.94258871091535"
    }
  },
  {
    "service_request": "2024-1097492",
    "request_type": "Abandoned Vehicles",
    "request_reason": "Abandoned/Junk Vehicles",
    "date_created": "2024-05-28T16:12:34.000",
    "date_modified": "2024-05-28T16:12:34.000",
    "request_status": "Pending",
    "responsible_agency": "Department of Public Works",
    "final_address": "4525 Baudin St",
    "address_councildis": "A",
    "status": "Pending",
    "rowid": "1097492",
    "final_x": "3668568.61946",
    "final_y": "538301.421257",
    "longitude": "-90.10867423173123",
    "latitude": "29.97452863085868",
    "geocoded_column": {
      "latitude": "29.97452863085868",
      "longitude": "-90.10867423173123"
    }
  },
  {
    "service_request": "2024-1097491",
    "request_type": "Trash/Recycling",
    "request_reason": "Missed Trash Pick-Up",
    "date_created": "2024-05-28T16:12:20.000",
    "date_modified": "2024-05-28T16:56:02.000",
    "case_close_date": "2024-05-28T11:56:02.000",
    "request_status": "Closed",
    "responsible_agency": "Department of Sanitation",
    "final_address": "5825 Argonne Blvd",
    "address_councildis": "A",
    "status": "Invalid Request",
    "contractor": "IV Waste",
    "contractor_action": "Invalid Request",
    "rowid": "1097491",
    "final_x": "3670123.47092",
    "final_y": "546014.561296",
    "longitude": "-90.10350216508002",
    "latitude": "29.995691347017306",
    "geocoded_column": {
      "latitude": "29.995691347017306",
      "longitude": "-90.10350216508002"
    }
  },
  {
    "service_request": "2024-1097490",
    "request_type": "Trash/Recycling",
    "request_reason": "Order Trash Cart",
    "date_created": "2024-05-28T16:09:21.000",
    "date_modified": "2024-05-28T16:09:22.000",
    "request_status": "Pending",
    "responsible_agency": "Department of Sanitation",
    "final_address": "4132 Davey St",
    "address_councildis": "D",
    "status": "Assigned to Contractor",
    "contractor": "IV Waste",
    "rowid": "1097490",
    "final_x": "3676124.49499",
    "final_y": "547240.364305",
    "longitude": "-90.08450323653975",
    "latitude": "29.99888340752829",
    "geocoded_column": {
      "latitude": "29.99888340752829",
      "longitude": "-90.08450323653975"
    }
  },
  {
    "service_request": "2024-1097489",
    "request_type": "Mosquito, Termite & Rodent Control",
    "request_reason": "Mosquito Complaint",
    "date_created": "2024-05-28T16:08:21.000",
    "date_modified": "2024-05-28T16:08:21.000",
    "request_status": "Pending",
    "responsible_agency": "Mosquito, Termite & Rodent Control Board",
    "final_address": "1727 Short St",
    "address_councildis": "A",
    "status": "Pending",
    "rowid": "1097489",
    "final_x": "3663660.26752",
    "final_y": "529506.800257",
    "longitude": "-90.12446910120045",
    "latitude": "29.950489634724374",
    "geocoded_column": {
      "latitude": "29.950489634724374",
      "longitude": "-90.12446910120045"
    }
  },
  {
    "service_request": "2024-1097488",
    "request_type": "Trash/Recycling",
    "request_reason": "Missed Trash Pick-Up",
    "date_created": "2024-05-28T16:06:07.000",
    "date_modified": "2024-05-28T16:06:07.000",
    "request_status": "Pending",
    "responsible_agency": "Department of Sanitation",
    "final_address": "6430 Colbert St",
    "address_councildis": "A",
    "status": "Assigned to Contractor",
    "contractor": "IV Waste",
    "rowid": "1097488",
    "final_x": "3667599.54977",
    "final_y": "550407.808724",
    "longitude": "-90.11132703417934",
    "latitude": "30.00784550060673",
    "geocoded_column": {
      "latitude": "30.00784550060673",
      "longitude": "-90.11132703417934"
    }
  },
  {
    "service_request": "2024-1097487",
    "request_type": "Abandoned Vehicles",
    "request_reason": "Abandoned/Junk Vehicles",
    "date_created": "2024-05-28T16:06:06.000",
    "date_modified": "2024-05-28T16:06:06.000",
    "request_status": "Pending",
    "responsible_agency": "Department of Public Works",
    "final_address": "4817 Frenchmen St",
    "address_councildis": "D",
    "status": "Pending",
    "rowid": "1097487",
    "final_x": "3683496.87682",
    "final_y": "550430.878548",
    "longitude": "-90.06110190837182",
    "latitude": "30.007433178625426",
    "geocoded_column": {
      "latitude": "30.007433178625426",
      "longitude": "-90.06110190837182"
    }
  },
  {
    "service_request": "2024-1097486",
    "request_type": "Trash/Recycling",
    "request_reason": "Request a Large Item Pick Up",
    "date_created": "2024-05-28T16:03:45.000",
    "date_modified": "2024-05-28T16:03:46.000",
    "request_status": "Pending",
    "responsible_agency": "Department of Sanitation",
    "final_address": "4647 Clara St",
    "address_councildis": "B",
    "status": "Assigned to Contractor",
    "contractor": "IV Waste",
    "rowid": "1097486",
    "final_x": "3669341.87444",
    "final_y": "525020.378813",
    "longitude": "-90.10668112785729",
    "latitude": "29.937987391807557",
    "geocoded_column": {
      "latitude": "29.937987391807557",
      "longitude": "-90.10668112785729"
    }
  },
  {
    "service_request": "2024-1097485",
    "request_type": "Trash/Recycling",
    "request_reason": "Repair Trash Cart",
    "date_created": "2024-05-28T16:03:27.000",
    "date_modified": "2024-05-28T16:03:28.000",
    "request_status": "Pending",
    "responsible_agency": "Department of Sanitation",
    "final_address": "6611 Memphis St",
    "address_councildis": "A",
    "status": "Assigned to Contractor",
    "contractor": "IV Waste",
    "rowid": "1097485",
    "final_x": "3669658.75578",
    "final_y": "551393.924693",
    "longitude": "-90.10478796882572",
    "latitude": "30.01049642805539",
    "geocoded_column": {
      "latitude": "30.01049642805539",
      "longitude": "-90.10478796882572"
    }
  },
  {
    "service_request": "2024-1097484",
    "request_type": "Trash/Recycling",
    "request_reason": "Missed Trash Pick-Up",
    "date_created": "2024-05-28T16:01:12.000",
    "date_modified": "2024-05-28T16:01:12.000",
    "request_status": "Pending",
    "responsible_agency": "Department of Sanitation",
    "final_address": "3100 BLK N Claiborne Ave",
    "address_councildis": "D",
    "status": "Assigned to Contractor",
    "contractor": "IV Waste",
    "rowid": "1097484",
    "final_x": "3689747.81076",
    "final_y": "537796.665664",
    "longitude": "-90.04180339573087",
    "latitude": "29.972501320438376",
    "geocoded_column": {
      "latitude": "29.972501320438376",
      "longitude": "-90.04180339573087"
    }
  },
  {
    "service_request": "2024-1097483",
    "request_type": "Trash/Recycling",
    "request_reason": "Illegal Dumping",
    "date_created": "2024-05-28T16:00:41.000",
    "date_modified": "2024-05-28T16:00:42.000",
    "request_status": "Pending",
    "responsible_agency": "Department of Sanitation",
    "final_address": "5700 BLK Waterford Blvd",
    "address_councildis": "E",
    "status": "Pending",
    "rowid": "1097483",
    "final_x": "3714025.09521",
    "final_y": "560826.534631",
    "longitude": "-89.96426323621398",
    "latitude": "30.035049800943085",
    "geocoded_column": {
      "latitude": "30.035049800943085",
      "longitude": "-89.96426323621398"
    }
  },
  {
    "service_request": "2024-1097482",
    "request_type": "Property Maintenance",
    "request_reason": "Property Maintenance",
    "date_created": "2024-05-28T16:00:28.000",
    "date_modified": "2024-05-28T16:00:29.000",
    "request_status": "Pending",
    "responsible_agency": "Department of Code Enforcement",
    "final_address": "4911 Eunice Dr",
    "address_councildis": "E",
    "status": "Pending",
    "rowid": "1097482",
    "final_x": "3710508.64376",
    "final_y": "556815.26313",
    "longitude": "-89.97552588456327",
    "latitude": "30.024135445724465",
    "geocoded_column": {
      "latitude": "30.024135445724465",
      "longitude": "-89.97552588456327"
    }
  },
  {
    "service_request": "2024-1097481",
    "request_type": "Trash/Recycling",
    "request_reason": "Request a Large Item Pick Up",
    "date_created": "2024-05-28T15:59:09.000",
    "date_modified": "2024-05-28T15:59:09.000",
    "request_status": "Pending",
    "responsible_agency": "Department of Sanitation",
    "final_address": "4927 Hauck Dr",
    "address_councildis": "E",
    "status": "Assigned to Contractor",
    "contractor": "Waste Pro",
    "rowid": "1097481",
    "final_x": "3714546.72991",
    "final_y": "557566.754843",
    "longitude": "-89.96273802584331",
    "latitude": "30.02606955981231",
    "geocoded_column": {
      "latitude": "30.02606955981231",
      "longitude": "-89.96273802584331"
    }
  },
  {
    "service_request": "2024-1097480",
    "request_type": "Mosquito, Termite & Rodent Control",
    "request_reason": "Rodent Complaint (Rats)",
    "date_created": "2024-05-28T15:58:27.000",
    "date_modified": "2024-05-28T15:58:27.000",
    "request_status": "Pending",
    "responsible_agency": "Mosquito, Termite & Rodent Control Board",
    "final_address": "10250 Heritage Dr",
    "address_councildis": "E",
    "status": "Pending",
    "rowid": "1097480",
    "final_x": "3709558.31115",
    "final_y": "564240.394145",
    "longitude": "-89.97825126603402",
    "latitude": "30.044582543764577",
    "geocoded_column": {
      "latitude": "30.044582543764577",
      "longitude": "-89.97825126603402"
    }
  },
  {
    "service_request": "2024-1097479",
    "request_type": "Traffic Signals/Signs/Striping/Streetlights",
    "request_reason": "Street Light Outage/Malfunction",
    "date_created": "2024-05-28T15:58:16.000",
    "date_modified": "2024-05-28T15:59:46.000",
    "request_status": "Pending",
    "responsible_agency": "Department of Public Works",
    "final_address": "1814 Rosiere St",
    "address_councildis": "D",
    "status": "Assigned to Contractor",
    "contractor": "Legacy Professional Services",
    "rowid": "1097479",
    "final_x": "3678964.83797",
    "final_y": "542300.430477",
    "longitude": "-90.07570183248237",
    "latitude": "29.985214901176708",
    "geocoded_column": {
      "latitude": "29.985214901176708",
      "longitude": "-90.07570183248237"
    }
  },
  {
    "service_request": "2024-1097478",
    "request_type": "Parks & Parkways",
    "request_reason": "Request Tree Service (Right of Way/Public Property)",
    "date_created": "2024-05-28T15:55:26.000",
    "date_modified": "2024-05-28T15:55:27.000",
    "request_status": "Pending",
    "responsible_agency": "Department of Parks & Parkway",
    "final_address": "BRUXELLES ST & ABUNDANCE ST",
    "address_councildis": "D",
    "status": "Pending",
    "rowid": "1097478",
    "final_x": "3680268.7",
    "final_y": "543339.08",
    "longitude": "-90.0715473543814",
    "latitude": "29.988031409581136",
    "geocoded_column": {
      "latitude": "29.988031409581136",
      "longitude": "-90.0715473543814"
    }
  },
  {
    "service_request": "2024-1097477",
    "request_type": "Abandoned Vehicles",
    "request_reason": "Abandoned/Junk Vehicles",
    "date_created": "2024-05-28T15:49:51.000",
    "date_modified": "2024-05-28T15:49:51.000",
    "request_status": "Pending",
    "responsible_agency": "Department of Public Works",
    "final_address": "1813 N Robertson St",
    "address_councildis": "C",
    "status": "Pending",
    "rowid": "1097477",
    "final_x": "3683509.39823",
    "final_y": "537733.624392",
    "longitude": "-90.06150759753184",
    "latitude": "29.972519848920914",
    "geocoded_column": {
      "latitude": "29.972519848920914",
      "longitude": "-90.06150759753184"
    }
  },
  {
    "service_request": "2024-1097476",
    "request_type": "Trash/Recycling",
    "request_reason": "Repair Trash Cart",
    "date_created": "2024-05-28T15:49:34.000",
    "date_modified": "2024-05-28T15:49:34.000",
    "request_status": "Pending",
    "responsible_agency": "Department of Sanitation",
    "final_address": "817 Wagner St",
    "address_councildis": "C",
    "status": "Assigned to Contractor",
    "contractor": "Richards Disposal",
    "rowid": "1097476",
    "final_x": "3690477.7775",
    "final_y": "528441.592",
    "longitude": "-90.03983156200141",
    "latitude": "29.94675548235524",
    "geocoded_column": {
      "latitude": "29.94675548235524",
      "longitude": "-90.03983156200141"
    }
  },
  {
    "service_request": "2024-1097475",
    "request_type": "Trash/Recycling",
    "request_reason": "Order Recycling Cart",
    "date_created": "2024-05-28T15:49:14.000",
    "date_modified": "2024-05-28T15:49:15.000",
    "request_status": "Pending",
    "responsible_agency": "Department of Sanitation",
    "final_address": "1948 N Dorgenois St",
    "address_councildis": "D",
    "status": "Pending",
    "rowid": "1097475",
    "final_x": "3681805.70863",
    "final_y": "541207.563084",
    "longitude": "-90.0667668767914",
    "latitude": "29.982123857965316",
    "geocoded_column": {
      "latitude": "29.982123857965316",
      "longitude": "-90.0667668767914"
    }
  },
  {
    "service_request": "2024-1097474",
    "request_type": "Trash/Recycling",
    "request_reason": "Order Trash Cart",
    "date_created": "2024-05-28T15:48:38.000",
    "date_modified": "2024-05-28T15:48:39.000",
    "request_status": "Pending",
    "responsible_agency": "Department of Sanitation",
    "final_address": "1948 N Dorgenois St",
    "address_councildis": "D",
    "status": "Assigned to Contractor",
    "contractor": "IV Waste",
    "rowid": "1097474",
    "final_x": "3681805.70863",
    "final_y": "541207.563084",
    "longitude": "-90.0667668767914",
    "latitude": "29.982123857965316",
    "geocoded_column": {
      "latitude": "29.982123857965316",
      "longitude": "-90.0667668767914"
    }
  },
  {
    "service_request": "2024-1097473",
    "request_type": "Abandoned Vehicles",
    "request_reason": "Abandoned/Junk Vehicles",
    "date_created": "2024-05-28T15:47:35.000",
    "date_modified": "2024-05-28T15:47:35.000",
    "request_status": "Pending",
    "responsible_agency": "Department of Public Works",
    "final_address": "BRUXELLES ST & ABUNDANCE ST",
    "address_councildis": "D",
    "status": "Pending",
    "rowid": "1097473",
    "final_x": "3680268.7",
    "final_y": "543339.08",
    "longitude": "-90.0715473543814",
    "latitude": "29.988031409581136",
    "geocoded_column": {
      "latitude": "29.988031409581136",
      "longitude": "-90.0715473543814"
    }
  },
  {
    "service_request": "2024-1097472",
    "request_type": "Trash/Recycling",
    "request_reason": "Request a Large Item Pick Up",
    "date_created": "2024-05-28T15:47:00.000",
    "date_modified": "2024-05-28T15:47:00.000",
    "request_status": "Pending",
    "responsible_agency": "Department of Sanitation",
    "final_address": "4636 Francis Dr",
    "address_councildis": "D",
    "status": "Assigned to Contractor",
    "contractor": "Waste Pro",
    "rowid": "1097472",
    "final_x": "3698250.30615",
    "final_y": "553792.818967",
    "longitude": "-90.01436964727087",
    "latitude": "30.016218586490528",
    "geocoded_column": {
      "latitude": "30.016218586490528",
      "longitude": "-90.01436964727087"
    }
  },
  {
    "service_request": "2024-1097471",
    "request_type": "Roads/Drainage",
    "request_reason": "Catch Basin - Clogged",
    "date_created": "2024-05-28T15:44:41.000",
    "date_modified": "2024-05-28T15:44:41.000",
    "request_status": "Pending",
    "responsible_agency": "Department of Public Works",
    "final_address": "FRERET ST & NASHVILLE AVE",
    "address_councildis": "A",
    "status": "Pending",
    "rowid": "1097471",
    "final_x": "3666869.7",
    "final_y": "524241.88",
    "longitude": "-90.11451216722769",
    "latitude": "29.935919308606362",
    "geocoded_column": {
      "latitude": "29.935919308606362",
      "longitude": "-90.11451216722769"
    }
  },
  {
    "service_request": "2024-1097470",
    "request_type": "Trash/Recycling",
    "request_reason": "Order Trash Cart",
    "date_created": "2024-05-28T15:44:32.000",
    "date_modified": "2024-05-28T15:44:32.000",
    "request_status": "Pending",
    "responsible_agency": "Department of Sanitation",
    "final_address": "1932 Pauline St",
    "address_councildis": "D",
    "status": "Assigned to Contractor",
    "contractor": "IV Waste",
    "rowid": "1097470",
    "final_x": "3691997.02307",
    "final_y": "538753.110025",
    "longitude": "-90.03466577575809",
    "latitude": "29.975061302113033",
    "geocoded_column": {
      "latitude": "29.975061302113033",
      "longitude": "-90.03466577575809"
    }
  },
  {
    "service_request": "2024-1097469",
    "request_type": "Trash/Recycling",
    "request_reason": "Request a Large Item Pick Up",
    "date_created": "2024-05-28T15:40:23.000",
    "date_modified": "2024-05-28T15:40:24.000",
    "request_status": "Pending",
    "responsible_agency": "Department of Sanitation",
    "final_address": "10816 Curran Rd",
    "address_councildis": "E",
    "status": "Assigned to Contractor",
    "contractor": "Waste Pro",
    "rowid": "1097469",
    "final_x": "3709925.87198",
    "final_y": "565682.515042",
    "longitude": "-89.97703566673633",
    "latitude": "30.04853583910742",
    "geocoded_column": {
      "latitude": "30.04853583910742",
      "longitude": "-89.97703566673633"
    }
  },
  {
    "service_request": "2024-1097468",
    "request_type": "Parks & Parkways",
    "request_reason": "Request Tree Service (Right of Way/Public Property)",
    "date_created": "2024-05-28T15:35:42.000",
    "date_modified": "2024-05-28T15:35:42.000",
    "request_status": "Pending",
    "responsible_agency": "Department of Parks & Parkway",
    "final_address": "3005 Jefferson Ave",
    "address_councildis": "B",
    "status": "Pending",
    "rowid": "1097468",
    "final_x": "3668523.71297",
    "final_y": "526386.35251",
    "longitude": "-90.10921807124596",
    "latitude": "29.941767436926444",
    "geocoded_column": {
      "latitude": "29.941767436926444",
      "longitude": "-90.10921807124596"
    }
  },
  {
    "service_request": "2024-1097467",
    "request_type": "Trash/Recycling",
    "request_reason": "Repair Trash Cart",
    "date_created": "2024-05-28T15:35:08.000",
    "date_modified": "2024-05-28T15:35:09.000",
    "request_status": "Pending",
    "responsible_agency": "Department of Sanitation",
    "final_address": "6753 Vicksburg St",
    "address_councildis": "A",
    "status": "Assigned to Contractor",
    "contractor": "IV Waste",
    "rowid": "1097467",
    "final_x": "3669423.04922",
    "final_y": "552361.228374",
    "longitude": "-90.10549991018152",
    "latitude": "30.013163119423027",
    "geocoded_column": {
      "latitude": "30.013163119423027",
      "longitude": "-90.10549991018152"
    }
  },
  {
    "service_request": "2024-1097466",
    "request_type": "Abandoned Vehicles",
    "request_reason": "Vehicle Blocking Your Driveway",
    "date_created": "2024-05-28T15:34:52.000",
    "date_modified": "2024-05-28T15:34:52.000",
    "request_status": "Pending",
    "responsible_agency": "Department of Public Works",
    "final_address": "1127 Ursulines Ave",
    "address_councildis": "C",
    "status": "Pending",
    "rowid": "1097466",
    "final_x": "3682095.0285",
    "final_y": "534716.530694",
    "longitude": "-90.06607980753628",
    "latitude": "29.96426697143177",
    "geocoded_column": {
      "latitude": "29.96426697143177",
      "longitude": "-90.06607980753628"
    }
  },
  {
    "service_request": "2024-1097465",
    "request_type": "Trash/Recycling",
    "request_reason": "Illegal Dumping",
    "date_created": "2024-05-28T15:34:31.000",
    "date_modified": "2024-05-28T15:34:32.000",
    "request_status": "Pending",
    "responsible_agency": "Department of Sanitation",
    "final_address": "341 N Galvez St",
    "address_councildis": "B",
    "status": "Pending",
    "rowid": "1097465",
    "final_x": "3677585.67726",
    "final_y": "534789.281094",
    "longitude": "-90.08031746125945",
    "latitude": "29.96460336982308",
    "geocoded_column": {
      "latitude": "29.96460336982308",
      "longitude": "-90.08031746125945"
    }
  },
  {
    "service_request": "2024-1097464",
    "request_type": "Tax and Revenue",
    "request_reason": "Occupational License Tax",
    "date_created": "2024-05-28T15:32:21.000",
    "date_modified": "2024-05-28T15:32:22.000",
    "request_status": "Pending",
    "responsible_agency": "Bureau of Revenue",
    "final_address": "100 BLK N Carrollton Ave",
    "address_councildis": "A",
    "status": "Pending",
    "rowid": "1097464",
    "final_x": "3671209.18871",
    "final_y": "538468.700081",
    "longitude": "-90.10032896944338",
    "latitude": "29.97491072585336",
    "geocoded_column": {
      "latitude": "29.97491072585336",
      "longitude": "-90.10032896944338"
    }
  },
  {
    "service_request": "2024-1097463",
    "request_type": "Abandoned Vehicles",
    "request_reason": "Abandoned/Junk Vehicles",
    "date_created": "2024-05-28T15:32:08.000",
    "date_modified": "2024-05-28T15:32:08.000",
    "request_status": "Pending",
    "responsible_agency": "Department of Public Works",
    "final_address": "2009 Burgundy St",
    "address_councildis": "C",
    "status": "Pending",
    "rowid": "1097463",
    "final_x": "3684385.84175",
    "final_y": "535559.164102",
    "longitude": "-90.05881602191565",
    "latitude": "29.966514059582998",
    "geocoded_column": {
      "latitude": "29.966514059582998",
      "longitude": "-90.05881602191565"
    }
  },
  {
    "service_request": "2024-1097462",
    "request_type": "Trash/Recycling",
    "request_reason": "Missed Trash Pick-Up",
    "date_created": "2024-05-28T15:30:12.000",
    "date_modified": "2024-05-28T15:44:32.000",
    "request_status": "Pending",
    "responsible_agency": "Department of Sanitation",
    "final_address": "3227 Lancaster St",
    "address_councildis": "C",
    "status": "Assigned to Contractor",
    "contractor": "Richards Disposal",
    "rowid": "1097462",
    "final_x": "3709898.13765",
    "final_y": "518735.304439",
    "longitude": "-89.97887727143639",
    "latitude": "29.919449543506563",
    "geocoded_column": {
      "latitude": "29.919449543506563",
      "longitude": "-89.97887727143639"
    }
  },
  {
    "service_request": "2024-1097461",
    "request_type": "Trash/Recycling",
    "request_reason": "Order Recycling Cart",
    "date_created": "2024-05-28T15:22:33.000",
    "date_modified": "2024-05-28T15:22:33.000",
    "request_status": "Pending",
    "responsible_agency": "Department of Sanitation",
    "final_address": "860 Filmore Ave",
    "address_councildis": "A",
    "status": "Pending",
    "rowid": "1097461",
    "final_x": "3670051.22055",
    "final_y": "551821.449686",
    "longitude": "-90.10353352276229",
    "latitude": "30.011660395076483",
    "geocoded_column": {
      "latitude": "30.011660395076483",
      "longitude": "-90.10353352276229"
    }
  },
  {
    "service_request": "2024-1097460",
    "request_type": "Trash/Recycling",
    "request_reason": "Order Trash Cart",
    "date_created": "2024-05-28T15:21:11.000",
    "date_modified": "2024-05-28T15:21:12.000",
    "request_status": "Pending",
    "responsible_agency": "Department of Sanitation",
    "final_address": "3117 Americus St",
    "address_councildis": "C",
    "status": "Assigned to Contractor",
    "contractor": "Richards Disposal",
    "rowid": "1097460",
    "final_x": "3695515.49546",
    "final_y": "524375.821116",
    "longitude": "-90.02407241490631",
    "latitude": "29.93541868498215",
    "geocoded_column": {
      "latitude": "29.93541868498215",
      "longitude": "-90.02407241490631"
    }
  },
  {
    "service_request": "2024-1097459",
    "request_type": "Trash/Recycling",
    "request_reason": "Request a Large Item Pick Up",
    "date_created": "2024-05-28T15:21:10.000",
    "date_modified": "2024-05-28T15:21:11.000",
    "request_status": "Pending",
    "responsible_agency": "Department of Sanitation",
    "final_address": "4922 Coliseum St",
    "address_councildis": "B",
    "status": "Assigned to Contractor",
    "contractor": "IV Waste",
    "rowid": "1097459",
    "final_x": "3668840.10926",
    "final_y": "519603.410616",
    "longitude": "-90.10844806470266",
    "latitude": "29.923107219693346",
    "geocoded_column": {
      "latitude": "29.923107219693346",
      "longitude": "-90.10844806470266"
    }
  },
  {
    "service_request": "2024-1097458",
    "request_type": "Trash/Recycling",
    "request_reason": "Request a Large Item Pick Up",
    "date_created": "2024-05-28T15:18:17.000",
    "date_modified": "2024-05-28T15:18:17.000",
    "request_status": "Pending",
    "responsible_agency": "Department of Sanitation",
    "final_address": "935 Royal St",
    "address_councildis": "C",
    "status": "Assigned to Contractor",
    "contractor": "Empire Services",
    "rowid": "1097458",
    "final_x": "3683151.89551",
    "final_y": "533294.610564",
    "longitude": "-90.06279210254618",
    "latitude": "29.960324997142965",
    "geocoded_column": {
      "latitude": "29.960324997142965",
      "longitude": "-90.06279210254618"
    }
  },
  {
    "service_request": "2024-1097457",
    "request_type": "Trash/Recycling",
    "request_reason": "Repair Recycling Cart",
    "date_created": "2024-05-28T15:17:34.000",
    "date_modified": "2024-05-28T15:17:35.000",
    "request_status": "Pending",
    "responsible_agency": "Department of Sanitation",
    "final_address": "7447 Pearl St",
    "address_councildis": "A",
    "status": "Pending",
    "rowid": "1097457",
    "final_x": "3662029.97555",
    "final_y": "525077.547709",
    "longitude": "-90.12976364328003",
    "latitude": "29.938357795759273",
    "geocoded_column": {
      "latitude": "29.938357795759273",
      "longitude": "-90.12976364328003"
    }
  },
  {
    "service_request": "2024-1097456",
    "request_type": "Trash/Recycling",
    "request_reason": "Repair Trash Cart",
    "date_created": "2024-05-28T15:17:07.000",
    "date_modified": "2024-05-28T15:17:08.000",
    "request_status": "Pending",
    "responsible_agency": "Department of Sanitation",
    "final_address": "7447 Pearl St",
    "address_councildis": "A",
    "status": "Assigned to Contractor",
    "contractor": "IV Waste",
    "rowid": "1097456",
    "final_x": "3662029.97555",
    "final_y": "525077.547709",
    "longitude": "-90.12976364328003",
    "latitude": "29.938357795759273",
    "geocoded_column": {
      "latitude": "29.938357795759273",
      "longitude": "-90.12976364328003"
    }
  },
  {
    "service_request": "2024-1097455",
    "request_type": "Abandoned Vehicles",
    "request_reason": "Abandoned/Junk Vehicles",
    "date_created": "2024-05-28T15:16:59.000",
    "date_modified": "2024-05-28T15:20:07.000",
    "request_status": "Pending",
    "responsible_agency": "Department of Public Works",
    "final_address": "1633 St Roch Ave",
    "address_councildis": "D",
    "status": "Pending",
    "rowid": "1097455",
    "final_x": "3686397.91183",
    "final_y": "538562.336585",
    "longitude": "-90.05235591672172",
    "latitude": "29.97471004417599",
    "geocoded_column": {
      "latitude": "29.97471004417599",
      "longitude": "-90.05235591672172"
    }
  },
  {
    "service_request": "2024-1097454",
    "request_type": "Trash/Recycling",
    "request_reason": "Repair Recycling Cart",
    "date_created": "2024-05-28T15:16:12.000",
    "date_modified": "2024-05-28T15:16:13.000",
    "request_status": "Pending",
    "responsible_agency": "Department of Sanitation",
    "final_address": "7445 Pearl St",
    "address_councildis": "A",
    "status": "Pending",
    "rowid": "1097454",
    "final_x": "3662043.55776",
    "final_y": "525061.352317",
    "longitude": "-90.12972129978229",
    "latitude": "29.93831287127185",
    "geocoded_column": {
      "latitude": "29.93831287127185",
      "longitude": "-90.12972129978229"
    }
  },
  {
    "service_request": "2024-1097453",
    "request_type": "Trash/Recycling",
    "request_reason": "Request a Large Item Pick Up",
    "date_created": "2024-05-28T15:16:11.000",
    "date_modified": "2024-05-28T15:16:11.000",
    "request_status": "Pending",
    "responsible_agency": "Department of Sanitation",
    "final_address": "4042 Baudin St",
    "address_councildis": "A",
    "status": "Assigned to Contractor",
    "contractor": "IV Waste",
    "rowid": "1097453",
    "final_x": "3670239.9058",
    "final_y": "536934.988744",
    "longitude": "-90.10344221127919",
    "latitude": "29.97072217963032",
    "geocoded_column": {
      "latitude": "29.97072217963032",
      "longitude": "-90.10344221127919"
    }
  },