[
  {
    "service_request": "2025-1234792",
    "request_type": "Health Related Request",
    "request_reason": "Noise Ordinance Complaint",
    "date_created": "2025-10-20T23:17:44.000",
    "date_modified": "2025-10-20T23:17:46.000",
    "request_status": "Pending",
    "responsible_agency": "Health Department",
    "final_address": "1125 St Mary St, New Orleans, LA 70130",
    "address_councildis": "B",
    "status": "Pending",
    "rowid": "1234792",
    "final_x": "3679627.88693",
    "final_y": "522996.446651",
    "longitude": "-90.07427751582154",
    "latitude": "29.932115459558396",
    "geocoded_column": {
      "latitude": "29.932115459558396",
      "longitude": "-90.07427751582154"
    }
  },
  {
    "service_request": "2025-1234791",
    "request_type": "Streetlights",
    "request_reason": "Streetlight Outage/Malfunction",
    "date_created": "2025-10-20T22:39:56.000",
    "date_modified": "2025-10-20T22:39:58.000",
    "request_status": "Pending",
    "responsible_agency": "Department of Public Works",
    "final_address": "8600 BLK Aberdeen Rd",
    "address_councildis": "E",
    "status": "Pending",
    "rowid": "1234791",
    "final_x": "3704431.04123",
    "final_y": "562151.614329",
    "longitude": "-89.99453280811106",
    "latitude": "30.039004952364156",
    "geocoded_column": {
      "latitude": "30.039004952364156",
      "longitude": "-89.99453280811106"
    }
  },
  {
    "service_request": "2025-1234790",
    "request_type": "Roads and Streets",
    "request_reason": "Street Subsidence (Sinking)",
    "date_created": "2025-10-20T22:30:45.000",
    "date_modified": "2025-10-20T22:30:47.000",
    "request_status": "Pending",
    "responsible_agency": "Sewerage & Water Board",
    "final_address": "1524 Port St",
    "address_councildis": "C",
    "status": "Pending",
    "rowid": "1234790",
    "final_x": "3687816.01564",
    "final_y": "538060.539017",
    "longitude": "-90.04789498377589",
    "latitude": "29.973286609464438",
    "geocoded_column": {
      "latitude": "29.973286609464438",
      "longitude": "-90.04789498377589"
    }
  },
  {
    "service_request": "2025-1234789",
    "request_type": "Roads and Streets",
    "request_reason": "Street Subsidence (Sinking)",
    "date_created": "2025-10-20T22:24:11.000",
    "date_modified": "2025-10-20T22:24:13.000",
    "request_status": "Pending",
    "responsible_agency": "Sewerage & Water Board",
    "final_address": "1524 Port St",
    "address_councildis": "C",
    "status": "Pending",
    "rowid": "1234789",
    "final_x": "3687816.01564",
    "final_y": "538060.539017",
    "longitude": "-90.04789498377589",
    "latitude": "29.973286609464438",
    "geocoded_column": {
      "latitude": "29.973286609464438",
      "longitude": "-90.04789498377589"
    }
  },
  {
    "service_request": "2025-1234788",
    "request_type": "Streetlights",
    "request_reason": "Streetlight Outage/Malfunction",
    "date_created": "2025-10-20T22:14:51.000",
    "date_modified": "2025-10-20T22:14:54.000",
    "request_status": "Pending",
    "responsible_agency": "Department of Public Works",
    "final_address": "7298 Canal Blvd",
    "address_councildis": "D",
    "status": "Pending",
    "rowid": "1234788",
    "final_x": "3669077.43681",
    "final_y": "555511.178649",
    "longitude": "-90.1064853064145",
    "latitude": "30.02183454549503",
    "geocoded_column": {
      "latitude": "30.02183454549503",
      "longitude": "-90.1064853064145"
    }
  },
  {
    "service_request": "2025-1234787",
    "request_type": "Streetlights",
    "request_reason": "Streetlight Outage/Malfunction",
    "date_created": "2025-10-20T22:11:53.000",
    "date_modified": "2025-10-20T22:11:55.000",
    "request_status": "Pending",
    "responsible_agency": "Department of Public Works",
    "final_address": "7266 Ring St",
    "address_councildis": "D",
    "status": "Pending",
    "rowid": "1234787",
    "final_x": "3669051.37185",
    "final_y": "555138.465305",
    "longitude": "-90.106580273565",
    "latitude": "30.020810483768894",
    "geocoded_column": {
      "latitude": "30.020810483768894",
      "longitude": "-90.106580273565"
    }
  },
  {
    "service_request": "2025-1234786",
    "request_type": "Road Striping",
    "request_reason": "Lane Striping or other Pavement Markings",
    "date_created": "2025-10-20T21:17:51.000",
    "date_modified": "2025-10-20T21:17:53.000",
    "request_status": "Pending",
    "responsible_agency": "Department of Public Works",
    "final_address": "531 Belleville St",
    "address_councildis": "C",
    "status": "Pending",
    "rowid": "1234786",
    "final_x": "3687794.24777",
    "final_y": "529671.020737",
    "longitude": "-90.04826088396355",
    "latitude": "29.950219015319774",
    "geocoded_column": {
      "latitude": "29.950219015319774",
      "longitude": "-90.04826088396355"
    }
  },
  {
    "service_request": "2025-1234785",
    "request_type": "Trash/Recycling",
    "request_reason": "Request a Large Item Pick Up",
    "date_created": "2025-10-20T20:52:17.000",
    "date_modified": "2025-10-20T20:52:19.000",
    "request_status": "Pending",
    "responsible_agency": "Department of Sanitation",
    "final_address": "1207 France St",
    "address_councildis": "D",
    "status": "Assigned to Contractor",
    "contractor": "IV Waste",
    "rowid": "1234785",
    "final_x": "3692529.84361",
    "final_y": "535578.38311",
    "longitude": "-90.03309677360788",
    "latitude": "29.9663153125797",
    "geocoded_column": {
      "latitude": "29.9663153125797",
      "longitude": "-90.03309677360788"
    }
  },
  {
    "service_request": "2025-1234784",
    "request_type": "Abandoned Vehicles",
    "request_reason": "Abandoned/Junk Vehicles",
    "date_created": "2025-10-20T20:06:41.000",
    "date_modified": "2025-10-20T20:06:42.000",
    "request_status": "Pending",
    "responsible_agency": "Department of Public Works",
    "final_address": "13020 Ashland Dr",
    "address_councildis": "E",
    "status": "Pending",
    "rowid": "1234784",
    "final_x": "3717576.75954",
    "final_y": "567553.200996",
    "longitude": "-89.95278343391202",
    "latitude": "30.053428228146448",
    "geocoded_column": {
      "latitude": "30.053428228146448",
      "longitude": "-89.95278343391202"
    }
  },
  {
    "service_request": "2025-1234783",
    "request_type": "Streetlights",
    "request_reason": "Streetlight Outage/Malfunction",
    "date_created": "2025-10-20T20:06:11.000",
    "date_modified": "2025-10-20T20:06:13.000",
    "request_status": "Pending",
    "responsible_agency": "Department of Public Works",
    "final_address": "6959 Canal Blvd",
    "address_councildis": "A",
    "status": "Pending",
    "rowid": "1234783",
    "final_x": "3669231.66388",
    "final_y": "553772.636311",
    "longitude": "-90.1060568251218",
    "latitude": "30.017049630181123",
    "geocoded_column": {
      "latitude": "30.017049630181123",
      "longitude": "-90.1060568251218"
    }
  },
  {
    "service_request": "2025-1234782",
    "request_type": "Trash/Recycling",
    "request_reason": "Request a Large Item Pick Up",
    "date_created": "2025-10-20T19:40:23.000",
    "date_modified": "2025-10-20T19:40:26.000",
    "request_status": "Pending",
    "responsible_agency": "Department of Sanitation",
    "final_address": "3411 Coliseum St",
    "address_councildis": "B",
    "status": "Assigned to Contractor",
    "contractor": "IV Waste",
    "rowid": "1234782",
    "final_x": "3674419.98766",
    "final_y": "520548.178488",
    "longitude": "-90.09080216983864",
    "latitude": "29.925539835465116",
    "geocoded_column": {
      "latitude": "29.925539835465116",
      "longitude": "-90.09080216983864"
    }
  },
  {
    "service_request": "2025-1234781",
    "request_type": "Abandoned Vehicles",
    "request_reason": "Abandoned/Junk Vehicles",
    "date_created": "2025-10-20T19:26:17.000",
    "date_modified": "2025-10-20T19:26:19.000",
    "request_status": "Pending",
    "responsible_agency": "Department of Public Works",
    "final_address": "3922 Orleans Ave",
    "address_councildis": "A",
    "status": "Pending",
    "rowid": "1234781",
    "final_x": "3673036.30766",
    "final_y": "539743.82241",
    "longitude": "-90.09451491299906",
    "latitude": "29.978362690545385",
    "geocoded_column": {
      "latitude": "29.978362690545385",
      "longitude": "-90.09451491299906"
    }
  },
  {
    "service_request": "2025-1234780",
    "request_type": "Streetlights",
    "request_reason": "Streetlight Outage/Malfunction",
    "date_created": "2025-10-20T19:07:53.000",
    "date_modified": "2025-10-20T19:07:55.000",
    "request_status": "Pending",
    "responsible_agency": "Department of Public Works",
    "final_address": "318 Leboeuf St",
    "address_councildis": "C",
    "status": "Pending",
    "rowid": "1234780",
    "final_x": "3689929.41308",
    "final_y": "530505.571906",
    "longitude": "-90.04148947112225",
    "latitude": "29.952447727017756",
    "geocoded_column": {
      "latitude": "29.952447727017756",
      "longitude": "-90.04148947112225"
    }
  },
  {
    "service_request": "2025-1234779",
    "request_type": "Trash/Recycling",
    "request_reason": "Request a Large Item Pick Up",
    "date_created": "2025-10-20T19:01:31.000",
    "date_modified": "2025-10-20T19:01:34.000",
    "request_status": "Pending",
    "responsible_agency": "Department of Sanitation",
    "final_address": "24 Honeysuckle Ln",
    "address_councildis": "E",
    "status": "Assigned to Contractor",
    "contractor": "Waste Pro",
    "rowid": "1234779",
    "final_x": "3712961.00754",
    "final_y": "568464.182373",
    "longitude": "-89.96733815201188",
    "latitude": "30.0560851586808",
    "geocoded_column": {
      "latitude": "30.0560851586808",
      "longitude": "-89.96733815201188"
    }
  },
  {
    "service_request": "2025-1234778",
    "request_type": "Trash/Recycling",
    "request_reason": "Missed Trash Pick-Up",
    "date_created": "2025-10-20T18:41:57.000",
    "date_modified": "2025-10-20T18:42:00.000",
    "request_status": "Pending",
    "responsible_agency": "Department of Sanitation",
    "final_address": "4615 Painters St., New Orleans, LA",
    "address_councildis": "D",
    "status": "Assigned to Contractor",
    "contractor": "IV Waste",
    "rowid": "1234778",
    "final_x": "3686356.42255",
    "final_y": "549761.84546",
    "longitude": "-90.0520914449711",
    "latitude": "30.005505970927153",
    "geocoded_column": {
      "latitude": "30.005505970927153",
      "longitude": "-90.0520914449711"
    }
  },
  {
    "service_request": "2025-1234777",
    "request_type": "Abandoned Vehicles",
    "request_reason": "Abandoned/Junk Vehicles",
    "date_created": "2025-10-20T18:27:01.000",
    "date_modified": "2025-10-20T18:27:03.000",
    "request_status": "Pending",
    "responsible_agency": "Department of Public Works",
    "final_address": "1921 Foucher St",
    "address_councildis": "B",
    "status": "Pending",
    "rowid": "1234777",
    "final_x": "3673111.97019",
    "final_y": "522499.321786",
    "longitude": "-90.09486461549204",
    "latitude": "29.93094378764621",
    "geocoded_column": {
      "latitude": "29.93094378764621",
      "longitude": "-90.09486461549204"
    }
  },
  {
    "service_request": "2025-1234776",
    "request_type": "Trash/Recycling",
    "request_reason": "Replace Recycling Cart",
    "date_created": "2025-10-20T18:23:47.000",
    "date_modified": "2025-10-20T18:23:49.000",
    "request_status": "Pending",
    "responsible_agency": "Department of Sanitation",
    "final_address": "926 N Rendon St",
    "address_councildis": "A",
    "status": "Pending",
    "rowid": "1234776",
    "final_x": "3675593.02702",
    "final_y": "539023.159882",
    "longitude": "-90.08646462279796",
    "latitude": "29.97630486240662",
    "geocoded_column": {
      "latitude": "29.97630486240662",
      "longitude": "-90.08646462279796"
    }
  },
  {
    "service_request": "2025-1234775",
    "request_type": "Street and Traffic Signs",
    "request_reason": "Stop Sign Missing or Damaged",
    "date_created": "2025-10-20T17:08:11.000",
    "date_modified": "2025-10-20T17:08:12.000",
    "request_status": "Pending",
    "responsible_agency": "Department of Public Works",
    "final_address": "3136 Robert St",
    "address_councildis": "B",
    "status": "Pending",
    "rowid": "1234775",
    "final_x": "3668874.005",
    "final_y": "526907.452222",
    "longitude": "-90.10809453166006",
    "latitude": "29.94318999791984",
    "geocoded_column": {
      "latitude": "29.94318999791984",
      "longitude": "-90.10809453166006"
    }
  },
  {
    "service_request": "2025-1234774",
    "request_type": "Streetlights",
    "request_reason": "Streetlight Outage/Malfunction",
    "date_created": "2025-10-20T17:07:34.000",
    "date_modified": "2025-10-20T17:07:36.000",
    "request_status": "Pending",
    "responsible_agency": "Department of Public Works",
    "final_address": "4900 BLK Perrier St",
    "address_councildis": "B",
    "status": "Pending",
    "rowid": "1234774",
    "final_x": "3668859.33219",
    "final_y": "519883.695913",
    "longitude": "-90.10837792669895",
    "latitude": "29.92387735040818",
    "geocoded_column": {
      "latitude": "29.92387735040818",
      "longitude": "-90.10837792669895"
    }
  },
  {
    "service_request": "2025-1234773",
    "request_type": "Street and Traffic Signs",
    "request_reason": "Stop Sign Missing or Damaged",
    "date_created": "2025-10-20T17:01:34.000",
    "date_modified": "2025-10-20T17:01:36.000",
    "request_status": "Pending",
    "responsible_agency": "Department of Public Works",
    "final_address": "4600 S Prieur St",
    "address_councildis": "B",
    "status": "Pending",
    "rowid": "1234773",
    "final_x": "3669465.75258",
    "final_y": "526785.365758",
    "longitude": "-90.10623035877396",
    "latitude": "29.94283688791381",
    "geocoded_column": {
      "latitude": "29.94283688791381",
      "longitude": "-90.10623035877396"
    }
  },
  {
    "service_request": "2025-1234772",
    "request_type": "Trash/Recycling",
    "request_reason": "Order Recycling Cart",
    "date_created": "2025-10-20T16:56:28.000",
    "date_modified": "2025-10-20T16:56:30.000",
    "request_status": "Pending",
    "responsible_agency": "Department of Sanitation",
    "final_address": "4756 Viola St",
    "address_councildis": "E",
    "status": "Pending",
    "rowid": "1234772",
    "final_x": "3703911.54378",
    "final_y": "555281.329049",
    "longitude": "-89.9964278792315",
    "latitude": "30.020131020522044",
    "geocoded_column": {
      "latitude": "30.020131020522044",
      "longitude": "-89.9964278792315"
    }
  },
  {
    "service_request": "2025-1234771",
    "request_type": "Trash/Recycling",
    "request_reason": "Order Trash Cart",
    "date_created": "2025-10-20T16:56:06.000",
    "date_modified": "2025-10-20T16:56:08.000",
    "request_status": "Pending",
    "responsible_agency": "Department of Sanitation",
    "final_address": "4756 Viola St",
    "address_councildis": "E",
    "status": "Assigned to Contractor",
    "contractor": "Waste Pro",
    "rowid": "1234771",
    "final_x": "3703911.54378",
    "final_y": "555281.329049",
    "longitude": "-89.9964278792315",
    "latitude": "30.020131020522044",
    "geocoded_column": {
      "latitude": "30.020131020522044",
      "longitude": "-89.9964278792315"
    }
  },
  {
    "service_request": "2025-1234770",
    "request_type": "Trash/Recycling",
    "request_reason": "Request a Large Item Pick Up",
    "date_created": "2025-10-20T16:53:19.000",
    "date_modified": "2025-10-20T16:53:21.000",
    "request_status": "Pending",
    "responsible_agency": "Department of Sanitation",
    "final_address": "1523 St Philip St",
    "address_councildis": "C",
    "status": "Assigned to Contractor",
    "contractor": "IV Waste",
    "rowid": "1234770",
    "final_x": "3680858.64847",
    "final_y": "535207.564358",
    "longitude": "-90.0699670947671",
    "latitude": "29.965654686514736",
    "geocoded_column": {
      "latitude": "29.965654686514736",
      "longitude": "-90.0699670947671"
    }
  },
  {
    "service_request": "2025-1234769",
    "request_type": "Trash/Recycling",
    "request_reason": "Replace Trash Cart",
    "date_created": "2025-10-20T16:46:05.000",
    "date_modified": "2025-10-20T16:46:07.000",
    "request_status": "Pending",
    "responsible_agency": "Department of Sanitation",
    "final_address": "4642 Anson St",
    "address_councildis": "C",
    "status": "Assigned to Contractor",
    "contractor": "Richards Disposal",
    "rowid": "1234769",
    "final_x": "3702442.5169",
    "final_y": "521612.749881",
    "longitude": "-90.00230526095444",
    "latitude": "29.927601748459402",
    "geocoded_column": {
      "latitude": "29.927601748459402",
      "longitude": "-90.00230526095444"
    }
  },
  {
    "service_request": "2025-1234768",
    "request_type": "Abandoned Vehicles",
    "request_reason": "Abandoned/Junk Vehicles",
    "date_created": "2025-10-20T16:45:21.000",
    "date_modified": "2025-10-20T16:45:23.000",
    "request_status": "Pending",
    "responsible_agency": "Department of Public Works",
    "final_address": "0 BLK Audubon Blvd",
    "address_councildis": "A",
    "status": "Pending",
    "rowid": "1234768",
    "final_x": "3665405.01594",
    "final_y": "526946.754949",
    "longitude": "-90.11904572932777",
    "latitude": "29.94339960723005",
    "geocoded_column": {
      "latitude": "29.94339960723005",
      "longitude": "-90.11904572932777"
    }
  },
  {
    "service_request": "2025-1234767",
    "request_type": "Trash/Recycling",
    "request_reason": "Missed Trash Pick-Up",
    "date_created": "2025-10-20T16:40:34.000",
    "date_modified": "2025-10-20T17:43:35.000",
    "case_close_date": "2025-10-20T12:43:34.000",
    "request_status": "Closed",
    "responsible_agency": "Department of Sanitation",
    "final_address": "25514 Chef Menteur Hwy, New Orleans, Louisiana, 70129",
    "address_councildis": "E",
    "status": "Invalid Request",
    "contractor": "Waste Pro",
    "contractor_action": "Invalid",
    "rowid": "1234767",
    "final_x": "3780531.0707",
    "final_y": "599748.723906",
    "longitude": "-89.7524039382491",
    "latitude": "30.13971413555277",
    "geocoded_column": {
      "latitude": "30.13971413555277",
      "longitude": "-89.7524039382491"
    }
  },
  {
    "service_request": "2025-1234766",
    "request_type": "Trash/Recycling",
    "request_reason": "Order Recycling Cart",
    "date_created": "2025-10-20T16:36:08.000",
    "date_modified": "2025-10-20T16:36:10.000",
    "request_status": "Pending",
    "responsible_agency": "Department of Sanitation",
    "final_address": "2020 Halsey Ave",
    "address_councildis": "C",
    "status": "Pending",
    "rowid": "1234766",
    "final_x": "3697806.92087",
    "final_y": "523480.754235",
    "longitude": "-90.01687088048538",
    "latitude": "29.932885368406335",
    "geocoded_column": {
      "latitude": "29.932885368406335",
      "longitude": "-90.01687088048538"
    }
  },
  {
    "service_request": "2025-1234765",
    "request_type": "Trash/Recycling",
    "request_reason": "Repair Trash Cart",
    "date_created": "2025-10-20T16:35:03.000",
    "date_modified": "2025-10-20T16:35:06.000",
    "request_status": "Pending",
    "responsible_agency": "Department of Sanitation",
    "final_address": "2020 Halsey Ave",
    "address_councildis": "C",
    "status": "Assigned to Contractor",
    "contractor": "Richards Disposal",
    "rowid": "1234765",
    "final_x": "3697806.92087",
    "final_y": "523480.754235",
    "longitude": "-90.01687088048538",
    "latitude": "29.932885368406335",
    "geocoded_column": {
      "latitude": "29.932885368406335",
      "longitude": "-90.01687088048538"
    }
  },
  {
    "service_request": "2025-1234764",
    "request_type": "Parks & Parkways",
    "request_reason": "Request Tree Service (Right of Way/Public Property)",
    "date_created": "2025-10-20T16:34:05.000",
    "date_modified": "2025-10-20T16:34:06.000",
    "request_status": "Pending",
    "responsible_agency": "Department of Parks & Parkway",
    "final_address": "2552 Lavender St",
    "address_councildis": "D",
    "status": "Pending",
    "rowid": "1234764",
    "final_x": "3686789.89327",
    "final_y": "546872.024593",
    "longitude": "-90.05082420244324",
    "latitude": "29.997546675431074",
    "geocoded_column": {
      "latitude": "29.997546675431074",
      "longitude": "-90.05082420244324"
    }
  },
  {
    "service_request": "2025-1234763",
    "request_type": "Parks & Parkways",
    "request_reason": "Request Tree Service (Right of Way/Public Property)",
    "date_created": "2025-10-20T16:32:55.000",
    "date_modified": "2025-10-20T16:32:58.000",
    "request_status": "Pending",
    "responsible_agency": "Department of Parks & Parkway",
    "final_address": "822 N Robertson St",
    "address_councildis": "C",
    "status": "Pending",
    "rowid": "1234763",
    "final_x": "3680430.86216",
    "final_y": "534787.049734",
    "longitude": "-90.07133265283507",
    "latitude": "29.964511377267353",
    "geocoded_column": {
      "latitude": "29.964511377267353",
      "longitude": "-90.07133265283507"
    }
  },
  {
    "service_request": "2025-1234762",
    "request_type": "Roads and Streets",
    "request_reason": "Push-up/Pavement Expansion",
    "date_created": "2025-10-20T16:31:35.000",
    "date_modified": "2025-10-20T16:31:37.000",
    "request_status": "Pending",
    "responsible_agency": "Department of Public Works",
    "final_address": "801 Race St",
    "address_councildis": "B",
    "status": "Pending",
    "rowid": "1234762",
    "final_x": "3681305.7437",
    "final_y": "523682.401915",
    "longitude": "-90.06895679756705",
    "latitude": "29.933950809193036",
    "geocoded_column": {
      "latitude": "29.933950809193036",
      "longitude": "-90.06895679756705"
    }
  },
  {
    "service_request": "2025-1234761",
    "request_type": "Streetlights",
    "request_reason": "Streetlight Outage/Malfunction",
    "date_created": "2025-10-20T16:30:14.000",
    "date_modified": "2025-10-20T16:30:16.000",
    "request_status": "Pending",
    "responsible_agency": "Department of Public Works",
    "final_address": "3740 Mansfield Ave",
    "address_councildis": "C",
    "status": "Pending",
    "rowid": "1234761",
    "final_x": "3708961.49707",
    "final_y": "517139.345077",
    "longitude": "-89.98189316502413",
    "latitude": "29.915091622159395",
    "geocoded_column": {
      "latitude": "29.915091622159395",
      "longitude": "-89.98189316502413"
    }
  },
  {
    "service_request": "2025-1234760",
    "request_type": "Trash/Recycling",
    "request_reason": "Order Recycling Cart",
    "date_created": "2025-10-20T16:29:49.000",
    "date_modified": "2025-10-20T16:29:51.000",
    "request_status": "Pending",
    "responsible_agency": "Department of Sanitation",
    "final_address": "514 Harrison Ave",
    "address_councildis": "A",
    "status": "Pending",
    "rowid": "1234760",
    "final_x": "3668054.43201",
    "final_y": "549203.835987",
    "longitude": "-90.10993053307449",
    "latitude": "30.00452164828683",
    "geocoded_column": {
      "latitude": "30.00452164828683",
      "longitude": "-90.10993053307449"
    }
  },
  {
    "service_request": "2025-1234759",
    "request_type": "Trash/Recycling",
    "request_reason": "Request a Large Item Pick Up",
    "date_created": "2025-10-20T16:28:39.000",
    "date_modified": "2025-10-20T16:28:41.000",
    "request_status": "Pending",
    "responsible_agency": "Department of Sanitation",
    "final_address": "514 Harrison Ave",
    "address_councildis": "A",
    "status": "Assigned to Contractor",
    "contractor": "IV Waste",
    "rowid": "1234759",
    "final_x": "3668054.43201",
    "final_y": "549203.835987",
    "longitude": "-90.10993053307449",
    "latitude": "30.00452164828683",
    "geocoded_column": {
      "latitude": "30.00452164828683",
      "longitude": "-90.10993053307449"
    }
  },
  {
    "service_request": "2025-1234758",
    "request_type": "Trash/Recycling",
    "request_reason": "Request a Large Item Pick Up",
    "date_created": "2025-10-20T16:27:28.000",
    "date_modified": "2025-10-20T16:27:30.000",
    "request_status": "Pending",
    "responsible_agency": "Department of Sanitation",
    "final_address": "4746 Western St",
    "address_councildis": "D",
    "status": "Assigned to Contractor",
    "contractor": "IV Waste",
    "rowid": "1234758",
    "final_x": "3684025.66684",
    "final_y": "550470.55426",
    "longitude": "-90.05942991935143",
    "latitude": "30.007526118232914",
    "geocoded_column": {
      "latitude": "30.007526118232914",
      "longitude": "-90.05942991935143"
    }
  },
  {
    "service_request": "2025-1234757",
    "request_type": "Streetlights",
    "request_reason": "Streetlight Outage/Malfunction",
    "date_created": "2025-10-20T16:24:09.000",
    "date_modified": "2025-10-20T16:24:11.000",
    "request_status": "Pending",
    "responsible_agency": "Department of Public Works",
    "final_address": "4800 BLK Viola St",
    "address_councildis": "E",
    "status": "Pending",
    "rowid": "1234757",
    "final_x": "3703884.50131",
    "final_y": "555906.678657",
    "longitude": "-89.99649027158401",
    "latitude": "30.021851358545018",
    "geocoded_column": {
      "latitude": "30.021851358545018",
      "longitude": "-89.99649027158401"
    }
  },
  {
    "service_request": "2025-1234756",
    "request_type": "Trash/Recycling",
    "request_reason": "Request a Large Item Pick Up",
    "date_created": "2025-10-20T16:21:02.000",
    "date_modified": "2025-10-20T16:21:12.000",
    "request_status": "Pending",
    "responsible_agency": "Department of Sanitation",
    "final_address": "14618 Curran Rd",
    "address_councildis": "E",
    "status": "Assigned to Contractor",
    "contractor": "Waste Pro",
    "rowid": "1234756",
    "final_x": "3719930.60204",
    "final_y": "573438.835114",
    "longitude": "-89.9451182638071",
    "latitude": "30.069533071766937",
    "geocoded_column": {
      "latitude": "30.069533071766937",
      "longitude": "-89.9451182638071"
    }
  },
  {
    "service_request": "2025-1234755",
    "request_type": "Parks & Parkways",
    "request_reason": "Request Tree Service (Right of Way/Public Property)",
    "date_created": "2025-10-20T16:20:19.000",
    "date_modified": "2025-10-20T16:20:20.000",
    "request_status": "Pending",
    "responsible_agency": "Department of Parks & Parkway",
    "final_address": "2558 Lavender St",
    "address_councildis": "D",
    "status": "Pending",
    "rowid": "1234755",
    "final_x": "3686829.3135",
    "final_y": "546883.434065",
    "longitude": "-90.0506992719201",
    "latitude": "29.997576834109065",
    "geocoded_column": {
      "latitude": "29.997576834109065",
      "longitude": "-90.0506992719201"
    }
  },
  {
    "service_request": "2025-1234754",
    "request_type": "Trash/Recycling",
    "request_reason": "Request a Large Item Pick Up",
    "date_created": "2025-10-20T16:17:03.000",
    "date_modified": "2025-10-20T16:17:05.000",
    "request_status": "Pending",
    "responsible_agency": "Department of Sanitation",
    "final_address": "513 Andry St",
    "address_councildis": "E",
    "status": "Assigned to Contractor",
    "contractor": "Waste Pro",
    "rowid": "1234754",
    "final_x": "3696649.57328",
    "final_y": "531924.812995",
    "longitude": "-90.02021903259171",
    "latitude": "29.95614010373435",
    "geocoded_column": {
      "latitude": "29.95614010373435",
      "longitude": "-90.02021903259171"
    }
  },
  {
    "service_request": "2025-1234753",
    "request_type": "Abandoned Vehicles",
    "request_reason": "Abandoned/Junk Vehicles",
    "date_created": "2025-10-20T16:16:43.000",
    "date_modified": "2025-10-20T16:16:45.000",
    "request_status": "Pending",
    "responsible_agency": "Department of Public Works",
    "final_address": "4500 BLK Hickerson Dr",
    "address_councildis": "E",
    "status": "Pending",
    "rowid": "1234753",
    "final_x": "3710499.46742",
    "final_y": "554518.727036",
    "longitude": "-89.97564086239218",
    "latitude": "30.017821168766478",
    "geocoded_column": {
      "latitude": "30.017821168766478",
      "longitude": "-89.97564086239218"
    }
  },
  {
    "service_request": "2025-1234752",
    "request_type": "Trash/Recycling",
    "request_reason": "Repair Recycling Cart",
    "date_created": "2025-10-20T16:05:12.000",
    "date_modified": "2025-10-20T16:05:14.000",
    "request_status": "Pending",
    "responsible_agency": "Department of Sanitation",
    "final_address": "1453 Annunciation St",
    "address_councildis": "B",
    "status": "Pending",
    "rowid": "1234752",
    "final_x": "3681003.24424",
    "final_y": "523892.371324",
    "longitude": "-90.06990446635061",
    "latitude": "29.934537330361564",
    "geocoded_column": {
      "latitude": "29.934537330361564",
      "longitude": "-90.06990446635061"
    }
  },
  {
    "service_request": "2025-1234751",
    "request_type": "Trash/Recycling",
    "request_reason": "Repair Trash Cart",
    "date_created": "2025-10-20T16:02:18.000",
    "date_modified": "2025-10-20T16:02:20.000",
    "request_status": "Pending",
    "responsible_agency": "Department of Sanitation",
    "final_address": "1453 Annunciation St",
    "address_councildis": "B",
    "status": "Assigned to Contractor",
    "contractor": "IV Waste",
    "rowid": "1234751",
    "final_x": "3681003.24424",
    "final_y": "523892.371324",
    "longitude": "-90.06990446635061",
    "latitude": "29.934537330361564",
    "geocoded_column": {
      "latitude": "29.934537330361564",
      "longitude": "-90.06990446635061"
    }
  },
  {
    "service_request": "2025-1234750",
    "request_type": "Trash/Recycling",
    "request_reason": "Request a Large Item Pick Up",
    "date_created": "2025-10-20T16:01:56.000",
    "date_modified": "2025-10-20T16:01:57.000",
    "request_status": "Pending",
    "responsible_agency": "Department of Sanitation",
    "final_address": "11211 Woodvine Ln",
    "address_councildis": "E",
    "status": "Assigned to Contractor",
    "contractor": "Waste Pro",
    "rowid": "1234750",
    "final_x": "3716310.526",
    "final_y": "559768.970589",
    "longitude": "-89.9570811372223",
    "latitude": "30.03206664381339",
    "geocoded_column": {
      "latitude": "30.03206664381339",
      "longitude": "-89.9570811372223"
    }
  },
  {
    "service_request": "2025-1234749",
    "request_type": "Trash/Recycling",
    "request_reason": "Order Trash Cart",
    "date_created": "2025-10-20T15:58:49.000",
    "date_modified": "2025-10-20T15:58:52.000",
    "request_status": "Pending",
    "responsible_agency": "Department of Sanitation",
    "final_address": "1707 Lawrence St",
    "address_councildis": "C",
    "status": "Assigned to Contractor",
    "contractor": "Richards Disposal",
    "rowid": "1234749",
    "final_x": "3690772.20726",
    "final_y": "525499.804541",
    "longitude": "-90.03900686276285",
    "latitude": "29.93865743081971",
    "geocoded_column": {
      "latitude": "29.93865743081971",
      "longitude": "-90.03900686276285"
    }
  },
  {
    "service_request": "2025-1234748",
    "request_type": "Trash/Recycling",
    "request_reason": "Repair Trash Cart",
    "date_created": "2025-10-20T15:56:07.000",
    "date_modified": "2025-10-20T15:56:09.000",
    "request_status": "Pending",
    "responsible_agency": "Department of Sanitation",
    "final_address": "616 Sixth St",
    "address_councildis": "B",
    "status": "Assigned to Contractor",
    "contractor": "IV Waste",
    "rowid": "1234748",
    "final_x": "3677513.93486",
    "final_y": "519130.305271",
    "longitude": "-90.08108443967728",
    "latitude": "29.921548528515974",
    "geocoded_column": {
      "latitude": "29.921548528515974",
      "longitude": "-90.08108443967728"
    }
  },
  {
    "service_request": "2025-1234747",
    "request_type": "Trash/Recycling",
    "request_reason": "Replace Trash Cart",
    "date_created": "2025-10-20T15:53:42.000",
    "date_modified": "2025-10-20T15:53:44.000",
    "request_status": "Pending",
    "responsible_agency": "Department of Sanitation",
    "final_address": "4917 Alcee Fortier Blvd",
    "address_councildis": "E",
    "status": "Assigned to Contractor",
    "contractor": "Waste Pro",
    "rowid": "1234747",
    "final_x": "3730253.78541",
    "final_y": "562918.103584",
    "longitude": "-89.9128968997546",
    "latitude": "30.040257598594373",
    "geocoded_column": {
      "latitude": "30.040257598594373",
      "longitude": "-89.9128968997546"
    }
  },
  {
    "service_request": "2025-1234746",
    "request_type": "Trash/Recycling",
    "request_reason": "Request a Large Item Pick Up",
    "date_created": "2025-10-20T15:46:50.000",
    "date_modified": "2025-10-20T15:46:51.000",
    "request_status": "Pending",
    "responsible_agency": "Department of Sanitation",
    "final_address": "1748 N Rocheblave St",
    "address_councildis": "D",
    "status": "Assigned to Contractor",
    "contractor": "IV Waste",
    "rowid": "1234746",
    "final_x": "3680679.12674",
    "final_y": "540427.780363",
    "longitude": "-90.07035231176941",
    "latitude": "29.98001391995228",
    "geocoded_column": {
      "latitude": "29.98001391995228",
      "longitude": "-90.07035231176941"
    }
  },
  {
    "service_request": "2025-1234745",
    "request_type": "Trash/Recycling",
    "request_reason": "Request a Large Item Pick Up",
    "date_created": "2025-10-20T15:43:39.000",
    "date_modified": "2025-10-20T15:43:41.000",
    "request_status": "Pending",
    "responsible_agency": "Department of Sanitation",
    "final_address": "4437 Cessna Ct",
    "address_councildis": "D",
    "status": "Assigned to Contractor",
    "contractor": "Waste Pro",
    "rowid": "1234745",
    "final_x": "3696696.67088",
    "final_y": "552625.422806",
    "longitude": "-90.01932072632164",
    "latitude": "30.01305776837432",
    "geocoded_column": {
      "latitude": "30.01305776837432",
      "longitude": "-90.01932072632164"
    }
  },
  {
    "service_request": "2025-1234744",
    "request_type": "Trash/Recycling",
    "request_reason": "Order Second Trash Cart",
    "date_created": "2025-10-20T15:36:55.000",
    "date_modified": "2025-10-20T15:37:43.000",
    "request_status": "Pending",
    "responsible_agency": "Department of Sanitation",
    "final_address": "13134 Lemans St",
    "address_councildis": "E",
    "status": "Assigned to Contractor",
    "contractor": "Waste Pro",
    "rowid": "1234744",
    "final_x": "3724300.75488",
    "final_y": "562766.820256",
    "longitude": "-89.9317159826006",
    "latitude": "30.04004319991171",
    "geocoded_column": {
      "latitude": "30.04004319991171",
      "longitude": "-89.9317159826006"
    }
  },
  {
    "service_request": "2025-1234743",
    "request_type": "Trash/Recycling",
    "request_reason": "Request a Large Item Pick Up",
    "date_created": "2025-10-20T15:35:21.000",
    "date_modified": "2025-10-20T15:35:23.000",
    "request_status": "Pending",
    "responsible_agency": "Department of Sanitation",
    "final_address": "8318 Sycamore St",
    "address_councildis": "A",
    "status": "Assigned to Contractor",
    "contractor": "IV Waste",
    "rowid": "1234743",
    "final_x": "3663634.77261",
    "final_y": "531547.474499",
    "longitude": "-90.12448162395904",
    "latitude": "29.956101568033233",
    "geocoded_column": {
      "latitude": "29.956101568033233",
      "longitude": "-90.12448162395904"
    }
  },
  {
    "service_request": "2025-1234742",
    "request_type": "Trash/Recycling",
    "request_reason": "Request a Large Item Pick Up",
    "date_created": "2025-10-20T15:31:57.000",
    "date_modified": "2025-10-20T15:32:00.000",
    "request_status": "Pending",
    "responsible_agency": "Department of Sanitation",
    "final_address": "8209 Spruce St",
    "address_councildis": "A",
    "status": "Assigned to Contractor",
    "contractor": "IV Waste",
    "rowid": "1234742",
    "final_x": "3663549.44839",
    "final_y": "530783.191682",
    "longitude": "-90.12477650441186",
    "latitude": "29.95400251296115",
    "geocoded_column": {
      "latitude": "29.95400251296115",
      "longitude": "-90.12477650441186"
    }
  },
  {
    "service_request": "2025-1234741",
    "request_type": "Parks & Parkways",
    "request_reason": "Request Tree Service (Right of Way/Public Property)",
    "date_created": "2025-10-20T15:31:41.000",
    "date_modified": "2025-10-20T15:31:43.000",
    "request_status": "Pending",
    "responsible_agency": "Department of Parks & Parkway",
    "final_address": "1620 De Battista Pl",
    "address_councildis": "C",
    "status": "Pending",
    "rowid": "1234741",
    "final_x": "3699781.28765",
    "final_y": "524824.577468",
    "longitude": "-90.0105890200958",
    "latitude": "29.936517896099108",
    "geocoded_column": {
      "latitude": "29.936517896099108",
      "longitude": "-90.0105890200958"
    }
  },
  {
    "service_request": "2025-1234740",
    "request_type": "Property Maintenance",
    "request_reason": "Property Maintenance",
    "date_created": "2025-10-20T15:30:04.000",
    "date_modified": "2025-10-20T15:30:07.000",
    "request_status": "Pending",
    "responsible_agency": "Department of Code Enforcement",
    "final_address": "5638 Catina St",
    "address_councildis": "A",
    "status": "Pending",
    "rowid": "1234740",
    "final_x": "3666601.20692",
    "final_y": "545040.140623",
    "longitude": "-90.11466146746379",
    "latitude": "29.993115502663088",
    "geocoded_column": {
      "latitude": "29.993115502663088",
      "longitude": "-90.11466146746379"
    }
  },
  {
    "service_request": "2025-1234739",
    "request_type": "Trash/Recycling",
    "request_reason": "Request a Large Item Pick Up",
    "date_created": "2025-10-20T15:27:47.000",
    "date_modified": "2025-10-20T15:27:48.000",
    "request_status": "Pending",
    "responsible_agency": "Department of Sanitation",
    "final_address": "6391 Eastover Dr",
    "address_councildis": "E",
    "status": "Assigned to Contractor",
    "contractor": "Waste Pro",
    "rowid": "1234739",
    "final_x": "3718334.99129",
    "final_y": "563527.49296",
    "longitude": "-89.95054044349781",
    "latitude": "30.042334042378123",
    "geocoded_column": {
      "latitude": "30.042334042378123",
      "longitude": "-89.95054044349781"
    }
  },
  {
    "service_request": "2025-1234738",
    "request_type": "Trash/Recycling",
    "request_reason": "Replace Trash Cart",
    "date_created": "2025-10-20T15:26:50.000",
    "date_modified": "2025-10-20T15:34:46.000",
    "request_status": "Pending",
    "responsible_agency": "Department of Sanitation",
    "final_address": "13134 Lemans St",
    "address_councildis": "E",
    "status": "Assigned to Contractor",
    "contractor": "Waste Pro",
    "rowid": "1234738",
    "final_x": "3724300.75488",
    "final_y": "562766.820256",
    "longitude": "-89.9317159826006",
    "latitude": "30.04004319991171",
    "geocoded_column": {
      "latitude": "30.04004319991171",
      "longitude": "-89.9317159826006"
    }
  },
  {
    "service_request": "2025-1234737",
    "request_type": "Trash/Recycling",
    "request_reason": "Order Trash Cart",
    "date_created": "2025-10-20T15:26:05.000",
    "date_modified": "2025-10-20T15:26:06.000",
    "request_status": "Pending",
    "responsible_agency": "Department of Sanitation",
    "final_address": "7231 Wayside Dr",
    "address_councildis": "E",
    "status": "Assigned to Contractor",
    "contractor": "Waste Pro",
    "rowid": "1234737",
    "final_x": "3717197.5772",
    "final_y": "568549.826277",
    "longitude": "-89.95394399567958",
    "latitude": "30.05618109271578",
    "geocoded_column": {
      "latitude": "30.05618109271578",
      "longitude": "-89.95394399567958"
    }
  },
  {
    "service_request": "2025-1234736",
    "request_type": "Trash/Recycling",
    "request_reason": "Repair Trash Cart",
    "date_created": "2025-10-20T15:25:14.000",
    "date_modified": "2025-10-20T15:25:16.000",
    "request_status": "Pending",
    "responsible_agency": "Department of Sanitation",
    "final_address": "13011 Chateau Ct",
    "address_councildis": "E",
    "status": "Assigned to Contractor",
    "contractor": "Waste Pro",
    "rowid": "1234736",
    "final_x": "3724375.94374",
    "final_y": "562349.154335",
    "longitude": "-89.93149451385612",
    "latitude": "30.038892261637056",
    "geocoded_column": {
      "latitude": "30.038892261637056",
      "longitude": "-89.93149451385612"
    }
  },
  {
    "service_request": "2025-1234735",
    "request_type": "Trash/Recycling",
    "request_reason": "Repair Trash Cart",
    "date_created": "2025-10-20T15:21:18.000",
    "date_modified": "2025-10-20T15:21:20.000",
    "request_status": "Pending",
    "responsible_agency": "Department of Sanitation",
    "final_address": "1547 De Battista Pl",
    "address_councildis": "C",
    "status": "Assigned to Contractor",
    "contractor": "Richards Disposal",
    "rowid": "1234735",
    "final_x": "3699711.28426",
    "final_y": "525419.687805",
    "longitude": "-90.01078833698656",
    "latitude": "29.938156464369246",
    "geocoded_column": {
      "latitude": "29.938156464369246",
      "longitude": "-90.01078833698656"
    }
  },
  {
    "service_request": "2025-1234734",
    "request_type": "Streetlights",
    "request_reason": "Streetlight Outage/Malfunction",
    "date_created": "2025-10-20T15:20:24.000",
    "date_modified": "2025-10-20T15:21:21.000",
    "request_status": "Pending",
    "responsible_agency": "Department of Public Works",
    "final_address": "4759 Redwood St",
    "address_councildis": "E",
    "status": "Pending",
    "rowid": "1234734",
    "final_x": "3712551.85899",
    "final_y": "556305.51593",
    "longitude": "-89.96908895105487",
    "latitude": "30.022667109979054",
    "geocoded_column": {
      "latitude": "30.022667109979054",
      "longitude": "-89.96908895105487"
    }
  },
  {
    "service_request": "2025-1234733",
    "request_type": "Streetlights",
    "request_reason": "Streetlight Outage/Malfunction",
    "date_created": "2025-10-20T15:16:50.000",
    "date_modified": "2025-10-20T15:17:27.000",
    "request_status": "Pending",
    "responsible_agency": "Department of Public Works",
    "final_address": "4909 Rosalia Dr",
    "address_councildis": "E",
    "status": "Pending",
    "rowid": "1234733",
    "final_x": "3711149.96139",
    "final_y": "556925.742746",
    "longitude": "-89.97349531811584",
    "latitude": "30.024418309751198",
    "geocoded_column": {
      "latitude": "30.024418309751198",
      "longitude": "-89.97349531811584"
    }
  },
  {
    "service_request": "2025-1234732",
    "request_type": "Trash/Recycling",
    "request_reason": "Request a Large Item Pick Up",
    "date_created": "2025-10-20T15:10:09.000",
    "date_modified": "2025-10-20T15:10:11.000",
    "request_status": "Pending",
    "responsible_agency": "Department of Sanitation",
    "final_address": "737 Louisiana Ave",
    "address_councildis": "B",
    "status": "Assigned to Contractor",
    "contractor": "IV Waste",
    "rowid": "1234732",
    "final_x": "3675617.68769",
    "final_y": "518501.995319",
    "longitude": "-90.0870916466133",
    "latitude": "29.91987772458578",
    "geocoded_column": {
      "latitude": "29.91987772458578",
      "longitude": "-90.0870916466133"
    }
  },
  {
    "service_request": "2025-1234731",
    "request_type": "Trash/Recycling",
    "request_reason": "Request a Large Item Pick Up",
    "date_created": "2025-10-20T15:07:49.000",
    "date_modified": "2025-10-20T15:07:50.000",
    "request_status": "Pending",
    "responsible_agency": "Department of Sanitation",
    "final_address": "4819 Camelot Dr",
    "address_councildis": "E",
    "status": "Assigned to Contractor",
    "contractor": "Waste Pro",
    "rowid": "1234731",
    "final_x": "3708385.6538",
    "final_y": "556170.02985",
    "longitude": "-89.9822581147727",
    "latitude": "30.022430307999134",
    "geocoded_column": {
      "latitude": "30.022430307999134",
      "longitude": "-89.9822581147727"
    }
  },
  {
    "service_request": "2025-1234730",
    "request_type": "Drainage",
    "request_reason": "Catch Basin Not Draining",
    "date_created": "2025-10-20T15:05:20.000",
    "date_modified": "2025-10-20T15:05:22.000",
    "request_status": "Pending",
    "responsible_agency": "Sewerage & Water Board",
    "final_address": "1803 S Carrollton Ave",
    "address_councildis": "A",
    "status": "Pending",
    "rowid": "1234730",
    "final_x": "3663534.3824",
    "final_y": "529846.002753",
    "longitude": "-90.12485528723494",
    "latitude": "29.951425983352085",
    "geocoded_column": {
      "latitude": "29.951425983352085",
      "longitude": "-90.12485528723494"
    }
  },
  {
    "service_request": "2025-1234729",
    "request_type": "Property Maintenance",
    "request_reason": "Property Maintenance",
    "date_created": "2025-10-20T15:03:34.000",
    "date_modified": "2025-10-20T15:03:37.000",
    "request_status": "Pending",
    "responsible_agency": "Department of Code Enforcement",
    "final_address": "4118 N Roman St",
    "address_councildis": "D",
    "status": "Pending",
    "rowid": "1234729",
    "final_x": "3692951.8223",
    "final_y": "537764.63604",
    "longitude": "-90.03168574865765",
    "latitude": "29.972313560670244",
    "geocoded_column": {
      "latitude": "29.972313560670244",
      "longitude": "-90.03168574865765"
    }
  },
  {
    "service_request": "2025-1234728",
    "request_type": "Trash/Recycling",
    "request_reason": "Request a Large Item Pick Up",
    "date_created": "2025-10-20T14:58:41.000",
    "date_modified": "2025-10-20T14:58:43.000",
    "request_status": "Pending",
    "responsible_agency": "Department of Sanitation",
    "final_address": "5613 N Villere St",
    "address_councildis": "E",
    "status": "Assigned to Contractor",
    "contractor": "Waste Pro",
    "rowid": "1234728",
    "final_x": "3698479.05207",
    "final_y": "534893.31303",
    "longitude": "-90.01433429450884",
    "latitude": "29.964244649031198",
    "geocoded_column": {
      "latitude": "29.964244649031198",
      "longitude": "-90.01433429450884"
    }
  },
  {
    "service_request": "2025-1234727",
    "request_type": "Trash/Recycling",
    "request_reason": "Request a Large Item Pick Up",
    "date_created": "2025-10-20T14:56:06.000",
    "date_modified": "2025-10-20T14:56:07.000",
    "request_status": "Pending",
    "responsible_agency": "Department of Sanitation",
    "final_address": "300 Jewel St",
    "address_councildis": "D",
    "status": "Assigned to Contractor",
    "contractor": "IV Waste",
    "rowid": "1234727",
    "final_x": "3667462.13908",
    "final_y": "555718.655257",
    "longitude": "-90.11158225566844",
    "latitude": "30.022452488455762",
    "geocoded_column": {
      "latitude": "30.022452488455762",
      "longitude": "-90.11158225566844"
    }
  },
  {
    "service_request": "2025-1234726",
    "request_type": "Abandoned Vehicles",
    "request_reason": "Abandoned/Junk Vehicles",
    "date_created": "2025-10-20T14:54:01.000",
    "date_modified": "2025-10-20T14:54:02.000",
    "request_status": "Pending",
    "responsible_agency": "Department of Public Works",
    "final_address": "3534 S Miro St",
    "address_councildis": "B",
    "status": "Pending",
    "rowid": "1234726",
    "final_x": "3671117.85044",
    "final_y": "527820.821631",
    "longitude": "-90.10097911751743",
    "latitude": "29.94563530144333",
    "geocoded_column": {
      "latitude": "29.94563530144333",
      "longitude": "-90.10097911751743"
    }
  },
  {
    "service_request": "2025-1234725",
    "request_type": "Trash/Recycling",
    "request_reason": "Request a Large Item Pick Up",
    "date_created": "2025-10-20T14:50:30.000",
    "date_modified": "2025-10-20T14:50:37.000",
    "request_status": "Pending",
    "responsible_agency": "Department of Sanitation",
    "final_address": "7340 Shubrick Ave",
    "address_councildis": "E",
    "status": "Assigned to Contractor",
    "contractor": "Waste Pro",
    "rowid": "1234725",
    "final_x": "3707087.21976",
    "final_y": "563017.064608",
    "longitude": "-89.98610644422524",
    "latitude": "30.041298995900505",
    "geocoded_column": {
      "latitude": "30.041298995900505",
      "longitude": "-89.98610644422524"
    }
  },
  {
    "service_request": "2025-1234724",
    "request_type": "Trash/Recycling",
    "request_reason": "Illegal Dumping",
    "date_created": "2025-10-20T14:50:17.000",
    "date_modified": "2025-10-20T14:50:19.000",
    "request_status": "Pending",
    "responsible_agency": "Department of Sanitation",
    "final_address": "717 Peniston St",
    "address_councildis": "B",
    "status": "Pending",
    "rowid": "1234724",
    "final_x": "3673559.63988",
    "final_y": "518493.997111",
    "longitude": "-90.0935881860951",
    "latitude": "29.91991711984172",
    "geocoded_column": {
      "latitude": "29.91991711984172",
      "longitude": "-90.0935881860951"
    }
  },
  {
    "service_request": "2025-1234723",
    "request_type": "Trash/Recycling",
    "request_reason": "Illegal Dumping",
    "date_created": "2025-10-20T14:48:19.000",
    "date_modified": "2025-10-20T14:48:39.000",
    "request_status": "Pending",
    "responsible_agency": "Department of Sanitation",
    "final_address": "MONTICELLO AVE & PRITCHARD PL",
    "address_councildis": "A",
    "status": "Pending",
    "rowid": "1234723",
    "final_x": "3662609.3",
    "final_y": "536032.98",
    "longitude": "-90.12757068855134",
    "latitude": "29.968464952479756",
    "geocoded_column": {
      "latitude": "29.968464952479756",
      "longitude": "-90.12757068855134"
    }
  },
  {
    "service_request": "2025-1234722",
    "request_type": "Trash/Recycling",
    "request_reason": "Request a Large Item Pick Up",
    "date_created": "2025-10-20T14:45:55.000",
    "date_modified": "2025-10-20T14:46:12.000",
    "request_status": "Pending",
    "responsible_agency": "Department of Sanitation",
    "final_address": "2643 Upperline St",
    "address_councildis": "B",
    "status": "Assigned to Contractor",
    "contractor": "IV Waste",
    "rowid": "1234722",
    "final_x": "3669222.38695",
    "final_y": "524576.93318",
    "longitude": "-90.10707334381266",
    "latitude": "29.9367715758674",
    "geocoded_column": {
      "latitude": "29.9367715758674",
      "longitude": "-90.10707334381266"
    }
  },
  {
    "service_request": "2025-1234721",
    "request_type": "Trash/Recycling",
    "request_reason": "Request a Large Item Pick Up",
    "date_created": "2025-10-20T14:45:38.000",
    "date_modified": "2025-10-20T14:45:40.000",
    "request_status": "Pending",
    "responsible_agency": "Department of Sanitation",
    "final_address": "5711 Laurel St",
    "address_councildis": "A",
    "status": "Assigned to Contractor",
    "contractor": "IV Waste",
    "rowid": "1234721",
    "final_x": "3665499.15661",
    "final_y": "517992.558838",
    "longitude": "-90.11904809621416",
    "latitude": "29.918775661836026",
    "geocoded_column": {
      "latitude": "29.918775661836026",
      "longitude": "-90.11904809621416"
    }
  },
  {
    "service_request": "2025-1234720",
    "request_type": "Trash/Recycling",
    "request_reason": "Repair Trash Cart",
    "date_created": "2025-10-20T14:43:46.000",
    "date_modified": "2025-10-20T14:43:48.000",
    "request_status": "Pending",
    "responsible_agency": "Department of Sanitation",
    "final_address": "1700 Elizardi Blvd",
    "address_councildis": "C",
    "status": "Assigned to Contractor",
    "contractor": "Richards Disposal",
    "rowid": "1234720",
    "final_x": "3694711.09744",
    "final_y": "524588.352892",
    "longitude": "-90.02660423941697",
    "latitude": "29.936028322754293",
    "geocoded_column": {
      "latitude": "29.936028322754293",
      "longitude": "-90.02660423941697"
    }
  },
  {
    "service_request": "2025-1234719",
    "request_type": "Trash/Recycling",
    "request_reason": "Repair Trash Cart",
    "date_created": "2025-10-20T14:43:16.000",
    "date_modified": "2025-10-20T14:43:25.000",
    "request_status": "Pending",
    "responsible_agency": "Department of Sanitation",
    "final_address": "3205 Chestnut St",
    "address_councildis": "B",
    "status": "Assigned to Contractor",
    "contractor": "IV Waste",
    "rowid": "1234719",
    "final_x": "3675376.71886",
    "final_y": "520667.105017",
    "longitude": "-90.08777797945417",
    "latitude": "29.925838283453107",
    "geocoded_column": {
      "latitude": "29.925838283453107",
      "longitude": "-90.08777797945417"
    }
  },
  {
    "service_request": "2025-1234718",
    "request_type": "Trash/Recycling",
    "request_reason": "Order Trash Cart",
    "date_created": "2025-10-20T14:41:41.000",
    "date_modified": "2025-10-20T14:41:43.000",
    "request_status": "Pending",
    "responsible_agency": "Department of Sanitation",
    "final_address": "7257 E Tamaron Blvd",
    "address_councildis": "E",
    "status": "Assigned to Contractor",
    "contractor": "Waste Pro",
    "rowid": "1234718",
    "final_x": "3717875.60255",
    "final_y": "569820.206118",
    "longitude": "-89.95175248432443",
    "latitude": "30.059651650176782",
    "geocoded_column": {
      "latitude": "30.059651650176782",
      "longitude": "-89.95175248432443"
    }
  },
  {
    "service_request": "2025-1234717",
    "request_type": "Safety & Permits",
    "request_reason": "Zoning Enforcement",
    "date_created": "2025-10-20T14:41:07.000",
    "date_modified": "2025-10-20T14:41:20.000",
    "request_status": "Pending",
    "responsible_agency": "Safety and Permits",
    "final_address": "824 French St",
    "address_councildis": "A",
    "status": "Pending",
    "rowid": "1234717",
    "final_x": "3669522.85057",
    "final_y": "548430.611282",
    "longitude": "-90.10531768312829",
    "latitude": "30.002352358708762",
    "geocoded_column": {
      "latitude": "30.002352358708762",
      "longitude": "-90.10531768312829"
    }
  },
  {
    "service_request": "2025-1234716",
    "request_type": "Trash/Recycling",
    "request_reason": "Request a Large Item Pick Up",
    "date_created": "2025-10-20T14:33:39.000",
    "date_modified": "2025-10-20T14:34:14.000",
    "request_status": "Pending",
    "responsible_agency": "Department of Sanitation",
    "final_address": "10830 Roger Dr",
    "address_councildis": "E",
    "status": "Assigned to Contractor",
    "contractor": "Waste Pro",
    "rowid": "1234716",
    "final_x": "3711821.88101",
    "final_y": "563150.568032",
    "longitude": "-89.97113836173169",
    "latitude": "30.041512160991395",
    "geocoded_column": {
      "latitude": "30.041512160991395",
      "longitude": "-89.97113836173169"
    }
  },
  {
    "service_request": "2025-1234715",
    "request_type": "Trash/Recycling",
    "request_reason": "Return Recycling Cart",
    "date_created": "2025-10-20T14:33:35.000",
    "date_modified": "2025-10-20T14:34:06.000",
    "request_status": "Pending",
    "responsible_agency": "Department of Sanitation",
    "final_address": "1729 Robert St",
    "address_councildis": "B",
    "status": "Pending",
    "rowid": "1234715",
    "final_x": "3668791.66228",
    "final_y": "522030.098298",
    "longitude": "-90.10851911286441",
    "latitude": "29.929781263450923",
    "geocoded_column": {
      "latitude": "29.929781263450923",
      "longitude": "-90.10851911286441"
    }
  },
  {
    "service_request": "2025-1234714",
    "request_type": "Trash/Recycling",
    "request_reason": "Request a Large Item Pick Up",
    "date_created": "2025-10-20T14:33:18.000",
    "date_modified": "2025-10-20T14:33:26.000",
    "request_status": "Pending",
    "responsible_agency": "Department of Sanitation",
    "final_address": "13616 N Cavelier Dr",
    "address_councildis": "E",
    "status": "Assigned to Contractor",
    "contractor": "Waste Pro",
    "rowid": "1234714",
    "final_x": "3724101.32409",
    "final_y": "569699.523366",
    "longitude": "-89.93207830630612",
    "latitude": "30.059111952183287",
    "geocoded_column": {
      "latitude": "30.059111952183287",
      "longitude": "-89.93207830630612"
    }
  },
  {
    "service_request": "2025-1234713",
    "request_type": "Trash/Recycling",
    "request_reason": "Return Trash Cart",
    "date_created": "2025-10-20T14:32:14.000",
    "date_modified": "2025-10-20T14:32:16.000",
    "request_status": "Pending",
    "responsible_agency": "Department of Sanitation",
    "final_address": "1729 Robert St",
    "address_councildis": "B",
    "status": "Assigned to Contractor",
    "contractor": "IV Waste",
    "rowid": "1234713",
    "final_x": "3668791.66228",
    "final_y": "522030.098298",
    "longitude": "-90.10851911286441",
    "latitude": "29.929781263450923",
    "geocoded_column": {
      "latitude": "29.929781263450923",
      "longitude": "-90.10851911286441"
    }
  },
  {
    "service_request": "2025-1234712",
    "request_type": "Trash/Recycling",
    "request_reason": "Request a Large Item Pick Up",
    "date_created": "2025-10-20T14:31:33.000",
    "date_modified": "2025-10-20T14:31:35.000",
    "request_status": "Pending",
    "responsible_agency": "Department of Sanitation",
    "final_address": "13 Winners Cir",
    "address_councildis": "E",
    "status": "Assigned to Contractor",
    "contractor": "Waste Pro",
    "rowid": "1234712",
    "final_x": "3715676.88517",
    "final_y": "570494.049575",
    "longitude": "-89.95867686231298",
    "latitude": "30.061577151508803",
    "geocoded_column": {
      "latitude": "30.061577151508803",
      "longitude": "-89.95867686231298"
    }
  },
  {
    "service_request": "2025-1234711",
    "request_type": "Trash/Recycling",
    "request_reason": "Request a Large Item Pick Up",
    "date_created": "2025-10-20T14:28:58.000",
    "date_modified": "2025-10-20T14:29:07.000",
    "request_status": "Pending",
    "responsible_agency": "Department of Sanitation",
    "final_address": "3938 Piedmont Dr",
    "address_councildis": "D",
    "status": "Assigned to Contractor",
    "contractor": "IV Waste",
    "rowid": "1234711",
    "final_x": "3685296.72405",
    "final_y": "547149.121873",
    "longitude": "-90.05553131043452",
    "latitude": "29.998354462722652",
    "geocoded_column": {
      "latitude": "29.998354462722652",
      "longitude": "-90.05553131043452"
    }
  },
  {
    "service_request": "2025-1234710",
    "request_type": "Roads and Streets",
    "request_reason": "Debris in Driving Lanes",
    "date_created": "2025-10-20T14:26:56.000",
    "date_modified": "2025-10-20T14:26:58.000",
    "request_status": "Pending",
    "responsible_agency": "Department of Public Works",
    "final_address": "738 Pine St",
    "address_councildis": "A",
    "status": "Pending",
    "rowid": "1234710",
    "final_x": "3663073.57338",
    "final_y": "525471.611901",
    "longitude": "-90.12645578346526",
    "latitude": "29.939411164549895",
    "geocoded_column": {
      "latitude": "29.939411164549895",
      "longitude": "-90.12645578346526"
    }
  },
  {
    "service_request": "2025-1234709",
    "request_type": "Trash/Recycling",
    "request_reason": "Request a Large Item Pick Up",
    "date_created": "2025-10-20T14:24:55.000",
    "date_modified": "2025-10-20T14:38:10.000",
    "request_status": "Pending",
    "responsible_agency": "Department of Sanitation",
    "final_address": "7609 Lady Gray St",
    "address_councildis": "E",
    "status": "Assigned to Contractor",
    "contractor": "Waste Pro",
    "rowid": "1234709",
    "final_x": "3710059.76805",
    "final_y": "565225.590242",
    "longitude": "-89.9766295797748",
    "latitude": "30.04727512148317",
    "geocoded_column": {
      "latitude": "30.04727512148317",
      "longitude": "-89.9766295797748"
    }
  },
  {
    "service_request": "2025-1234708",
    "request_type": "Parks & Parkways",
    "request_reason": "Request Tree Service (Right of Way/Public Property)",
    "date_created": "2025-10-20T14:22:13.000",
    "date_modified": "2025-10-20T14:22:15.000",
    "request_status": "Pending",
    "responsible_agency": "Department of Parks & Parkway",
    "final_address": "2311 St Nick Dr",
    "address_councildis": "C",
    "status": "Pending",
    "rowid": "1234708",
    "final_x": "3699602.63498",
    "final_y": "522568.659194",
    "longitude": "-90.01123520550622",
    "latitude": "29.930320571642163",
    "geocoded_column": {
      "latitude": "29.930320571642163",
      "longitude": "-90.01123520550622"
    }
  },
  {
    "service_request": "2025-1234707",
    "request_type": "Property Maintenance",
    "request_reason": "Property Maintenance",
    "date_created": "2025-10-20T14:22:05.000",
    "date_modified": "2025-10-20T14:22:07.000",
    "request_status": "Pending",
    "responsible_agency": "Department of Code Enforcement",
    "final_address": "7246 Downman Rd",
    "address_councildis": "D",
    "status": "Pending",
    "rowid": "1234707",
    "final_x": "3694923.59658",
    "final_y": "557175.614683",
    "longitude": "-90.02475848179233",
    "latitude": "30.0256248711551",
    "geocoded_column": {
      "latitude": "30.0256248711551",
      "longitude": "-90.02475848179233"
    }
  },
  {
    "service_request": "2025-1234706",
    "request_type": "Abandoned Vehicles",
    "request_reason": "Abandoned/Junk Vehicles",
    "date_created": "2025-10-20T14:20:23.000",
    "date_modified": "2025-10-20T14:47:07.000",
    "request_status": "Pending",
    "responsible_agency": "Department of Public Works",
    "final_address": "824 French St",
    "address_councildis": "A",
    "status": "Pending",
    "rowid": "1234706",
    "final_x": "3669522.85057",
    "final_y": "548430.611282",
    "longitude": "-90.10531768312829",
    "latitude": "30.002352358708762",
    "geocoded_column": {
      "latitude": "30.002352358708762",
      "longitude": "-90.10531768312829"
    }
  },
  {
    "service_request": "2025-1234705",
    "request_type": "Drainage",
    "request_reason": "Catch Basin Not Draining",
    "date_created": "2025-10-20T14:17:57.000",
    "date_modified": "2025-10-20T14:51:08.000",
    "request_status": "Pending",
    "responsible_agency": "Sewerage & Water Board",
    "final_address": "2425 Third St",
    "address_councildis": "B",
    "status": "Pending",
    "rowid": "1234705",
    "final_x": "3674769.43086",
    "final_y": "525475.208125",
    "longitude": "-90.08953025547227",
    "latitude": "29.93907714246573",
    "geocoded_column": {
      "latitude": "29.93907714246573",
      "longitude": "-90.08953025547227"
    }
  },
  {
    "service_request": "2025-1234704",
    "request_type": "Trash/Recycling",
    "request_reason": "Repair Trash Cart",
    "date_created": "2025-10-20T14:15:15.000",
    "date_modified": "2025-10-20T14:15:18.000",
    "request_status": "Pending",
    "responsible_agency": "Department of Sanitation",
    "final_address": "4928 Eastern St",
    "address_councildis": "D",
    "status": "Assigned to Contractor",
    "contractor": "IV Waste",
    "rowid": "1234704",
    "final_x": "3687922.25219",
    "final_y": "551276.793877",
    "longitude": "-90.04709092805672",
    "latitude": "30.009623289923745",
    "geocoded_column": {
      "latitude": "30.009623289923745",
      "longitude": "-90.04709092805672"
    }
  },
  {
    "service_request": "2025-1234703",
    "request_type": "Trash/Recycling",
    "request_reason": "Request a Large Item Pick Up",
    "date_created": "2025-10-20T14:14:51.000",
    "date_modified": "2025-10-20T14:15:17.000",
    "request_status": "Pending",
    "responsible_agency": "Department of Sanitation",
    "final_address": "7935 Berg Rd",
    "address_councildis": "E",
    "status": "Assigned to Contractor",
    "contractor": "Waste Pro",
    "rowid": "1234703",
    "final_x": "3711311.71058",
    "final_y": "567778.292772",
    "longitude": "-89.97257698577175",
    "latitude": "30.054253200919316",
    "geocoded_column": {
      "latitude": "30.054253200919316",
      "longitude": "-89.97257698577175"
    }
  },
  {
    "service_request": "2025-1234702",
    "request_type": "Utility Poles",
    "request_reason": "Wires Sagging/Hanging Low",
    "date_created": "2025-10-20T14:14:13.000",
    "date_modified": "2025-10-20T14:15:07.000",
    "request_status": "Pending",
    "responsible_agency": "Utility Company Collective",
    "final_address": "4928 Eastern St",
    "address_councildis": "D",
    "status": "Pending",
    "rowid": "1234702",
    "final_x": "3687922.25219",
    "final_y": "551276.793877",
    "longitude": "-90.04709092805672",
    "latitude": "30.009623289923745",
    "geocoded_column": {
      "latitude": "30.009623289923745",
      "longitude": "-90.04709092805672"
    }
  },
  {
    "service_request": "2025-1234701",
    "request_type": "Trash/Recycling",
    "request_reason": "Repair Trash Cart",
    "date_created": "2025-10-20T14:10:16.000",
    "date_modified": "2025-10-20T14:10:19.000",
    "request_status": "Pending",
    "responsible_agency": "Department of Sanitation",
    "final_address": "7522 Marquis St",
    "address_councildis": "E",
    "status": "Assigned to Contractor",
    "contractor": "Waste Pro",
    "rowid": "1234701",
    "final_x": "3711608.80664",
    "final_y": "565671.900258",
    "longitude": "-89.97171705909957",
    "latitude": "30.048451771912042",
    "geocoded_column": {
      "latitude": "30.048451771912042",
      "longitude": "-89.97171705909957"
    }
  },
  {
    "service_request": "2025-1234700",
    "request_type": "Parks & Parkways",
    "request_reason": "Request Tree Service (Right of Way/Public Property)",
    "date_created": "2025-10-20T14:10:04.000",
    "date_modified": "2025-10-20T14:10:07.000",
    "request_status": "Pending",
    "responsible_agency": "Department of Parks & Parkway",
    "final_address": "2311 St Nick Dr",
    "address_councildis": "C",
    "status": "Pending",
    "rowid": "1234700",
    "final_x": "3699602.63498",
    "final_y": "522568.659194",
    "longitude": "-90.01123520550622",
    "latitude": "29.930320571642163",
    "geocoded_column": {
      "latitude": "29.930320571642163",
      "longitude": "-90.01123520550622"
    }
  },
  {
    "service_request": "2025-1234699",
    "request_type": "Trash/Recycling",
    "request_reason": "Request a Large Item Pick Up",
    "date_created": "2025-10-20T14:08:53.000",
    "date_modified": "2025-10-20T14:09:33.000",
    "request_status": "Pending",
    "responsible_agency": "Department of Sanitation",
    "final_address": "8032 Lacombe St Apt A",
    "address_councildis": "E",
    "status": "Assigned to Contractor",
    "contractor": "Waste Pro",
    "rowid": "1234699",
    "final_x": "3708985.55454",
    "final_y": "566254.101283",
    "longitude": "-89.97998625657254",
    "latitude": "30.050138041557407",
    "geocoded_column": {
      "latitude": "30.050138041557407",
      "longitude": "-89.97998625657254"
    }
  },
  {
    "service_request": "2025-1234698",
    "request_type": "Trash/Recycling",
    "request_reason": "Repair Trash Cart",
    "date_created": "2025-10-20T14:07:50.000",
    "date_modified": "2025-10-20T14:07:52.000",
    "request_status": "Pending",
    "responsible_agency": "Department of Sanitation",
    "final_address": "23 Heron St",
    "address_councildis": "D",
    "status": "Assigned to Contractor",
    "contractor": "IV Waste",
    "rowid": "1234698",
    "final_x": "3675118.84699",
    "final_y": "555415.777753",
    "longitude": "-90.08739927307074",
    "latitude": "30.021392982868402",
    "geocoded_column": {
      "latitude": "30.021392982868402",
      "longitude": "-90.08739927307074"
    }
  },
  {
    "service_request": "2025-1234697",
    "request_type": "Trash/Recycling",
    "request_reason": "Replace Trash Cart",
    "date_created": "2025-10-20T14:07:43.000",
    "date_modified": "2025-10-20T14:07:45.000",
    "request_status": "Pending",
    "responsible_agency": "Department of Sanitation",
    "final_address": "905 Leboeuf St",
    "address_councildis": "C",
    "status": "Assigned to Contractor",
    "contractor": "Richards Disposal",
    "rowid": "1234697",
    "final_x": "3689713.53071",
    "final_y": "528193.133312",
    "longitude": "-90.04225339814039",
    "latitude": "29.94609600621038",
    "geocoded_column": {
      "latitude": "29.94609600621038",
      "longitude": "-90.04225339814039"
    }
  },
  {
    "service_request": "2025-1234696",
    "request_type": "Parks & Parkways",
    "request_reason": "Request Tree Service (Right of Way/Public Property)",
    "date_created": "2025-10-20T14:01:16.000",
    "date_modified": "2025-10-20T14:01:41.000",
    "request_status": "Pending",
    "responsible_agency": "Department of Parks & Parkway",
    "final_address": "8015 St Charles Ave",
    "address_councildis": "A",
    "status": "Pending",
    "rowid": "1234696",
    "final_x": "3660843.60531",
    "final_y": "526670.957822",
    "longitude": "-90.13345647242686",
    "latitude": "29.942773380565765",
    "geocoded_column": {
      "latitude": "29.942773380565765",
      "longitude": "-90.13345647242686"
    }
  },
  {
    "service_request": "2025-1234695",
    "request_type": "Traffic Signals",
    "request_reason": "Traffic Signal Malfunctioning or Damaged",
    "date_created": "2025-10-20T14:00:19.000",
    "date_modified": "2025-10-20T14:00:35.000",
    "request_status": "Pending",
    "responsible_agency": "Department of Public Works",
    "final_address": "EARHART BLVD & MONROE ST",
    "address_councildis": "A",
    "status": "Pending",
    "rowid": "1234695",
    "final_x": "3664688.0",
    "final_y": "534533.98",
    "longitude": "-90.12105610501568",
    "latitude": "29.964282886404717",
    "geocoded_column": {
      "latitude": "29.964282886404717",
      "longitude": "-90.12105610501568"
    }
  },
  {
    "service_request": "2025-1234694",
    "request_type": "Trash/Recycling",
    "request_reason": "Request a Large Item Pick Up",
    "date_created": "2025-10-20T13:57:33.000",
    "date_modified": "2025-10-20T13:57:35.000",
    "request_status": "Pending",
    "responsible_agency": "Department of Sanitation",
    "final_address": "5331 E Idlewood Ct",
    "address_councildis": "E",
    "status": "Assigned to Contractor",
    "contractor": "Waste Pro",
    "rowid": "1234694",
    "final_x": "3716474.75589",
    "final_y": "560314.113565",
    "longitude": "-89.95654146732872",
    "latitude": "30.03356014318718",
    "geocoded_column": {
      "latitude": "30.03356014318718",
      "longitude": "-89.95654146732872"
    }
  },
  {
    "service_request": "2025-1234693",
    "request_type": "Trash/Recycling",
    "request_reason": "Order Trash Cart",
    "date_created": "2025-10-20T13:56:03.000",
    "date_modified": "2025-10-20T13:56:05.000",
    "request_status": "Pending",
    "responsible_agency": "Department of Sanitation",
    "final_address": "423 Diana St",
    "address_councildis": "C",
    "status": "Assigned to Contractor",
    "contractor": "Richards Disposal",
    "rowid": "1234693",
    "final_x": "3686805.26306",
    "final_y": "527500.829055",
    "longitude": "-90.05146022734843",
    "latitude": "29.94428218800249",
    "geocoded_column": {
      "latitude": "29.94428218800249",
      "longitude": "-90.05146022734843"
    }
  },
  {
    "service_request": "2025-1234692",
    "request_type": "Trash/Recycling",
    "request_reason": "Order Second Trash Cart",
    "date_created": "2025-10-20T13:55:46.000",
    "date_modified": "2025-10-20T13:55:48.000",
    "request_status": "Pending",
    "responsible_agency": "Department of Sanitation",
    "final_address": "6361 Dorothea St",
    "address_councildis": "D",
    "status": "Assigned to Contractor",
    "contractor": "Waste Pro",
    "rowid": "1234692",
    "final_x": "3697031.33271",
    "final_y": "557791.949595",
    "longitude": "-90.01807601178575",
    "latitude": "30.027253202718903",
    "geocoded_column": {
      "latitude": "30.027253202718903",
      "longitude": "-90.01807601178575"
    }
  },
  {
    "service_request": "2025-1234691",
    "request_type": "Property Maintenance",
    "request_reason": "Property Maintenance",
    "date_created": "2025-10-20T13:55:02.000",
    "date_modified": "2025-10-20T13:55:17.000",
    "request_status": "Pending",
    "responsible_agency": "Department of Code Enforcement",
    "final_address": "4424 Fontainebleau Dr",
    "address_councildis": "A",
    "status": "Pending",
    "rowid": "1234691",
    "final_x": "3668990.63214",
    "final_y": "529566.680001",
    "longitude": "-90.10763649959173",
    "latitude": "29.950498579154726",
    "geocoded_column": {
      "latitude": "29.950498579154726",
      "longitude": "-90.10763649959173"
    }
  },
  {
    "service_request": "2025-1234690",
    "request_type": "Trash/Recycling",
    "request_reason": "Illegal Dumping",
    "date_created": "2025-10-20T13:54:53.000",
    "date_modified": "2025-10-20T13:55:11.000",
    "request_status": "Pending",
    "responsible_agency": "Department of Sanitation",
    "final_address": "2339 Laurel St",
    "address_councildis": "B",
    "status": "Pending",
    "rowid": "1234690",
    "final_x": "3678708.33416",
    "final_y": "521079.610745",
    "longitude": "-90.07724678746037",
    "latitude": "29.926872538693353",
    "geocoded_column": {
      "latitude": "29.926872538693353",
      "longitude": "-90.07724678746037"
    }
  },
  {
    "service_request": "2025-1234689",
    "request_type": "Graffiti Removal",
    "request_reason": "Graffiti Removal",
    "date_created": "2025-10-20T13:49:13.000",
    "date_modified": "2025-10-20T16:00:10.000",
    "request_status": "Pending",
    "responsible_agency": "Department of Code Enforcement",
    "final_address": "980 Iberville St",
    "address_councildis": "C",
    "status": "Pending",
    "rowid": "1234689",
    "final_x": "3680633.72456",
    "final_y": "531618.131011",
    "longitude": "-90.07080229207155",
    "latitude": "29.95579178363457",
    "geocoded_column": {
      "latitude": "29.95579178363457",
      "longitude": "-90.07080229207155"
    }
  },
  {
    "service_request": "2025-1234688",
    "request_type": "Trash/Recycling",
    "request_reason": "Request a Large Item Pick Up",
    "date_created": "2025-10-20T13:46:04.000",
    "date_modified": "2025-10-20T13:46:06.000",
    "request_status": "Pending",
    "responsible_agency": "Department of Sanitation",
    "final_address": "7522 Marquis St",
    "address_councildis": "E",
    "status": "Assigned to Contractor",
    "contractor": "Waste Pro",
    "rowid": "1234688",
    "final_x": "3711608.80664",
    "final_y": "565671.900258",
    "longitude": "-89.97171705909957",
    "latitude": "30.048451771912042",
    "geocoded_column": {
      "latitude": "30.048451771912042",
      "longitude": "-89.97171705909957"
    }
  },
  {
    "service_request": "2025-1234687",
    "request_type": "Mosquito, Termite & Rodent Control",
    "request_reason": "Mosquito Complaint",
    "date_created": "2025-10-20T13:45:57.000",
    "date_modified": "2025-10-20T15:43:38.000",
    "case_close_date": "2025-10-20T10:43:37.000",
    "request_status": "Closed",
    "responsible_agency": "Mosquito, Termite & Rodent Control Board",
    "final_address": "4309 Genoa St",
    "address_councildis": "E",
    "status": "Resolved",
    "rowid": "1234687",
    "final_x": "3760880.59145",
    "final_y": "573201.015849",
    "longitude": "-89.81567847914471",
    "latitude": "30.067451447798",
    "geocoded_column": {
      "latitude": "30.067451447798",
      "longitude": "-89.81567847914471"
    }
  },
  {
    "service_request": "2025-1234686",
    "request_type": "Roads and Streets",
    "request_reason": "Sidewalk Damaged or Missing",
    "date_created": "2025-10-20T13:44:03.000",
    "date_modified": "2025-10-20T13:46:17.000",
    "request_status": "Pending",
    "responsible_agency": "Department of Public Works",
    "final_address": "623 Bourbon St",
    "address_councildis": "C",
    "status": "Pending",
    "rowid": "1234686",
    "final_x": "3682129.81954",
    "final_y": "532543.02938",
    "longitude": "-90.06604585259454",
    "latitude": "29.958289527762474",
    "geocoded_column": {
      "latitude": "29.958289527762474",
      "longitude": "-90.06604585259454"
    }
  },
  {
    "service_request": "2025-1234685",
    "request_type": "Trash/Recycling",
    "request_reason": "Request a Large Item Pick Up",
    "date_created": "2025-10-20T13:42:08.000",
    "date_modified": "2025-10-20T13:42:11.000",
    "request_status": "Pending",
    "responsible_agency": "Department of Sanitation",
    "final_address": "5611 Congress Dr",
    "address_councildis": "D",
    "status": "Assigned to Contractor",
    "contractor": "IV Waste",
    "rowid": "1234685",
    "final_x": "3691550.39836",
    "final_y": "554554.208344",
    "longitude": "-90.03551109645166",
    "latitude": "30.018522478462405",
    "geocoded_column": {
      "latitude": "30.018522478462405",
      "longitude": "-90.03551109645166"
    }
  },
  {
    "service_request": "2025-1234684",
    "request_type": "Property Maintenance",
    "request_reason": "Property Maintenance",
    "date_created": "2025-10-20T13:41:21.000",
    "date_modified": "2025-10-20T13:42:08.000",
    "request_status": "Pending",
    "responsible_agency": "Department of Code Enforcement",
    "final_address": "4202 Fontainebleau Dr",
    "address_councildis": "A",
    "status": "Pending",
    "rowid": "1234684",
    "final_x": "3669702.81082",
    "final_y": "529144.14272",
    "longitude": "-90.10540209935473",
    "latitude": "29.949315773381294",
    "geocoded_column": {
      "latitude": "29.949315773381294",
      "longitude": "-90.10540209935473"
    }
  },
  {
    "service_request": "2025-1234683",
    "request_type": "Trash/Recycling",
    "request_reason": "Request a Large Item Pick Up",
    "date_created": "2025-10-20T13:39:16.000",
    "date_modified": "2025-10-20T13:39:18.000",
    "request_status": "Pending",
    "responsible_agency": "Department of Sanitation",
    "final_address": "4466 Eastern St",
    "address_councildis": "D",
    "status": "Assigned to Contractor",
    "contractor": "IV Waste",
    "rowid": "1234683",
    "final_x": "3687999.60451",
    "final_y": "549704.094612",
    "longitude": "-90.04690232890597",
    "latitude": "30.005296554207053",
    "geocoded_column": {
      "latitude": "30.005296554207053",
      "longitude": "-90.04690232890597"
    }
  },
  {
    "service_request": "2025-1234682",
    "request_type": "Streetlights",
    "request_reason": "Streetlight Outage/Malfunction",
    "date_created": "2025-10-20T13:36:28.000",
    "date_modified": "2025-10-20T13:37:22.000",
    "request_status": "Pending",
    "responsible_agency": "Department of Public Works",
    "final_address": "ROYAL ST & BARRACKS ST",
    "address_councildis": "C",
    "status": "Pending",
    "rowid": "1234682",
    "final_x": "3683877.6",
    "final_y": "534190.68",
    "longitude": "-90.06046904866474",
    "latitude": "29.96276673439766",
    "geocoded_column": {
      "latitude": "29.96276673439766",
      "longitude": "-90.06046904866474"
    }
  },
  {
    "service_request": "2025-1234681",
    "request_type": "Mosquito, Termite & Rodent Control",
    "request_reason": "Rodent Complaint (Mice & Rats)",
    "date_created": "2025-10-20T13:34:40.000",
    "date_modified": "2025-10-20T13:34:43.000",
    "request_status": "Pending",
    "responsible_agency": "Mosquito, Termite & Rodent Control Board",
    "final_address": "4511 Lonely Oak Dr",
    "address_councildis": "E",
    "status": "Pending",
    "rowid": "1234681",
    "final_x": "3702486.25495",
    "final_y": "553338.273687",
    "longitude": "-90.00100269874417",
    "latitude": "30.014834009486815",
    "geocoded_column": {
      "latitude": "30.014834009486815",
      "longitude": "-90.00100269874417"
    }
  },
  {
    "service_request": "2025-1234680",
    "request_type": "Trash/Recycling",
    "request_reason": "Request a Large Item Pick Up",
    "date_created": "2025-10-20T13:31:24.000",
    "date_modified": "2025-10-20T13:31:31.000",
    "request_status": "Pending",
    "responsible_agency": "Department of Sanitation",
    "final_address": "7900 Oneida St",
    "address_councildis": "E",
    "status": "Assigned to Contractor",
    "contractor": "Waste Pro",
    "rowid": "1234680",
    "final_x": "3713284.42642",
    "final_y": "568861.427941",
    "longitude": "-89.96630091222254",
    "latitude": "30.05716681585658",
    "geocoded_column": {
      "latitude": "30.05716681585658",
      "longitude": "-89.96630091222254"
    }
  },
  {
    "service_request": "2025-1234679",
    "request_type": "Trash/Recycling",
    "request_reason": "Order Recycling Cart",
    "date_created": "2025-10-20T13:25:40.000",
    "date_modified": "2025-10-20T13:26:03.000",
    "request_status": "Pending",
    "responsible_agency": "Department of Sanitation",
    "final_address": "1505 N Broad St",
    "address_councildis": "D",
    "status": "Pending",
    "rowid": "1234679",
    "final_x": "3678650.69173",
    "final_y": "539650.802442",
    "longitude": "-90.07678586538758",
    "latitude": "29.977938820397537",
    "geocoded_column": {
      "latitude": "29.977938820397537",
      "longitude": "-90.07678586538758"
    }
  },
  {
    "service_request": "2025-1234678",
    "request_type": "Parks & Parkways",
    "request_reason": "Request Tree Service (Right of Way/Public Property)",
    "date_created": "2025-10-20T13:25:18.000",
    "date_modified": "2025-10-20T13:25:20.000",
    "request_status": "Pending",
    "responsible_agency": "Department of Parks & Parkway",
    "final_address": "1562 De Battista Pl",
    "address_councildis": "C",
    "status": "Pending",
    "rowid": "1234678",
    "final_x": "3699814.68304",
    "final_y": "525292.962301",
    "longitude": "-90.01046651861732",
    "latitude": "29.937804731383093",
    "geocoded_column": {
      "latitude": "29.937804731383093",
      "longitude": "-90.01046651861732"
    }
  },
  {
    "service_request": "2025-1234677",
    "request_type": "Trash/Recycling",
    "request_reason": "Replace Trash Cart",
    "date_created": "2025-10-20T13:23:07.000",
    "date_modified": "2025-10-20T13:23:10.000",
    "request_status": "Pending",
    "responsible_agency": "Department of Sanitation",
    "final_address": "4623 Dart St",
    "address_councildis": "B",
    "status": "Assigned to Contractor",
    "contractor": "IV Waste",
    "rowid": "1234677",
    "final_x": "3669207.88385",
    "final_y": "531658.224579",
    "longitude": "-90.106879842914",
    "latitude": "29.956243248612864",
    "geocoded_column": {
      "latitude": "29.956243248612864",
      "longitude": "-90.106879842914"
    }
  },
  {
    "service_request": "2025-1234676",
    "request_type": "Abandoned Vehicles",
    "request_reason": "Abandoned/Junk Vehicles",
    "date_created": "2025-10-20T13:21:08.000",
    "date_modified": "2025-10-20T13:21:41.000",
    "request_status": "Pending",
    "responsible_agency": "Department of Public Works",
    "final_address": "W LAVERNE ST & CURRAN BLVD",
    "address_councildis": "E",
    "status": "Pending",
    "rowid": "1234676",
    "final_x": "3695106.2",
    "final_y": "558801.28",
    "longitude": "-90.02412279066213",
    "latitude": "30.030089096767927",
    "geocoded_column": {
      "latitude": "30.030089096767927",
      "longitude": "-90.02412279066213"
    }
  },
  {
    "service_request": "2025-1234675",
    "request_type": "Streetlights",
    "request_reason": "Streetlight Outage/Malfunction",
    "date_created": "2025-10-20T13:18:45.000",
    "date_modified": "2025-10-20T13:25:20.000",
    "request_status": "Pending",
    "responsible_agency": "Department of Public Works",
    "final_address": "I 10 W EXIT & LITTLE WOODS EXIT",
    "address_councildis": "E",
    "status": "Pending",
    "rowid": "1234675",
    "final_x": "3722151.2",
    "final_y": "569547.98",
    "longitude": "-89.93824824370488",
    "latitude": "30.05876070030707",
    "geocoded_column": {
      "latitude": "30.05876070030707",
      "longitude": "-89.93824824370488"
    }
  },
  {
    "service_request": "2025-1234674",
    "request_type": "Trash/Recycling",
    "request_reason": "Request a Large Item Pick Up",
    "date_created": "2025-10-20T13:12:43.000",
    "date_modified": "2025-10-20T13:13:37.000",
    "request_status": "Pending",
    "responsible_agency": "Department of Sanitation",
    "final_address": "1306 Jefferson Ave",
    "address_councildis": "A",
    "status": "Assigned to Contractor",
    "contractor": "IV Waste",
    "rowid": "1234674",
    "final_x": "3667009.81249",
    "final_y": "520153.925176",
    "longitude": "-90.1142071396092",
    "latitude": "29.924674633211534",
    "geocoded_column": {
      "latitude": "29.924674633211534",
      "longitude": "-90.1142071396092"
    }
  },
  {
    "service_request": "2025-1234673",
    "request_type": "Trash/Recycling",
    "request_reason": "Illegal Dumping",
    "date_created": "2025-10-20T13:11:50.000",
    "date_modified": "2025-10-20T13:12:08.000",
    "request_status": "Pending",
    "responsible_agency": "Department of Sanitation",
    "final_address": "4319 N Villere St",
    "address_councildis": "D",
    "status": "Pending",
    "rowid": "1234673",
    "final_x": "3693149.26979",
    "final_y": "536180.110279",
    "longitude": "-90.03111904942357",
    "latitude": "29.967950507987016",
    "geocoded_column": {
      "latitude": "29.967950507987016",
      "longitude": "-90.03111904942357"
    }
  },
  {
    "service_request": "2025-1234672",
    "request_type": "Streetlights",
    "request_reason": "Streetlight Outage/Malfunction",
    "date_created": "2025-10-20T13:07:33.000",
    "date_modified": "2025-10-20T13:07:35.000",
    "request_status": "Pending",
    "responsible_agency": "Department of Public Works",
    "final_address": "4750 Sandalwood St",
    "address_councildis": "E",
    "status": "Pending",
    "rowid": "1234672",
    "final_x": "3712148.50187",
    "final_y": "556201.417178",
    "longitude": "-89.97036736476306",
    "latitude": "30.02239407797288",
    "geocoded_column": {
      "latitude": "30.02239407797288",
      "longitude": "-89.97036736476306"
    }
  },
  {
    "service_request": "2025-1234671",
    "request_type": "Abandoned Vehicles",
    "request_reason": "Abandoned/Junk Vehicles",
    "date_created": "2025-10-20T13:04:09.000",
    "date_modified": "2025-10-20T13:07:37.000",
    "request_status": "Pending",
    "responsible_agency": "Department of Public Works",
    "final_address": "KENILWORTH ST & GENERAL HAIG ST",
    "address_councildis": "A",
    "status": "Inspected",
    "rowid": "1234671",
    "final_x": "3670395.7",
    "final_y": "545616.08",
    "longitude": "-90.10265573470208",
    "latitude": "29.99458762440026",
    "geocoded_column": {
      "latitude": "29.99458762440026",
      "longitude": "-90.10265573470208"
    }
  },
  {
    "service_request": "2025-1234670",
    "request_type": "Trash/Recycling",
    "request_reason": "Request a Large Item Pick Up",
    "date_created": "2025-10-20T13:01:45.000",
    "date_modified": "2025-10-20T13:01:47.000",
    "request_status": "Pending",
    "responsible_agency": "Department of Sanitation",
    "final_address": "17 Sullivan Pl",
    "address_councildis": "C",
    "status": "Assigned to Contractor",
    "contractor": "Richards Disposal",
    "rowid": "1234670",
    "final_x": "3702214.63722",
    "final_y": "522039.08921",
    "longitude": "-90.00300899138315",
    "latitude": "29.92878131044762",
    "geocoded_column": {
      "latitude": "29.92878131044762",
      "longitude": "-90.00300899138315"
    }
  },
  {
    "service_request": "2025-1234669",
    "request_type": "Parks & Parkways",
    "request_reason": "Request Tree Service (Right of Way/Public Property)",
    "date_created": "2025-10-20T13:01:31.000",
    "date_modified": "2025-10-20T13:01:45.000",
    "request_status": "Pending",
    "responsible_agency": "Department of Parks & Parkway",
    "final_address": "7940 Vanderkloot Ave",
    "address_councildis": "E",
    "status": "Pending",
    "rowid": "1234669",
    "final_x": "3705263.06942",
    "final_y": "564133.761441",
    "longitude": "-89.99183004591627",
    "latitude": "30.04442831600162",
    "geocoded_column": {
      "latitude": "30.04442831600162",
      "longitude": "-89.99183004591627"
    }
  },
  {
    "service_request": "2025-1234668",
    "request_type": "Trash/Recycling",
    "request_reason": "Illegal Dumping",
    "date_created": "2025-10-20T13:01:21.000",
    "date_modified": "2025-10-20T13:01:42.000",
    "request_status": "Pending",
    "responsible_agency": "Department of Code Enforcement",
    "final_address": "1411 Eliza St",
    "address_councildis": "C",
    "status": "Pending",
    "rowid": "1234668",
    "final_x": "3689971.8943",
    "final_y": "529772.633921",
    "longitude": "-90.0413814291232",
    "latitude": "29.95043108320431",
    "geocoded_column": {
      "latitude": "29.95043108320431",
      "longitude": "-90.0413814291232"
    }
  },
  {
    "service_request": "2025-1234667",
    "request_type": "Trash/Recycling",
    "request_reason": "Request a Large Item Pick Up",
    "date_created": "2025-10-20T13:00:53.000",
    "date_modified": "2025-10-20T13:00:54.000",
    "request_status": "Pending",
    "responsible_agency": "Department of Sanitation",
    "final_address": "7940 Vanderkloot Ave",
    "address_councildis": "E",
    "status": "Assigned to Contractor",
    "contractor": "Waste Pro",
    "rowid": "1234667",
    "final_x": "3705263.06942",
    "final_y": "564133.761441",
    "longitude": "-89.99183004591627",
    "latitude": "30.04442831600162",
    "geocoded_column": {
      "latitude": "30.04442831600162",
      "longitude": "-89.99183004591627"
    }
  },
  {
    "service_request": "2025-1234666",
    "request_type": "Trash/Recycling",
    "request_reason": "Illegal Dumping",
    "date_created": "2025-10-20T12:59:48.000",
    "date_modified": "2025-10-20T12:59:51.000",
    "request_status": "Pending",
    "responsible_agency": "Department of Sanitation",
    "final_address": "4339 Eastern St",
    "address_councildis": "D",
    "status": "Pending",
    "rowid": "1234666",
    "final_x": "3688215.6511",
    "final_y": "549120.968723",
    "longitude": "-90.04624048601832",
    "latitude": "30.003686499432717",
    "geocoded_column": {
      "latitude": "30.003686499432717",
      "longitude": "-90.04624048601832"
    }
  },
  {
    "service_request": "2025-1234665",
    "request_type": "Streetlights",
    "request_reason": "Streetlight Outage/Malfunction",
    "date_created": "2025-10-20T12:53:10.000",
    "date_modified": "2025-10-20T12:53:12.000",
    "request_status": "Pending",
    "responsible_agency": "Department of Public Works",
    "final_address": "3137 Derby Pl",
    "address_councildis": "A",
    "status": "Pending",
    "rowid": "1234665",
    "final_x": "3678074.41704",
    "final_y": "542934.176973",
    "longitude": "-90.0784923780604",
    "latitude": "29.98698432536422",
    "geocoded_column": {
      "latitude": "29.98698432536422",
      "longitude": "-90.0784923780604"
    }
  },
  {
    "service_request": "2025-1234664",
    "request_type": "Trash/Recycling",
    "request_reason": "Repair Trash Cart",
    "date_created": "2025-10-20T12:52:58.000",
    "date_modified": "2025-10-20T12:52:59.000",
    "request_status": "Pending",
    "responsible_agency": "Department of Sanitation",
    "final_address": "2426 St Ann St",
    "address_councildis": "D",
    "status": "Assigned to Contractor",
    "contractor": "IV Waste",
    "rowid": "1234664",
    "final_x": "3677796.79848",
    "final_y": "536474.059527",
    "longitude": "-90.07959254117712",
    "latitude": "29.969229587187424",
    "geocoded_column": {
      "latitude": "29.969229587187424",
      "longitude": "-90.07959254117712"
    }
  },
  {
    "service_request": "2025-1234663",
    "request_type": "Trash/Recycling",
    "request_reason": "Request a Large Item Pick Up",
    "date_created": "2025-10-20T12:51:50.000",
    "date_modified": "2025-10-20T12:51:52.000",
    "request_status": "Pending",
    "responsible_agency": "Department of Sanitation",
    "final_address": "6001 Elysian Fields Ave",
    "address_councildis": "D",
    "status": "Assigned to Contractor",
    "contractor": "IV Waste",
    "rowid": "1234663",
    "final_x": "3683646.56655",
    "final_y": "555019.968985",
    "longitude": "-90.06046794191691",
    "latitude": "30.020046933185768",
    "geocoded_column": {
      "latitude": "30.020046933185768",
      "longitude": "-90.06046794191691"
    }
  },
  {
    "service_request": "2025-1234662",
    "request_type": "Trash/Recycling",
    "request_reason": "Return Recycling Cart",
    "date_created": "2025-10-20T12:49:34.000",
    "date_modified": "2025-10-20T12:49:36.000",
    "request_status": "Pending",
    "responsible_agency": "Department of Sanitation",
    "final_address": "4024 S Pin Oak Ave",
    "address_councildis": "C",
    "status": "Pending",
    "rowid": "1234662",
    "final_x": "3704940.06974",
    "final_y": "513201.72133",
    "longitude": "-89.99473133716256",
    "latitude": "29.90439431028646",
    "geocoded_column": {
      "latitude": "29.90439431028646",
      "longitude": "-89.99473133716256"
    }
  },
  {
    "service_request": "2025-1234661",
    "request_type": "Abandoned Vehicles",
    "request_reason": "Abandoned/Junk Vehicles",
    "date_created": "2025-10-20T12:45:43.000",
    "date_modified": "2025-10-20T12:45:45.000",
    "request_status": "Pending",
    "responsible_agency": "Department of Public Works",
    "final_address": "8339 Chef Menteur Hwy",
    "address_councildis": "E",
    "status": "Pending",
    "rowid": "1234661",
    "final_x": "3706277.60113",
    "final_y": "553185.431575",
    "longitude": "-89.98902963715075",
    "latitude": "30.01429199270358",
    "geocoded_column": {
      "latitude": "30.01429199270358",
      "longitude": "-89.98902963715075"
    }
  },
  {
    "service_request": "2025-1234660",
    "request_type": "Trash/Recycling",
    "request_reason": "Repair Recycling Cart",
    "date_created": "2025-10-20T12:43:46.000",
    "date_modified": "2025-10-20T12:44:35.000",
    "request_status": "Pending",
    "responsible_agency": "Department of Sanitation",
    "final_address": "814 Alix St",
    "address_councildis": "C",
    "status": "Pending",
    "rowid": "1234660",
    "final_x": "3688019.527",
    "final_y": "530375.641346",
    "longitude": "-90.04752460693267",
    "latitude": "29.9521495313259",
    "geocoded_column": {
      "latitude": "29.9521495313259",
      "longitude": "-90.04752460693267"
    }
  },
  {
    "service_request": "2025-1234659",
    "request_type": "Trash/Recycling",
    "request_reason": "Order Trash Cart",
    "date_created": "2025-10-20T12:42:17.000",
    "date_modified": "2025-10-20T12:42:19.000",
    "request_status": "Pending",
    "responsible_agency": "Department of Sanitation",
    "final_address": "1903 Foucher St",
    "address_councildis": "B",
    "status": "Assigned to Contractor",
    "contractor": "IV Waste",
    "rowid": "1234659",
    "final_x": "3673152.69851",
    "final_y": "522370.760186",
    "longitude": "-90.09474042856331",
    "latitude": "29.930589074275872",
    "geocoded_column": {
      "latitude": "29.930589074275872",
      "longitude": "-90.09474042856331"
    }
  },
  {
    "service_request": "2025-1234658",
    "request_type": "Trash/Recycling",
    "request_reason": "Repair Trash Cart",
    "date_created": "2025-10-20T12:42:07.000",
    "date_modified": "2025-10-20T12:42:09.000",
    "request_status": "Pending",
    "responsible_agency": "Department of Sanitation",
    "final_address": "814 Alix St",
    "address_councildis": "C",
    "status": "Assigned to Contractor",
    "contractor": "Richards Disposal",
    "rowid": "1234658",
    "final_x": "3688019.527",
    "final_y": "530375.641346",
    "longitude": "-90.04752460693267",
    "latitude": "29.9521495313259",
    "geocoded_column": {
      "latitude": "29.9521495313259",
      "longitude": "-90.04752460693267"
    }
  },
  {
    "service_request": "2025-1234657",
    "request_type": "Roads and Streets",
    "request_reason": "Sidewalk Damaged or Missing",
    "date_created": "2025-10-20T12:41:24.000",
    "date_modified": "2025-10-20T12:41:27.000",
    "request_status": "Pending",
    "responsible_agency": "Department of Public Works",
    "final_address": "339 Bourbon St",
    "address_councildis": "C",
    "status": "Pending",
    "rowid": "1234657",
    "final_x": "3681544.78351",
    "final_y": "531785.640835",
    "longitude": "-90.0679196481472",
    "latitude": "29.956224745163606",
    "geocoded_column": {
      "latitude": "29.956224745163606",
      "longitude": "-90.0679196481472"
    }
  },
  {
    "service_request": "2025-1234656",
    "request_type": "Trash/Recycling",
    "request_reason": "Request a Large Item Pick Up",
    "date_created": "2025-10-20T12:36:36.000",
    "date_modified": "2025-10-20T12:36:37.000",
    "request_status": "Pending",
    "responsible_agency": "Department of Sanitation",
    "final_address": "8135 Pritchard Pl",
    "address_councildis": "A",
    "status": "Assigned to Contractor",
    "contractor": "IV Waste",
    "rowid": "1234656",
    "final_x": "3665892.25658",
    "final_y": "533120.974852",
    "longitude": "-90.11730050149758",
    "latitude": "29.96036249912106",
    "geocoded_column": {
      "latitude": "29.96036249912106",
      "longitude": "-90.11730050149758"
    }
  },
  {
    "service_request": "2025-1234655",
    "request_type": "Trash/Recycling",
    "request_reason": "Request a Large Item Pick Up",
    "date_created": "2025-10-20T12:35:44.000",
    "date_modified": "2025-10-20T12:35:45.000",
    "request_status": "Pending",
    "responsible_agency": "Department of Sanitation",
    "final_address": "11442 Curran Rd",
    "address_councildis": "E",
    "status": "Assigned to Contractor",
    "contractor": "Waste Pro",
    "rowid": "1234655",
    "final_x": "3711648.23026",
    "final_y": "566796.345251",
    "longitude": "-89.97155022222152",
    "latitude": "30.051542251738184",
    "geocoded_column": {
      "latitude": "30.051542251738184",
      "longitude": "-89.97155022222152"
    }
  },
  {
    "service_request": "2025-1234654",
    "request_type": "Streetlights",
    "request_reason": "Streetlight Outage/Malfunction",
    "date_created": "2025-10-20T12:35:12.000",
    "date_modified": "2025-10-20T12:36:01.000",
    "request_status": "Pending",
    "responsible_agency": "Department of Public Works",
    "final_address": "2365 Oriole St",
    "address_councildis": "D",
    "status": "Pending",
    "rowid": "1234654",
    "final_x": "3684546.6726",
    "final_y": "558230.608092",
    "longitude": "-90.05751094233392",
    "latitude": "30.028847478552503",
    "geocoded_column": {
      "latitude": "30.028847478552503",
      "longitude": "-90.05751094233392"
    }
  },