[
  {
    "service_request": "2024-1063204",
    "request_type": "Trash/Recycling",
    "request_reason": "Order Recycling Cart",
    "date_created": "2024-01-23T21:36:34.000",
    "date_modified": "2024-01-23T21:36:34.000",
    "request_status": "Pending",
    "responsible_agency": "Department of Sanitation",
    "final_address": "1235 Frenchmen St",
    "address_councildis": "C",
    "status": "Pending",
    "rowid": "1063204",
    "final_x": "3684563.73007",
    "final_y": "536928.665352",
    "longitude": "-90.0582061250775",
    "latitude": "29.9702742714496",
    "geocoded_column": {
      "latitude": "29.9702742714496",
      "longitude": "-90.0582061250775"
    }
  },
  {
    "service_request": "2024-1063202",
    "request_type": "Abandoned Vehicles",
    "request_reason": "Vehicle Blocking Your Driveway",
    "date_created": "2024-01-23T20:51:17.000",
    "date_modified": "2024-01-23T20:51:17.000",
    "request_status": "Pending",
    "responsible_agency": "Department of Public Works",
    "final_address": "4015 Banks St",
    "address_councildis": "A",
    "status": "Pending",
    "rowid": "1063202",
    "final_x": "3670686.00852",
    "final_y": "537232.649352",
    "longitude": "-90.1020232592935",
    "latitude": "29.971527472602105",
    "geocoded_column": {
      "latitude": "29.971527472602105",
      "longitude": "-90.1020232592935"
    }
  },
  {
    "service_request": "2024-1063201",
    "request_type": "Trash/Recycling",
    "request_reason": "Replace Trash Cart",
    "date_created": "2024-01-23T20:48:18.000",
    "date_modified": "2024-01-23T20:48:19.000",
    "request_status": "Pending",
    "responsible_agency": "Department of Sanitation",
    "final_address": "3350 Dumaine St",
    "address_councildis": "A",
    "status": "Assigned to Contractor",
    "contractor": "Richards Disposal",
    "rowid": "1063201",
    "final_x": "3674782.02805",
    "final_y": "539279.033546",
    "longitude": "-90.0890172272328",
    "latitude": "29.977032668431008",
    "geocoded_column": {
      "latitude": "29.977032668431008",
      "longitude": "-90.0890172272328"
    }
  },
  {
    "service_request": "2024-1063200",
    "request_type": "Trash/Recycling",
    "request_reason": "Illegal Dumping",
    "date_created": "2024-01-23T20:27:19.000",
    "date_modified": "2024-01-23T20:27:19.000",
    "request_status": "Pending",
    "responsible_agency": "Department of Sanitation",
    "final_address": "3002 Palmyra St",
    "address_councildis": "B",
    "status": "Pending",
    "rowid": "1063200",
    "final_x": "3673777.6866",
    "final_y": "535188.69095",
    "longitude": "-90.09232918099383",
    "latitude": "29.96581556358641",
    "geocoded_column": {
      "latitude": "29.96581556358641",
      "longitude": "-90.09232918099383"
    }
  },
  {
    "service_request": "2024-1063199",
    "request_type": "Trash/Recycling",
    "request_reason": "Request a Large Item Pick Up",
    "date_created": "2024-01-23T18:57:15.000",
    "date_modified": "2024-01-23T18:57:16.000",
    "request_status": "Pending",
    "responsible_agency": "Department of Sanitation",
    "final_address": "819 Port St",
    "address_councildis": "C",
    "status": "Assigned to Contractor",
    "contractor": "IV Waste",
    "rowid": "1063199",
    "final_x": "3687196.31414",
    "final_y": "535410.634886",
    "longitude": "-90.04994585747143",
    "latitude": "29.96601940001161",
    "geocoded_column": {
      "latitude": "29.96601940001161",
      "longitude": "-90.04994585747143"
    }
  },
  {
    "service_request": "2024-1063198",
    "request_type": "Trash/Recycling",
    "request_reason": "Missed Trash Pick-Up",
    "date_created": "2024-01-23T18:51:59.000",
    "date_modified": "2024-01-23T18:52:00.000",
    "request_status": "Pending",
    "responsible_agency": "Department of Sanitation",
    "final_address": "2222 Soniat St",
    "address_councildis": "B",
    "status": "Assigned to Contractor",
    "contractor": "Richards Disposal",
    "rowid": "1063198",
    "final_x": "3668466.89185",
    "final_y": "523770.297275",
    "longitude": "-90.1094856850128",
    "latitude": "29.934575795998267",
    "geocoded_column": {
      "latitude": "29.934575795998267",
      "longitude": "-90.1094856850128"
    }
  },
  {
    "service_request": "2024-1063197",
    "request_type": "Traffic Signals/Signs/Striping/Streetlights",
    "request_reason": "Street Light Outage/Malfunction",
    "date_created": "2024-01-23T18:36:46.000",
    "date_modified": "2024-01-23T18:36:47.000",
    "request_status": "Pending",
    "responsible_agency": "Department of Public Works",
    "final_address": "4041 State Street Dr, New Orleans, Louisiana, 70125",
    "address_councildis": "B",
    "status": "Assigned to Contractor",
    "contractor": "Legacy Professional Services",
    "rowid": "1063197",
    "final_x": "3668330.87988",
    "final_y": "530499.85805",
    "longitude": "-90.10968819641269",
    "latitude": "29.95308390258863",
    "geocoded_column": {
      "latitude": "29.95308390258863",
      "longitude": "-90.10968819641269"
    }
  },
  {
    "service_request": "2024-1063196",
    "request_type": "Traffic Signals/Signs/Striping/Streetlights",
    "request_reason": "Street Light Outage/Malfunction",
    "date_created": "2024-01-23T18:35:18.000",
    "date_modified": "2024-01-23T18:35:19.000",
    "request_status": "Pending",
    "responsible_agency": "Department of Public Works",
    "final_address": "4072 State Street Dr, New Orleans, Louisiana, 70125",
    "address_councildis": "B",
    "status": "Assigned to Contractor",
    "contractor": "Legacy Professional Services",
    "rowid": "1063196",
    "final_x": "3668233.31969",
    "final_y": "530506.583618",
    "longitude": "-90.109996023198",
    "latitude": "29.953105260071304",
    "geocoded_column": {
      "latitude": "29.953105260071304",
      "longitude": "-90.109996023198"
    }
  },
  {
    "service_request": "2024-1063195",
    "request_type": "Trash/Recycling",
    "request_reason": "Order Trash Cart",
    "date_created": "2024-01-23T18:24:43.000",
    "date_modified": "2024-01-23T18:24:44.000",
    "request_status": "Pending",
    "responsible_agency": "Department of Sanitation",
    "final_address": "2832 Spain St",
    "address_councildis": "D",
    "status": "Assigned to Contractor",
    "contractor": "IV Waste",
    "rowid": "1063195",
    "final_x": "3685543.24566",
    "final_y": "543295.87579",
    "longitude": "-90.05488836156019",
    "latitude": "29.98775185201155",
    "geocoded_column": {
      "latitude": "29.98775185201155",
      "longitude": "-90.05488836156019"
    }
  },
  {
    "service_request": "2024-1063194",
    "request_type": "Trash/Recycling",
    "request_reason": "Order Trash Cart",
    "date_created": "2024-01-23T18:22:44.000",
    "date_modified": "2024-01-23T18:22:45.000",
    "request_status": "Pending",
    "responsible_agency": "Department of Sanitation",
    "final_address": "2830 Spain St",
    "address_councildis": "D",
    "status": "Assigned to Contractor",
    "contractor": "IV Waste",
    "rowid": "1063194",
    "final_x": "3685543.91042",
    "final_y": "543276.175374",
    "longitude": "-90.0548869560958",
    "latitude": "29.987697662472666",
    "geocoded_column": {
      "latitude": "29.987697662472666",
      "longitude": "-90.0548869560958"
    }
  },
  {
    "service_request": "2024-1063193",
    "request_type": "Roads/Drainage",
    "request_reason": "Pothole",
    "date_created": "2024-01-23T18:19:05.000",
    "date_modified": "2024-01-23T18:19:05.000",
    "request_status": "Pending",
    "responsible_agency": "Department of Public Works",
    "final_address": "4216 Chestnut St",
    "address_councildis": "B",
    "status": "Pending",
    "rowid": "1063193",
    "final_x": "3671574.31393",
    "final_y": "519539.203703",
    "longitude": "-90.09981939416457",
    "latitude": "29.922850019854593",
    "geocoded_column": {
      "latitude": "29.922850019854593",
      "longitude": "-90.09981939416457"
    }
  },
  {
    "service_request": "2024-1063192",
    "request_type": "Trash/Recycling",
    "request_reason": "Request a Large Item Pick Up",
    "date_created": "2024-01-23T17:59:39.000",
    "date_modified": "2024-01-23T17:59:40.000",
    "request_status": "Pending",
    "responsible_agency": "Department of Sanitation",
    "final_address": "161 W Greenbrier Dr",
    "address_councildis": "E",
    "status": "Assigned to Contractor",
    "contractor": "Waste Pro",
    "rowid": "1063192",
    "final_x": "3716997.28684",
    "final_y": "565025.833954",
    "longitude": "-89.95471108726204",
    "latitude": "30.046498189526996",
    "geocoded_column": {
      "latitude": "30.046498189526996",
      "longitude": "-89.95471108726204"
    }
  },
  {
    "service_request": "2024-1063191",
    "request_type": "Traffic Signals/Signs/Striping/Streetlights",
    "request_reason": "Street Light Outage/Malfunction",
    "date_created": "2024-01-23T17:46:32.000",
    "date_modified": "2024-01-23T17:46:33.000",
    "request_status": "Pending",
    "responsible_agency": "Department of Public Works",
    "final_address": "838 Esplanade Ave",
    "address_councildis": "C",
    "status": "Assigned to Contractor",
    "contractor": "Legacy Professional Services",
    "rowid": "1063191",
    "final_x": "3683471.17653",
    "final_y": "534790.137798",
    "longitude": "-90.06173147171613",
    "latitude": "29.96442744505627",
    "geocoded_column": {
      "latitude": "29.96442744505627",
      "longitude": "-90.06173147171613"
    }
  },
  {
    "service_request": "2024-1063190",
    "request_type": "Trash/Recycling",
    "request_reason": "Repair Trash Cart",
    "date_created": "2024-01-23T17:33:38.000",
    "date_modified": "2024-01-23T17:33:38.000",
    "request_status": "Pending",
    "responsible_agency": "Department of Sanitation",
    "final_address": "212 Alonzo St",
    "address_councildis": "A",
    "status": "Assigned to Contractor",
    "contractor": "Richards Disposal",
    "rowid": "1063190",
    "final_x": "3664471.77088",
    "final_y": "517167.838325",
    "longitude": "-90.12231854418529",
    "latitude": "29.916537834419888",
    "geocoded_column": {
      "latitude": "29.916537834419888",
      "longitude": "-90.12231854418529"
    }
  },
  {
    "service_request": "2024-1063189",
    "request_type": "Abandoned Vehicles",
    "request_reason": "Vehicle Blocking Your Driveway",
    "date_created": "2024-01-23T17:30:37.000",
    "date_modified": "2024-01-23T17:30:37.000",
    "request_status": "Pending",
    "responsible_agency": "Department of Public Works",
    "final_address": "7513 Hampson St",
    "address_councildis": "A",
    "status": "Pending",
    "rowid": "1063189",
    "final_x": "3662306.85901",
    "final_y": "525781.818813",
    "longitude": "-90.12886611857303",
    "latitude": "29.940286317944537",
    "geocoded_column": {
      "latitude": "29.940286317944537",
      "longitude": "-90.12886611857303"
    }
  },
  {
    "service_request": "2024-1063188",
    "request_type": "Trash/Recycling",
    "request_reason": "Missed Trash Pick-Up",
    "date_created": "2024-01-23T17:19:42.000",
    "date_modified": "2024-01-23T17:19:43.000",
    "request_status": "Pending",
    "responsible_agency": "Department of Sanitation",
    "final_address": "4718 Stemway Dr",
    "address_councildis": "D",
    "status": "Assigned to Contractor",
    "contractor": "Waste Pro",
    "rowid": "1063188",
    "final_x": "3696829.58211",
    "final_y": "554061.598488",
    "longitude": "-90.01884874693121",
    "latitude": "30.017002519197465",
    "geocoded_column": {
      "latitude": "30.017002519197465",
      "longitude": "-90.01884874693121"
    }
  },
  {
    "service_request": "2024-1063187",
    "request_type": "Trash/Recycling",
    "request_reason": "Request a Large Item Pick Up",
    "date_created": "2024-01-23T17:13:41.000",
    "date_modified": "2024-01-23T17:13:42.000",
    "request_status": "Pending",
    "responsible_agency": "Department of Sanitation",
    "final_address": "6074 Eastover Dr",
    "address_councildis": "E",
    "status": "Assigned to Contractor",
    "contractor": "Waste Pro",
    "rowid": "1063187",
    "final_x": "3718266.70322",
    "final_y": "565555.705762",
    "longitude": "-89.95067891102478",
    "latitude": "30.047913063717903",
    "geocoded_column": {
      "latitude": "30.047913063717903",
      "longitude": "-89.95067891102478"
    }
  },
  {
    "service_request": "2024-1063185",
    "request_type": "Trash/Recycling",
    "request_reason": "Request a Large Item Pick Up",
    "date_created": "2024-01-23T17:01:27.000",
    "date_modified": "2024-01-23T17:01:28.000",
    "request_status": "Pending",
    "responsible_agency": "Department of Sanitation",
    "final_address": "6028 Catina St",
    "address_councildis": "A",
    "status": "Assigned to Contractor",
    "contractor": "IV Waste",
    "rowid": "1063185",
    "final_x": "3666708.33108",
    "final_y": "547812.983314",
    "longitude": "-90.11422988928973",
    "latitude": "30.000736734326313",
    "geocoded_column": {
      "latitude": "30.000736734326313",
      "longitude": "-90.11422988928973"
    }
  },
  {
    "service_request": "2024-1063184",
    "request_type": "Trash/Recycling",
    "request_reason": "Illegal Dumping",
    "date_created": "2024-01-23T16:44:34.000",
    "date_modified": "2024-01-23T16:44:34.000",
    "request_status": "Pending",
    "responsible_agency": "Department of Sanitation",
    "final_address": "LAKE FOREST BLVD & PLAZA DR",
    "address_councildis": "E",
    "status": "Pending",
    "rowid": "1063184",
    "final_x": "3709300.3",
    "final_y": "558762.98",
    "longitude": "-89.97927126124524",
    "latitude": "30.029530218092965",
    "geocoded_column": {
      "latitude": "30.029530218092965",
      "longitude": "-89.97927126124524"
    }
  },
  {
    "service_request": "2024-1063183",
    "request_type": "Trash/Recycling",
    "request_reason": "Illegal Dumping",
    "date_created": "2024-01-23T16:38:54.000",
    "date_modified": "2024-01-23T16:38:54.000",
    "request_status": "Pending",
    "responsible_agency": "Department of Sanitation",
    "final_address": "BULLARD AVE & MORRISON RD",
    "address_councildis": "E",
    "status": "Pending",
    "rowid": "1063183",
    "final_x": "3713539.6",
    "final_y": "566740.48",
    "longitude": "-89.96557437676248",
    "latitude": "30.051326703254574",
    "geocoded_column": {
      "latitude": "30.051326703254574",
      "longitude": "-89.96557437676248"
    }
  },
  {
    "service_request": "2024-1063182",
    "request_type": "Trash/Recycling",
    "request_reason": "Order Trash Cart",
    "date_created": "2024-01-23T16:37:04.000",
    "date_modified": "2024-01-23T16:37:04.000",
    "request_status": "Pending",
    "responsible_agency": "Department of Sanitation",
    "final_address": "927 N Claiborne Ave",
    "address_councildis": "D",
    "status": "Assigned to Contractor",
    "contractor": "Richards Disposal",
    "rowid": "1063182",
    "final_x": "3680258.89954",
    "final_y": "535419.107526",
    "longitude": "-90.07185372347023",
    "latitude": "29.966254526718167",
    "geocoded_column": {
      "latitude": "29.966254526718167",
      "longitude": "-90.07185372347023"
    }
  },
  {
    "service_request": "2024-1063181",
    "request_type": "Trash/Recycling",
    "request_reason": "Order Trash Cart",
    "date_created": "2024-01-23T16:36:52.000",
    "date_modified": "2024-01-23T16:36:53.000",
    "request_status": "Pending",
    "responsible_agency": "Department of Sanitation",
    "final_address": "925 N Claiborne Ave",
    "address_councildis": "D",
    "status": "Assigned to Contractor",
    "contractor": "Richards Disposal",
    "rowid": "1063181",
    "final_x": "3680253.58338",
    "final_y": "535408.517382",
    "longitude": "-90.0718708799748",
    "latitude": "29.966225568373574",
    "geocoded_column": {
      "latitude": "29.966225568373574",
      "longitude": "-90.0718708799748"
    }
  },
  {
    "service_request": "2024-1063180",
    "request_type": "Traffic Signals/Signs/Striping/Streetlights",
    "request_reason": "Traffic Sign Missing/Damaged",
    "date_created": "2024-01-23T16:36:33.000",
    "date_modified": "2024-01-23T16:36:44.000",
    "request_status": "Pending",
    "responsible_agency": "Department of Public Works",
    "final_address": "6200 Canal Blvd",
    "address_councildis": "A",
    "rowid": "1063180",
    "final_x": "3668437.9938",
    "final_y": "548663.981011",
    "longitude": "-90.10873701117411",
    "latitude": "30.003025968793334",
    "geocoded_column": {
      "latitude": "30.003025968793334",
      "longitude": "-90.10873701117411"
    }
  },
  {
    "service_request": "2024-1063179",
    "request_type": "Trash/Recycling",
    "request_reason": "Request a Large Item Pick Up",
    "date_created": "2024-01-23T16:36:17.000",
    "date_modified": "2024-01-23T16:36:57.000",
    "request_status": "Pending",
    "responsible_agency": "Department of Sanitation",
    "final_address": "3340 Marigny St",
    "address_councildis": "D",
    "status": "Assigned to Contractor",
    "contractor": "IV Waste",
    "rowid": "1063179",
    "final_x": "3684656.17935",
    "final_y": "545135.577807",
    "longitude": "-90.05762560253778",
    "latitude": "29.992837562484212",
    "geocoded_column": {
      "latitude": "29.992837562484212",
      "longitude": "-90.05762560253778"
    }
  },
  {
    "service_request": "2024-1063178",
    "request_type": "Trash/Recycling",
    "request_reason": "Repair Trash Cart",
    "date_created": "2024-01-23T16:31:42.000",
    "date_modified": "2024-01-23T16:31:43.000",
    "request_status": "Pending",
    "responsible_agency": "Department of Sanitation",
    "final_address": "4204 S Broad St",
    "address_councildis": "B",
    "status": "Assigned to Contractor",
    "contractor": "Richards Disposal",
    "rowid": "1063178",
    "final_x": "3670622.80135",
    "final_y": "529231.686785",
    "longitude": "-90.10249430376768",
    "latitude": "29.94952934980224",
    "geocoded_column": {
      "latitude": "29.94952934980224",
      "longitude": "-90.10249430376768"
    }
  },
  {
    "service_request": "2024-1063177",
    "request_type": "Trash/Recycling",
    "request_reason": "Request a Large Item Pick Up",
    "date_created": "2024-01-23T16:30:01.000",
    "date_modified": "2024-01-23T16:30:02.000",
    "request_status": "Pending",
    "responsible_agency": "Department of Sanitation",
    "final_address": "3 Kristen Ct",
    "address_councildis": "E",
    "status": "Assigned to Contractor",
    "contractor": "Waste Pro",
    "rowid": "1063177",
    "final_x": "3713877.40011",
    "final_y": "567117.303972",
    "longitude": "-89.964492484042",
    "latitude": "30.05235172398237",
    "geocoded_column": {
      "latitude": "30.05235172398237",
      "longitude": "-89.964492484042"
    }
  },
  {
    "service_request": "2024-1063176",
    "request_type": "Trash/Recycling",
    "request_reason": "Order Recycling Cart",
    "date_created": "2024-01-23T16:21:35.000",
    "date_modified": "2024-01-23T16:21:35.000",
    "request_status": "Pending",
    "responsible_agency": "Department of Sanitation",
    "final_address": "1631 Sixth St",
    "address_councildis": "B",
    "status": "Pending",
    "rowid": "1063176",
    "final_x": "3675383.72424",
    "final_y": "522475.95353",
    "longitude": "-90.08769379233294",
    "latitude": "29.930811821581226",
    "geocoded_column": {
      "latitude": "29.930811821581226",
      "longitude": "-90.08769379233294"
    }
  },
  {
    "service_request": "2024-1063175",
    "request_type": "Trash/Recycling",
    "request_reason": "Repair Trash Cart",
    "date_created": "2024-01-23T16:20:01.000",
    "date_modified": "2024-01-23T16:20:02.000",
    "request_status": "Pending",
    "responsible_agency": "Department of Sanitation",
    "final_address": "1631 Sixth St",
    "address_councildis": "B",
    "status": "Assigned to Contractor",
    "contractor": "Richards Disposal",
    "rowid": "1063175",
    "final_x": "3675383.72424",
    "final_y": "522475.95353",
    "longitude": "-90.08769379233294",
    "latitude": "29.930811821581226",
    "geocoded_column": {
      "latitude": "29.930811821581226",
      "longitude": "-90.08769379233294"
    }
  },
  {
    "service_request": "2024-1063174",
    "request_type": "Roads/Drainage",
    "request_reason": "Debris in Roadway",
    "date_created": "2024-01-23T16:19:19.000",
    "date_modified": "2024-01-23T16:19:19.000",
    "request_status": "Pending",
    "responsible_agency": "Department of Public Works",
    "final_address": "2501 Orleans Ave",
    "address_councildis": "D",
    "status": "Pending",
    "rowid": "1063174",
    "final_x": "3677590.97774",
    "final_y": "536482.065735",
    "longitude": "-90.08024226222014",
    "latitude": "29.96925779221441",
    "geocoded_column": {
      "latitude": "29.96925779221441",
      "longitude": "-90.08024226222014"
    }
  },
  {
    "service_request": "2024-1063173",
    "request_type": "Trash/Recycling",
    "request_reason": "Request a Large Item Pick Up",
    "date_created": "2024-01-23T16:15:32.000",
    "date_modified": "2024-01-23T16:15:33.000",
    "request_status": "Pending",
    "responsible_agency": "Department of Sanitation",
    "final_address": "3502 Banks St",
    "address_councildis": "B",
    "status": "Assigned to Contractor",
    "contractor": "Richards Disposal",
    "rowid": "1063173",
    "final_x": "3672050.21294",
    "final_y": "536005.978631",
    "longitude": "-90.09775666561171",
    "latitude": "29.96811416182851",
    "geocoded_column": {
      "latitude": "29.96811416182851",
      "longitude": "-90.09775666561171"
    }
  },
  {
    "service_request": "2024-1063172",
    "request_type": "Property Maintenance",
    "request_reason": "Property Maintenance",
    "date_created": "2024-01-23T16:09:06.000",
    "date_modified": "2024-01-23T16:09:06.000",
    "request_status": "Pending",
    "responsible_agency": "Department of Code Enforcement",
    "final_address": "6327 Pandora St",
    "address_councildis": "D",
    "status": "Pending",
    "rowid": "1063172",
    "final_x": "3696895.12029",
    "final_y": "557458.501275",
    "longitude": "-90.01851851916332",
    "latitude": "30.02634064550857",
    "geocoded_column": {
      "latitude": "30.02634064550857",
      "longitude": "-90.01851851916332"
    }
  },
  {
    "service_request": "2024-1063171",
    "request_type": "Property Maintenance",
    "request_reason": "Property Maintenance",
    "date_created": "2024-01-23T16:08:07.000",
    "date_modified": "2024-01-23T16:08:07.000",
    "request_status": "Pending",
    "responsible_agency": "Department of Code Enforcement",
    "final_address": "6337 Pandora St",
    "address_councildis": "D",
    "status": "Pending",
    "rowid": "1063171",
    "final_x": "3696955.54794",
    "final_y": "557479.432155",
    "longitude": "-90.0183268168676",
    "latitude": "30.026396290745026",
    "geocoded_column": {
      "latitude": "30.026396290745026",
      "longitude": "-90.0183268168676"
    }
  },
  {
    "service_request": "2024-1063170",
    "request_type": "Property Maintenance",
    "request_reason": "Property Maintenance",
    "date_created": "2024-01-23T16:07:34.000",
    "date_modified": "2024-01-23T16:07:34.000",
    "request_status": "Pending",
    "responsible_agency": "Department of Code Enforcement",
    "final_address": "6912 W Laverne St",
    "address_councildis": "D",
    "status": "Pending",
    "rowid": "1063170",
    "final_x": "3695956.03837",
    "final_y": "556176.883098",
    "longitude": "-90.02153225603885",
    "latitude": "30.02284627805494",
    "geocoded_column": {
      "latitude": "30.02284627805494",
      "longitude": "-90.02153225603885"
    }
  },
  {
    "service_request": "2024-1063169",
    "request_type": "Property Maintenance",
    "request_reason": "Property Maintenance",
    "date_created": "2024-01-23T16:06:42.000",
    "date_modified": "2024-01-23T16:06:42.000",
    "request_status": "Pending",
    "responsible_agency": "Department of Code Enforcement",
    "final_address": "7137 Virgilian St",
    "address_councildis": "D",
    "status": "Pending",
    "rowid": "1063169",
    "final_x": "3696819.90839",
    "final_y": "557175.179995",
    "longitude": "-90.01876644956785",
    "latitude": "30.025563992810007",
    "geocoded_column": {
      "latitude": "30.025563992810007",
      "longitude": "-90.01876644956785"
    }
  },
  {
    "service_request": "2024-1063168",
    "request_type": "Property Maintenance",
    "request_reason": "Property Maintenance",
    "date_created": "2024-01-23T16:05:40.000",
    "date_modified": "2024-01-23T16:05:40.000",
    "request_status": "Pending",
    "responsible_agency": "Department of Code Enforcement",
    "final_address": "7137 Virgilian St",
    "address_councildis": "D",
    "status": "Pending",
    "rowid": "1063168",
    "final_x": "3696819.90839",
    "final_y": "557175.179995",
    "longitude": "-90.01876644956785",
    "latitude": "30.025563992810007",
    "geocoded_column": {
      "latitude": "30.025563992810007",
      "longitude": "-90.01876644956785"
    }
  },
  {
    "service_request": "2024-1063167",
    "request_type": "Abandoned Vehicles",
    "request_reason": "Abandoned/Junk Vehicles",
    "date_created": "2024-01-23T16:05:05.000",
    "date_modified": "2024-01-23T16:05:05.000",
    "request_status": "Pending",
    "responsible_agency": "Department of Public Works",
    "final_address": "6911 Virgilian St",
    "address_councildis": "D",
    "status": "Pending",
    "rowid": "1063167",
    "final_x": "3697028.49232",
    "final_y": "556529.64937",
    "longitude": "-90.01813077023697",
    "latitude": "30.023782447992826",
    "geocoded_column": {
      "latitude": "30.023782447992826",
      "longitude": "-90.01813077023697"
    }
  },
  {
    "service_request": "2024-1063166",
    "request_type": "Property Maintenance",
    "request_reason": "Property Maintenance",
    "date_created": "2024-01-23T16:01:30.000",
    "date_modified": "2024-01-23T16:01:30.000",
    "request_status": "Pending",
    "responsible_agency": "Department of Code Enforcement",
    "final_address": "6901 Downman Rd",
    "address_councildis": "D",
    "status": "Pending",
    "rowid": "1063166",
    "final_x": "3695574.30275",
    "final_y": "555984.212057",
    "longitude": "-90.02274541088515",
    "latitude": "30.022328516709692",
    "geocoded_column": {
      "latitude": "30.022328516709692",
      "longitude": "-90.02274541088515"
    }
  },
  {
    "service_request": "2024-1063165",
    "request_type": "Abandoned Vehicles",
    "request_reason": "Abandoned/Junk Vehicles",
    "date_created": "2024-01-23T16:00:53.000",
    "date_modified": "2024-01-23T16:00:53.000",
    "request_status": "Pending",
    "responsible_agency": "Department of Public Works",
    "final_address": "609 Pacific Ave",
    "address_councildis": "C",
    "status": "Pending",
    "rowid": "1063165",
    "final_x": "3688434.06601",
    "final_y": "529370.915521",
    "longitude": "-90.0462513246354",
    "latitude": "29.949374082769598",
    "geocoded_column": {
      "latitude": "29.949374082769598",
      "longitude": "-90.0462513246354"
    }
  },
  {
    "service_request": "2024-1063164",
    "request_type": "Property Maintenance",
    "request_reason": "Property Maintenance",
    "date_created": "2024-01-23T16:00:48.000",
    "date_modified": "2024-01-23T16:00:48.000",
    "request_status": "Pending",
    "responsible_agency": "Department of Code Enforcement",
    "final_address": "6301 Dorothea St",
    "address_councildis": "D",
    "status": "Pending",
    "rowid": "1063164",
    "final_x": "3696611.53898",
    "final_y": "557659.178331",
    "longitude": "-90.01940732678281",
    "latitude": "30.026901375132965",
    "geocoded_column": {
      "latitude": "30.026901375132965",
      "longitude": "-90.01940732678281"
    }
  },
  {
    "service_request": "2024-1063163",
    "request_type": "Property Maintenance",
    "request_reason": "Property Maintenance",
    "date_created": "2024-01-23T15:59:36.000",
    "date_modified": "2024-01-23T15:59:36.000",
    "request_status": "Pending",
    "responsible_agency": "Department of Code Enforcement",
    "final_address": "7165 E Hermes St",
    "address_councildis": "D",
    "status": "Pending",
    "rowid": "1063163",
    "final_x": "3697329.20368",
    "final_y": "557640.003547",
    "longitude": "-90.01714028618083",
    "latitude": "30.0268260044758",
    "geocoded_column": {
      "latitude": "30.0268260044758",
      "longitude": "-90.01714028618083"
    }
  },
  {
    "service_request": "2024-1063162",
    "request_type": "Property Maintenance",
    "request_reason": "Property Maintenance",
    "date_created": "2024-01-23T15:58:55.000",
    "date_modified": "2024-01-23T15:58:55.000",
    "request_status": "Pending",
    "responsible_agency": "Department of Code Enforcement",
    "final_address": "7162 W Laverne St",
    "address_councildis": "D",
    "status": "Pending",
    "rowid": "1063162",
    "final_x": "3695812.04131",
    "final_y": "557082.613722",
    "longitude": "-90.0219544981035",
    "latitude": "30.025341225561164",
    "geocoded_column": {
      "latitude": "30.025341225561164",
      "longitude": "-90.0219544981035"
    }
  },
  {
    "service_request": "2024-1063161",
    "request_type": "Property Maintenance",
    "request_reason": "Property Maintenance",
    "date_created": "2024-01-23T15:58:19.000",
    "date_modified": "2024-01-23T15:58:19.000",
    "request_status": "Pending",
    "responsible_agency": "Department of Code Enforcement",
    "final_address": "7127 W Laverne St",
    "address_councildis": "D",
    "status": "Pending",
    "rowid": "1063161",
    "final_x": "3695934.44925",
    "final_y": "556819.691418",
    "longitude": "-90.02157722011329",
    "latitude": "30.024614436568474",
    "geocoded_column": {
      "latitude": "30.024614436568474",
      "longitude": "-90.02157722011329"
    }
  },
  {
    "service_request": "2024-1063160",
    "request_type": "Property Maintenance",
    "request_reason": "Property Maintenance",
    "date_created": "2024-01-23T15:57:34.000",
    "date_modified": "2024-01-23T15:57:34.000",
    "request_status": "Pending",
    "responsible_agency": "Department of Code Enforcement",
    "final_address": "6927 W Laverne St",
    "address_councildis": "D",
    "status": "Pending",
    "rowid": "1063160",
    "final_x": "3696090.04112",
    "final_y": "556344.263834",
    "longitude": "-90.02110278321437",
    "latitude": "30.023302292656773",
    "geocoded_column": {
      "latitude": "30.023302292656773",
      "longitude": "-90.02110278321437"
    }
  },
  {
    "service_request": "2024-1063159",
    "request_type": "Property Maintenance",
    "request_reason": "Property Maintenance",
    "date_created": "2024-01-23T15:56:53.000",
    "date_modified": "2024-01-23T15:56:53.000",
    "request_status": "Pending",
    "responsible_agency": "Department of Code Enforcement",
    "final_address": "6900 W Laverne St",
    "address_councildis": "D",
    "status": "Pending",
    "rowid": "1063159",
    "final_x": "3695976.26224",
    "final_y": "556113.741402",
    "longitude": "-90.0214706377516",
    "latitude": "30.02267202569005",
    "geocoded_column": {
      "latitude": "30.02267202569005",
      "longitude": "-90.0214706377516"
    }
  },
  {
    "service_request": "2024-1063158",
    "request_type": "Property Maintenance",
    "request_reason": "Property Maintenance",
    "date_created": "2024-01-23T15:55:36.000",
    "date_modified": "2024-01-23T15:55:36.000",
    "request_status": "Pending",
    "responsible_agency": "Department of Code Enforcement",
    "final_address": "6744 W Laverne St",
    "address_councildis": "D",
    "status": "Pending",
    "rowid": "1063158",
    "final_x": "3696073.16042",
    "final_y": "555824.256217",
    "longitude": "-90.02117493841762",
    "latitude": "30.02187300040321",
    "geocoded_column": {
      "latitude": "30.02187300040321",
      "longitude": "-90.02117493841762"
    }
  },
  {
    "service_request": "2024-1063157",
    "request_type": "Property Maintenance",
    "request_reason": "Property Maintenance",
    "date_created": "2024-01-23T15:55:02.000",
    "date_modified": "2024-01-23T15:55:02.000",
    "request_status": "Pending",
    "responsible_agency": "Department of Code Enforcement",
    "final_address": "6711 W Laverne St",
    "address_councildis": "D",
    "status": "Pending",
    "rowid": "1063157",
    "final_x": "3696299.51696",
    "final_y": "555707.421657",
    "longitude": "-90.02046394383082",
    "latitude": "30.02154462031882",
    "geocoded_column": {
      "latitude": "30.02154462031882",
      "longitude": "-90.02046394383082"
    }
  },
  {
    "service_request": "2024-1063156",
    "request_type": "Property Maintenance",
    "request_reason": "Property Maintenance",
    "date_created": "2024-01-23T15:54:37.000",
    "date_modified": "2024-01-23T15:54:37.000",
    "request_status": "Pending",
    "responsible_agency": "Department of Code Enforcement",
    "final_address": "6624 W Laverne St",
    "address_councildis": "D",
    "status": "Pending",
    "rowid": "1063156",
    "final_x": "3696202.56342",
    "final_y": "555411.746009",
    "longitude": "-90.02078099115569",
    "latitude": "30.02073467833971",
    "geocoded_column": {
      "latitude": "30.02073467833971",
      "longitude": "-90.02078099115569"
    }
  },
  {
    "service_request": "2024-1063155",
    "request_type": "Trash/Recycling",
    "request_reason": "Replace Trash Cart",
    "date_created": "2024-01-23T15:52:51.000",
    "date_modified": "2024-01-23T15:52:52.000",
    "request_status": "Pending",
    "responsible_agency": "Department of Sanitation",
    "final_address": "926 Toulouse St",
    "address_councildis": "C",
    "status": "Assigned to Contractor",
    "contractor": "Empire Services",
    "rowid": "1063155",
    "final_x": "3681505.43279",
    "final_y": "532644.076228",
    "longitude": "-90.06801397143775",
    "latitude": "29.958586345646566",
    "geocoded_column": {
      "latitude": "29.958586345646566",
      "longitude": "-90.06801397143775"
    }
  },
  {
    "service_request": "2024-1063154",
    "request_type": "Parks & Parkways",
    "request_reason": "Request Tree Service (Right of Way/Public Property)",
    "date_created": "2024-01-23T15:52:27.000",
    "date_modified": "2024-01-23T15:52:28.000",
    "request_status": "Pending",
    "responsible_agency": "Department of Parks & Parkway",
    "final_address": "2203 Octavia St",
    "address_councildis": "A",
    "status": "Pending",
    "rowid": "1063154",
    "final_x": "3667576.98516",
    "final_y": "523756.972923",
    "longitude": "-90.11229555894478",
    "latitude": "29.934565263674223",
    "geocoded_column": {
      "latitude": "29.934565263674223",
      "longitude": "-90.11229555894478"
    }
  },
  {
    "service_request": "2024-1063153",
    "request_type": "Trash/Recycling",
    "request_reason": "Request a Large Item Pick Up",
    "date_created": "2024-01-23T15:49:49.000",
    "date_modified": "2024-01-23T15:49:50.000",
    "request_status": "Pending",
    "responsible_agency": "Department of Sanitation",
    "final_address": "5860 Winchester Park Dr",
    "address_councildis": "E",
    "status": "Assigned to Contractor",
    "contractor": "Waste Pro",
    "rowid": "1063153",
    "final_x": "3714798.06104",
    "final_y": "562447.476703",
    "longitude": "-89.96175925329527",
    "latitude": "30.039481322693568",
    "geocoded_column": {
      "latitude": "30.039481322693568",
      "longitude": "-89.96175925329527"
    }
  },
  {
    "service_request": "2024-1063152",
    "request_type": "Property Maintenance",
    "request_reason": "Property Maintenance",
    "date_created": "2024-01-23T15:46:45.000",
    "date_modified": "2024-01-23T15:46:45.000",
    "request_status": "Pending",
    "responsible_agency": "Department of Code Enforcement",
    "final_address": "7167 Dorian St",
    "address_councildis": "D",
    "status": "Pending",
    "rowid": "1063152",
    "final_x": "3696134.9217",
    "final_y": "557214.011099",
    "longitude": "-90.0209294938823",
    "latitude": "30.025692353791865",
    "geocoded_column": {
      "latitude": "30.025692353791865",
      "longitude": "-90.0209294938823"
    }
  },
  {
    "service_request": "2024-1063151",
    "request_type": "Property Maintenance",
    "request_reason": "Property Maintenance",
    "date_created": "2024-01-23T15:46:19.000",
    "date_modified": "2024-01-23T15:46:19.000",
    "request_status": "Pending",
    "responsible_agency": "Department of Code Enforcement",
    "final_address": "6701 Dorian St",
    "address_councildis": "D",
    "status": "Pending",
    "rowid": "1063151",
    "final_x": "3696577.73123",
    "final_y": "555852.685081",
    "longitude": "-90.01957960372125",
    "latitude": "30.021935271733724",
    "geocoded_column": {
      "latitude": "30.021935271733724",
      "longitude": "-90.01957960372125"
    }
  },
  {
    "service_request": "2024-1063150",
    "request_type": "Trash/Recycling",
    "request_reason": "Order Recycling Cart",
    "date_created": "2024-01-23T15:42:50.000",
    "date_modified": "2024-01-23T15:42:50.000",
    "request_status": "Pending",
    "responsible_agency": "Department of Sanitation",
    "final_address": "1445 N Rocheblave St",
    "address_councildis": "D",
    "status": "Pending",
    "rowid": "1063150",
    "final_x": "3679309.88578",
    "final_y": "538737.626633",
    "longitude": "-90.07473557923399",
    "latitude": "29.975408009224783",
    "geocoded_column": {
      "latitude": "29.975408009224783",
      "longitude": "-90.07473557923399"
    }
  },
  {
    "service_request": "2024-1063149",
    "request_type": "Abandoned Vehicles",
    "request_reason": "Abandoned/Junk Vehicles",
    "date_created": "2024-01-23T15:42:17.000",
    "date_modified": "2024-01-23T15:42:17.000",
    "request_status": "Pending",
    "responsible_agency": "Department of Public Works",
    "final_address": "1715 Foucher St",
    "address_councildis": "B",
    "status": "Pending",
    "rowid": "1063149",
    "final_x": "3673342.73825",
    "final_y": "521805.022266",
    "longitude": "-90.0941598144127",
    "latitude": "29.929027827766433",
    "geocoded_column": {
      "latitude": "29.929027827766433",
      "longitude": "-90.0941598144127"
    }
  },
  {
    "service_request": "2024-1063148",
    "request_type": "Property Maintenance",
    "request_reason": "Property Maintenance",
    "date_created": "2024-01-23T15:41:51.000",
    "date_modified": "2024-01-23T15:41:51.000",
    "request_status": "Pending",
    "responsible_agency": "Department of Code Enforcement",
    "final_address": "6659 Dorian St",
    "address_councildis": "D",
    "status": "Pending",
    "rowid": "1063148",
    "final_x": "3696603.39965",
    "final_y": "555779.240345",
    "longitude": "-90.0195011594274",
    "latitude": "30.02173251732482",
    "geocoded_column": {
      "latitude": "30.02173251732482",
      "longitude": "-90.0195011594274"
    }
  },
  {
    "service_request": "2024-1063147",
    "request_type": "Roads/Drainage",
    "request_reason": "Pothole",
    "date_created": "2024-01-23T15:41:42.000",
    "date_modified": "2024-01-23T15:41:42.000",
    "request_status": "Pending",
    "responsible_agency": "Department of Public Works",
    "final_address": "1312 Milan St",
    "address_councildis": "B",
    "status": "Pending",
    "rowid": "1063147",
    "final_x": "3671625.82823",
    "final_y": "520286.919608",
    "longitude": "-90.09963137110304",
    "latitude": "29.92490447494246",
    "geocoded_column": {
      "latitude": "29.92490447494246",
      "longitude": "-90.09963137110304"
    }
  },
  {
    "service_request": "2024-1063146",
    "request_type": "Property Maintenance",
    "request_reason": "Property Maintenance",
    "date_created": "2024-01-23T15:41:23.000",
    "date_modified": "2024-01-23T15:41:23.000",
    "request_status": "Pending",
    "responsible_agency": "Department of Code Enforcement",
    "final_address": "6641 Dorian St",
    "address_councildis": "D",
    "status": "Pending",
    "rowid": "1063146",
    "final_x": "3696642.3489",
    "final_y": "555653.165721",
    "longitude": "-90.01938265877142",
    "latitude": "30.02138463188",
    "geocoded_column": {
      "latitude": "30.02138463188",
      "longitude": "-90.01938265877142"
    }
  },
  {
    "service_request": "2024-1063145",
    "request_type": "Abandoned Vehicles",
    "request_reason": "Abandoned/Junk Vehicles",
    "date_created": "2024-01-23T15:40:57.000",
    "date_modified": "2024-01-23T15:40:57.000",
    "request_status": "Pending",
    "responsible_agency": "Department of Public Works",
    "final_address": "7512 Willow St",
    "address_councildis": "A",
    "status": "Pending",
    "rowid": "1063145",
    "final_x": "3663996.15642",
    "final_y": "527423.632127",
    "longitude": "-90.12347798386782",
    "latitude": "29.94475184455751",
    "geocoded_column": {
      "latitude": "29.94475184455751",
      "longitude": "-90.12347798386782"
    }
  },
  {
    "service_request": "2024-1063144",
    "request_type": "Property Maintenance",
    "request_reason": "Property Maintenance",
    "date_created": "2024-01-23T15:40:48.000",
    "date_modified": "2024-01-23T15:40:48.000",
    "request_status": "Pending",
    "responsible_agency": "Department of Code Enforcement",
    "final_address": "6633 Dorian St",
    "address_councildis": "D",
    "status": "Pending",
    "rowid": "1063144",
    "final_x": "3696652.97059",
    "final_y": "555581.573849",
    "longitude": "-90.01935169136691",
    "latitude": "30.021187446458825",
    "geocoded_column": {
      "latitude": "30.021187446458825",
      "longitude": "-90.01935169136691"
    }
  },
  {
    "service_request": "2024-1063143",
    "request_type": "Property Maintenance",
    "request_reason": "Property Maintenance",
    "date_created": "2024-01-23T15:40:25.000",
    "date_modified": "2024-01-23T15:40:25.000",
    "request_status": "Pending",
    "responsible_agency": "Department of Code Enforcement",
    "final_address": "6900 Dorian St",
    "address_councildis": "D",
    "status": "Pending",
    "rowid": "1063143",
    "final_x": "3696272.60106",
    "final_y": "556205.904538",
    "longitude": "-90.02053094464333",
    "latitude": "30.02291610719101",
    "geocoded_column": {
      "latitude": "30.02291610719101",
      "longitude": "-90.02053094464333"
    }
  },
  {
    "service_request": "2024-1063142",
    "request_type": "Property Maintenance",
    "request_reason": "Property Maintenance",
    "date_created": "2024-01-23T15:39:52.000",
    "date_modified": "2024-01-23T15:39:52.000",
    "request_status": "Pending",
    "responsible_agency": "Department of Code Enforcement",
    "final_address": "6901 Dorian St",
    "address_councildis": "D",
    "status": "Pending",
    "rowid": "1063142",
    "final_x": "3696443.16503",
    "final_y": "556269.951322",
    "longitude": "-90.01998968425025",
    "latitude": "30.023086837183317",
    "geocoded_column": {
      "latitude": "30.023086837183317",
      "longitude": "-90.01998968425025"
    }
  },
  {
    "service_request": "2024-1063141",
    "request_type": "Abandoned Vehicles",
    "request_reason": "Abandoned/Junk Vehicles",
    "date_created": "2024-01-23T15:39:35.000",
    "date_modified": "2024-01-23T15:39:35.000",
    "request_status": "Pending",
    "responsible_agency": "Department of Public Works",
    "final_address": "1715 Foucher St",
    "address_councildis": "B",
    "status": "Pending",
    "rowid": "1063141",
    "final_x": "3673342.73825",
    "final_y": "521805.022266",
    "longitude": "-90.0941598144127",
    "latitude": "29.929027827766433",
    "geocoded_column": {
      "latitude": "29.929027827766433",
      "longitude": "-90.0941598144127"
    }
  },
  {
    "service_request": "2024-1063140",
    "request_type": "Property Maintenance",
    "request_reason": "Property Maintenance",
    "date_created": "2024-01-23T15:39:06.000",
    "date_modified": "2024-01-23T15:39:06.000",
    "request_status": "Pending",
    "responsible_agency": "Department of Code Enforcement",
    "final_address": "6340 Pines Blvd",
    "address_councildis": "D",
    "status": "Pending",
    "rowid": "1063140",
    "final_x": "3697299.99114",
    "final_y": "556419.281306",
    "longitude": "-90.01727689798022",
    "latitude": "30.02347040641766",
    "geocoded_column": {
      "latitude": "30.02347040641766",
      "longitude": "-90.01727689798022"
    }
  },
  {
    "service_request": "2024-1063139",
    "request_type": "Trash/Recycling",
    "request_reason": "Missed Trash Pick-Up",
    "date_created": "2024-01-23T15:38:55.000",
    "date_modified": "2024-01-23T15:38:56.000",
    "request_status": "Pending",
    "responsible_agency": "Department of Sanitation",
    "final_address": "3015 Carondelet St",
    "address_councildis": "B",
    "status": "Assigned to Contractor",
    "contractor": "Richards Disposal",
    "rowid": "1063139",
    "final_x": "3674871.98971",
    "final_y": "522343.308602",
    "longitude": "-90.08931381443753",
    "latitude": "29.93046237769801",
    "geocoded_column": {
      "latitude": "29.93046237769801",
      "longitude": "-90.08931381443753"
    }
  },
  {
    "service_request": "2024-1063138",
    "request_type": "Property Maintenance",
    "request_reason": "Property Maintenance",
    "date_created": "2024-01-23T15:38:28.000",
    "date_modified": "2024-01-23T15:38:28.000",
    "request_status": "Pending",
    "responsible_agency": "Department of Code Enforcement",
    "final_address": "6028 Pines Blvd",
    "address_councildis": "D",
    "status": "Pending",
    "rowid": "1063138",
    "final_x": "3696011.59062",
    "final_y": "555998.394649",
    "longitude": "-90.02136318199365",
    "latitude": "30.02235375364511",
    "geocoded_column": {
      "latitude": "30.02235375364511",
      "longitude": "-90.02136318199365"
    }
  },
  {
    "service_request": "2024-1063137",
    "request_type": "Property Maintenance",
    "request_reason": "Property Maintenance",
    "date_created": "2024-01-23T15:37:26.000",
    "date_modified": "2024-01-23T15:37:26.000",
    "request_status": "Pending",
    "responsible_agency": "Department of Code Enforcement",
    "final_address": "6045 Pines Blvd",
    "address_councildis": "D",
    "status": "Pending",
    "rowid": "1063137",
    "final_x": "3696148.54659",
    "final_y": "556164.707098",
    "longitude": "-90.0209244177289",
    "latitude": "30.02280673734054",
    "geocoded_column": {
      "latitude": "30.02280673734054",
      "longitude": "-90.0209244177289"
    }
  },
  {
    "service_request": "2024-1063136",
    "request_type": "Property Maintenance",
    "request_reason": "Property Maintenance",
    "date_created": "2024-01-23T15:36:12.000",
    "date_modified": "2024-01-23T15:36:12.000",
    "request_status": "Pending",
    "responsible_agency": "Department of Code Enforcement",
    "final_address": "6070 Pines Blvd",
    "address_councildis": "D",
    "status": "Pending",
    "rowid": "1063136",
    "final_x": "3696309.55965",
    "final_y": "556098.662682",
    "longitude": "-90.02041804713278",
    "latitude": "30.02262006842333",
    "geocoded_column": {
      "latitude": "30.02262006842333",
      "longitude": "-90.02041804713278"
    }
  },
  {
    "service_request": "2024-1063135",
    "request_type": "Property Maintenance",
    "request_reason": "Property Maintenance",
    "date_created": "2024-01-23T15:34:19.000",
    "date_modified": "2024-01-23T15:34:19.000",
    "request_status": "Pending",
    "responsible_agency": "Department of Code Enforcement",
    "final_address": "6648 Foch Rd",
    "address_councildis": "D",
    "status": "Pending",
    "rowid": "1063135",
    "final_x": "3696753.13815",
    "final_y": "555760.868505",
    "longitude": "-90.01902869355037",
    "latitude": "30.02167727999674",
    "geocoded_column": {
      "latitude": "30.02167727999674",
      "longitude": "-90.01902869355037"
    }
  },
  {
    "service_request": "2024-1063134",
    "request_type": "Trash/Recycling",
    "request_reason": "Missed Trash Pick-Up",
    "date_created": "2024-01-23T15:34:13.000",
    "date_modified": "2024-01-23T15:34:14.000",
    "request_status": "Pending",
    "responsible_agency": "Department of Sanitation",
    "final_address": "7520 Lady Gray St",
    "address_councildis": "E",
    "status": "Assigned to Contractor",
    "contractor": "Waste Pro",
    "rowid": "1063134",
    "final_x": "3710211.97521",
    "final_y": "564806.902946",
    "longitude": "-89.97616419994876",
    "latitude": "30.04611894377092",
    "geocoded_column": {
      "latitude": "30.04611894377092",
      "longitude": "-89.97616419994876"
    }
  },
  {
    "service_request": "2024-1063133",
    "request_type": "Property Maintenance",
    "request_reason": "Property Maintenance",
    "date_created": "2024-01-23T15:33:46.000",
    "date_modified": "2024-01-23T15:33:46.000",
    "request_status": "Pending",
    "responsible_agency": "Department of Code Enforcement",
    "final_address": "6619 Foch Rd",
    "address_councildis": "D",
    "status": "Pending",
    "rowid": "1063133",
    "final_x": "3697003.03184",
    "final_y": "555644.466201",
    "longitude": "-90.01824332124137",
    "latitude": "30.021349334095774",
    "geocoded_column": {
      "latitude": "30.021349334095774",
      "longitude": "-90.01824332124137"
    }
  },
  {
    "service_request": "2024-1063132",
    "request_type": "Property Maintenance",
    "request_reason": "Property Maintenance",
    "date_created": "2024-01-23T15:33:22.000",
    "date_modified": "2024-01-23T15:33:22.000",
    "request_status": "Pending",
    "responsible_agency": "Department of Code Enforcement",
    "final_address": "6943 Foch Rd",
    "address_councildis": "D",
    "status": "Pending",
    "rowid": "1063132",
    "final_x": "3696653.78179",
    "final_y": "556668.08041",
    "longitude": "-90.0193097587821",
    "latitude": "30.024174901412813",
    "geocoded_column": {
      "latitude": "30.024174901412813",
      "longitude": "-90.0193097587821"
    }
  },
  {
    "service_request": "2024-1063131",
    "request_type": "Property Maintenance",
    "request_reason": "Property Maintenance",
    "date_created": "2024-01-23T15:32:15.000",
    "date_modified": "2024-01-23T15:32:15.000",
    "request_status": "Pending",
    "responsible_agency": "Department of Code Enforcement",
    "final_address": "6961 Foch Rd",
    "address_councildis": "D",
    "status": "Pending",
    "rowid": "1063131",
    "final_x": "3696614.52208",
    "final_y": "556788.979162",
    "longitude": "-90.01942943103018",
    "latitude": "30.02450856487878",
    "geocoded_column": {
      "latitude": "30.02450856487878",
      "longitude": "-90.01942943103018"
    }
  },
  {
    "service_request": "2024-1063130",
    "request_type": "Trash/Recycling",
    "request_reason": "Request a Large Item Pick Up",
    "date_created": "2024-01-23T15:31:51.000",
    "date_modified": "2024-01-23T15:31:52.000",
    "request_status": "Pending",
    "responsible_agency": "Department of Sanitation",
    "final_address": "1307 Pleasant St",
    "address_councildis": "B",
    "status": "Assigned to Contractor",
    "contractor": "Richards Disposal",
    "rowid": "1063130",
    "final_x": "3675203.42977",
    "final_y": "520615.184632",
    "longitude": "-90.0883267829095",
    "latitude": "29.925700697561748",
    "geocoded_column": {
      "latitude": "29.925700697561748",
      "longitude": "-90.0883267829095"
    }
  },
  {
    "service_request": "2024-1063129",
    "request_type": "Trash/Recycling",
    "request_reason": "Request a Large Item Pick Up",
    "date_created": "2024-01-23T15:29:26.000",
    "date_modified": "2024-01-23T15:29:27.000",
    "request_status": "Pending",
    "responsible_agency": "Department of Sanitation",
    "final_address": "11200 N Parkwood Ct",
    "address_councildis": "E",
    "status": "Assigned to Contractor",
    "contractor": "Waste Pro",
    "rowid": "1063129",
    "final_x": "3716493.97829",
    "final_y": "559085.056796",
    "longitude": "-89.95652739133823",
    "latitude": "30.030180095344775",
    "geocoded_column": {
      "latitude": "30.030180095344775",
      "longitude": "-89.95652739133823"
    }
  },
  {
    "service_request": "2024-1063128",
    "request_type": "Trash/Recycling",
    "request_reason": "Order Trash Cart",
    "date_created": "2024-01-23T15:21:54.000",
    "date_modified": "2024-01-23T15:21:55.000",
    "request_status": "Pending",
    "responsible_agency": "Department of Sanitation",
    "final_address": "7723 W Laverne St",
    "address_councildis": "E",
    "status": "Assigned to Contractor",
    "contractor": "Waste Pro",
    "rowid": "1063128",
    "final_x": "3695126.62154",
    "final_y": "559017.807516",
    "longitude": "-90.02405044063299",
    "latitude": "30.03068382318491",
    "geocoded_column": {
      "latitude": "30.03068382318491",
      "longitude": "-90.02405044063299"
    }
  },
  {
    "service_request": "2024-1063127",
    "request_type": "Trash/Recycling",
    "request_reason": "Request a Large Item Pick Up",
    "date_created": "2024-01-23T15:17:55.000",
    "date_modified": "2024-01-23T17:32:47.000",
    "case_close_date": "2024-01-23T11:32:47.000",
    "request_status": "Closed",
    "responsible_agency": "Department of Sanitation",
    "final_address": "5209 Dauphine St",
    "address_councildis": "E",
    "status": "Assigned to Contractor",
    "contractor": "Waste Pro",
    "contractor_action": "Completed",
    "rowid": "1063127",
    "final_x": "3696328.65571",
    "final_y": "533006.075588",
    "longitude": "-90.02119327813423",
    "latitude": "29.959123303085068",
    "geocoded_column": {
      "latitude": "29.959123303085068",
      "longitude": "-90.02119327813423"
    }
  },
  {
    "service_request": "2024-1063126",
    "request_type": "Trash/Recycling",
    "request_reason": "Request a Large Item Pick Up",
    "date_created": "2024-01-23T15:16:33.000",
    "date_modified": "2024-01-23T15:16:33.000",
    "request_status": "Pending",
    "responsible_agency": "Department of Sanitation",
    "final_address": "7522 Benjamin St",
    "address_councildis": "A",
    "status": "Assigned to Contractor",
    "contractor": "Richards Disposal",
    "rowid": "1063126",
    "final_x": "3661291.05312",
    "final_y": "524665.586172",
    "longitude": "-90.13211014065003",
    "latitude": "29.93724635262009",
    "geocoded_column": {
      "latitude": "29.93724635262009",
      "longitude": "-90.13211014065003"
    }
  },
  {
    "service_request": "2024-1063125",
    "request_type": "Trash/Recycling",
    "request_reason": "Missed Trash Pick-Up",
    "date_created": "2024-01-23T15:06:16.000",
    "date_modified": "2024-01-23T15:06:16.000",
    "request_status": "Pending",
    "responsible_agency": "Department of Sanitation",
    "final_address": "5321 Camp St",
    "address_councildis": "B",
    "status": "Assigned to Contractor",
    "contractor": "Richards Disposal",
    "rowid": "1063125",
    "final_x": "3667359.08532",
    "final_y": "519085.224375",
    "longitude": "-90.11314052279224",
    "latitude": "29.921725820468836",
    "geocoded_column": {
      "latitude": "29.921725820468836",
      "longitude": "-90.11314052279224"
    }
  },
  {
    "service_request": "2024-1063124",
    "request_type": "Trash/Recycling",
    "request_reason": "Request a Large Item Pick Up",
    "date_created": "2024-01-23T15:05:06.000",
    "date_modified": "2024-01-23T15:05:07.000",
    "request_status": "Pending",
    "responsible_agency": "Department of Sanitation",
    "final_address": "307 Henry Clay Ave",
    "address_councildis": "A",
    "status": "Assigned to Contractor",
    "contractor": "Richards Disposal",
    "rowid": "1063124",
    "final_x": "3663231.02714",
    "final_y": "517979.95007",
    "longitude": "-90.12620785122093",
    "latitude": "29.91880688845604",
    "geocoded_column": {
      "latitude": "29.91880688845604",
      "longitude": "-90.12620785122093"
    }
  },
  {
    "service_request": "2024-1063123",
    "request_type": "Trash/Recycling",
    "request_reason": "Request a Large Item Pick Up",
    "date_created": "2024-01-23T14:55:51.000",
    "date_modified": "2024-01-23T14:55:52.000",
    "request_status": "Pending",
    "responsible_agency": "Department of Sanitation",
    "final_address": "5611 Chamberlain Dr",
    "address_councildis": "D",
    "status": "Assigned to Contractor",
    "contractor": "IV Waste",
    "rowid": "1063123",
    "final_x": "3679500.60949",
    "final_y": "553084.439319",
    "longitude": "-90.07363508734112",
    "latitude": "30.014850913483098",
    "geocoded_column": {
      "latitude": "30.014850913483098",
      "longitude": "-90.07363508734112"
    }
  },
  {
    "service_request": "2024-1063122",
    "request_type": "Trash/Recycling",
    "request_reason": "Replace Trash Cart",
    "date_created": "2024-01-23T14:51:43.000",
    "date_modified": "2024-01-23T14:51:44.000",
    "request_status": "Pending",
    "responsible_agency": "Department of Sanitation",
    "final_address": "7320 Read Blvd",
    "address_councildis": "E",
    "status": "Assigned to Contractor",
    "contractor": "Waste Pro",
    "rowid": "1063122",
    "final_x": "3708802.44254",
    "final_y": "563352.103904",
    "longitude": "-89.98067327848783",
    "latitude": "30.042164657728655",
    "geocoded_column": {
      "latitude": "30.042164657728655",
      "longitude": "-89.98067327848783"
    }
  },
  {
    "service_request": "2024-1063120",
    "request_type": "Trash/Recycling",
    "request_reason": "Order Trash Cart",
    "date_created": "2024-01-23T14:47:08.000",
    "date_modified": "2024-01-23T14:47:09.000",
    "request_status": "Pending",
    "responsible_agency": "Department of Sanitation",
    "final_address": "5304 St Anthony Ave",
    "address_councildis": "D",
    "status": "Assigned to Contractor",
    "contractor": "IV Waste",
    "rowid": "1063120",
    "final_x": "3682111.7062",
    "final_y": "552273.616214",
    "longitude": "-90.06541363218116",
    "latitude": "30.0125422562854",
    "geocoded_column": {
      "latitude": "30.0125422562854",
      "longitude": "-90.06541363218116"
    }
  },
  {
    "service_request": "2024-1063119",
    "request_type": "Trash/Recycling",
    "request_reason": "Repair Trash Cart",
    "date_created": "2024-01-23T14:46:38.000",
    "date_modified": "2024-01-23T15:23:14.000",
    "request_status": "Pending",
    "responsible_agency": "Department of Sanitation",
    "final_address": "New Orleans,LA",
    "address_councildis": "A",
    "status": "Assigned to Contractor",
    "contractor": "Richards Disposal",
    "rowid": "1063119",
    "final_x": "3663592.33997",
    "final_y": "529434.451329",
    "longitude": "-90.12468599179968",
    "latitude": "29.95029266884419",
    "geocoded_column": {
      "latitude": "29.95029266884419",
      "longitude": "-90.12468599179968"
    }
  },
  {
    "service_request": "2024-1063118",
    "request_type": "Traffic Signals/Signs/Striping/Streetlights",
    "request_reason": "Street Light Outage/Malfunction",
    "date_created": "2024-01-23T14:37:45.000",
    "date_modified": "2024-01-23T14:37:46.000",
    "request_status": "Pending",
    "responsible_agency": "Department of Public Works",
    "final_address": "1927 Second St",
    "address_councildis": "B",
    "status": "Assigned to Contractor",
    "contractor": "Legacy Professional Services",
    "rowid": "1063118",
    "final_x": "3676003.28584",
    "final_y": "524153.439932",
    "longitude": "-90.08568026055516",
    "latitude": "29.935405827852808",
    "geocoded_column": {
      "latitude": "29.935405827852808",
      "longitude": "-90.08568026055516"
    }
  },
  {
    "service_request": "2024-1063117",
    "request_type": "Trash/Recycling",
    "request_reason": "Repair Recycling Cart",
    "date_created": "2024-01-23T14:37:29.000",
    "date_modified": "2024-01-23T14:37:29.000",
    "request_status": "Pending",
    "responsible_agency": "Department of Sanitation",
    "final_address": "5630 Pembrook Dr",
    "address_councildis": "C",
    "status": "Pending",
    "rowid": "1063117",
    "final_x": "3704495.43934",
    "final_y": "521000.851513",
    "longitude": "-89.99584728042855",
    "latitude": "29.925853509798397",
    "geocoded_column": {
      "latitude": "29.925853509798397",
      "longitude": "-89.99584728042855"
    }
  },
  {
    "service_request": "2024-1063116",
    "request_type": "Roads/Drainage",
    "request_reason": "Catch Basin - Broken/Damage",
    "date_created": "2024-01-23T14:35:28.000",
    "date_modified": "2024-01-23T14:35:28.000",
    "request_status": "Pending",
    "responsible_agency": "Department of Public Works",
    "final_address": "4800 Chef Menteur Hwy",
    "address_councildis": "D",
    "status": "Pending",
    "rowid": "1063116",
    "final_x": "3692428.45488",
    "final_y": "550075.021204",
    "longitude": "-90.03289738953048",
    "latitude": "30.006179003007098",
    "geocoded_column": {
      "latitude": "30.006179003007098",
      "longitude": "-90.03289738953048"
    }
  },
  {
    "service_request": "2024-1063115",
    "request_type": "Trash/Recycling",
    "request_reason": "Missed Trash Pick-Up",
    "date_created": "2024-01-23T14:33:08.000",
    "date_modified": "2024-01-23T14:33:09.000",
    "request_status": "Pending",
    "responsible_agency": "Department of Sanitation",
    "final_address": "2314 Delery St",
    "address_councildis": "E",
    "status": "Assigned to Contractor",
    "contractor": "Waste Pro",
    "rowid": "1063115",
    "final_x": "3702208.70065",
    "final_y": "537434.866696",
    "longitude": "-90.00246323893724",
    "latitude": "29.971114425544155",
    "geocoded_column": {
      "latitude": "29.971114425544155",
      "longitude": "-90.00246323893724"
    }
  },
  {
    "service_request": "2024-1063114",
    "request_type": "Trash/Recycling",
    "request_reason": "Replace Trash Cart",
    "date_created": "2024-01-23T14:27:19.000",
    "date_modified": "2024-01-23T14:27:20.000",
    "request_status": "Pending",
    "responsible_agency": "Department of Sanitation",
    "final_address": "836 Toledano St",
    "address_councildis": "B",
    "status": "Assigned to Contractor",
    "contractor": "Richards Disposal",
    "rowid": "1063114",
    "final_x": "3675685.53294",
    "final_y": "519036.921463",
    "longitude": "-90.0868591240001",
    "latitude": "29.921346570396757",
    "geocoded_column": {
      "latitude": "29.921346570396757",
      "longitude": "-90.0868591240001"
    }
  },
  {
    "service_request": "2024-1063113",
    "request_type": "Abandoned Vehicles",
    "request_reason": "Abandoned/Junk Vehicles",
    "date_created": "2024-01-23T14:26:30.000",
    "date_modified": "2024-01-23T14:26:31.000",
    "request_status": "Pending",
    "responsible_agency": "Department of Public Works",
    "final_address": "ANTONINE ST & COLISEUM ST",
    "address_councildis": "B",
    "status": "Pending",
    "rowid": "1063113",
    "final_x": "3673537.9",
    "final_y": "520190.38",
    "longitude": "-90.09359887407054",
    "latitude": "29.92458227632889",
    "geocoded_column": {
      "latitude": "29.92458227632889",
      "longitude": "-90.09359887407054"
    }
  },
  {
    "service_request": "2024-1063112",
    "request_type": "Roads/Drainage",
    "request_reason": "Catch Basin - Clogged",
    "date_created": "2024-01-23T14:23:12.000",
    "date_modified": "2024-01-23T14:23:13.000",
    "request_status": "Pending",
    "responsible_agency": "Department of Public Works",
    "final_address": "636 Webster St",
    "address_councildis": "A",
    "status": "Pending",
    "rowid": "1063112",
    "final_x": "3663937.50112",
    "final_y": "519051.013495",
    "longitude": "-90.12394218752152",
    "latitude": "29.921731495322433",
    "geocoded_column": {
      "latitude": "29.921731495322433",
      "longitude": "-90.12394218752152"
    }
  },
  {
    "service_request": "2024-1063111",
    "request_type": "Trash/Recycling",
    "request_reason": "Order Trash Cart",
    "date_created": "2024-01-23T14:21:45.000",
    "date_modified": "2024-01-23T14:21:45.000",
    "request_status": "Pending",
    "responsible_agency": "Department of Sanitation",
    "final_address": "6940 Berkley Dr",
    "address_councildis": "C",
    "status": "Assigned to Contractor",
    "contractor": "Richards Disposal",
    "rowid": "1063111",
    "final_x": "3710301.00881",
    "final_y": "517923.337142",
    "longitude": "-89.9776359447792",
    "latitude": "29.91720381733256",
    "geocoded_column": {
      "latitude": "29.91720381733256",
      "longitude": "-89.9776359447792"
    }
  },
  {
    "service_request": "2024-1063110",
    "request_type": "Trash/Recycling",
    "request_reason": "Repair Trash Cart",
    "date_created": "2024-01-23T14:14:48.000",
    "date_modified": "2024-01-23T14:14:49.000",
    "request_status": "Pending",
    "responsible_agency": "Department of Sanitation",
    "final_address": "1213 Barracks St",
    "address_councildis": "C",
    "status": "Assigned to Contractor",
    "contractor": "Richards Disposal",
    "rowid": "1063110",
    "final_x": "3682302.53269",
    "final_y": "535449.515462",
    "longitude": "-90.06539891359148",
    "latitude": "29.966276115875967",
    "geocoded_column": {
      "latitude": "29.966276115875967",
      "longitude": "-90.06539891359148"
    }
  },
  {
    "service_request": "2024-1063109",
    "request_type": "Roads/Drainage",
    "request_reason": "Pothole",
    "date_created": "2024-01-23T14:09:31.000",
    "date_modified": "2024-01-23T14:09:31.000",
    "request_status": "Pending",
    "responsible_agency": "Department of Public Works",
    "final_address": "400 BLK Basin St",
    "address_councildis": "C",
    "status": "Pending",
    "rowid": "1063109",
    "final_x": "3680646.8388",
    "final_y": "532748.659028",
    "longitude": "-90.07072154586122",
    "latitude": "29.958899955016623",
    "geocoded_column": {
      "latitude": "29.958899955016623",
      "longitude": "-90.07072154586122"
    }
  },
  {
    "service_request": "2024-1063108",
    "request_type": "Trash/Recycling",
    "request_reason": "Request a Large Item Pick Up",
    "date_created": "2024-01-23T14:06:49.000",
    "date_modified": "2024-01-23T14:06:50.000",
    "request_status": "Pending",
    "responsible_agency": "Department of Sanitation",
    "final_address": "1408 Leda St",
    "address_councildis": "A",
    "status": "Assigned to Contractor",
    "contractor": "IV Waste",
    "rowid": "1063108",
    "final_x": "3675587.13301",
    "final_y": "541215.119692",
    "longitude": "-90.08640790191497",
    "latitude": "29.982332175216047",
    "geocoded_column": {
      "latitude": "29.982332175216047",
      "longitude": "-90.08640790191497"
    }
  },
  {
    "service_request": "2024-1063107",
    "request_type": "Roads/Drainage",
    "request_reason": "Catch Basin - Clogged",
    "date_created": "2024-01-23T14:05:50.000",
    "date_modified": "2024-01-23T14:05:50.000",
    "request_status": "Pending",
    "responsible_agency": "Department of Public Works",
    "final_address": "325 Opelousas Ave",
    "address_councildis": "C",
    "status": "Pending",
    "rowid": "1063107",
    "final_x": "3686326.70818",
    "final_y": "528991.73248",
    "longitude": "-90.05291855780796",
    "latitude": "29.94839637815939",
    "geocoded_column": {
      "latitude": "29.94839637815939",
      "longitude": "-90.05291855780796"
    }
  },
  {
    "service_request": "2024-1063106",
    "request_type": "Traffic Signals/Signs/Striping/Streetlights",
    "request_reason": "Traffic Sign Missing/Damaged",
    "date_created": "2024-01-23T14:03:51.000",
    "date_modified": "2024-01-23T14:03:52.000",
    "request_status": "Pending",
    "responsible_agency": "Department of Public Works",
    "final_address": "PALMYRA ST & S GENOIS ST",
    "address_councildis": "B",
    "status": "Pending",
    "rowid": "1063106",
    "final_x": "3672119.8",
    "final_y": "536561.68",
    "longitude": "-90.09751797917806",
    "latitude": "29.969640090146672",
    "geocoded_column": {
      "latitude": "29.969640090146672",
      "longitude": "-90.09751797917806"
    }
  },
  {
    "service_request": "2024-1063105",
    "request_type": "Roads/Drainage",
    "request_reason": "Catch Basin - Clogged",
    "date_created": "2024-01-23T14:03:28.000",
    "date_modified": "2024-01-23T14:03:28.000",
    "request_status": "Pending",
    "responsible_agency": "Department of Public Works",
    "final_address": "325 Opelousas Ave",
    "address_councildis": "C",
    "status": "Pending",
    "rowid": "1063105",
    "final_x": "3686326.70818",
    "final_y": "528991.73248",
    "longitude": "-90.05291855780796",
    "latitude": "29.94839637815939",
    "geocoded_column": {
      "latitude": "29.94839637815939",
      "longitude": "-90.05291855780796"
    }
  },
  {
    "service_request": "2024-1063104",
    "request_type": "Trash/Recycling",
    "request_reason": "Replace Trash Cart",
    "date_created": "2024-01-23T14:03:25.000",
    "date_modified": "2024-01-23T14:03:26.000",
    "request_status": "Pending",
    "responsible_agency": "Department of Sanitation",
    "final_address": "4901 Danneel St",
    "address_councildis": "B",
    "status": "Assigned to Contractor",
    "contractor": "Richards Disposal",
    "rowid": "1063104",
    "final_x": "3669067.54228",
    "final_y": "522221.092666",
    "longitude": "-90.10764175539965",
    "latitude": "29.930298325450593",
    "geocoded_column": {
      "latitude": "29.930298325450593",
      "longitude": "-90.10764175539965"
    }
  },
  {
    "service_request": "2024-1063103",
    "request_type": "Roads/Drainage",
    "request_reason": "Street Subsidence (Sinking)",
    "date_created": "2024-01-23T14:00:24.000",
    "date_modified": "2024-01-23T15:06:55.000",
    "request_status": "Pending",
    "responsible_agency": "Department of Public Works",
    "final_address": "4651 Evangeline Dr",
    "address_councildis": "E",
    "status": "Inspected",
    "rowid": "1063103",
    "final_x": "3709233.3916",
    "final_y": "555196.506137",
    "longitude": "-89.97961583424055",
    "latitude": "30.019725985596057",
    "geocoded_column": {
      "latitude": "30.019725985596057",
      "longitude": "-89.97961583424055"
    }
  },
  {
    "service_request": "2024-1063102",
    "request_type": "Trash/Recycling",
    "request_reason": "Order Recycling Cart",
    "date_created": "2024-01-23T13:51:11.000",
    "date_modified": "2024-01-23T13:51:12.000",
    "request_status": "Pending",
    "responsible_agency": "Department of Sanitation",
    "final_address": "7900 Wave Dr",
    "address_councildis": "E",
    "status": "Pending",
    "rowid": "1063102",
    "final_x": "3714276.82559",
    "final_y": "569578.098918",
    "longitude": "-89.96313702369538",
    "latitude": "30.059104774237635",
    "geocoded_column": {
      "latitude": "30.059104774237635",
      "longitude": "-89.96313702369538"
    }
  },
  {
    "service_request": "2024-1063101",
    "request_type": "Trash/Recycling",
    "request_reason": "MIssed Recycling Pick-Up",
    "date_created": "2024-01-23T13:50:42.000",
    "date_modified": "2024-01-23T13:50:43.000",
    "request_status": "Pending",
    "responsible_agency": "Department of Sanitation",
    "final_address": "7900 Wave Dr",
    "address_councildis": "E",
    "status": "Assigned to Contractor",
    "contractor": "Waste Pro",
    "rowid": "1063101",
    "final_x": "3714276.82559",
    "final_y": "569578.098918",
    "longitude": "-89.96313702369538",
    "latitude": "30.059104774237635",
    "geocoded_column": {
      "latitude": "30.059104774237635",
      "longitude": "-89.96313702369538"
    }
  },
  {
    "service_request": "2024-1063100",
    "request_type": "Trash/Recycling",
    "request_reason": "Replace Recycling Cart",
    "date_created": "2024-01-23T13:49:01.000",
    "date_modified": "2024-01-23T13:49:01.000",
    "request_status": "Pending",
    "responsible_agency": "Department of Sanitation",
    "final_address": "1633 Dufossat St",
    "address_councildis": "B",
    "status": "Pending",
    "rowid": "1063100",
    "final_x": "3668207.40577",
    "final_y": "521537.346041",
    "longitude": "-90.11038011753256",
    "latitude": "29.92844351107548",
    "geocoded_column": {
      "latitude": "29.92844351107548",
      "longitude": "-90.11038011753256"
    }
  },
  {
    "service_request": "2024-1063099",
    "request_type": "Roads/Drainage",
    "request_reason": "Pothole",
    "date_created": "2024-01-23T13:47:44.000",
    "date_modified": "2024-01-23T13:47:44.000",
    "request_status": "Pending",
    "responsible_agency": "Department of Public Works",
    "final_address": "1829 Bordeaux St",
    "address_councildis": "B",
    "status": "Pending",
    "rowid": "1063099",
    "final_x": "3669329.725",
    "final_y": "521672.549241",
    "longitude": "-90.1068326189762",
    "latitude": "29.92878229206484",
    "geocoded_column": {
      "latitude": "29.92878229206484",
      "longitude": "-90.1068326189762"
    }
  },
  {
    "service_request": "2024-1063098",
    "request_type": "Trash/Recycling",
    "request_reason": "Order Trash Cart",
    "date_created": "2024-01-23T13:42:15.000",
    "date_modified": "2024-01-23T13:42:16.000",
    "request_status": "Pending",
    "responsible_agency": "Department of Sanitation",
    "final_address": "2735 Tulane Ave",
    "address_councildis": "B",
    "status": "Assigned to Contractor",
    "contractor": "Richards Disposal",
    "rowid": "1063098",
    "final_x": "3674068.22408",
    "final_y": "533936.428357",
    "longitude": "-90.09145453254939",
    "latitude": "29.962363607046708",
    "geocoded_column": {
      "latitude": "29.962363607046708",
      "longitude": "-90.09145453254939"
    }
  },
  {
    "service_request": "2024-1063097",
    "request_type": "Trash/Recycling",
    "request_reason": "Order Trash Cart",
    "date_created": "2024-01-23T13:41:52.000",
    "date_modified": "2024-01-23T13:41:53.000",
    "request_status": "Pending",
    "responsible_agency": "Department of Sanitation",
    "final_address": "2739 Tulane Ave",
    "address_councildis": "B",
    "status": "Assigned to Contractor",
    "contractor": "Richards Disposal",
    "rowid": "1063097",
    "final_x": "3674044.71348",
    "final_y": "533952.500805",
    "longitude": "-90.0915282257303",
    "latitude": "29.96240850150948",
    "geocoded_column": {
      "latitude": "29.96240850150948",
      "longitude": "-90.0915282257303"
    }
  },
  {
    "service_request": "2024-1063096",
    "request_type": "Trash/Recycling",
    "request_reason": "Repair Trash Cart",
    "date_created": "2024-01-23T13:41:18.000",
    "date_modified": "2024-01-23T13:41:19.000",
    "request_status": "Pending",
    "responsible_agency": "Department of Sanitation",
    "final_address": "2737 Tulane Ave",
    "address_councildis": "B",
    "status": "Assigned to Contractor",
    "contractor": "Richards Disposal",
    "rowid": "1063096",
    "final_x": "3674053.67636",
    "final_y": "533946.658053",
    "longitude": "-90.0915001221413",
    "latitude": "29.962392168810037",
    "geocoded_column": {
      "latitude": "29.962392168810037",
      "longitude": "-90.0915001221413"
    }
  },
  {
    "service_request": "2024-1063095",
    "request_type": "Trash/Recycling",
    "request_reason": "Repair Trash Cart",
    "date_created": "2024-01-23T13:41:10.000",
    "date_modified": "2024-01-23T13:41:11.000",
    "request_status": "Pending",
    "responsible_agency": "Department of Sanitation",
    "final_address": "2716 St Ann St",
    "address_councildis": "A",
    "status": "Assigned to Contractor",
    "contractor": "Richards Disposal",
    "rowid": "1063095",
    "final_x": "3676748.19893",
    "final_y": "537304.921608",
    "longitude": "-90.08287546419793",
    "latitude": "29.971545680984985",
    "geocoded_column": {
      "latitude": "29.971545680984985",
      "longitude": "-90.08287546419793"
    }
  },
  {
    "service_request": "2024-1063094",
    "request_type": "Roads/Drainage",
    "request_reason": "Pothole",
    "date_created": "2024-01-23T13:36:44.000",
    "date_modified": "2024-01-23T13:38:58.000",
    "request_status": "Pending",
    "responsible_agency": "Department of Public Works",
    "final_address": "8160 Old Gentilly Rd",
    "address_councildis": "E",
    "status": "Pending",
    "rowid": "1063094",
    "final_x": "3706882.46622",
    "final_y": "552471.206422",
    "longitude": "-89.98714509312181",
    "latitude": "30.012308622138285",
    "geocoded_column": {
      "latitude": "30.012308622138285",
      "longitude": "-89.98714509312181"
    }
  },
  {
    "service_request": "2024-1063093",
    "request_type": "Trash/Recycling",
    "request_reason": "Request a Large Item Pick Up",
    "date_created": "2024-01-23T13:32:57.000",
    "date_modified": "2024-01-23T13:32:58.000",
    "request_status": "Pending",
    "responsible_agency": "Department of Sanitation",
    "final_address": "3800 BLK Ulloa St",
    "address_councildis": "B",
    "status": "Assigned to Contractor",
    "contractor": "Richards Disposal",
    "rowid": "1063093",
    "final_x": "3670499.03921",
    "final_y": "535836.470766",
    "longitude": "-90.10266109529677",
    "latitude": "29.96769397306958",
    "geocoded_column": {
      "latitude": "29.96769397306958",
      "longitude": "-90.10266109529677"
    }
  },
  {
    "service_request": "2024-1063092",
    "request_type": "Traffic Signals/Signs/Striping/Streetlights",
    "request_reason": "Street Light Outage/Malfunction",
    "date_created": "2024-01-23T13:25:29.000",
    "date_modified": "2024-01-23T13:25:30.000",
    "request_status": "Pending",
    "responsible_agency": "Department of Public Works",
    "final_address": "2203 S Carrollton Ave",
    "address_councildis": "A",
    "status": "Assigned to Contractor",
    "contractor": "Legacy Professional Services",
    "rowid": "1063092",
    "final_x": "3664489.84141",
    "final_y": "530899.23021",
    "longitude": "-90.12180323925806",
    "latitude": "29.954294274764887",
    "geocoded_column": {
      "latitude": "29.954294274764887",
      "longitude": "-90.12180323925806"
    }
  },
  {
    "service_request": "2024-1063091",
    "request_type": "Property Maintenance",
    "request_reason": "Property Maintenance",
    "date_created": "2024-01-23T13:22:06.000",
    "date_modified": "2024-01-23T13:58:52.000",
    "case_close_date": "2024-01-23T07:58:52.000",
    "request_status": "Closed",
    "responsible_agency": "Department of Code Enforcement",
    "final_address": "13000 Hayne Blvd",
    "address_councildis": "E",
    "status": "Resolved",
    "rowid": "1063091",
    "final_x": "3715335.98648",
    "final_y": "570859.727719",
    "longitude": "-89.95974057417232",
    "latitude": "30.062593855670972",
    "geocoded_column": {
      "latitude": "30.062593855670972",
      "longitude": "-89.95974057417232"
    }
  },
  {
    "service_request": "2024-1063090",
    "request_type": "Traffic Signals/Signs/Striping/Streetlights",
    "request_reason": "Street Light Outage/Malfunction",
    "date_created": "2024-01-23T13:20:39.000",
    "date_modified": "2024-01-23T13:20:41.000",
    "request_status": "Pending",
    "responsible_agency": "Department of Public Works",
    "final_address": "11935 Curran Rd",
    "address_councildis": "E",
    "status": "Assigned to Contractor",
    "contractor": "Legacy Professional Services",
    "rowid": "1063090",
    "final_x": "3713091.33464",
    "final_y": "567898.502501",
    "longitude": "-89.96694753670967",
    "latitude": "30.054525497786877",
    "geocoded_column": {
      "latitude": "30.054525497786877",
      "longitude": "-89.96694753670967"
    }
  },
  {
    "service_request": "2024-1063089",
    "request_type": "Traffic Signals/Signs/Striping/Streetlights",
    "request_reason": "Street Light Knocked Down/Leaning",
    "date_created": "2024-01-23T13:17:03.000",
    "date_modified": "2024-01-23T13:17:04.000",
    "request_status": "Pending",
    "responsible_agency": "Department of Public Works",
    "final_address": "5704 Constance St",
    "address_councildis": "A",
    "status": "Pending",
    "contractor": "Legacy Professional Services",
    "rowid": "1063089",
    "final_x": "3665646.65012",
    "final_y": "518593.474423",
    "longitude": "-90.11856242540681",
    "latitude": "29.920423693007614",
    "geocoded_column": {
      "latitude": "29.920423693007614",
      "longitude": "-90.11856242540681"
    }
  },
  {
    "service_request": "2024-1063088",
    "request_type": "Trash/Recycling",
    "request_reason": "Illegal Dumping",
    "date_created": "2024-01-23T13:03:56.000",
    "date_modified": "2024-01-23T13:03:56.000",
    "request_status": "Pending",
    "responsible_agency": "Department of Sanitation",
    "final_address": "8827 Olive St",
    "address_councildis": "A",
    "status": "Pending",
    "rowid": "1063088",
    "final_x": "3665275.16628",
    "final_y": "536017.989255",
    "longitude": "-90.11915221546948",
    "latitude": "29.968346327913284",
    "geocoded_column": {
      "latitude": "29.968346327913284",
      "longitude": "-90.11915221546948"
    }
  },
  {
    "service_request": "2024-1063087",
    "request_type": "Utility Poles",
    "request_reason": "Utility Pole Leaning",
    "date_created": "2024-01-23T12:53:48.000",
    "date_modified": "2024-01-23T12:53:52.000",
    "request_status": "Pending",
    "responsible_agency": "Utility Company Collective",
    "final_address": "5704 Constance St",
    "address_councildis": "A",
    "status": "Pending",
    "rowid": "1063087",
    "final_x": "3665646.65012",
    "final_y": "518593.474423",
    "longitude": "-90.11856242540681",
    "latitude": "29.920423693007614",
    "geocoded_column": {
      "latitude": "29.920423693007614",
      "longitude": "-90.11856242540681"
    }
  },
  {
    "service_request": "2024-1063086",
    "request_type": "Trash/Recycling",
    "request_reason": "Repair Trash Cart",
    "date_created": "2024-01-23T12:52:40.000",
    "date_modified": "2024-01-23T12:52:41.000",
    "request_status": "Pending",
    "responsible_agency": "Department of Sanitation",
    "final_address": "1961 Treasure St",
    "address_councildis": "D",
    "status": "Assigned to Contractor",
    "contractor": "IV Waste",
    "rowid": "1063086",
    "final_x": "3682704.8838",
    "final_y": "543954.778766",
    "longitude": "-90.06383071586163",
    "latitude": "29.989650373961155",
    "geocoded_column": {
      "latitude": "29.989650373961155",
      "longitude": "-90.06383071586163"
    }
  },
  {
    "service_request": "2024-1063085",
    "request_type": "Roads/Drainage",
    "request_reason": "Catch Basin - Clogged",
    "date_created": "2024-01-23T12:51:34.000",
    "date_modified": "2024-01-23T12:51:35.000",
    "request_status": "Pending",
    "responsible_agency": "Department of Public Works",
    "final_address": "1445 St Bernard Ave",
    "address_councildis": "C",
    "status": "Pending",
    "rowid": "1063085",
    "final_x": "3682570.86837",
    "final_y": "537545.373384",
    "longitude": "-90.06447822304918",
    "latitude": "29.97203083425003",
    "geocoded_column": {
      "latitude": "29.97203083425003",
      "longitude": "-90.06447822304918"
    }
  },
  {
    "service_request": "2024-1063084",
    "request_type": "Trash/Recycling",
    "request_reason": "Request a Large Item Pick Up",
    "date_created": "2024-01-23T12:51:18.000",
    "date_modified": "2024-01-23T12:51:19.000",
    "request_status": "Pending",
    "responsible_agency": "Department of Sanitation",
    "final_address": "3502 Banks St",
    "address_councildis": "B",
    "status": "Assigned to Contractor",
    "contractor": "Richards Disposal",
    "rowid": "1063084",
    "final_x": "3672050.21294",
    "final_y": "536005.978631",
    "longitude": "-90.09775666561171",
    "latitude": "29.96811416182851",
    "geocoded_column": {
      "latitude": "29.96811416182851",
      "longitude": "-90.09775666561171"
    }
  },
  {
    "service_request": "2024-1063083",
    "request_type": "Trash/Recycling",
    "request_reason": "Request a Large Item Pick Up",
    "date_created": "2024-01-23T12:50:23.000",
    "date_modified": "2024-01-23T12:50:23.000",
    "request_status": "Pending",
    "responsible_agency": "Department of Sanitation",
    "final_address": "922 Harmony St",
    "address_councildis": "B",
    "status": "Assigned to Contractor",
    "contractor": "Richards Disposal",
    "rowid": "1063083",
    "final_x": "3676007.2651",
    "final_y": "519485.984119",
    "longitude": "-90.08582812362769",
    "latitude": "29.922571720572687",
    "geocoded_column": {
      "latitude": "29.922571720572687",
      "longitude": "-90.08582812362769"
    }
  },
  {
    "service_request": "2024-1063082",
    "request_type": "Trash/Recycling",
    "request_reason": "Start Trash Service",
    "date_created": "2024-01-23T12:45:52.000",
    "date_modified": "2024-01-23T12:45:53.000",
    "request_status": "Pending",
    "responsible_agency": "Department of Sanitation",
    "final_address": "224 S Murat St",
    "address_councildis": "A",
    "status": "Assigned to Contractor",
    "contractor": "Richards Disposal",
    "rowid": "1063082",
    "final_x": "3669340.10407",
    "final_y": "538864.131465",
    "longitude": "-90.10621865694955",
    "latitude": "29.976053199477477",
    "geocoded_column": {
      "latitude": "29.976053199477477",
      "longitude": "-90.10621865694955"
    }
  },
  {
    "service_request": "2024-1063081",
    "request_type": "Trash/Recycling",
    "request_reason": "Repair Trash Cart",
    "date_created": "2024-01-23T12:45:14.000",
    "date_modified": "2024-01-23T12:45:15.000",
    "request_status": "Pending",
    "responsible_agency": "Department of Sanitation",
    "final_address": "2038 Cadiz St",
    "address_councildis": "B",
    "status": "Assigned to Contractor",
    "contractor": "Richards Disposal",
    "rowid": "1063081",
    "final_x": "3669841.66266",
    "final_y": "522523.919034",
    "longitude": "-90.10518772575666",
    "latitude": "29.93110820913773",
    "geocoded_column": {
      "latitude": "29.93110820913773",
      "longitude": "-90.10518772575666"
    }
  },
  {
    "service_request": "2024-1063080",
    "request_type": "Property Maintenance",
    "request_reason": "Property Maintenance",
    "date_created": "2024-01-23T12:43:40.000",
    "date_modified": "2024-01-23T14:23:40.000",
    "case_close_date": "2024-01-22T18:00:00.000",
    "request_status": "Closed",
    "responsible_agency": "Department of Code Enforcement",
    "final_address": "511 S Olympia St",
    "address_councildis": "A",
    "status": "Resolved",
    "rowid": "1063080",
    "final_x": "3668336.61562",
    "final_y": "538267.026761",
    "longitude": "-90.10940811872389",
    "latitude": "29.974440873625504",
    "geocoded_column": {
      "latitude": "29.974440873625504",
      "longitude": "-90.10940811872389"
    }
  },
  {
    "service_request": "2024-1063079",
    "request_type": "Trash/Recycling",
    "request_reason": "Request a Large Item Pick Up",
    "date_created": "2024-01-23T12:36:51.000",
    "date_modified": "2024-01-23T12:36:52.000",
    "request_status": "Pending",
    "responsible_agency": "Department of Sanitation",
    "final_address": "4324 Banks St",
    "address_councildis": "A",
    "status": "Assigned to Contractor",
    "contractor": "Richards Disposal",
    "rowid": "1063079",
    "final_x": "3669344.78292",
    "final_y": "538070.390409",
    "longitude": "-90.10623072626316",
    "latitude": "29.973870541032035",
    "geocoded_column": {
      "latitude": "29.973870541032035",
      "longitude": "-90.10623072626316"
    }
  },
  {
    "service_request": "2024-1063078",
    "request_type": "Traffic Signals/Signs/Striping/Streetlights",
    "request_reason": "Street Light Outage/Malfunction",
    "date_created": "2024-01-23T12:34:55.000",
    "date_modified": "2024-01-23T12:34:56.000",
    "request_status": "Pending",
    "responsible_agency": "Department of Public Works",
    "final_address": "3915 Baudin St",
    "address_councildis": "B",
    "status": "Assigned to Contractor",
    "contractor": "Legacy Professional Services",
    "rowid": "1063078",
    "final_x": "3670716.8795",
    "final_y": "536660.539655",
    "longitude": "-90.10194518097812",
    "latitude": "29.96995345103195",
    "geocoded_column": {
      "latitude": "29.96995345103195",
      "longitude": "-90.10194518097812"
    }
  },
  {
    "service_request": "2024-1063077",
    "request_type": "Trash/Recycling",
    "request_reason": "Repair Trash Cart",
    "date_created": "2024-01-23T12:33:34.000",
    "date_modified": "2024-01-23T12:33:35.000",
    "request_status": "Pending",
    "responsible_agency": "Department of Sanitation",
    "final_address": "4624 Willow St",
    "address_councildis": "B",
    "status": "Assigned to Contractor",
    "contractor": "Richards Disposal",
    "rowid": "1063077",
    "final_x": "3669457.66369",
    "final_y": "525294.594941",
    "longitude": "-90.10630629952915",
    "latitude": "29.938737988790102",
    "geocoded_column": {
      "latitude": "29.938737988790102",
      "longitude": "-90.10630629952915"
    }
  },
  {
    "service_request": "2024-1063076",
    "request_type": "Trash/Recycling",
    "request_reason": "MIssed Recycling Pick-Up",
    "date_created": "2024-01-23T12:30:18.000",
    "date_modified": "2024-01-23T12:30:19.000",
    "request_status": "Pending",
    "responsible_agency": "Department of Sanitation",
    "final_address": "5353 Berkley Dr",
    "address_councildis": "C",
    "status": "Assigned to Contractor",
    "contractor": "Richards Disposal",
    "rowid": "1063076",
    "final_x": "3703732.32567",
    "final_y": "518105.796598",
    "longitude": "-89.99836265705274",
    "latitude": "29.91791758037602",
    "geocoded_column": {
      "latitude": "29.91791758037602",
      "longitude": "-89.99836265705274"
    }
  },
  {
    "service_request": "2024-1063075",
    "request_type": "Roads/Drainage",
    "request_reason": "Street Subsidence (Sinking)",
    "date_created": "2024-01-23T12:29:10.000",
    "date_modified": "2024-01-23T12:29:11.000",
    "request_status": "Pending",
    "responsible_agency": "Department of Public Works",
    "final_address": "2735 Orleans Ave",
    "address_councildis": "A",
    "status": "Pending",
    "rowid": "1063075",
    "final_x": "3676550.81576",
    "final_y": "537262.015688",
    "longitude": "-90.08350030793677",
    "latitude": "29.971433625757324",
    "geocoded_column": {
      "latitude": "29.971433625757324",
      "longitude": "-90.08350030793677"
    }
  },
  {
    "service_request": "2024-1063074",
    "request_type": "Roads/Drainage",
    "request_reason": "Street Flooding / Drainage",
    "date_created": "2024-01-23T12:28:38.000",
    "date_modified": "2024-01-23T12:28:38.000",
    "request_status": "Pending",
    "responsible_agency": "Department of Public Works",
    "final_address": "5500 BLK S Claiborne Ave",
    "address_councildis": "A",
    "status": "Pending",
    "rowid": "1063074",
    "final_x": "3667969.11777",
    "final_y": "526503.916268",
    "longitude": "-90.11096508854432",
    "latitude": "29.942106978927317",
    "geocoded_column": {
      "latitude": "29.942106978927317",
      "longitude": "-90.11096508854432"
    }
  },
  {
    "service_request": "2024-1063073",
    "request_type": "Trash/Recycling",
    "request_reason": "Request a Large Item Pick Up",
    "date_created": "2024-01-23T12:26:59.000",
    "date_modified": "2024-01-23T12:27:00.000",
    "request_status": "Pending",
    "responsible_agency": "Department of Sanitation",
    "final_address": "4917 Arts St",
    "address_councildis": "D",
    "status": "Assigned to Contractor",
    "contractor": "IV Waste",
    "rowid": "1063073",
    "final_x": "3685932.23695",
    "final_y": "551013.757461",
    "longitude": "-90.05338735959936",
    "latitude": "30.008961308538147",
    "geocoded_column": {
      "latitude": "30.008961308538147",
      "longitude": "-90.05338735959936"
    }
  },
  {
    "service_request": "2024-1063072",
    "request_type": "Trash/Recycling",
    "request_reason": "Request a Large Item Pick Up",
    "date_created": "2024-01-23T12:26:34.000",
    "date_modified": "2024-01-23T12:26:34.000",
    "request_status": "Pending",
    "responsible_agency": "Department of Sanitation",
    "final_address": "1418 Audubon St",
    "address_councildis": "A",
    "status": "Assigned to Contractor",
    "contractor": "Richards Disposal",
    "rowid": "1063072",
    "final_x": "3664865.15008",
    "final_y": "527067.259518",
    "longitude": "-90.12074620569955",
    "latitude": "29.94374667635719",
    "geocoded_column": {
      "latitude": "29.94374667635719",
      "longitude": "-90.12074620569955"
    }
  },
  {
    "service_request": "2024-1063071",
    "request_type": "Trash/Recycling",
    "request_reason": "Request a Large Item Pick Up",
    "date_created": "2024-01-23T12:24:29.000",
    "date_modified": "2024-01-23T12:24:30.000",
    "request_status": "Pending",
    "responsible_agency": "Department of Sanitation",
    "final_address": "7509 Lafourche St",
    "address_councildis": "E",
    "status": "Assigned to Contractor",
    "contractor": "Waste Pro",
    "rowid": "1063071",
    "final_x": "3710596.68024",
    "final_y": "565002.09277",
    "longitude": "-89.97494103459087",
    "latitude": "30.04664310277251",
    "geocoded_column": {
      "latitude": "30.04664310277251",
      "longitude": "-89.97494103459087"
    }
  },
  {
    "service_request": "2024-1063070",
    "request_type": "Traffic Signals/Signs/Striping/Streetlights",
    "request_reason": "Additional signage",
    "date_created": "2024-01-23T12:21:34.000",
    "date_modified": "2024-01-23T12:21:35.000",
    "request_status": "Pending",
    "responsible_agency": "Department of Public Works",
    "final_address": "1300 Oretha Castle Haley Blvd",
    "address_councildis": "B",
    "status": "Pending",
    "rowid": "1063070",
    "final_x": "3678344.88808",
    "final_y": "526639.192254",
    "longitude": "-90.07820184985509",
    "latitude": "29.942170511011707",
    "geocoded_column": {
      "latitude": "29.942170511011707",
      "longitude": "-90.07820184985509"
    }
  },
  {
    "service_request": "2024-1063069",
    "request_type": "Traffic Signals/Signs/Striping/Streetlights",
    "request_reason": "Striping/Road Surface Markings",
    "date_created": "2024-01-23T12:17:48.000",
    "date_modified": "2024-01-23T12:17:48.000",
    "request_status": "Pending",
    "responsible_agency": "Department of Public Works",
    "final_address": "1453 Annunciation St",
    "address_councildis": "B",
    "status": "Pending",
    "rowid": "1063069",
    "final_x": "3681003.24424",
    "final_y": "523892.371324",
    "longitude": "-90.06990446635061",
    "latitude": "29.934537330361564",
    "geocoded_column": {
      "latitude": "29.934537330361564",
      "longitude": "-90.06990446635061"
    }
  },
  {
    "service_request": "2024-1063068",
    "request_type": "Traffic Signals/Signs/Striping/Streetlights",
    "request_reason": "Striping/Road Surface Markings",
    "date_created": "2024-01-23T12:16:25.000",
    "date_modified": "2024-01-23T12:16:25.000",
    "request_status": "Pending",
    "responsible_agency": "Department of Public Works",
    "final_address": "329 S Broad St",
    "address_councildis": "B",
    "status": "Pending",
    "rowid": "1063068",
    "final_x": "3674577.89992",
    "final_y": "534321.685253",
    "longitude": "-90.08983184400043",
    "latitude": "29.963407735177842",
    "geocoded_column": {
      "latitude": "29.963407735177842",
      "longitude": "-90.08983184400043"
    }
  },
  {
    "service_request": "2024-1063067",
    "request_type": "Parks & Parkways",
    "request_reason": "Request Tree Service (Right of Way/Public Property)",
    "date_created": "2024-01-23T12:14:03.000",
    "date_modified": "2024-01-23T12:14:04.000",
    "request_status": "Pending",
    "responsible_agency": "Department of Parks & Parkway",
    "final_address": "4900 Louisa Dr",
    "address_councildis": "D",
    "status": "Pending",
    "rowid": "1063067",
    "final_x": "3690714.22588",
    "final_y": "551553.397397",
    "longitude": "-90.03826025040301",
    "latitude": "30.01029737620921",
    "geocoded_column": {
      "latitude": "30.01029737620921",
      "longitude": "-90.03826025040301"
    }
  },
  {
    "service_request": "2024-1063066",
    "request_type": "Trash/Recycling",
    "request_reason": "Replace Trash Cart",
    "date_created": "2024-01-23T12:13:43.000",
    "date_modified": "2024-01-23T12:13:44.000",
    "request_status": "Pending",
    "responsible_agency": "Department of Sanitation",
    "final_address": "1024 Canal St",
    "address_councildis": "B",
    "status": "Assigned to Contractor",
    "contractor": "Empire Services",
    "rowid": "1063066",
    "final_x": "3680085.66792",
    "final_y": "531391.321155",
    "longitude": "-90.07254074260632",
    "latitude": "29.955184726172103",
    "geocoded_column": {
      "latitude": "29.955184726172103",
      "longitude": "-90.07254074260632"
    }
  },
  {
    "service_request": "2024-1063065",
    "request_type": "Trash/Recycling",
    "request_reason": "Missed Trash Pick-Up",
    "date_created": "2024-01-23T12:09:44.000",
    "date_modified": "2024-01-23T12:09:45.000",
    "request_status": "Pending",
    "responsible_agency": "Department of Sanitation",
    "final_address": "7621 Morel St",
    "address_councildis": "E",
    "status": "Assigned to Contractor",
    "contractor": "Waste Pro",
    "rowid": "1063065",
    "final_x": "3718847.88645",
    "final_y": "571935.13572",
    "longitude": "-89.94859840395786",
    "latitude": "30.065434553195693",
    "geocoded_column": {
      "latitude": "30.065434553195693",
      "longitude": "-89.94859840395786"
    }
  },
  {
    "service_request": "2024-1063064",
    "request_type": "Parks & Parkways",
    "request_reason": "Request Tree Service (Right of Way/Public Property)",
    "date_created": "2024-01-23T12:07:10.000",
    "date_modified": "2024-01-23T12:07:10.000",
    "request_status": "Pending",
    "responsible_agency": "Department of Parks & Parkway",
    "final_address": "1001 Harrison Ave",
    "address_councildis": "A",
    "status": "Pending",
    "rowid": "1063064",
    "final_x": "3671379.97268",
    "final_y": "549154.840595",
    "longitude": "-90.09942615406044",
    "latitude": "30.00428887869337",
    "geocoded_column": {
      "latitude": "30.00428887869337",
      "longitude": "-90.09942615406044"
    }
  },