[
  {
    "service_request": "2023-966959",
    "request_type": "Traffic Signals/Signs/Striping/Streetlights",
    "request_reason": "Street Light Outage/Malfunction",
    "date_created": "2023-01-14T01:47:31.000",
    "date_modified": "2023-01-14T01:47:32.000",
    "request_status": "Pending",
    "responsible_agency": "Department of Public Works",
    "final_address": "1557 Henry Clay Ave, New Orleans, Louisiana, 70118",
    "address_councildis": "A",
    "status": "Assigned to Contractor",
    "contractor": "Legacy Professional Services",
    "rowid": "966959",
    "final_x": "3665070.79584",
    "final_y": "522534.81497",
    "longitude": "-90.12024842379398",
    "latitude": "29.93127791353503",
    "geocoded_column": {
      "latitude": "29.93127791353503",
      "longitude": "-90.12024842379398"
    }
  },
  {
    "service_request": "2023-966958",
    "request_type": "Trash/Recycling",
    "request_reason": "Order Trash Cart",
    "date_created": "2023-01-14T01:05:48.000",
    "date_modified": "2023-01-14T01:05:49.000",
    "request_status": "Pending",
    "responsible_agency": "Department of Sanitation",
    "final_address": "5871 Tullis Dr",
    "address_councildis": "C",
    "status": "Assigned to Contractor",
    "contractor": "Richards Disposal",
    "rowid": "966958",
    "final_x": "3705770.4515",
    "final_y": "513011.703217",
    "longitude": "-89.99211767382118",
    "latitude": "29.90384512535216",
    "geocoded_column": {
      "latitude": "29.90384512535216",
      "longitude": "-89.99211767382118"
    }
  },
  {
    "service_request": "2023-966957",
    "request_type": "Roads/Drainage",
    "request_reason": "Ditch Issue",
    "date_created": "2023-01-14T01:02:03.000",
    "date_modified": "2023-01-14T01:02:03.000",
    "request_status": "Pending",
    "responsible_agency": "Department of Public Works",
    "final_address": "2005 N Broad St",
    "address_councildis": "D",
    "status": "Pending",
    "rowid": "966957",
    "final_x": "3680424.96789",
    "final_y": "542012.568844",
    "longitude": "-90.07109991217023",
    "latitude": "29.984379236110264",
    "geocoded_column": {
      "latitude": "29.984379236110264",
      "longitude": "-90.07109991217023"
    }
  },
  {
    "service_request": "2023-966955",
    "request_type": "Traffic Signals/Signs/Striping/Streetlights",
    "request_reason": "Street Light Knocked Down/Leaning",
    "date_created": "2023-01-13T23:27:08.000",
    "date_modified": "2023-01-13T23:27:08.000",
    "request_status": "Pending",
    "responsible_agency": "Department of Public Works",
    "final_address": "17 Versailles Blvd",
    "address_councildis": "A",
    "status": "Pending",
    "contractor": "Legacy Professional Services",
    "rowid": "966955",
    "final_x": "3667178.86778",
    "final_y": "528969.64992",
    "longitude": "-90.11337720356356",
    "latitude": "29.948910105580993",
    "geocoded_column": {
      "latitude": "29.948910105580993",
      "longitude": "-90.11337720356356"
    }
  },
  {
    "service_request": "2023-966954",
    "request_type": "Health Related Request",
    "request_reason": "Noise Ordinance Complaint",
    "date_created": "2023-01-13T23:24:03.000",
    "date_modified": "2023-01-13T23:24:03.000",
    "request_status": "Pending",
    "responsible_agency": "Health Department",
    "final_address": "3116 Washington Ave",
    "address_councildis": "B",
    "status": "Pending",
    "rowid": "966954",
    "final_x": "3672795.23329",
    "final_y": "527121.305151",
    "longitude": "-90.09570691479465",
    "latitude": "29.943662148981783",
    "geocoded_column": {
      "latitude": "29.943662148981783",
      "longitude": "-90.09570691479465"
    }
  },
  {
    "service_request": "2023-966953",
    "request_type": "Trash/Recycling",
    "request_reason": "Missed Trash Pick-Up",
    "date_created": "2023-01-13T23:01:39.000",
    "date_modified": "2023-01-13T23:01:40.000",
    "request_status": "Pending",
    "responsible_agency": "Department of Sanitation",
    "final_address": "2329 General Meyer Ave",
    "address_councildis": "C",
    "status": "Assigned to Contractor",
    "contractor": "Richards Disposal",
    "rowid": "966953",
    "final_x": "3692652.05296",
    "final_y": "527621.965631",
    "longitude": "-90.03299598049206",
    "latitude": "29.944434123735533",
    "geocoded_column": {
      "latitude": "29.944434123735533",
      "longitude": "-90.03299598049206"
    }
  },
  {
    "service_request": "2023-966952",
    "request_type": "Trash/Recycling",
    "request_reason": "MIssed Recycling Pick-Up",
    "date_created": "2023-01-13T22:57:48.000",
    "date_modified": "2023-01-13T22:57:49.000",
    "request_status": "Pending",
    "responsible_agency": "Department of Sanitation",
    "final_address": "7218 Pitt St",
    "address_councildis": "A",
    "status": "Assigned to Contractor",
    "contractor": "Richards Disposal",
    "rowid": "966952",
    "final_x": "3661685.06118",
    "final_y": "523108.031995",
    "longitude": "-90.13091782702296",
    "latitude": "29.932952206225792",
    "geocoded_column": {
      "latitude": "29.932952206225792",
      "longitude": "-90.13091782702296"
    }
  },
  {
    "service_request": "2023-966951",
    "request_type": "Trash/Recycling",
    "request_reason": "MIssed Recycling Pick-Up",
    "date_created": "2023-01-13T22:25:25.000",
    "date_modified": "2023-01-13T22:25:25.000",
    "request_status": "Pending",
    "responsible_agency": "Department of Sanitation",
    "final_address": "8738 Jeannette St",
    "address_councildis": "A",
    "status": "Assigned to Contractor",
    "contractor": "Richards Disposal",
    "rowid": "966951",
    "final_x": "3660864.2729",
    "final_y": "530743.19629",
    "longitude": "-90.13325656346724",
    "latitude": "29.953970139935837",
    "geocoded_column": {
      "latitude": "29.953970139935837",
      "longitude": "-90.13325656346724"
    }
  },
  {
    "service_request": "2023-966950",
    "request_type": "Trash/Recycling",
    "request_reason": "Missed Trash Pick-Up",
    "date_created": "2023-01-13T22:08:23.000",
    "date_modified": "2023-01-13T22:08:24.000",
    "request_status": "Pending",
    "responsible_agency": "Department of Sanitation",
    "final_address": "5524 Sutton Pl",
    "address_councildis": "C",
    "status": "Assigned to Contractor",
    "contractor": "Richards Disposal",
    "rowid": "966950",
    "final_x": "3704477.83191",
    "final_y": "518507.425143",
    "longitude": "-89.99599472559409",
    "latitude": "29.91899801669887",
    "geocoded_column": {
      "latitude": "29.91899801669887",
      "longitude": "-89.99599472559409"
    }
  },
  {
    "service_request": "2023-966949",
    "request_type": "Traffic Signals/Signs/Striping/Streetlights",
    "request_reason": "Traffic Sign Missing/Damaged",
    "date_created": "2023-01-13T21:34:22.000",
    "date_modified": "2023-01-13T21:34:54.000",
    "request_status": "Pending",
    "responsible_agency": "Department of Public Works",
    "final_address": "WILLOW ST & BROADWAY ST",
    "address_councildis": "A",
    "status": "Pending",
    "rowid": "966949",
    "final_x": "3664542.8",
    "final_y": "527089.48",
    "longitude": "-90.12176321398",
    "latitude": "29.943817151500046",
    "geocoded_column": {
      "latitude": "29.943817151500046",
      "longitude": "-90.12176321398"
    }
  },
  {
    "service_request": "2023-966948",
    "request_type": "Trash/Recycling",
    "request_reason": "MIssed Recycling Pick-Up",
    "date_created": "2023-01-13T21:15:03.000",
    "date_modified": "2023-01-13T21:15:04.000",
    "request_status": "Pending",
    "responsible_agency": "Department of Sanitation",
    "final_address": "7817 Pearl St",
    "address_councildis": "A",
    "status": "Assigned to Contractor",
    "contractor": "Richards Disposal",
    "rowid": "966948",
    "final_x": "3661047.32806",
    "final_y": "525937.593853",
    "longitude": "-90.13283752639359",
    "latitude": "29.94075099484105",
    "geocoded_column": {
      "latitude": "29.94075099484105",
      "longitude": "-90.13283752639359"
    }
  },
  {
    "service_request": "2023-966947",
    "request_type": "Traffic Signals/Signs/Striping/Streetlights",
    "request_reason": "Traffic Signal Malfunctioning/Damaged",
    "date_created": "2023-01-13T21:14:20.000",
    "date_modified": "2023-01-13T21:14:20.000",
    "request_status": "Pending",
    "responsible_agency": "Department of Public Works",
    "final_address": "6201 Paris Ave",
    "address_councildis": "D",
    "status": "Pending",
    "rowid": "966947",
    "final_x": "3679008.71662",
    "final_y": "555504.559129",
    "longitude": "-90.07510526834135",
    "latitude": "30.021520225279687",
    "geocoded_column": {
      "latitude": "30.021520225279687",
      "longitude": "-90.07510526834135"
    }
  },
  {
    "service_request": "2023-966946",
    "request_type": "Trash/Recycling",
    "request_reason": "Request a Large Item Pick Up",
    "date_created": "2023-01-13T21:01:46.000",
    "date_modified": "2023-01-13T21:01:47.000",
    "request_status": "Pending",
    "responsible_agency": "Department of Sanitation",
    "final_address": "3245 Metropolitan St",
    "address_councildis": "D",
    "status": "Assigned to Contractor",
    "contractor": "IV Waste",
    "rowid": "966946",
    "final_x": "3691495.16688",
    "final_y": "544561.135887",
    "longitude": "-90.03604308445078",
    "latitude": "29.991046921604504",
    "geocoded_column": {
      "latitude": "29.991046921604504",
      "longitude": "-90.03604308445078"
    }
  },
  {
    "service_request": "2023-966945",
    "request_type": "Trash/Recycling",
    "request_reason": "MIssed Recycling Pick-Up",
    "date_created": "2023-01-13T20:57:35.000",
    "date_modified": "2023-01-13T20:57:36.000",
    "request_status": "Pending",
    "responsible_agency": "Department of Sanitation",
    "final_address": "7535 Garfield St",
    "address_councildis": "A",
    "status": "Assigned to Contractor",
    "contractor": "Richards Disposal",
    "rowid": "966945",
    "final_x": "3660813.56678",
    "final_y": "524378.530492",
    "longitude": "-90.13362709167163",
    "latitude": "29.936470795261613",
    "geocoded_column": {
      "latitude": "29.936470795261613",
      "longitude": "-90.13362709167163"
    }
  },
  {
    "service_request": "2023-966944",
    "request_type": "Trash/Recycling",
    "request_reason": "Replace Trash Cart",
    "date_created": "2023-01-13T20:39:50.000",
    "date_modified": "2023-01-13T20:39:51.000",
    "request_status": "Pending",
    "responsible_agency": "Department of Sanitation",
    "final_address": "4927 Bergerac St",
    "address_councildis": "E",
    "status": "Assigned to Contractor",
    "contractor": "Waste Pro",
    "rowid": "966944",
    "final_x": "3726000.12012",
    "final_y": "561788.758047",
    "longitude": "-89.92638348304118",
    "latitude": "30.03729666723915",
    "geocoded_column": {
      "latitude": "30.03729666723915",
      "longitude": "-89.92638348304118"
    }
  },
  {
    "service_request": "2023-966943",
    "request_type": "Trash/Recycling",
    "request_reason": "Replace Trash Cart",
    "date_created": "2023-01-13T20:36:42.000",
    "date_modified": "2023-01-13T20:36:43.000",
    "request_status": "Pending",
    "responsible_agency": "Department of Sanitation",
    "final_address": "4927 Bergerac St",
    "address_councildis": "E",
    "status": "Assigned to Contractor",
    "contractor": "Waste Pro",
    "rowid": "966943",
    "final_x": "3726000.12012",
    "final_y": "561788.758047",
    "longitude": "-89.92638348304118",
    "latitude": "30.03729666723915",
    "geocoded_column": {
      "latitude": "30.03729666723915",
      "longitude": "-89.92638348304118"
    }
  },
  {
    "service_request": "2023-966942",
    "request_type": "Safety & Permits",
    "request_reason": "Licenses & Permits",
    "date_created": "2023-01-13T20:12:23.000",
    "date_modified": "2023-01-13T20:12:23.000",
    "request_status": "Pending",
    "responsible_agency": "Safety and Permits",
    "final_address": "4523 Magazine St",
    "address_councildis": "B",
    "status": "Pending",
    "rowid": "966942",
    "final_x": "3670459.91399",
    "final_y": "518764.599223",
    "longitude": "-90.10336337284775",
    "latitude": "29.920753043460966",
    "geocoded_column": {
      "latitude": "29.920753043460966",
      "longitude": "-90.10336337284775"
    }
  },
  {
    "service_request": "2023-966941",
    "request_type": "Safety & Permits",
    "request_reason": "Licenses & Permits",
    "date_created": "2023-01-13T20:11:25.000",
    "date_modified": "2023-01-13T20:11:25.000",
    "request_status": "Pending",
    "responsible_agency": "Safety and Permits",
    "final_address": "4523 Magazine St",
    "address_councildis": "B",
    "status": "Pending",
    "rowid": "966941",
    "final_x": "3670459.91399",
    "final_y": "518764.599223",
    "longitude": "-90.10336337284775",
    "latitude": "29.920753043460966",
    "geocoded_column": {
      "latitude": "29.920753043460966",
      "longitude": "-90.10336337284775"
    }
  },
  {
    "service_request": "2023-966940",
    "request_type": "Trash/Recycling",
    "request_reason": "MIssed Recycling Pick-Up",
    "date_created": "2023-01-13T20:10:37.000",
    "date_modified": "2023-01-13T20:10:38.000",
    "request_status": "Pending",
    "responsible_agency": "Department of Sanitation",
    "final_address": "1817 Short St",
    "address_councildis": "A",
    "status": "Assigned to Contractor",
    "contractor": "Richards Disposal",
    "rowid": "966940",
    "final_x": "3663843.43117",
    "final_y": "529707.157505",
    "longitude": "-90.12388408528567",
    "latitude": "29.951035237797623",
    "geocoded_column": {
      "latitude": "29.951035237797623",
      "longitude": "-90.12388408528567"
    }
  },
  {
    "service_request": "2023-966938",
    "request_type": "Trash/Recycling",
    "request_reason": "Order Recycling Cart",
    "date_created": "2023-01-13T19:58:04.000",
    "date_modified": "2023-01-13T19:58:05.000",
    "request_status": "Pending",
    "responsible_agency": "Department of Sanitation",
    "final_address": "7400 Crestmont Rd",
    "address_councildis": "E",
    "status": "Pending",
    "rowid": "966938",
    "final_x": "3699833.04336",
    "final_y": "559613.980061",
    "longitude": "-90.00915637418399",
    "latitude": "30.03217435966025",
    "geocoded_column": {
      "latitude": "30.03217435966025",
      "longitude": "-90.00915637418399"
    }
  },
  {
    "service_request": "2023-966937",
    "request_type": "Traffic Signals/Signs/Striping/Streetlights",
    "request_reason": "Traffic Signal Malfunctioning/Damaged",
    "date_created": "2023-01-13T19:56:32.000",
    "date_modified": "2023-01-13T19:56:32.000",
    "request_status": "Pending",
    "responsible_agency": "Department of Public Works",
    "final_address": "2323 Napoleon Ave",
    "address_councildis": "B",
    "status": "Pending",
    "rowid": "966937",
    "final_x": "3670678.14228",
    "final_y": "523545.080315",
    "longitude": "-90.10251243535163",
    "latitude": "29.933891395218257",
    "geocoded_column": {
      "latitude": "29.933891395218257",
      "longitude": "-90.10251243535163"
    }
  },
  {
    "service_request": "2023-966936",
    "request_type": "Roads/Drainage",
    "request_reason": "Accessibility Ramps, Curbs and Sidewalk Repair",
    "date_created": "2023-01-13T19:49:56.000",
    "date_modified": "2023-01-13T19:49:56.000",
    "request_status": "Pending",
    "responsible_agency": "Department of Public Works",
    "final_address": "7050 Edgefield Dr",
    "address_councildis": "E",
    "status": "Pending",
    "rowid": "966936",
    "final_x": "3718687.64972",
    "final_y": "569150.090406",
    "longitude": "-89.94921127171993",
    "latitude": "30.057782163760944",
    "geocoded_column": {
      "latitude": "30.057782163760944",
      "longitude": "-89.94921127171993"
    }
  },
  {
    "service_request": "2023-966935",
    "request_type": "Trash/Recycling",
    "request_reason": "Missed Trash Pick-Up",
    "date_created": "2023-01-13T19:31:34.000",
    "date_modified": "2023-01-13T19:31:35.000",
    "request_status": "Pending",
    "responsible_agency": "Department of Sanitation",
    "final_address": "7450 St Charles Ave",
    "address_councildis": "A",
    "status": "Assigned to Contractor",
    "contractor": "Richards Disposal",
    "rowid": "966935",
    "final_x": "3662157.86695",
    "final_y": "525239.529853",
    "longitude": "-90.12935450217626",
    "latitude": "29.93879950093089",
    "geocoded_column": {
      "latitude": "29.93879950093089",
      "longitude": "-90.12935450217626"
    }
  },
  {
    "service_request": "2023-966934",
    "request_type": "Trash/Recycling",
    "request_reason": "Missed Trash Pick-Up",
    "date_created": "2023-01-13T19:31:25.000",
    "date_modified": "2023-01-13T19:31:26.000",
    "request_status": "Pending",
    "responsible_agency": "Department of Sanitation",
    "final_address": "2845 Memorial Park Dr",
    "address_councildis": "C",
    "status": "Assigned to Contractor",
    "contractor": "Richards Disposal",
    "rowid": "966934",
    "final_x": "3693555.82992",
    "final_y": "520316.516024",
    "longitude": "-90.03040478231925",
    "latitude": "29.92431839907021",
    "geocoded_column": {
      "latitude": "29.92431839907021",
      "longitude": "-90.03040478231925"
    }
  },
  {
    "service_request": "2023-966933",
    "request_type": "Roads/Drainage",
    "request_reason": "Pothole",
    "date_created": "2023-01-13T19:30:02.000",
    "date_modified": "2023-01-13T19:30:02.000",
    "request_status": "Pending",
    "responsible_agency": "Department of Public Works",
    "final_address": "804 Dumaine St",
    "address_councildis": "C",
    "status": "Pending",
    "rowid": "966933",
    "final_x": "3682652.87887",
    "final_y": "533278.087812",
    "longitude": "-90.06436846982326",
    "latitude": "29.960294770322086",
    "geocoded_column": {
      "latitude": "29.960294770322086",
      "longitude": "-90.06436846982326"
    }
  },
  {
    "service_request": "2023-966932",
    "request_type": "Roads/Drainage",
    "request_reason": "Pothole",
    "date_created": "2023-01-13T19:30:01.000",
    "date_modified": "2023-01-13T19:30:01.000",
    "request_status": "Pending",
    "responsible_agency": "Department of Public Works",
    "final_address": "804 Dumaine St",
    "address_councildis": "C",
    "status": "Pending",
    "rowid": "966932",
    "final_x": "3682652.87887",
    "final_y": "533278.087812",
    "longitude": "-90.06436846982326",
    "latitude": "29.960294770322086",
    "geocoded_column": {
      "latitude": "29.960294770322086",
      "longitude": "-90.06436846982326"
    }
  },
  {
    "service_request": "2023-966931",
    "request_type": "Trash/Recycling",
    "request_reason": "MIssed Recycling Pick-Up",
    "date_created": "2023-01-13T19:29:20.000",
    "date_modified": "2023-01-13T19:29:21.000",
    "request_status": "Pending",
    "responsible_agency": "Department of Sanitation",
    "final_address": "5211 Annunciation St",
    "address_councildis": "B",
    "status": "Assigned to Contractor",
    "contractor": "Richards Disposal",
    "rowid": "966931",
    "final_x": "3667909.69351",
    "final_y": "517607.481078",
    "longitude": "-90.11145222429562",
    "latitude": "29.917646357630986",
    "geocoded_column": {
      "latitude": "29.917646357630986",
      "longitude": "-90.11145222429562"
    }
  },
  {
    "service_request": "2023-966930",
    "request_type": "Trash/Recycling",
    "request_reason": "Order Trash Cart",
    "date_created": "2023-01-13T19:19:48.000",
    "date_modified": "2023-01-13T19:19:49.000",
    "request_status": "Pending",
    "responsible_agency": "Department of Sanitation",
    "final_address": "8002 Panola St",
    "address_councildis": "A",
    "status": "Assigned to Contractor",
    "contractor": "Richards Disposal",
    "rowid": "966930",
    "final_x": "3664362.53933",
    "final_y": "530414.860738",
    "longitude": "-90.12222137603304",
    "latitude": "29.95296611625756",
    "geocoded_column": {
      "latitude": "29.95296611625756",
      "longitude": "-90.12222137603304"
    }
  },
  {
    "service_request": "2023-966929",
    "request_type": "Trash/Recycling",
    "request_reason": "Replace Trash Cart",
    "date_created": "2023-01-13T19:16:29.000",
    "date_modified": "2023-01-13T19:16:30.000",
    "request_status": "Pending",
    "responsible_agency": "Department of Sanitation",
    "final_address": "8002 Panola Street ",
    "address_councildis": "A",
    "status": "Assigned to Contractor",
    "contractor": "Richards Disposal",
    "rowid": "966929",
    "final_x": "3664362.53933",
    "final_y": "530414.860738",
    "longitude": "-90.12222137603304",
    "latitude": "29.95296611625756",
    "geocoded_column": {
      "latitude": "29.95296611625756",
      "longitude": "-90.12222137603304"
    }
  },
  {
    "service_request": "2023-966928",
    "request_type": "Trash/Recycling",
    "request_reason": "Replace Trash Cart",
    "date_created": "2023-01-13T19:13:50.000",
    "date_modified": "2023-01-13T19:13:50.000",
    "request_status": "Pending",
    "responsible_agency": "Department of Sanitation",
    "final_address": "8002 Panola St",
    "address_councildis": "A",
    "status": "Assigned to Contractor",
    "contractor": "Richards Disposal",
    "rowid": "966928",
    "final_x": "3664362.53933",
    "final_y": "530414.860738",
    "longitude": "-90.12222137603304",
    "latitude": "29.95296611625756",
    "geocoded_column": {
      "latitude": "29.95296611625756",
      "longitude": "-90.12222137603304"
    }
  },
  {
    "service_request": "2023-966927",
    "request_type": "Trash/Recycling",
    "request_reason": "MIssed Recycling Pick-Up",
    "date_created": "2023-01-13T19:08:33.000",
    "date_modified": "2023-01-13T19:08:34.000",
    "request_status": "Pending",
    "responsible_agency": "Department of Sanitation",
    "final_address": "1900 BLK Fern St",
    "address_councildis": "A",
    "status": "Assigned to Contractor",
    "contractor": "Richards Disposal",
    "rowid": "966927",
    "final_x": "3664309.44169",
    "final_y": "529797.621951",
    "longitude": "-90.1224096324718",
    "latitude": "29.951270452473665",
    "geocoded_column": {
      "latitude": "29.951270452473665",
      "longitude": "-90.1224096324718"
    }
  },
  {
    "service_request": "2023-966926",
    "request_type": "Roads/Drainage",
    "request_reason": "Alley Way",
    "date_created": "2023-01-13T19:02:20.000",
    "date_modified": "2023-01-13T19:02:20.000",
    "request_status": "Pending",
    "responsible_agency": "Department of Public Works",
    "final_address": "6818 Louisville St",
    "address_councildis": "A",
    "status": "Pending",
    "rowid": "966926",
    "final_x": "3668149.53389",
    "final_y": "552906.894551",
    "longitude": "-90.1095051378254",
    "latitude": "30.01470097073277",
    "geocoded_column": {
      "latitude": "30.01470097073277",
      "longitude": "-90.1095051378254"
    }
  },
  {
    "service_request": "2023-966925",
    "request_type": "Trash/Recycling",
    "request_reason": "MIssed Recycling Pick-Up",
    "date_created": "2023-01-13T18:59:33.000",
    "date_modified": "2023-01-13T18:59:34.000",
    "request_status": "Pending",
    "responsible_agency": "Department of Sanitation",
    "final_address": "716 Peniston St",
    "address_councildis": "B",
    "status": "Assigned to Contractor",
    "contractor": "Richards Disposal",
    "rowid": "966925",
    "final_x": "3673485.12014",
    "final_y": "518469.724342",
    "longitude": "-90.09382423794936",
    "latitude": "29.91985259424551",
    "geocoded_column": {
      "latitude": "29.91985259424551",
      "longitude": "-90.09382423794936"
    }
  },
  {
    "service_request": "2023-966924",
    "request_type": "Trash/Recycling",
    "request_reason": "MIssed Recycling Pick-Up",
    "date_created": "2023-01-13T18:46:31.000",
    "date_modified": "2023-01-13T18:46:31.000",
    "request_status": "Pending",
    "responsible_agency": "Department of Sanitation",
    "final_address": "4515 Tchoupitoulas St",
    "address_councildis": "B",
    "status": "Assigned to Contractor",
    "contractor": "Richards Disposal",
    "rowid": "966924",
    "final_x": "3670648.76449",
    "final_y": "517518.410998",
    "longitude": "-90.10280950061293",
    "latitude": "29.917320845137358",
    "geocoded_column": {
      "latitude": "29.917320845137358",
      "longitude": "-90.10280950061293"
    }
  },
  {
    "service_request": "2023-966923",
    "request_type": "Traffic Signals/Signs/Striping/Streetlights",
    "request_reason": "Street Light Outage/Malfunction",
    "date_created": "2023-01-13T18:39:33.000",
    "date_modified": "2023-01-13T18:39:34.000",
    "request_status": "Pending",
    "responsible_agency": "Department of Public Works",
    "final_address": "82 Tern St",
    "address_councildis": "D",
    "status": "Assigned to Contractor",
    "contractor": "Legacy Professional Services",
    "rowid": "966923",
    "final_x": "3674768.70005",
    "final_y": "556996.591898",
    "longitude": "-90.08845137621972",
    "latitude": "30.02575011439832",
    "geocoded_column": {
      "latitude": "30.02575011439832",
      "longitude": "-90.08845137621972"
    }
  },
  {
    "service_request": "2023-966922",
    "request_type": "Trash/Recycling",
    "request_reason": "Return Recycling Cart",
    "date_created": "2023-01-13T18:38:05.000",
    "date_modified": "2023-01-13T18:38:05.000",
    "request_status": "Pending",
    "responsible_agency": "Department of Sanitation",
    "final_address": "1018 Desire St",
    "address_councildis": "C",
    "status": "Pending",
    "rowid": "966922",
    "final_x": "3690085.51036",
    "final_y": "535441.974598",
    "longitude": "-90.040820768112",
    "latitude": "29.96601627763169",
    "geocoded_column": {
      "latitude": "29.96601627763169",
      "longitude": "-90.040820768112"
    }
  },
  {
    "service_request": "2023-966921",
    "request_type": "Trash/Recycling",
    "request_reason": "Replace Trash Cart",
    "date_created": "2023-01-13T18:35:50.000",
    "date_modified": "2023-01-13T18:35:51.000",
    "request_status": "Pending",
    "responsible_agency": "Department of Sanitation",
    "final_address": "437 First St",
    "address_councildis": "B",
    "status": "Assigned to Contractor",
    "contractor": "Richards Disposal",
    "rowid": "966921",
    "final_x": "3679426.82248",
    "final_y": "519515.886007",
    "longitude": "-90.07503291813042",
    "latitude": "29.922551128909898",
    "geocoded_column": {
      "latitude": "29.922551128909898",
      "longitude": "-90.07503291813042"
    }
  },
  {
    "service_request": "2023-966920",
    "request_type": "Trash/Recycling",
    "request_reason": "MIssed Recycling Pick-Up",
    "date_created": "2023-01-13T18:29:00.000",
    "date_modified": "2023-01-13T18:29:01.000",
    "request_status": "Pending",
    "responsible_agency": "Department of Sanitation",
    "final_address": "507 Cherokee St",
    "address_councildis": "A",
    "status": "Assigned to Contractor",
    "contractor": "Richards Disposal",
    "rowid": "966920",
    "final_x": "3661975.41843",
    "final_y": "525169.642813",
    "longitude": "-90.12993283272384",
    "latitude": "29.938612603733784",
    "geocoded_column": {
      "latitude": "29.938612603733784",
      "longitude": "-90.12993283272384"
    }
  },
  {
    "service_request": "2023-966919",
    "request_type": "Trash/Recycling",
    "request_reason": "Missed Trash Pick-Up",
    "date_created": "2023-01-13T18:26:24.000",
    "date_modified": "2023-01-13T18:26:25.000",
    "request_status": "Pending",
    "responsible_agency": "Department of Sanitation",
    "final_address": "4021 Pitt St",
    "address_councildis": "B",
    "status": "Assigned to Contractor",
    "contractor": "Richards Disposal",
    "rowid": "966919",
    "final_x": "3672173.49569",
    "final_y": "520738.434425",
    "longitude": "-90.09788719334577",
    "latitude": "29.926129770936107",
    "geocoded_column": {
      "latitude": "29.926129770936107",
      "longitude": "-90.09788719334577"
    }
  },
  {
    "service_request": "2023-966918",
    "request_type": "Trash/Recycling",
    "request_reason": "MIssed Recycling Pick-Up",
    "date_created": "2023-01-13T18:25:17.000",
    "date_modified": "2023-01-13T18:25:18.000",
    "request_status": "Pending",
    "responsible_agency": "Department of Sanitation",
    "final_address": "620 Audubon St",
    "address_councildis": "A",
    "status": "Assigned to Contractor",
    "contractor": "Richards Disposal",
    "rowid": "966918",
    "final_x": "3663291.54803",
    "final_y": "524732.942908",
    "longitude": "-90.1257921822325",
    "latitude": "29.937373744881953",
    "geocoded_column": {
      "latitude": "29.937373744881953",
      "longitude": "-90.1257921822325"
    }
  },
  {
    "service_request": "2023-966917",
    "request_type": "Trash/Recycling",
    "request_reason": "MIssed Recycling Pick-Up",
    "date_created": "2023-01-13T18:23:49.000",
    "date_modified": "2023-01-13T18:23:50.000",
    "request_status": "Pending",
    "responsible_agency": "Department of Sanitation",
    "final_address": "6143 Pratt Dr",
    "address_councildis": "D",
    "status": "Assigned to Contractor",
    "contractor": "IV Waste",
    "rowid": "966917",
    "final_x": "3680218.05103",
    "final_y": "555315.503577",
    "longitude": "-90.07129067827766",
    "latitude": "30.020963822295766",
    "geocoded_column": {
      "latitude": "30.020963822295766",
      "longitude": "-90.07129067827766"
    }
  },
  {
    "service_request": "2023-966916",
    "request_type": "Trash/Recycling",
    "request_reason": "MIssed Recycling Pick-Up",
    "date_created": "2023-01-13T18:03:38.000",
    "date_modified": "2023-01-13T18:03:39.000",
    "request_status": "Pending",
    "responsible_agency": "Department of Sanitation",
    "final_address": "3019 Joseph St",
    "address_councildis": "A",
    "status": "Assigned to Contractor",
    "contractor": "Richards Disposal",
    "rowid": "966916",
    "final_x": "3667970.43981",
    "final_y": "526880.150334",
    "longitude": "-90.11094824251568",
    "latitude": "29.943141462271317",
    "geocoded_column": {
      "latitude": "29.943141462271317",
      "longitude": "-90.11094824251568"
    }
  },
  {
    "service_request": "2023-966915",
    "request_type": "Trash/Recycling",
    "request_reason": "MIssed Recycling Pick-Up",
    "date_created": "2023-01-13T17:56:17.000",
    "date_modified": "2023-01-13T17:56:18.000",
    "request_status": "Pending",
    "responsible_agency": "Department of Sanitation",
    "final_address": "8506 Apricot St",
    "address_councildis": "A",
    "status": "Assigned to Contractor",
    "contractor": "Richards Disposal",
    "rowid": "966915",
    "final_x": "3664686.92685",
    "final_y": "533611.932741",
    "longitude": "-90.12109029887758",
    "latitude": "29.961747590287853",
    "geocoded_column": {
      "latitude": "29.961747590287853",
      "longitude": "-90.12109029887758"
    }
  },
  {
    "service_request": "2023-966914",
    "request_type": "Trash/Recycling",
    "request_reason": "Illegal Dumping",
    "date_created": "2023-01-13T17:52:07.000",
    "date_modified": "2023-01-13T17:52:07.000",
    "request_status": "Pending",
    "responsible_agency": "Department of Sanitation",
    "final_address": "8430 Apple St",
    "address_councildis": "A",
    "status": "Pending",
    "rowid": "966914",
    "final_x": "3664300.56525",
    "final_y": "533014.209156",
    "longitude": "-90.1223303200947",
    "latitude": "29.960115279583455",
    "geocoded_column": {
      "latitude": "29.960115279583455",
      "longitude": "-90.1223303200947"
    }
  },
  {
    "service_request": "2023-966913",
    "request_type": "Trash/Recycling",
    "request_reason": "MIssed Recycling Pick-Up",
    "date_created": "2023-01-13T17:49:27.000",
    "date_modified": "2023-01-13T17:49:28.000",
    "request_status": "Pending",
    "responsible_agency": "Department of Sanitation",
    "final_address": "7320 Hurst St",
    "address_councildis": "A",
    "status": "Assigned to Contractor",
    "contractor": "Richards Disposal",
    "rowid": "966913",
    "final_x": "3661819.1513",
    "final_y": "523847.623483",
    "longitude": "-90.13047000182155",
    "latitude": "29.934981980100186",
    "geocoded_column": {
      "latitude": "29.934981980100186",
      "longitude": "-90.13047000182155"
    }
  },
  {
    "service_request": "2023-966912",
    "request_type": "Trash/Recycling",
    "request_reason": "MIssed Recycling Pick-Up",
    "date_created": "2023-01-13T17:45:28.000",
    "date_modified": "2023-01-13T17:45:28.000",
    "request_status": "Pending",
    "responsible_agency": "Department of Sanitation",
    "final_address": "8608 Spruce St",
    "address_councildis": "A",
    "status": "Assigned to Contractor",
    "contractor": "Richards Disposal",
    "rowid": "966912",
    "final_x": "3662443.02752",
    "final_y": "531679.386947",
    "longitude": "-90.12824038659149",
    "latitude": "29.95649880177037",
    "geocoded_column": {
      "latitude": "29.95649880177037",
      "longitude": "-90.12824038659149"
    }
  },
  {
    "service_request": "2023-966911",
    "request_type": "Property Maintenance",
    "request_reason": "Property Maintenance",
    "date_created": "2023-01-13T17:45:06.000",
    "date_modified": "2023-01-13T17:46:20.000",
    "request_status": "Pending",
    "responsible_agency": "Department of Code Enforcement",
    "final_address": "1025 N Rocheblave St",
    "address_councildis": "D",
    "status": "Pending",
    "rowid": "966911",
    "final_x": "3678282.66242",
    "final_y": "537386.350408",
    "longitude": "-90.07802658299444",
    "latitude": "29.97172344832138",
    "geocoded_column": {
      "latitude": "29.97172344832138",
      "longitude": "-90.07802658299444"
    }
  },
  {
    "service_request": "2023-966910",
    "request_type": "Trash/Recycling",
    "request_reason": "Repair Trash Cart",
    "date_created": "2023-01-13T17:43:10.000",
    "date_modified": "2023-01-13T17:43:11.000",
    "request_status": "Pending",
    "responsible_agency": "Department of Sanitation",
    "final_address": "45 Neron Pl",
    "address_councildis": "A",
    "status": "Assigned to Contractor",
    "contractor": "Richards Disposal",
    "rowid": "966910",
    "final_x": "3665506.46138",
    "final_y": "530438.817346",
    "longitude": "-90.11860855704514",
    "latitude": "29.952998693768492",
    "geocoded_column": {
      "latitude": "29.952998693768492",
      "longitude": "-90.11860855704514"
    }
  },
  {
    "service_request": "2023-966909",
    "request_type": "Roads/Drainage",
    "request_reason": "Street Subsidence (Sinking)",
    "date_created": "2023-01-13T17:40:32.000",
    "date_modified": "2023-01-13T17:40:32.000",
    "request_status": "Pending",
    "responsible_agency": "Department of Public Works",
    "final_address": "1138 Third St",
    "address_councildis": "B",
    "status": "Pending",
    "rowid": "966909",
    "final_x": "3677359.45973",
    "final_y": "521396.250937",
    "longitude": "-90.08149390811901",
    "latitude": "29.927783785535897",
    "geocoded_column": {
      "latitude": "29.927783785535897",
      "longitude": "-90.08149390811901"
    }
  },
  {
    "service_request": "2023-966908",
    "request_type": "Trash/Recycling",
    "request_reason": "MIssed Recycling Pick-Up",
    "date_created": "2023-01-13T17:31:13.000",
    "date_modified": "2023-01-13T17:31:14.000",
    "request_status": "Pending",
    "responsible_agency": "Department of Sanitation",
    "final_address": "908 Fern St",
    "address_councildis": "A",
    "status": "Assigned to Contractor",
    "contractor": "Richards Disposal",
    "rowid": "966908",
    "final_x": "3661854.66298",
    "final_y": "527171.849215",
    "longitude": "-90.13024770251916",
    "latitude": "29.944121521820318",
    "geocoded_column": {
      "latitude": "29.944121521820318",
      "longitude": "-90.13024770251916"
    }
  },
  {
    "service_request": "2023-966907",
    "request_type": "Trash/Recycling",
    "request_reason": "MIssed Recycling Pick-Up",
    "date_created": "2023-01-13T17:28:50.000",
    "date_modified": "2023-01-13T17:29:48.000",
    "request_status": "Pending",
    "responsible_agency": "Department of Sanitation",
    "final_address": "2700 BLK Marengo St",
    "address_councildis": "B",
    "status": "Assigned to Contractor",
    "contractor": "Richards Disposal",
    "rowid": "966907",
    "final_x": "3671552.74774",
    "final_y": "525022.776514",
    "longitude": "-90.099701113173",
    "latitude": "29.937928720381",
    "geocoded_column": {
      "latitude": "29.937928720381",
      "longitude": "-90.099701113173"
    }
  },
  {
    "service_request": "2023-966906",
    "request_type": "Property Maintenance",
    "request_reason": "Property Maintenance",
    "date_created": "2023-01-13T17:28:03.000",
    "date_modified": "2023-01-13T17:28:03.000",
    "request_status": "Pending",
    "responsible_agency": "Department of Code Enforcement",
    "final_address": "6032 Hayne Blvd",
    "address_councildis": "E",
    "status": "Pending",
    "rowid": "966906",
    "final_x": "3695018.73763",
    "final_y": "560005.590365",
    "longitude": "-90.02435569620967",
    "latitude": "30.033403237377886",
    "geocoded_column": {
      "latitude": "30.033403237377886",
      "longitude": "-90.02435569620967"
    }
  },
  {
    "service_request": "2023-966905",
    "request_type": "Property Maintenance",
    "request_reason": "Property Maintenance",
    "date_created": "2023-01-13T17:26:28.000",
    "date_modified": "2023-01-13T17:26:28.000",
    "request_status": "Pending",
    "responsible_agency": "Department of Code Enforcement",
    "final_address": "6024 Hayne Blvd",
    "address_councildis": "E",
    "status": "Pending",
    "rowid": "966905",
    "final_x": "3694937.98563",
    "final_y": "559977.173789",
    "longitude": "-90.02461190556552",
    "latitude": "30.03332763892895",
    "geocoded_column": {
      "latitude": "30.03332763892895",
      "longitude": "-90.02461190556552"
    }
  },
  {
    "service_request": "2023-966904",
    "request_type": "Trash/Recycling",
    "request_reason": "Missed Trash Pick-Up",
    "date_created": "2023-01-13T17:22:31.000",
    "date_modified": "2023-01-13T17:25:10.000",
    "request_status": "Pending",
    "responsible_agency": "Department of Sanitation",
    "final_address": "36 Lakewood Estates Dr",
    "address_councildis": "C",
    "status": "Assigned to Contractor",
    "contractor": "Richards Disposal",
    "rowid": "966904",
    "final_x": "3701313.17041",
    "final_y": "512991.030705",
    "longitude": "-90.00618554086388",
    "latitude": "29.9039309889251",
    "geocoded_column": {
      "latitude": "29.9039309889251",
      "longitude": "-90.00618554086388"
    }
  },
  {
    "service_request": "2023-966902",
    "request_type": "Traffic Signals/Signs/Striping/Streetlights",
    "request_reason": "Street Light Outage/Malfunction",
    "date_created": "2023-01-13T17:17:27.000",
    "date_modified": "2023-01-13T17:17:28.000",
    "request_status": "Pending",
    "responsible_agency": "Department of Public Works",
    "final_address": "2ND ST & LOYOLA AVE",
    "address_councildis": "B",
    "status": "Assigned to Contractor",
    "contractor": "Legacy Professional Services",
    "rowid": "966902",
    "final_x": "3675514.2",
    "final_y": "524830.68",
    "longitude": "-90.08720105652469",
    "latitude": "29.93728265075417",
    "geocoded_column": {
      "latitude": "29.93728265075417",
      "longitude": "-90.08720105652469"
    }
  },
  {
    "service_request": "2023-966901",
    "request_type": "Abandoned Vehicles",
    "request_reason": "Abandoned/Junk Vehicles",
    "date_created": "2023-01-13T17:11:54.000",
    "date_modified": "2023-01-13T17:11:54.000",
    "request_status": "Pending",
    "responsible_agency": "Department of Public Works",
    "final_address": "7632 Mackenzie St",
    "address_councildis": "E",
    "status": "Pending",
    "rowid": "966901",
    "final_x": "3711008.49009",
    "final_y": "566034.749347",
    "longitude": "-89.97360078205085",
    "latitude": "30.049469061312482",
    "geocoded_column": {
      "latitude": "30.049469061312482",
      "longitude": "-89.97360078205085"
    }
  },
  {
    "service_request": "2023-966899",
    "request_type": "Trash/Recycling",
    "request_reason": "MIssed Recycling Pick-Up",
    "date_created": "2023-01-13T17:09:17.000",
    "date_modified": "2023-01-13T17:09:18.000",
    "request_status": "Pending",
    "responsible_agency": "Department of Sanitation",
    "final_address": "5228 Annunciation St",
    "address_councildis": "B",
    "status": "Assigned to Contractor",
    "contractor": "Richards Disposal",
    "rowid": "966899",
    "final_x": "3667752.50209",
    "final_y": "517529.507318",
    "longitude": "-90.11195101516863",
    "latitude": "29.917436562422775",
    "geocoded_column": {
      "latitude": "29.917436562422775",
      "longitude": "-90.11195101516863"
    }
  },
  {
    "service_request": "2023-966898",
    "request_type": "Trash/Recycling",
    "request_reason": "Missed Trash Pick-Up",
    "date_created": "2023-01-13T17:08:06.000",
    "date_modified": "2023-01-13T17:08:07.000",
    "request_status": "Pending",
    "responsible_agency": "Department of Sanitation",
    "final_address": "2513 S Galvez St",
    "address_councildis": "B",
    "status": "Assigned to Contractor",
    "contractor": "Richards Disposal",
    "rowid": "966898",
    "final_x": "3672845.28302",
    "final_y": "528643.624576",
    "longitude": "-90.09549697162922",
    "latitude": "29.947846541200388",
    "geocoded_column": {
      "latitude": "29.947846541200388",
      "longitude": "-90.09549697162922"
    }
  },
  {
    "service_request": "2023-966897",
    "request_type": "Trash/Recycling",
    "request_reason": "Missed Trash Pick-Up",
    "date_created": "2023-01-13T17:05:55.000",
    "date_modified": "2023-01-13T17:05:56.000",
    "request_status": "Pending",
    "responsible_agency": "Department of Sanitation",
    "final_address": "1119 Behrman Ave",
    "address_councildis": "C",
    "status": "Assigned to Contractor",
    "contractor": "Richards Disposal",
    "rowid": "966897",
    "final_x": "3691362.91145",
    "final_y": "527186.630591",
    "longitude": "-90.03708170783078",
    "latitude": "29.94327726523292",
    "geocoded_column": {
      "latitude": "29.94327726523292",
      "longitude": "-90.03708170783078"
    }
  },
  {
    "service_request": "2023-966896",
    "request_type": "Trash/Recycling",
    "request_reason": "MIssed Recycling Pick-Up",
    "date_created": "2023-01-13T16:59:22.000",
    "date_modified": "2023-01-13T16:59:23.000",
    "request_status": "Pending",
    "responsible_agency": "Department of Sanitation",
    "final_address": "811 Leontine St",
    "address_councildis": "B",
    "status": "Assigned to Contractor",
    "contractor": "Richards Disposal",
    "rowid": "966896",
    "final_x": "3667171.83841",
    "final_y": "518418.213558",
    "longitude": "-90.11375399286145",
    "latitude": "29.919897231969262",
    "geocoded_column": {
      "latitude": "29.919897231969262",
      "longitude": "-90.11375399286145"
    }
  },
  {
    "service_request": "2023-966895",
    "request_type": "Property Maintenance",
    "request_reason": "Property Maintenance",
    "date_created": "2023-01-13T16:56:32.000",
    "date_modified": "2023-01-13T16:56:32.000",
    "request_status": "Pending",
    "responsible_agency": "Department of Code Enforcement",
    "final_address": "3021 Bienville Ave",
    "address_councildis": "B",
    "status": "Pending",
    "rowid": "966895",
    "final_x": "3674699.41153",
    "final_y": "536660.782855",
    "longitude": "-90.089367931397",
    "latitude": "29.969835837055637",
    "geocoded_column": {
      "latitude": "29.969835837055637",
      "longitude": "-90.089367931397"
    }
  },
  {
    "service_request": "2023-966894",
    "request_type": "Trash/Recycling",
    "request_reason": "Missed Trash Pick-Up",
    "date_created": "2023-01-13T16:55:49.000",
    "date_modified": "2023-01-13T16:55:50.000",
    "request_status": "Pending",
    "responsible_agency": "Department of Sanitation",
    "final_address": "702 Pauline St",
    "address_councildis": "C",
    "status": "Assigned to Contractor",
    "contractor": "IV Waste",
    "rowid": "966894",
    "final_x": "3690814.35305",
    "final_y": "534004.730693",
    "longitude": "-90.03857039756384",
    "latitude": "29.96204173423247",
    "geocoded_column": {
      "latitude": "29.96204173423247",
      "longitude": "-90.03857039756384"
    }
  },
  {
    "service_request": "2023-966893",
    "request_type": "Trash/Recycling",
    "request_reason": "Replace Trash Cart",
    "date_created": "2023-01-13T16:55:36.000",
    "date_modified": "2023-01-13T16:55:36.000",
    "request_status": "Pending",
    "responsible_agency": "Department of Sanitation",
    "final_address": "1000 BLK Milan St",
    "address_councildis": "B",
    "status": "Assigned to Contractor",
    "contractor": "Richards Disposal",
    "rowid": "966893",
    "final_x": "3671749.30935",
    "final_y": "519408.235906",
    "longitude": "-90.09927145355202",
    "latitude": "29.92248471903635",
    "geocoded_column": {
      "latitude": "29.92248471903635",
      "longitude": "-90.09927145355202"
    }
  },
  {
    "service_request": "2023-966892",
    "request_type": "Trash/Recycling",
    "request_reason": "MIssed Recycling Pick-Up",
    "date_created": "2023-01-13T16:54:39.000",
    "date_modified": "2023-01-13T16:54:40.000",
    "request_status": "Pending",
    "responsible_agency": "Department of Sanitation",
    "final_address": "1512 Audubon St",
    "address_councildis": "A",
    "status": "Assigned to Contractor",
    "contractor": "Richards Disposal",
    "rowid": "966892",
    "final_x": "3665060.85274",
    "final_y": "527354.346751",
    "longitude": "-90.12011872023237",
    "latitude": "29.9445303779126",
    "geocoded_column": {
      "latitude": "29.9445303779126",
      "longitude": "-90.12011872023237"
    }
  },
  {
    "service_request": "2023-966891",
    "request_type": "Trash/Recycling",
    "request_reason": "Replace Trash Cart",
    "date_created": "2023-01-13T16:54:03.000",
    "date_modified": "2023-01-13T16:54:04.000",
    "request_status": "Pending",
    "responsible_agency": "Department of Sanitation",
    "final_address": "2904 Pocahontas Street",
    "address_councildis": "D",
    "status": "Assigned to Contractor",
    "contractor": "IV Waste",
    "rowid": "966891",
    "final_x": "3688929.48662",
    "final_y": "548321.635538",
    "longitude": "-90.04401378247066",
    "latitude": "30.00146655755766",
    "geocoded_column": {
      "latitude": "30.00146655755766",
      "longitude": "-90.04401378247066"
    }
  },
  {
    "service_request": "2023-966890",
    "request_type": "Abandoned Vehicles",
    "request_reason": "Vehicle Blocking Your Driveway",
    "date_created": "2023-01-13T16:54:00.000",
    "date_modified": "2023-01-13T16:54:00.000",
    "request_status": "Pending",
    "responsible_agency": "Department of Public Works",
    "final_address": "4041 Ulloa St",
    "address_councildis": "A",
    "status": "Pending",
    "rowid": "966890",
    "final_x": "3669798.49921",
    "final_y": "536419.338823",
    "longitude": "-90.1048536903088",
    "latitude": "29.969317335226968",
    "geocoded_column": {
      "latitude": "29.969317335226968",
      "longitude": "-90.1048536903088"
    }
  },
  {
    "service_request": "2023-966889",
    "request_type": "Trash/Recycling",
    "request_reason": "MIssed Recycling Pick-Up",
    "date_created": "2023-01-13T16:53:09.000",
    "date_modified": "2023-01-13T16:53:10.000",
    "request_status": "Pending",
    "responsible_agency": "Department of Sanitation",
    "final_address": "1227 Leonidas St",
    "address_councildis": "A",
    "status": "Assigned to Contractor",
    "contractor": "Richards Disposal",
    "rowid": "966889",
    "final_x": "3660847.15021",
    "final_y": "529727.962049",
    "longitude": "-90.13334420214194",
    "latitude": "29.951179064887057",
    "geocoded_column": {
      "latitude": "29.951179064887057",
      "longitude": "-90.13334420214194"
    }
  },
  {
    "service_request": "2023-966888",
    "request_type": "Trash/Recycling",
    "request_reason": "MIssed Recycling Pick-Up",
    "date_created": "2023-01-13T16:52:37.000",
    "date_modified": "2023-01-13T16:52:38.000",
    "request_status": "Pending",
    "responsible_agency": "Department of Sanitation",
    "final_address": "422 Lowerline St",
    "address_councildis": "A",
    "status": "Assigned to Contractor",
    "contractor": "Richards Disposal",
    "rowid": "966888",
    "final_x": "3661738.88851",
    "final_y": "524097.462332",
    "longitude": "-90.1307151137995",
    "latitude": "29.935671274687156",
    "geocoded_column": {
      "latitude": "29.935671274687156",
      "longitude": "-90.1307151137995"
    }
  },
  {
    "service_request": "2023-966887",
    "request_type": "Trash/Recycling",
    "request_reason": "Replace Trash Cart",
    "date_created": "2023-01-13T16:52:14.000",
    "date_modified": "2023-01-13T16:52:15.000",
    "request_status": "Pending",
    "responsible_agency": "Department of Sanitation",
    "final_address": "7231 Lake Willow Dr",
    "address_councildis": "E",
    "status": "Assigned to Contractor",
    "contractor": "Waste Pro",
    "rowid": "966887",
    "final_x": "3702418.30314",
    "final_y": "560057.485533",
    "longitude": "-90.0009705402451",
    "latitude": "30.033311425225786",
    "geocoded_column": {
      "latitude": "30.033311425225786",
      "longitude": "-90.0009705402451"
    }
  },
  {
    "service_request": "2023-966886",
    "request_type": "Trash/Recycling",
    "request_reason": "Missed Trash Pick-Up",
    "date_created": "2023-01-13T16:52:04.000",
    "date_modified": "2023-01-13T16:52:04.000",
    "request_status": "Pending",
    "responsible_agency": "Department of Sanitation",
    "final_address": "422 Lowerline St",
    "address_councildis": "A",
    "status": "Assigned to Contractor",
    "contractor": "Richards Disposal",
    "rowid": "966886",
    "final_x": "3661738.88851",
    "final_y": "524097.462332",
    "longitude": "-90.1307151137995",
    "latitude": "29.935671274687156",
    "geocoded_column": {
      "latitude": "29.935671274687156",
      "longitude": "-90.1307151137995"
    }
  },
  {
    "service_request": "2023-966885",
    "request_type": "Trash/Recycling",
    "request_reason": "Missed Trash Pick-Up",
    "date_created": "2023-01-13T16:51:32.000",
    "date_modified": "2023-01-13T16:51:33.000",
    "request_status": "Pending",
    "responsible_agency": "Department of Sanitation",
    "final_address": "5440 Berkley Dr",
    "address_councildis": "C",
    "status": "Assigned to Contractor",
    "contractor": "Richards Disposal",
    "rowid": "966885",
    "final_x": "3704200.76062",
    "final_y": "518227.595446",
    "longitude": "-89.9968795923984",
    "latitude": "29.91823747046687",
    "geocoded_column": {
      "latitude": "29.91823747046687",
      "longitude": "-89.9968795923984"
    }
  },
  {
    "service_request": "2023-966884",
    "request_type": "Trash/Recycling",
    "request_reason": "Order Recycling Cart",
    "date_created": "2023-01-13T16:51:14.000",
    "date_modified": "2023-01-13T16:51:14.000",
    "request_status": "Pending",
    "responsible_agency": "Department of Sanitation",
    "final_address": "2413 St Anthony St",
    "address_councildis": "D",
    "status": "Pending",
    "rowid": "966884",
    "final_x": "3683202.2589",
    "final_y": "541115.498764",
    "longitude": "-90.06235912771355",
    "latitude": "29.981828193357885",
    "geocoded_column": {
      "latitude": "29.981828193357885",
      "longitude": "-90.06235912771355"
    }
  },
  {
    "service_request": "2023-966883",
    "request_type": "Trash/Recycling",
    "request_reason": "Order Trash Cart",
    "date_created": "2023-01-13T16:50:10.000",
    "date_modified": "2023-01-13T16:50:11.000",
    "request_status": "Pending",
    "responsible_agency": "Department of Sanitation",
    "final_address": "2413 St Anthony St",
    "address_councildis": "D",
    "status": "Assigned to Contractor",
    "contractor": "IV Waste",
    "rowid": "966883",
    "final_x": "3683202.2589",
    "final_y": "541115.498764",
    "longitude": "-90.06235912771355",
    "latitude": "29.981828193357885",
    "geocoded_column": {
      "latitude": "29.981828193357885",
      "longitude": "-90.06235912771355"
    }
  },
  {
    "service_request": "2023-966882",
    "request_type": "Trash/Recycling",
    "request_reason": "Replace Recycling Cart",
    "date_created": "2023-01-13T16:48:42.000",
    "date_modified": "2023-01-13T16:48:42.000",
    "request_status": "Pending",
    "responsible_agency": "Department of Sanitation",
    "final_address": "3213 Baronne St",
    "address_councildis": "B",
    "status": "Pending",
    "rowid": "966882",
    "final_x": "3674403.03726",
    "final_y": "522469.25817",
    "longitude": "-90.09078991659192",
    "latitude": "29.930822689394326",
    "geocoded_column": {
      "latitude": "29.930822689394326",
      "longitude": "-90.09078991659192"
    }
  },
  {
    "service_request": "2023-966881",
    "request_type": "Roads/Drainage",
    "request_reason": "Street Subsidence (Sinking)",
    "date_created": "2023-01-13T16:46:07.000",
    "date_modified": "2023-01-13T16:46:08.000",
    "request_status": "Pending",
    "responsible_agency": "Department of Public Works",
    "final_address": "239 Opal St",
    "address_councildis": "D",
    "status": "Pending",
    "rowid": "966881",
    "final_x": "3667350.24289",
    "final_y": "555570.936025",
    "longitude": "-90.11194079735627",
    "latitude": "30.022049593089214",
    "geocoded_column": {
      "latitude": "30.022049593089214",
      "longitude": "-90.11194079735627"
    }
  },
  {
    "service_request": "2023-966879",
    "request_type": "Roads/Drainage",
    "request_reason": "Street Subsidence (Sinking)",
    "date_created": "2023-01-13T16:46:07.000",
    "date_modified": "2023-01-13T16:46:07.000",
    "request_status": "Pending",
    "responsible_agency": "Department of Public Works",
    "final_address": "239 Opal St",
    "address_councildis": "D",
    "status": "Pending",
    "rowid": "966879",
    "final_x": "3667350.24289",
    "final_y": "555570.936025",
    "longitude": "-90.11194079735627",
    "latitude": "30.022049593089214",
    "geocoded_column": {
      "latitude": "30.022049593089214",
      "longitude": "-90.11194079735627"
    }
  },
  {
    "service_request": "2023-966880",
    "request_type": "Roads/Drainage",
    "request_reason": "Street Subsidence (Sinking)",
    "date_created": "2023-01-13T16:46:07.000",
    "date_modified": "2023-01-13T16:46:07.000",
    "request_status": "Pending",
    "responsible_agency": "Department of Public Works",
    "final_address": "239 Opal St",
    "address_councildis": "D",
    "status": "Pending",
    "rowid": "966880",
    "final_x": "3667350.24289",
    "final_y": "555570.936025",
    "longitude": "-90.11194079735627",
    "latitude": "30.022049593089214",
    "geocoded_column": {
      "latitude": "30.022049593089214",
      "longitude": "-90.11194079735627"
    }
  },
  {
    "service_request": "2023-966878",
    "request_type": "Abandoned Vehicles",
    "request_reason": "Vehicle Blocking Your Driveway",
    "date_created": "2023-01-13T16:45:11.000",
    "date_modified": "2023-01-13T16:45:11.000",
    "request_status": "Pending",
    "responsible_agency": "Department of Public Works",
    "final_address": "4052 Ulloa St",
    "address_councildis": "A",
    "status": "Pending",
    "rowid": "966878",
    "final_x": "3669677.65748",
    "final_y": "536391.234887",
    "longitude": "-90.10523627017909",
    "latitude": "29.96924362063183",
    "geocoded_column": {
      "latitude": "29.96924362063183",
      "longitude": "-90.10523627017909"
    }
  },
  {
    "service_request": "2023-966877",
    "request_type": "Trash/Recycling",
    "request_reason": "MIssed Recycling Pick-Up",
    "date_created": "2023-01-13T16:44:24.000",
    "date_modified": "2023-01-13T16:44:25.000",
    "request_status": "Pending",
    "responsible_agency": "Department of Sanitation",
    "final_address": "500 BLK Valence St",
    "address_councildis": "B",
    "status": "Assigned to Contractor",
    "contractor": "Richards Disposal",
    "rowid": "966877",
    "final_x": "3670067.89441",
    "final_y": "517491.146564",
    "longitude": "-90.1046439056106",
    "latitude": "29.917263016250192",
    "geocoded_column": {
      "latitude": "29.917263016250192",
      "longitude": "-90.1046439056106"
    }
  },
  {
    "service_request": "2023-966876",
    "request_type": "Traffic Signals/Signs/Striping/Streetlights",
    "request_reason": "Street Light Outage/Malfunction",
    "date_created": "2023-01-13T16:44:01.000",
    "date_modified": "2023-01-13T16:44:02.000",
    "request_status": "Pending",
    "responsible_agency": "Department of Public Works",
    "final_address": "22 Petit Bayou Ln",
    "address_councildis": "E",
    "status": "Assigned to Contractor",
    "contractor": "Legacy Professional Services",
    "rowid": "966876",
    "final_x": "3724750.24992",
    "final_y": "564143.147105",
    "longitude": "-89.93024219504005",
    "latitude": "30.04381240362955",
    "geocoded_column": {
      "latitude": "30.04381240362955",
      "longitude": "-89.93024219504005"
    }
  },
  {
    "service_request": "2023-966875",
    "request_type": "Trash/Recycling",
    "request_reason": "MIssed Recycling Pick-Up",
    "date_created": "2023-01-13T16:43:44.000",
    "date_modified": "2023-01-13T16:43:45.000",
    "request_status": "Pending",
    "responsible_agency": "Department of Sanitation",
    "final_address": "1017 Jefferson Ave",
    "address_councildis": "B",
    "status": "Assigned to Contractor",
    "contractor": "Richards Disposal",
    "rowid": "966875",
    "final_x": "3666999.41729",
    "final_y": "519291.241655",
    "longitude": "-90.11426892619464",
    "latitude": "29.922302829678884",
    "geocoded_column": {
      "latitude": "29.922302829678884",
      "longitude": "-90.11426892619464"
    }
  },
  {
    "service_request": "2023-966874",
    "request_type": "Property Maintenance",
    "request_reason": "Property Maintenance",
    "date_created": "2023-01-13T16:40:49.000",
    "date_modified": "2023-01-13T16:40:50.000",
    "request_status": "Pending",
    "responsible_agency": "Department of Code Enforcement",
    "final_address": "101 Allen Toussaint Blvd",
    "address_councildis": "D",
    "status": "Pending",
    "rowid": "966874",
    "final_x": "3667078.52308",
    "final_y": "555294.448409",
    "longitude": "-90.11280867210165",
    "latitude": "30.02129731128112",
    "geocoded_column": {
      "latitude": "30.02129731128112",
      "longitude": "-90.11280867210165"
    }
  },
  {
    "service_request": "2023-966873",
    "request_type": "Abandoned Vehicles",
    "request_reason": "Abandoned/Junk Vehicles",
    "date_created": "2023-01-13T16:40:39.000",
    "date_modified": "2023-01-13T16:40:39.000",
    "request_status": "Pending",
    "responsible_agency": "Department of Public Works",
    "final_address": "1503 Upperline St",
    "address_councildis": "B",
    "status": "Pending",
    "rowid": "966873",
    "final_x": "3669130.6667",
    "final_y": "520438.143032",
    "longitude": "-90.10750269510642",
    "latitude": "29.92539392521862",
    "geocoded_column": {
      "latitude": "29.92539392521862",
      "longitude": "-90.10750269510642"
    }
  },
  {
    "service_request": "2023-966872",
    "request_type": "Roads/Drainage",
    "request_reason": "Catch Basin - Clogged",
    "date_created": "2023-01-13T16:40:04.000",
    "date_modified": "2023-01-13T16:40:05.000",
    "request_status": "Pending",
    "responsible_agency": "Department of Public Works",
    "final_address": "ELYSIAN FIELDS AVE & LEON C SIMON DR",
    "address_councildis": "D",
    "status": "Pending",
    "rowid": "966872",
    "final_x": "3683284.5",
    "final_y": "556817.78",
    "longitude": "-90.06154890746612",
    "latitude": "30.02500130577329",
    "geocoded_column": {
      "latitude": "30.02500130577329",
      "longitude": "-90.06154890746612"
    }
  },
  {
    "service_request": "2023-966871",
    "request_type": "Traffic Signals/Signs/Striping/Streetlights",
    "request_reason": "Street Name Sign Damaged or Missing",
    "date_created": "2023-01-13T16:35:03.000",
    "date_modified": "2023-01-13T16:35:04.000",
    "request_status": "Pending",
    "responsible_agency": "Department of Public Works",
    "final_address": "S ROBERTSON ST & PENISTON ST",
    "address_councildis": "B",
    "status": "Pending",
    "rowid": "966871",
    "final_x": "3672048.0",
    "final_y": "524574.28",
    "longitude": "-90.09815282016868",
    "latitude": "29.936680830007383",
    "geocoded_column": {
      "latitude": "29.936680830007383",
      "longitude": "-90.09815282016868"
    }
  },
  {
    "service_request": "2023-966870",
    "request_type": "Trash/Recycling",
    "request_reason": "MIssed Recycling Pick-Up",
    "date_created": "2023-01-13T16:31:18.000",
    "date_modified": "2023-01-13T16:31:19.000",
    "request_status": "Pending",
    "responsible_agency": "Department of Sanitation",
    "final_address": "2425 Jefferson Ave",
    "address_councildis": "B",
    "status": "Assigned to Contractor",
    "contractor": "Richards Disposal",
    "rowid": "966870",
    "final_x": "3668131.9113",
    "final_y": "524553.62982",
    "longitude": "-90.11051682379748",
    "latitude": "29.93673954300488",
    "geocoded_column": {
      "latitude": "29.93673954300488",
      "longitude": "-90.11051682379748"
    }
  },
  {
    "service_request": "2023-966868",
    "request_type": "Trash/Recycling",
    "request_reason": "MIssed Recycling Pick-Up",
    "date_created": "2023-01-13T16:29:46.000",
    "date_modified": "2023-01-13T16:31:44.000",
    "request_status": "Pending",
    "responsible_agency": "Department of Sanitation",
    "final_address": "2023 Fern St",
    "address_councildis": "A",
    "status": "Assigned to Contractor",
    "contractor": "Richards Disposal",
    "rowid": "966868",
    "final_x": "3664591.32871",
    "final_y": "530048.043841",
    "longitude": "-90.12151120617386",
    "latitude": "29.951950837377705",
    "geocoded_column": {
      "latitude": "29.951950837377705",
      "longitude": "-90.12151120617386"
    }
  },
  {
    "service_request": "2023-966867",
    "request_type": "Mosquito, Termite & Rodent Control",
    "request_reason": "Non-Rodent Complaint (Mice, Possums, Snakes)",
    "date_created": "2023-01-13T16:28:25.000",
    "date_modified": "2023-01-13T16:28:25.000",
    "request_status": "Pending",
    "responsible_agency": "Mosquito, Termite & Rodent Control Board",
    "final_address": "1924 N Derbigny St",
    "address_councildis": "D",
    "status": "Pending",
    "rowid": "966867",
    "final_x": "3683930.17244",
    "final_y": "538374.719305",
    "longitude": "-90.06015622237489",
    "latitude": "29.974269788104863",
    "geocoded_column": {
      "latitude": "29.974269788104863",
      "longitude": "-90.06015622237489"
    }
  },
  {
    "service_request": "2023-966866",
    "request_type": "Trash/Recycling",
    "request_reason": "Replace Trash Cart",
    "date_created": "2023-01-13T16:27:28.000",
    "date_modified": "2023-01-13T16:28:21.000",
    "request_status": "Pending",
    "responsible_agency": "Department of Sanitation",
    "final_address": "5824 Magnolia St",
    "address_councildis": "A",
    "status": "Assigned to Contractor",
    "contractor": "Richards Disposal",
    "rowid": "966866",
    "final_x": "3666837.57722",
    "final_y": "524892.224188",
    "longitude": "-90.11459174208953",
    "latitude": "29.937708486484265",
    "geocoded_column": {
      "latitude": "29.937708486484265",
      "longitude": "-90.11459174208953"
    }
  },
  {
    "service_request": "2023-966865",
    "request_type": "Abandoned Vehicles",
    "request_reason": "Abandoned/Junk Vehicles",
    "date_created": "2023-01-13T16:25:52.000",
    "date_modified": "2023-01-13T16:25:52.000",
    "request_status": "Pending",
    "responsible_agency": "Department of Public Works",
    "final_address": "1520 Dumaine St",
    "address_councildis": "C",
    "status": "Pending",
    "rowid": "966865",
    "final_x": "3680598.85986",
    "final_y": "534840.414854",
    "longitude": "-90.07080027203547",
    "latitude": "29.96465302438097",
    "geocoded_column": {
      "latitude": "29.96465302438097",
      "longitude": "-90.07080027203547"
    }
  },
  {
    "service_request": "2023-966864",
    "request_type": "Trash/Recycling",
    "request_reason": "Repair Trash Cart",
    "date_created": "2023-01-13T16:25:45.000",
    "date_modified": "2023-01-13T16:25:45.000",
    "request_status": "Pending",
    "responsible_agency": "Department of Sanitation",
    "final_address": "300 Webster St",
    "address_councildis": "A",
    "status": "Assigned to Contractor",
    "contractor": "Richards Disposal",
    "rowid": "966864",
    "final_x": "3663468.07712",
    "final_y": "517828.69983",
    "longitude": "-90.12546463697173",
    "latitude": "29.918384128435118",
    "geocoded_column": {
      "latitude": "29.918384128435118",
      "longitude": "-90.12546463697173"
    }
  },
  {
    "service_request": "2023-966863",
    "request_type": "Trash/Recycling",
    "request_reason": "MIssed Recycling Pick-Up",
    "date_created": "2023-01-13T16:24:11.000",
    "date_modified": "2023-01-13T16:24:12.000",
    "request_status": "Pending",
    "responsible_agency": "Department of Sanitation",
    "final_address": "614 Soniat St",
    "address_councildis": "B",
    "status": "Assigned to Contractor",
    "contractor": "Richards Disposal",
    "rowid": "966863",
    "final_x": "3668228.33869",
    "final_y": "517705.546422",
    "longitude": "-90.11044313220904",
    "latitude": "29.917906659488672",
    "geocoded_column": {
      "latitude": "29.917906659488672",
      "longitude": "-90.11044313220904"
    }
  },
  {
    "service_request": "2023-966862",
    "request_type": "Abandoned Vehicles",
    "request_reason": "Abandoned/Junk Vehicles",
    "date_created": "2023-01-13T16:24:09.000",
    "date_modified": "2023-01-13T16:24:09.000",
    "request_status": "Pending",
    "responsible_agency": "Department of Public Works",
    "final_address": "1520 Dumaine St",
    "address_councildis": "C",
    "status": "Pending",
    "rowid": "966862",
    "final_x": "3680598.85986",
    "final_y": "534840.414854",
    "longitude": "-90.07080027203547",
    "latitude": "29.96465302438097",
    "geocoded_column": {
      "latitude": "29.96465302438097",
      "longitude": "-90.07080027203547"
    }
  },
  {
    "service_request": "2023-966861",
    "request_type": "Trash/Recycling",
    "request_reason": "MIssed Recycling Pick-Up",
    "date_created": "2023-01-13T16:23:32.000",
    "date_modified": "2023-01-13T16:23:33.000",
    "request_status": "Pending",
    "responsible_agency": "Department of Sanitation",
    "final_address": "7616 Hurst St",
    "address_councildis": "A",
    "status": "Assigned to Contractor",
    "contractor": "Richards Disposal",
    "rowid": "966861",
    "final_x": "3660793.83546",
    "final_y": "524642.908284",
    "longitude": "-90.1336806460374",
    "latitude": "29.93719831889418",
    "geocoded_column": {
      "latitude": "29.93719831889418",
      "longitude": "-90.1336806460374"
    }
  },
  {
    "service_request": "2023-966860",
    "request_type": "Roads/Drainage",
    "request_reason": "Accessibility Ramps, Curbs and Sidewalk Repair",
    "date_created": "2023-01-13T16:22:27.000",
    "date_modified": "2023-01-13T16:22:27.000",
    "request_status": "Pending",
    "responsible_agency": "Department of Public Works",
    "final_address": "3228 Toledano St",
    "address_councildis": "B",
    "status": "Pending",
    "rowid": "966860",
    "final_x": "3672029.35227",
    "final_y": "527559.405439",
    "longitude": "-90.09811009874777",
    "latitude": "29.94488950540145",
    "geocoded_column": {
      "latitude": "29.94488950540145",
      "longitude": "-90.09811009874777"
    }
  },
  {
    "service_request": "2023-966859",
    "request_type": "Roads/Drainage",
    "request_reason": "Damaged Sidewalk",
    "date_created": "2023-01-13T16:21:31.000",
    "date_modified": "2023-01-13T16:21:31.000",
    "request_status": "Pending",
    "responsible_agency": "Department of Public Works",
    "final_address": "3230 Toledano St",
    "address_councildis": "B",
    "status": "Pending",
    "rowid": "966859",
    "final_x": "3672020.32833",
    "final_y": "527575.372479",
    "longitude": "-90.09813804669281",
    "latitude": "29.94493367701741",
    "geocoded_column": {
      "latitude": "29.94493367701741",
      "longitude": "-90.09813804669281"
    }
  },
  {
    "service_request": "2023-966858",
    "request_type": "Roads/Drainage",
    "request_reason": "Street Flooding / Drainage",
    "date_created": "2023-01-13T16:20:51.000",
    "date_modified": "2023-01-13T16:20:51.000",
    "request_status": "Pending",
    "responsible_agency": "Department of Public Works",
    "final_address": "6142 Memphis St",
    "address_councildis": "A",
    "status": "Pending",
    "rowid": "966858",
    "final_x": "3669185.34548",
    "final_y": "548205.672786",
    "longitude": "-90.10639151553698",
    "latitude": "30.001743797470894",
    "geocoded_column": {
      "latitude": "30.001743797470894",
      "longitude": "-90.10639151553698"
    }
  },
  {
    "service_request": "2023-966857",
    "request_type": "Trash/Recycling",
    "request_reason": "Missed Trash Pick-Up",
    "date_created": "2023-01-13T16:19:23.000",
    "date_modified": "2023-01-13T16:19:24.000",
    "request_status": "Pending",
    "responsible_agency": "Department of Sanitation",
    "final_address": "11288 Waverly Dr",
    "address_councildis": "E",
    "status": "Assigned to Contractor",
    "contractor": "Waste Pro",
    "rowid": "966857",
    "final_x": "3717766.09522",
    "final_y": "560317.136861",
    "longitude": "-89.95246062540947",
    "latitude": "30.033525729243692",
    "geocoded_column": {
      "latitude": "30.033525729243692",
      "longitude": "-89.95246062540947"
    }
  },
  {
    "service_request": "2023-966856",
    "request_type": "Trash/Recycling",
    "request_reason": "Order Recycling Cart",
    "date_created": "2023-01-13T16:18:21.000",
    "date_modified": "2023-01-13T16:18:21.000",
    "request_status": "Pending",
    "responsible_agency": "Department of Sanitation",
    "final_address": "3228 Toledano St",
    "address_councildis": "B",
    "status": "Pending",
    "rowid": "966856",
    "final_x": "3672029.35227",
    "final_y": "527559.405439",
    "longitude": "-90.09811009874777",
    "latitude": "29.94488950540145",
    "geocoded_column": {
      "latitude": "29.94488950540145",
      "longitude": "-90.09811009874777"
    }
  },
  {
    "service_request": "2023-966855",
    "request_type": "Trash/Recycling",
    "request_reason": "Order Trash Cart",
    "date_created": "2023-01-13T16:17:36.000",
    "date_modified": "2023-01-13T16:17:37.000",
    "request_status": "Pending",
    "responsible_agency": "Department of Sanitation",
    "final_address": "3230 Toledano St",
    "address_councildis": "B",
    "status": "Assigned to Contractor",
    "contractor": "Richards Disposal",
    "rowid": "966855",
    "final_x": "3672020.32833",
    "final_y": "527575.372479",
    "longitude": "-90.09813804669281",
    "latitude": "29.94493367701741",
    "geocoded_column": {
      "latitude": "29.94493367701741",
      "longitude": "-90.09813804669281"
    }
  },
  {
    "service_request": "2023-966854",
    "request_type": "Trash/Recycling",
    "request_reason": "Replace Trash Cart",
    "date_created": "2023-01-13T16:16:45.000",
    "date_modified": "2023-01-13T16:16:45.000",
    "request_status": "Pending",
    "responsible_agency": "Department of Sanitation",
    "final_address": "3230 Toledano St",
    "address_councildis": "B",
    "status": "Assigned to Contractor",
    "contractor": "Richards Disposal",
    "rowid": "966854",
    "final_x": "3672020.32833",
    "final_y": "527575.372479",
    "longitude": "-90.09813804669281",
    "latitude": "29.94493367701741",
    "geocoded_column": {
      "latitude": "29.94493367701741",
      "longitude": "-90.09813804669281"
    }
  },
  {
    "service_request": "2023-966853",
    "request_type": "Trash/Recycling",
    "request_reason": "MIssed Recycling Pick-Up",
    "date_created": "2023-01-13T16:15:43.000",
    "date_modified": "2023-01-13T16:15:44.000",
    "request_status": "Pending",
    "responsible_agency": "Department of Sanitation",
    "final_address": "424 Millaudon St",
    "address_councildis": "A",
    "status": "Assigned to Contractor",
    "contractor": "Richards Disposal",
    "rowid": "966853",
    "final_x": "3661986.79482",
    "final_y": "524850.415612",
    "longitude": "-90.1299075009294",
    "latitude": "29.937734501480048",
    "geocoded_column": {
      "latitude": "29.937734501480048",
      "longitude": "-90.1299075009294"
    }
  },
  {
    "service_request": "2023-966852",
    "request_type": "Trash/Recycling",
    "request_reason": "Damaged Caused By Contractor",
    "date_created": "2023-01-13T16:14:03.000",
    "date_modified": "2023-01-13T16:14:04.000",
    "request_status": "Pending",
    "responsible_agency": "Department of Sanitation",
    "final_address": "4222 Freret St",
    "address_councildis": "B",
    "status": "Assigned to Contractor",
    "contractor": "Richards Disposal",
    "rowid": "966852",
    "final_x": "3671089.07444",
    "final_y": "524065.51238",
    "longitude": "-90.10119747007415",
    "latitude": "29.93531027178285",
    "geocoded_column": {
      "latitude": "29.93531027178285",
      "longitude": "-90.10119747007415"
    }
  },
  {
    "service_request": "2023-966851",
    "request_type": "Trash/Recycling",
    "request_reason": "Missed Trash Pick-Up",
    "date_created": "2023-01-13T16:13:23.000",
    "date_modified": "2023-01-13T16:13:24.000",
    "request_status": "Pending",
    "responsible_agency": "Department of Sanitation",
    "final_address": "907 Port St",
    "address_councildis": "C",
    "status": "Assigned to Contractor",
    "contractor": "IV Waste",
    "rowid": "966851",
    "final_x": "3687269.90863",
    "final_y": "535687.529799",
    "longitude": "-90.04970365286738",
    "latitude": "29.966778497901004",
    "geocoded_column": {
      "latitude": "29.966778497901004",
      "longitude": "-90.04970365286738"
    }
  },
  {
    "service_request": "2023-966850",
    "request_type": "Trash/Recycling",
    "request_reason": "MIssed Recycling Pick-Up",
    "date_created": "2023-01-13T16:13:07.000",
    "date_modified": "2023-01-13T16:13:08.000",
    "request_status": "Pending",
    "responsible_agency": "Department of Sanitation",
    "final_address": "3900 BLK State Street Dr",
    "address_councildis": "B",
    "status": "Assigned to Contractor",
    "contractor": "Richards Disposal",
    "rowid": "966850",
    "final_x": "3668200.57006",
    "final_y": "530258.745044",
    "longitude": "-90.11010778678163",
    "latitude": "29.95242474642864",
    "geocoded_column": {
      "latitude": "29.95242474642864",
      "longitude": "-90.11010778678163"
    }
  },
  {
    "service_request": "2023-966849",
    "request_type": "Traffic Signals/Signs/Striping/Streetlights",
    "request_reason": "Street Light Outage/Malfunction",
    "date_created": "2023-01-13T16:13:00.000",
    "date_modified": "2023-01-13T16:13:01.000",
    "request_status": "Pending",
    "responsible_agency": "Department of Public Works",
    "final_address": "1501 Owens Blvd",
    "address_councildis": "D",
    "status": "Assigned to Contractor",
    "contractor": "Legacy Professional Services",
    "rowid": "966849",
    "final_x": "3678801.82152",
    "final_y": "549103.105811",
    "longitude": "-90.07598095441637",
    "latitude": "30.003924779363373",
    "geocoded_column": {
      "latitude": "30.003924779363373",
      "longitude": "-90.07598095441637"
    }
  },
  {
    "service_request": "2023-966848",
    "request_type": "Trash/Recycling",
    "request_reason": "Order Recycling Cart",
    "date_created": "2023-01-13T16:11:31.000",
    "date_modified": "2023-01-13T16:11:32.000",
    "request_status": "Pending",
    "responsible_agency": "Department of Sanitation",
    "final_address": "4711 Sierra Madre Dr",
    "address_councildis": "E",
    "status": "Pending",
    "rowid": "966848",
    "final_x": "3713991.70725",
    "final_y": "556229.684826",
    "longitude": "-89.96454227877199",
    "latitude": "30.022411389194993",
    "geocoded_column": {
      "latitude": "30.022411389194993",
      "longitude": "-89.96454227877199"
    }
  },
  {
    "service_request": "2023-966847",
    "request_type": "Trash/Recycling",
    "request_reason": "Order Recycling Cart",
    "date_created": "2023-01-13T16:08:41.000",
    "date_modified": "2023-01-13T16:08:41.000",
    "request_status": "Pending",
    "responsible_agency": "Department of Sanitation",
    "final_address": "6830 Vicksburg St",
    "address_councildis": "A",
    "status": "Pending",
    "rowid": "966847",
    "final_x": "3669295.4601",
    "final_y": "552902.982999",
    "longitude": "-90.10588468918274",
    "latitude": "30.014656512157817",
    "geocoded_column": {
      "latitude": "30.014656512157817",
      "longitude": "-90.10588468918274"
    }
  },
  {
    "service_request": "2023-966846",
    "request_type": "Trash/Recycling",
    "request_reason": "Illegal Dumping",
    "date_created": "2023-01-13T16:08:25.000",
    "date_modified": "2023-01-13T16:08:25.000",
    "request_status": "Pending",
    "responsible_agency": "Department of Sanitation",
    "final_address": "4807 Wilson Ave",
    "address_councildis": "E",
    "status": "Pending",
    "rowid": "966846",
    "final_x": "3703042.41975",
    "final_y": "555253.923545",
    "longitude": "-89.9991750263978",
    "latitude": "30.0200835198258",
    "geocoded_column": {
      "latitude": "30.0200835198258",
      "longitude": "-89.9991750263978"
    }
  },
  {
    "service_request": "2023-966845",
    "request_type": "Roads/Drainage",
    "request_reason": "Road Shoulder Repair",
    "date_created": "2023-01-13T16:08:24.000",
    "date_modified": "2023-01-13T16:08:25.000",
    "request_status": "Pending",
    "responsible_agency": "Department of Public Works",
    "final_address": "7300 Willowbrae Dr",
    "address_councildis": "E",
    "status": "Pending",
    "rowid": "966845",
    "final_x": "3710958.70193",
    "final_y": "563579.784928",
    "longitude": "-89.97385020051816",
    "latitude": "30.042720522606157",
    "geocoded_column": {
      "latitude": "30.042720522606157",
      "longitude": "-89.97385020051816"
    }
  },
  {
    "service_request": "2023-966844",
    "request_type": "Trash/Recycling",
    "request_reason": "Replace Trash Cart",
    "date_created": "2023-01-13T16:04:21.000",
    "date_modified": "2023-01-13T16:04:25.000",
    "request_status": "Pending",
    "responsible_agency": "Department of Sanitation",
    "final_address": "3121 Annunciation St",
    "address_councildis": "B",
    "status": "Assigned to Contractor",
    "contractor": "Richards Disposal",
    "rowid": "966844",
    "final_x": "3676546.61473",
    "final_y": "519211.558199",
    "longitude": "-90.08413505594008",
    "latitude": "29.921800980631584",
    "geocoded_column": {
      "latitude": "29.921800980631584",
      "longitude": "-90.08413505594008"
    }
  },
  {
    "service_request": "2023-966843",
    "request_type": "Trash/Recycling",
    "request_reason": "Request a Large Item Pick Up",
    "date_created": "2023-01-13T16:04:07.000",
    "date_modified": "2023-01-13T16:04:08.000",
    "request_status": "Pending",
    "responsible_agency": "Department of Sanitation",
    "final_address": "2342 Mendez St",
    "address_councildis": "D",
    "status": "Assigned to Contractor",
    "contractor": "IV Waste",
    "rowid": "966843",
    "final_x": "3684807.927",
    "final_y": "553448.333079",
    "longitude": "-90.05685373684443",
    "latitude": "30.015689987523967",
    "geocoded_column": {
      "latitude": "30.015689987523967",
      "longitude": "-90.05685373684443"
    }
  },
  {
    "service_request": "2023-966842",
    "request_type": "Trash/Recycling",
    "request_reason": "Order Trash Cart",
    "date_created": "2023-01-13T16:03:54.000",
    "date_modified": "2023-01-13T16:03:54.000",
    "request_status": "Pending",
    "responsible_agency": "Department of Sanitation",
    "final_address": "6385 General Diaz St",
    "address_councildis": "A",
    "status": "Assigned to Contractor",
    "contractor": "IV Waste",
    "rowid": "966842",
    "final_x": "3669787.3865",
    "final_y": "549899.09922",
    "longitude": "-90.10443222493694",
    "latitude": "30.006382389714048",
    "geocoded_column": {
      "latitude": "30.006382389714048",
      "longitude": "-90.10443222493694"
    }
  },
  {
    "service_request": "2023-966841",
    "request_type": "Abandoned Vehicles",
    "request_reason": "Abandoned/Junk Vehicles",
    "date_created": "2023-01-13T16:02:18.000",
    "date_modified": "2023-01-13T16:02:18.000",
    "request_status": "Pending",
    "responsible_agency": "Department of Public Works",
    "final_address": "2301 Upperline St",
    "address_councildis": "B",
    "status": "Pending",
    "rowid": "966841",
    "final_x": "3669194.01857",
    "final_y": "523248.974011",
    "longitude": "-90.10720776624389",
    "latitude": "29.93312094951154",
    "geocoded_column": {
      "latitude": "29.93312094951154",
      "longitude": "-90.10720776624389"
    }
  },
  {
    "service_request": "2023-966840",
    "request_type": "Trash/Recycling",
    "request_reason": "Missed Trash Pick-Up",
    "date_created": "2023-01-13T16:02:05.000",
    "date_modified": "2023-01-13T16:02:05.000",
    "request_status": "Pending",
    "responsible_agency": "Department of Sanitation",
    "final_address": "38 Seaward Ct",
    "address_councildis": "C",
    "status": "Assigned to Contractor",
    "contractor": "Richards Disposal",
    "rowid": "966840",
    "final_x": "3704380.56708",
    "final_y": "522560.723706",
    "longitude": "-89.99615243220802",
    "latitude": "29.93014630103458",
    "geocoded_column": {
      "latitude": "29.93014630103458",
      "longitude": "-89.99615243220802"
    }
  },
  {
    "service_request": "2023-966839",
    "request_type": "Trash/Recycling",
    "request_reason": "Missed Trash Pick-Up",
    "date_created": "2023-01-13T15:57:21.000",
    "date_modified": "2023-01-13T15:57:22.000",
    "request_status": "Pending",
    "responsible_agency": "Department of Sanitation",
    "final_address": "6911 Downman Rd",
    "address_councildis": "D",
    "status": "Assigned to Contractor",
    "contractor": "Waste Pro",
    "rowid": "966839",
    "final_x": "3695552.84938",
    "final_y": "556050.317529",
    "longitude": "-90.02281080898757",
    "latitude": "30.022510956414845",
    "geocoded_column": {
      "latitude": "30.022510956414845",
      "longitude": "-90.02281080898757"
    }
  },
  {
    "service_request": "2023-966838",
    "request_type": "Trash/Recycling",
    "request_reason": "MIssed Recycling Pick-Up",
    "date_created": "2023-01-13T15:54:00.000",
    "date_modified": "2023-01-13T15:54:01.000",
    "request_status": "Pending",
    "responsible_agency": "Department of Sanitation",
    "final_address": "8124 Hampson St",
    "address_councildis": "A",
    "status": "Assigned to Contractor",
    "contractor": "Richards Disposal",
    "rowid": "966838",
    "final_x": "3660634.86394",
    "final_y": "527199.692415",
    "longitude": "-90.13409805077195",
    "latitude": "29.94423324152962",
    "geocoded_column": {
      "latitude": "29.94423324152962",
      "longitude": "-90.13409805077195"
    }
  },
  {
    "service_request": "2023-966837",
    "request_type": "Abandoned Vehicles",
    "request_reason": "Abandoned/Junk Vehicles",
    "date_created": "2023-01-13T15:52:29.000",
    "date_modified": "2023-01-13T15:52:29.000",
    "request_status": "Pending",
    "responsible_agency": "Department of Public Works",
    "final_address": "4200 St Charles Ave",
    "address_councildis": "B",
    "status": "Pending",
    "rowid": "966837",
    "final_x": "3671557.52705",
    "final_y": "520817.083385",
    "longitude": "-90.0998289601185",
    "latitude": "29.92636427767392",
    "geocoded_column": {
      "latitude": "29.92636427767392",
      "longitude": "-90.0998289601185"
    }
  },
  {
    "service_request": "2023-966836",
    "request_type": "Trash/Recycling",
    "request_reason": "Missed Trash Pick-Up",
    "date_created": "2023-01-13T15:51:41.000",
    "date_modified": "2023-01-13T15:51:42.000",
    "request_status": "Pending",
    "responsible_agency": "Department of Sanitation",
    "final_address": "1206 Felicity St",
    "address_councildis": "B",
    "status": "Assigned to Contractor",
    "contractor": "Richards Disposal",
    "rowid": "966836",
    "final_x": "3679583.91477",
    "final_y": "523417.322619",
    "longitude": "-90.07440173354436",
    "latitude": "29.933274058499066",
    "geocoded_column": {
      "latitude": "29.933274058499066",
      "longitude": "-90.07440173354436"
    }
  },
  {
    "service_request": "2023-966835",
    "request_type": "Roads/Drainage",
    "request_reason": "Pothole",
    "date_created": "2023-01-13T15:51:05.000",
    "date_modified": "2023-01-13T15:51:05.000",
    "request_status": "Pending",
    "responsible_agency": "Department of Public Works",
    "final_address": "1440 Louisa St",
    "address_councildis": "C",
    "status": "Pending",
    "rowid": "966835",
    "final_x": "3689886.6824",
    "final_y": "537311.605448",
    "longitude": "-90.04138208824197",
    "latitude": "29.971163271124677",
    "geocoded_column": {
      "latitude": "29.971163271124677",
      "longitude": "-90.04138208824197"
    }
  },
  {
    "service_request": "2023-966834",
    "request_type": "Trash/Recycling",
    "request_reason": "MIssed Recycling Pick-Up",
    "date_created": "2023-01-13T15:51:01.000",
    "date_modified": "2023-01-13T15:51:02.000",
    "request_status": "Pending",
    "responsible_agency": "Department of Sanitation",
    "final_address": "124 S Solomon St",
    "address_councildis": "A",
    "status": "Assigned to Contractor",
    "contractor": "Richards Disposal",
    "rowid": "966834",
    "final_x": "3670488.55239",
    "final_y": "538443.536393",
    "longitude": "-90.10260578177494",
    "latitude": "29.97486283688435",
    "geocoded_column": {
      "latitude": "29.97486283688435",
      "longitude": "-90.10260578177494"
    }
  },
  {
    "service_request": "2023-966833",
    "request_type": "Trash/Recycling",
    "request_reason": "Missed Trash Pick-Up",
    "date_created": "2023-01-13T15:47:10.000",
    "date_modified": "2023-01-13T15:47:10.000",
    "request_status": "Pending",
    "responsible_agency": "Department of Sanitation",
    "final_address": "4781 Laine Ave",
    "address_councildis": "E",
    "status": "Assigned to Contractor",
    "contractor": "Waste Pro",
    "rowid": "966833",
    "final_x": "3705711.7386",
    "final_y": "555682.597401",
    "longitude": "-89.99072501936509",
    "latitude": "30.021176478035393",
    "geocoded_column": {
      "latitude": "30.021176478035393",
      "longitude": "-89.99072501936509"
    }
  },
  {
    "service_request": "2023-966832",
    "request_type": "Property Maintenance",
    "request_reason": "Property Maintenance",
    "date_created": "2023-01-13T15:43:13.000",
    "date_modified": "2023-01-13T15:43:13.000",
    "request_status": "Pending",
    "responsible_agency": "Department of Code Enforcement",
    "final_address": "2032 St Anthony St",
    "address_councildis": "D",
    "status": "Pending",
    "rowid": "966832",
    "final_x": "3683180.69519",
    "final_y": "539792.528074",
    "longitude": "-90.06247358080473",
    "latitude": "29.978191144845706",
    "geocoded_column": {
      "latitude": "29.978191144845706",
      "longitude": "-90.06247358080473"
    }
  },
  {
    "service_request": "2023-966831",
    "request_type": "Trash/Recycling",
    "request_reason": "Missed Trash Pick-Up",
    "date_created": "2023-01-13T15:41:11.000",
    "date_modified": "2023-01-13T15:44:30.000",
    "request_status": "Pending",
    "responsible_agency": "Department of Sanitation",
    "final_address": "3631 Rue Michelle",
    "address_councildis": "C",
    "status": "Assigned to Contractor",
    "contractor": "Richards Disposal",
    "rowid": "966831",
    "final_x": "3703533.7315",
    "final_y": "517195.898485",
    "longitude": "-89.99902294954089",
    "latitude": "29.915422033877714",
    "geocoded_column": {
      "latitude": "29.915422033877714",
      "longitude": "-89.99902294954089"
    }
  },
  {
    "service_request": "2023-966830",
    "request_type": "Trash/Recycling",
    "request_reason": "MIssed Recycling Pick-Up",
    "date_created": "2023-01-13T15:36:51.000",
    "date_modified": "2023-01-13T15:36:52.000",
    "request_status": "Pending",
    "responsible_agency": "Department of Sanitation",
    "final_address": "1017 Fern St",
    "address_councildis": "A",
    "status": "Assigned to Contractor",
    "contractor": "Richards Disposal",
    "rowid": "966830",
    "final_x": "3662215.48941",
    "final_y": "527443.024063",
    "longitude": "-90.12909946861903",
    "latitude": "29.944856743956176",
    "geocoded_column": {
      "latitude": "29.944856743956176",
      "longitude": "-90.12909946861903"
    }
  },
  {
    "service_request": "2023-966829",
    "request_type": "Trash/Recycling",
    "request_reason": "Missed Trash Pick-Up",
    "date_created": "2023-01-13T15:36:18.000",
    "date_modified": "2023-01-13T15:36:18.000",
    "request_status": "Pending",
    "responsible_agency": "Department of Sanitation",
    "final_address": "907 Port St",
    "address_councildis": "C",
    "status": "Assigned to Contractor",
    "contractor": "IV Waste",
    "rowid": "966829",
    "final_x": "3687269.90863",
    "final_y": "535687.529799",
    "longitude": "-90.04970365286738",
    "latitude": "29.966778497901004",
    "geocoded_column": {
      "latitude": "29.966778497901004",
      "longitude": "-90.04970365286738"
    }
  },
  {
    "service_request": "2023-966828",
    "request_type": "Abandoned Vehicles",
    "request_reason": "Abandoned/Junk Vehicles",
    "date_created": "2023-01-13T15:33:22.000",
    "date_modified": "2023-01-13T15:33:25.000",
    "request_status": "Pending",
    "responsible_agency": "Department of Public Works",
    "final_address": "GENERAL COLLINS AVE & WALL BLVD",
    "address_councildis": "C",
    "status": "Pending",
    "rowid": "966828",
    "final_x": "3698482.1",
    "final_y": "523654.18",
    "longitude": "-90.01473310320762",
    "latitude": "29.933340882497003",
    "geocoded_column": {
      "latitude": "29.933340882497003",
      "longitude": "-90.01473310320762"
    }
  },
  {
    "service_request": "2023-966827",
    "request_type": "Roads/Drainage",
    "request_reason": "Damaged Sidewalk",
    "date_created": "2023-01-13T15:33:12.000",
    "date_modified": "2023-01-13T15:33:12.000",
    "request_status": "Pending",
    "responsible_agency": "Department of Public Works",
    "final_address": "3116 Jackson Ave",
    "address_councildis": "B",
    "status": "Pending",
    "rowid": "966827",
    "final_x": "3674012.74139",
    "final_y": "528335.15008",
    "longitude": "-90.09182138826537",
    "latitude": "29.946963607909375",
    "geocoded_column": {
      "latitude": "29.946963607909375",
      "longitude": "-90.09182138826537"
    }
  },
  {
    "service_request": "2023-966826",
    "request_type": "Trash/Recycling",
    "request_reason": "Order Recycling Cart",
    "date_created": "2023-01-13T15:33:04.000",
    "date_modified": "2023-01-13T15:33:04.000",
    "request_status": "Pending",
    "responsible_agency": "Department of Sanitation",
    "final_address": "500 S Hennessey St",
    "address_councildis": "A",
    "status": "Pending",
    "rowid": "966826",
    "final_x": "3669328.40948",
    "final_y": "537625.285896",
    "longitude": "-90.10629749088581",
    "latitude": "29.972647135303404",
    "geocoded_column": {
      "latitude": "29.972647135303404",
      "longitude": "-90.10629749088581"
    }
  },
  {
    "service_request": "2023-966825",
    "request_type": "Abandoned Vehicles",
    "request_reason": "Abandoned/Junk Vehicles",
    "date_created": "2023-01-13T15:30:06.000",
    "date_modified": "2023-01-13T15:30:07.000",
    "request_status": "Pending",
    "responsible_agency": "Department of Public Works",
    "final_address": "GENERAL COLLINS AVE & WALL BLVD",
    "address_councildis": "C",
    "status": "Pending",
    "rowid": "966825",
    "final_x": "3698482.1",
    "final_y": "523654.18",
    "longitude": "-90.01473310320762",
    "latitude": "29.933340882497003",
    "geocoded_column": {
      "latitude": "29.933340882497003",
      "longitude": "-90.01473310320762"
    }
  },
  {
    "service_request": "2023-966824",
    "request_type": "Trash/Recycling",
    "request_reason": "Missed Trash Pick-Up",
    "date_created": "2023-01-13T15:30:01.000",
    "date_modified": "2023-01-13T15:30:01.000",
    "request_status": "Pending",
    "responsible_agency": "Department of Sanitation",
    "final_address": "4658 Lurline St",
    "address_councildis": "E",
    "status": "Assigned to Contractor",
    "contractor": "Waste Pro",
    "rowid": "966824",
    "final_x": "3711946.10968",
    "final_y": "555630.002201",
    "longitude": "-89.97102833466641",
    "latitude": "30.020829529197275",
    "geocoded_column": {
      "latitude": "30.020829529197275",
      "longitude": "-89.97102833466641"
    }
  },
  {
    "service_request": "2023-966823",
    "request_type": "Trash/Recycling",
    "request_reason": "Missed Trash Pick-Up",
    "date_created": "2023-01-13T15:29:51.000",
    "date_modified": "2023-01-13T15:29:52.000",
    "request_status": "Pending",
    "responsible_agency": "Department of Sanitation",
    "final_address": "2331 N Rampart St",
    "address_councildis": "C",
    "status": "Assigned to Contractor",
    "contractor": "IV Waste",
    "rowid": "966823",
    "final_x": "3685701.96918",
    "final_y": "536028.225927",
    "longitude": "-90.05464318444446",
    "latitude": "29.967763498163094",
    "geocoded_column": {
      "latitude": "29.967763498163094",
      "longitude": "-90.05464318444446"
    }
  },
  {
    "service_request": "2023-966822",
    "request_type": "Trash/Recycling",
    "request_reason": "MIssed Recycling Pick-Up",
    "date_created": "2023-01-13T15:28:21.000",
    "date_modified": "2023-01-13T15:28:22.000",
    "request_status": "Pending",
    "responsible_agency": "Department of Sanitation",
    "final_address": "1813 Fern St",
    "address_councildis": "A",
    "status": "Assigned to Contractor",
    "contractor": "Richards Disposal",
    "rowid": "966822",
    "final_x": "3664066.29735",
    "final_y": "529474.224449",
    "longitude": "-90.12318815005868",
    "latitude": "29.950388276977932",
    "geocoded_column": {
      "latitude": "29.950388276977932",
      "longitude": "-90.12318815005868"
    }
  },
  {
    "service_request": "2023-966821",
    "request_type": "Trash/Recycling",
    "request_reason": "Missed Trash Pick-Up",
    "date_created": "2023-01-13T15:28:16.000",
    "date_modified": "2023-01-13T15:28:16.000",
    "request_status": "Pending",
    "responsible_agency": "Department of Sanitation",
    "final_address": "1028 N Salcedo St",
    "address_councildis": "A",
    "status": "Assigned to Contractor",
    "contractor": "Richards Disposal",
    "rowid": "966821",
    "final_x": "3676327.99022",
    "final_y": "538965.189642",
    "longitude": "-90.08414538364322",
    "latitude": "29.976123452883208",
    "geocoded_column": {
      "latitude": "29.976123452883208",
      "longitude": "-90.08414538364322"
    }
  },
  {
    "service_request": "2023-966820",
    "request_type": "Trash/Recycling",
    "request_reason": "Request a Large Item Pick Up",
    "date_created": "2023-01-13T15:26:43.000",
    "date_modified": "2023-01-13T15:26:44.000",
    "request_status": "Pending",
    "responsible_agency": "Department of Sanitation",
    "final_address": "511 Mandeville St",
    "address_councildis": "C",
    "status": "Assigned to Contractor",
    "contractor": "IV Waste",
    "rowid": "966820",
    "final_x": "3685967.34204",
    "final_y": "534329.085189",
    "longitude": "-90.05386504826542",
    "latitude": "29.963083304691054",
    "geocoded_column": {
      "latitude": "29.963083304691054",
      "longitude": "-90.05386504826542"
    }
  },
  {
    "service_request": "2023-966819",
    "request_type": "Trash/Recycling",
    "request_reason": "Request a Large Item Pick Up",
    "date_created": "2023-01-13T15:23:56.000",
    "date_modified": "2023-01-13T15:44:02.000",
    "request_status": "Pending",
    "responsible_agency": "Department of Sanitation",
    "final_address": "609 Bienville St",
    "address_councildis": "C",
    "status": "Assigned to Contractor",
    "contractor": "Empire Services",
    "rowid": "966819",
    "final_x": "3681906.49167",
    "final_y": "531148.555202",
    "longitude": "-90.06679973258598",
    "latitude": "29.954461987286397",
    "geocoded_column": {
      "latitude": "29.954461987286397",
      "longitude": "-90.06679973258598"
    }
  },
  {
    "service_request": "2023-966818",
    "request_type": "Trash/Recycling",
    "request_reason": "MIssed Recycling Pick-Up",
    "date_created": "2023-01-13T15:23:07.000",
    "date_modified": "2023-01-13T15:23:08.000",
    "request_status": "Pending",
    "responsible_agency": "Department of Sanitation",
    "final_address": "800 BLK Calhoun St",
    "address_councildis": "A",
    "status": "Assigned to Contractor",
    "contractor": "Richards Disposal",
    "rowid": "966818",
    "final_x": "3663513.32057",
    "final_y": "519887.92097",
    "longitude": "-90.12525329758802",
    "latitude": "29.924045033164635",
    "geocoded_column": {
      "latitude": "29.924045033164635",
      "longitude": "-90.12525329758802"
    }
  },
  {
    "service_request": "2023-966817",
    "request_type": "Trash/Recycling",
    "request_reason": "Replace Recycling Cart",
    "date_created": "2023-01-13T15:21:42.000",
    "date_modified": "2023-01-13T15:21:42.000",
    "request_status": "Pending",
    "responsible_agency": "Department of Sanitation",
    "final_address": "2614 Behrman Hwy",
    "address_councildis": "C",
    "status": "Pending",
    "rowid": "966817",
    "final_x": "3692791.88374",
    "final_y": "520815.060345",
    "longitude": "-90.03279842388262",
    "latitude": "29.92571309145661",
    "geocoded_column": {
      "latitude": "29.92571309145661",
      "longitude": "-90.03279842388262"
    }
  },