[
  {
    "service_request": "2023-1050102",
    "request_type": "Roads/Drainage",
    "request_reason": "Pothole",
    "date_created": "2023-11-15T01:00:50.000",
    "date_modified": "2023-11-15T01:00:50.000",
    "request_status": "Pending",
    "responsible_agency": "Department of Public Works",
    "final_address": "1507 Napoleon Ave",
    "address_councildis": "B",
    "status": "Pending",
    "rowid": "1050102",
    "final_x": "3670965.18817",
    "final_y": "520661.853625",
    "longitude": "-90.10170407882987",
    "latitude": "29.925954965627486",
    "geocoded_column": {
      "latitude": "29.925954965627486",
      "longitude": "-90.10170407882987"
    }
  },
  {
    "service_request": "2023-1050101",
    "request_type": "Abandoned Vehicles",
    "request_reason": "Abandoned/Junk Vehicles",
    "date_created": "2023-11-15T00:54:21.000",
    "date_modified": "2023-11-15T00:54:21.000",
    "request_status": "Pending",
    "responsible_agency": "Department of Public Works",
    "final_address": "706 Marigny St",
    "address_councildis": "C",
    "status": "Pending",
    "rowid": "1050101",
    "final_x": "3685481.48322",
    "final_y": "534991.164422",
    "longitude": "-90.05537601084222",
    "latitude": "29.964918702176515",
    "geocoded_column": {
      "latitude": "29.964918702176515",
      "longitude": "-90.05537601084222"
    }
  },
  {
    "service_request": "2023-1050100",
    "request_type": "Abandoned Vehicles",
    "request_reason": "Abandoned/Junk Vehicles",
    "date_created": "2023-11-15T00:48:09.000",
    "date_modified": "2023-11-15T00:48:09.000",
    "request_status": "Pending",
    "responsible_agency": "Department of Public Works",
    "final_address": "706 Marigny St",
    "address_councildis": "C",
    "status": "Pending",
    "rowid": "1050100",
    "final_x": "3685481.48322",
    "final_y": "534991.164422",
    "longitude": "-90.05537601084222",
    "latitude": "29.964918702176515",
    "geocoded_column": {
      "latitude": "29.964918702176515",
      "longitude": "-90.05537601084222"
    }
  },
  {
    "service_request": "2023-1050099",
    "request_type": "Property Maintenance",
    "request_reason": "Property Maintenance",
    "date_created": "2023-11-15T00:27:50.000",
    "date_modified": "2023-11-15T00:27:50.000",
    "request_status": "Pending",
    "responsible_agency": "Department of Code Enforcement",
    "final_address": "4216 St Charles Ave",
    "address_councildis": "B",
    "status": "Pending",
    "rowid": "1050099",
    "final_x": "3671399.09435",
    "final_y": "520793.954745",
    "longitude": "-90.10032987435537",
    "latitude": "29.926305370038534",
    "geocoded_column": {
      "latitude": "29.926305370038534",
      "longitude": "-90.10032987435537"
    }
  },
  {
    "service_request": "2023-1050098",
    "request_type": "Roads/Drainage",
    "request_reason": "Pothole",
    "date_created": "2023-11-15T00:12:00.000",
    "date_modified": "2023-11-15T00:12:00.000",
    "request_status": "Pending",
    "responsible_agency": "Department of Public Works",
    "final_address": "1317 Milan St",
    "address_councildis": "B",
    "status": "Pending",
    "rowid": "1050098",
    "final_x": "3671700.96097",
    "final_y": "520272.658936",
    "longitude": "-90.09939468590763",
    "latitude": "29.9248630381211",
    "geocoded_column": {
      "latitude": "29.9248630381211",
      "longitude": "-90.09939468590763"
    }
  },
  {
    "service_request": "2023-1050097",
    "request_type": "Roads/Drainage",
    "request_reason": "Pothole",
    "date_created": "2023-11-14T23:57:47.000",
    "date_modified": "2023-11-14T23:57:47.000",
    "request_status": "Pending",
    "responsible_agency": "Department of Public Works",
    "final_address": "1423 General Pershing St",
    "address_councildis": "B",
    "status": "Pending",
    "rowid": "1050097",
    "final_x": "3671330.69185",
    "final_y": "520571.244024",
    "longitude": "-90.1005533659415",
    "latitude": "29.925695010510914",
    "geocoded_column": {
      "latitude": "29.925695010510914",
      "longitude": "-90.1005533659415"
    }
  },
  {
    "service_request": "2023-1050096",
    "request_type": "Property Maintenance",
    "request_reason": "Property Maintenance",
    "date_created": "2023-11-14T23:20:13.000",
    "date_modified": "2023-11-14T23:20:13.000",
    "request_status": "Pending",
    "responsible_agency": "Department of Code Enforcement",
    "final_address": "1200 Simon Bolivar Ave",
    "address_councildis": "B",
    "status": "Pending",
    "rowid": "1050096",
    "final_x": "3677875.3739",
    "final_y": "527486.009023",
    "longitude": "-90.07965495718794",
    "latitude": "29.94451310953524",
    "geocoded_column": {
      "latitude": "29.94451310953524",
      "longitude": "-90.07965495718794"
    }
  },
  {
    "service_request": "2023-1050095",
    "request_type": "Roads/Drainage",
    "request_reason": "Pothole",
    "date_created": "2023-11-14T23:20:07.000",
    "date_modified": "2023-11-14T23:20:07.000",
    "request_status": "Pending",
    "responsible_agency": "Department of Public Works",
    "final_address": "1302 Constantinople St",
    "address_councildis": "B",
    "status": "Pending",
    "rowid": "1050095",
    "final_x": "3672316.43828",
    "final_y": "520252.107512",
    "longitude": "-90.09745252227002",
    "latitude": "29.924788289127164",
    "geocoded_column": {
      "latitude": "29.924788289127164",
      "longitude": "-90.09745252227002"
    }
  },
  {
    "service_request": "2023-1050094",
    "request_type": "Property Maintenance",
    "request_reason": "Property Maintenance",
    "date_created": "2023-11-14T23:20:01.000",
    "date_modified": "2023-11-14T23:20:01.000",
    "request_status": "Pending",
    "responsible_agency": "Department of Code Enforcement",
    "final_address": "1200 Simon Bolivar Ave",
    "address_councildis": "B",
    "status": "Pending",
    "rowid": "1050094",
    "final_x": "3677875.3739",
    "final_y": "527486.009023",
    "longitude": "-90.07965495718794",
    "latitude": "29.94451310953524",
    "geocoded_column": {
      "latitude": "29.94451310953524",
      "longitude": "-90.07965495718794"
    }
  },
  {
    "service_request": "2023-1050093",
    "request_type": "Property Maintenance",
    "request_reason": "Property Maintenance",
    "date_created": "2023-11-14T23:18:01.000",
    "date_modified": "2023-11-14T23:18:01.000",
    "request_status": "Pending",
    "responsible_agency": "Department of Code Enforcement",
    "final_address": "1200 Simon Bolivar Ave",
    "address_councildis": "B",
    "status": "Pending",
    "rowid": "1050093",
    "final_x": "3677875.3739",
    "final_y": "527486.009023",
    "longitude": "-90.07965495718794",
    "latitude": "29.94451310953524",
    "geocoded_column": {
      "latitude": "29.94451310953524",
      "longitude": "-90.07965495718794"
    }
  },
  {
    "service_request": "2023-1050092",
    "request_type": "Roads/Drainage",
    "request_reason": "Man hole cover issue",
    "date_created": "2023-11-14T23:10:20.000",
    "date_modified": "2023-11-14T23:10:20.000",
    "request_status": "Pending",
    "responsible_agency": "Department of Public Works",
    "final_address": "415 Bellecastle St",
    "address_councildis": "B",
    "status": "Pending",
    "rowid": "1050092",
    "final_x": "3667679.04333",
    "final_y": "517050.508789",
    "longitude": "-90.11219899664722",
    "latitude": "29.91612161948366",
    "geocoded_column": {
      "latitude": "29.91612161948366",
      "longitude": "-90.11219899664722"
    }
  },
  {
    "service_request": "2023-1050091",
    "request_type": "Traffic Signals/Signs/Striping/Streetlights",
    "request_reason": "Street Light Outage/Malfunction",
    "date_created": "2023-11-14T22:44:21.000",
    "date_modified": "2023-11-14T22:44:22.000",
    "request_status": "Pending",
    "responsible_agency": "Department of Public Works",
    "final_address": "2511 Napoleon Ave",
    "address_councildis": "B",
    "status": "Assigned to Contractor",
    "contractor": "Legacy Professional Services",
    "rowid": "1050091",
    "final_x": "3670617.26356",
    "final_y": "524197.184508",
    "longitude": "-90.10268251691193",
    "latitude": "29.935686269518854",
    "geocoded_column": {
      "latitude": "29.935686269518854",
      "longitude": "-90.10268251691193"
    }
  },
  {
    "service_request": "2023-1050089",
    "request_type": "Abandoned Vehicles",
    "request_reason": "Abandoned/Junk Vehicles",
    "date_created": "2023-11-14T20:44:40.000",
    "date_modified": "2023-11-14T20:44:40.000",
    "request_status": "Pending",
    "responsible_agency": "Department of Public Works",
    "final_address": "2500 BLK Annunciation St",
    "address_councildis": "B",
    "status": "Pending",
    "rowid": "1050089",
    "final_x": "3678304.20996",
    "final_y": "520333.854133",
    "longitude": "-90.07854828046241",
    "latitude": "29.924834125754426",
    "geocoded_column": {
      "latitude": "29.924834125754426",
      "longitude": "-90.07854828046241"
    }
  },
  {
    "service_request": "2023-1050088",
    "request_type": "Trash/Recycling",
    "request_reason": "MIssed Recycling Pick-Up",
    "date_created": "2023-11-14T20:13:27.000",
    "date_modified": "2023-11-14T20:13:28.000",
    "request_status": "Pending",
    "responsible_agency": "Department of Sanitation",
    "final_address": "423 S Solomon St",
    "address_councildis": "A",
    "status": "Assigned to Contractor",
    "contractor": "Richards Disposal",
    "rowid": "1050088",
    "final_x": "3669684.00743",
    "final_y": "537605.832264",
    "longitude": "-90.10517510291825",
    "latitude": "29.972583168970633",
    "geocoded_column": {
      "latitude": "29.972583168970633",
      "longitude": "-90.10517510291825"
    }
  },
  {
    "service_request": "2023-1050087",
    "request_type": "Trash/Recycling",
    "request_reason": "Order Recycling Cart",
    "date_created": "2023-11-14T20:06:54.000",
    "date_modified": "2023-11-14T20:06:54.000",
    "request_status": "Pending",
    "responsible_agency": "Department of Sanitation",
    "final_address": "1719 Fourth St",
    "address_councildis": "B",
    "status": "Pending",
    "rowid": "1050087",
    "final_x": "3675907.23573",
    "final_y": "523187.294395",
    "longitude": "-90.08601669394668",
    "latitude": "29.932752118379188",
    "geocoded_column": {
      "latitude": "29.932752118379188",
      "longitude": "-90.08601669394668"
    }
  },
  {
    "service_request": "2023-1050086",
    "request_type": "Roads/Drainage",
    "request_reason": "Catch Basin - Clogged",
    "date_created": "2023-11-14T19:49:11.000",
    "date_modified": "2023-11-14T19:49:11.000",
    "request_status": "Pending",
    "responsible_agency": "Department of Public Works",
    "final_address": "120 N Norman C Francis Prkwy",
    "address_councildis": "B",
    "status": "Pending",
    "rowid": "1050086",
    "final_x": "3673479.79496",
    "final_y": "536850.009928",
    "longitude": "-90.09321313375989",
    "latitude": "29.970392498272314",
    "geocoded_column": {
      "latitude": "29.970392498272314",
      "longitude": "-90.09321313375989"
    }
  },
  {
    "service_request": "2023-1050085",
    "request_type": "Trash/Recycling",
    "request_reason": "Start Trash Service",
    "date_created": "2023-11-14T19:47:36.000",
    "date_modified": "2023-11-14T19:47:37.000",
    "request_status": "Pending",
    "responsible_agency": "Department of Sanitation",
    "final_address": "9032 Hickory St",
    "address_councildis": "A",
    "status": "Assigned to Contractor",
    "contractor": "Richards Disposal",
    "rowid": "1050085",
    "final_x": "3660805.00794",
    "final_y": "532219.786563",
    "longitude": "-90.1333948729786",
    "latitude": "29.9580319937155",
    "geocoded_column": {
      "latitude": "29.9580319937155",
      "longitude": "-90.1333948729786"
    }
  },
  {
    "service_request": "2023-1050084",
    "request_type": "Trash/Recycling",
    "request_reason": "Missed Trash Pick-Up",
    "date_created": "2023-11-14T19:27:18.000",
    "date_modified": "2023-11-14T19:27:18.000",
    "request_status": "Pending",
    "responsible_agency": "Department of Sanitation",
    "final_address": "212 N Pierce St",
    "address_councildis": "A",
    "status": "Assigned to Contractor",
    "contractor": "Richards Disposal",
    "rowid": "1050084",
    "final_x": "3671824.72519",
    "final_y": "538461.947401",
    "longitude": "-90.09838517423587",
    "latitude": "29.974873931275493",
    "geocoded_column": {
      "latitude": "29.974873931275493",
      "longitude": "-90.09838517423587"
    }
  },
  {
    "service_request": "2023-1050083",
    "request_type": "Trash/Recycling",
    "request_reason": "Request a Large Item Pick Up",
    "date_created": "2023-11-14T19:02:54.000",
    "date_modified": "2023-11-14T19:02:55.000",
    "request_status": "Pending",
    "responsible_agency": "Department of Sanitation",
    "final_address": "4750 Spain St",
    "address_councildis": "D",
    "status": "Assigned to Contractor",
    "contractor": "IV Waste",
    "rowid": "1050083",
    "final_x": "3684894.79036",
    "final_y": "550539.092948",
    "longitude": "-90.05668170088994",
    "latitude": "30.007687977442906",
    "geocoded_column": {
      "latitude": "30.007687977442906",
      "longitude": "-90.05668170088994"
    }
  },
  {
    "service_request": "2023-1050082",
    "request_type": "Roads/Drainage",
    "request_reason": "Pothole",
    "date_created": "2023-11-14T19:01:41.000",
    "date_modified": "2023-11-14T19:01:41.000",
    "request_status": "Pending",
    "responsible_agency": "Department of Public Works",
    "final_address": "610 Fulton St Ste B",
    "address_councildis": "B",
    "status": "Pending",
    "rowid": "1050082",
    "final_x": "3682455.66492",
    "final_y": "528356.694272",
    "longitude": "-90.06516322835856",
    "latitude": "29.946768611049006",
    "geocoded_column": {
      "latitude": "29.946768611049006",
      "longitude": "-90.06516322835856"
    }
  },
  {
    "service_request": "2023-1050081",
    "request_type": "Trash/Recycling",
    "request_reason": "Order Trash Cart",
    "date_created": "2023-11-14T18:29:54.000",
    "date_modified": "2023-11-14T18:29:55.000",
    "request_status": "Pending",
    "responsible_agency": "Department of Sanitation",
    "final_address": "4221 Van Ave",
    "address_councildis": "D",
    "status": "Assigned to Contractor",
    "contractor": "IV Waste",
    "rowid": "1050081",
    "final_x": "3680100.07803",
    "final_y": "547881.36533",
    "longitude": "-90.07192202841846",
    "latitude": "30.000526193528543",
    "geocoded_column": {
      "latitude": "30.000526193528543",
      "longitude": "-90.07192202841846"
    }
  },
  {
    "service_request": "2023-1050080",
    "request_type": "Trash/Recycling",
    "request_reason": "Illegal Dumping",
    "date_created": "2023-11-14T18:16:23.000",
    "date_modified": "2023-11-14T18:16:23.000",
    "request_status": "Pending",
    "responsible_agency": "Department of Sanitation",
    "final_address": "12330 S Interstate 10 Service Rd",
    "address_councildis": "E",
    "status": "Pending",
    "rowid": "1050080",
    "final_x": "3717035.68165",
    "final_y": "566171.364003",
    "longitude": "-89.9545461761855",
    "latitude": "30.04964665808399",
    "geocoded_column": {
      "latitude": "30.04964665808399",
      "longitude": "-89.9545461761855"
    }
  },
  {
    "service_request": "2023-1050079",
    "request_type": "Traffic Signals/Signs/Striping/Streetlights",
    "request_reason": "Street Light Outage/Malfunction",
    "date_created": "2023-11-14T17:49:21.000",
    "date_modified": "2023-11-14T17:49:22.000",
    "request_status": "Pending",
    "responsible_agency": "Department of Public Works",
    "final_address": "S BROAD ST & TULANE AVE",
    "address_councildis": "B",
    "status": "Assigned to Contractor",
    "contractor": "Legacy Professional Services",
    "rowid": "1050079",
    "final_x": "3674313.3",
    "final_y": "533773.18",
    "longitude": "-90.09068620733277",
    "latitude": "29.961907423023113",
    "geocoded_column": {
      "latitude": "29.961907423023113",
      "longitude": "-90.09068620733277"
    }
  },
  {
    "service_request": "2023-1050078",
    "request_type": "Roads/Drainage",
    "request_reason": "Pothole",
    "date_created": "2023-11-14T17:35:15.000",
    "date_modified": "2023-11-14T17:35:15.000",
    "request_status": "Pending",
    "responsible_agency": "Department of Public Works",
    "final_address": "1516 Eleonore St",
    "address_councildis": "A",
    "status": "Pending",
    "rowid": "1050078",
    "final_x": "3665795.25588",
    "final_y": "521919.094394",
    "longitude": "-90.11798200244233",
    "latitude": "29.929563767827943",
    "geocoded_column": {
      "latitude": "29.929563767827943",
      "longitude": "-90.11798200244233"
    }
  },
  {
    "service_request": "2023-1050077",
    "request_type": "Abandoned Vehicles",
    "request_reason": "Abandoned/Junk Vehicles",
    "date_created": "2023-11-14T17:31:42.000",
    "date_modified": "2023-11-14T17:31:42.000",
    "request_status": "Pending",
    "responsible_agency": "Department of Public Works",
    "final_address": "3100 BLK Johnny Jackson Jr Blvd",
    "address_councildis": "D",
    "status": "Pending",
    "rowid": "1050077",
    "final_x": "3691579.86648",
    "final_y": "543974.040777",
    "longitude": "-90.03579653939296",
    "latitude": "29.989429985223236",
    "geocoded_column": {
      "latitude": "29.989429985223236",
      "longitude": "-90.03579653939296"
    }
  },
  {
    "service_request": "2023-1050076",
    "request_type": "Trash/Recycling",
    "request_reason": "MIssed Recycling Pick-Up",
    "date_created": "2023-11-14T17:13:32.000",
    "date_modified": "2023-11-14T17:13:32.000",
    "request_status": "Pending",
    "responsible_agency": "Department of Sanitation",
    "final_address": "1930 Bienville Ave",
    "address_councildis": "B",
    "status": "Assigned to Contractor",
    "contractor": "Richards Disposal",
    "rowid": "1050076",
    "final_x": "3678042.1188",
    "final_y": "533964.375813",
    "longitude": "-90.07890456978272",
    "latitude": "29.96232142777804",
    "geocoded_column": {
      "latitude": "29.96232142777804",
      "longitude": "-90.07890456978272"
    }
  },
  {
    "service_request": "2023-1050075",
    "request_type": "Trash/Recycling",
    "request_reason": "Order Trash Cart",
    "date_created": "2023-11-14T17:04:45.000",
    "date_modified": "2023-11-14T17:04:45.000",
    "request_status": "Pending",
    "responsible_agency": "Department of Sanitation",
    "final_address": "5426 N Galvez St",
    "address_councildis": "E",
    "status": "Assigned to Contractor",
    "contractor": "Waste Pro",
    "rowid": "1050075",
    "final_x": "3698445.16605",
    "final_y": "537607.097928",
    "longitude": "-90.01434265407289",
    "latitude": "29.971707657349803",
    "geocoded_column": {
      "latitude": "29.971707657349803",
      "longitude": "-90.01434265407289"
    }
  },
  {
    "service_request": "2023-1050074",
    "request_type": "Trash/Recycling",
    "request_reason": "Order Recycling Cart",
    "date_created": "2023-11-14T17:03:42.000",
    "date_modified": "2023-11-14T17:03:43.000",
    "request_status": "Pending",
    "responsible_agency": "Department of Sanitation",
    "final_address": "5426 N Galvez St",
    "address_councildis": "E",
    "status": "Pending",
    "rowid": "1050074",
    "final_x": "3698445.16605",
    "final_y": "537607.097928",
    "longitude": "-90.01434265407289",
    "latitude": "29.971707657349803",
    "geocoded_column": {
      "latitude": "29.971707657349803",
      "longitude": "-90.01434265407289"
    }
  },
  {
    "service_request": "2023-1050073",
    "request_type": "Trash/Recycling",
    "request_reason": "Request a Large Item Pick Up",
    "date_created": "2023-11-14T17:00:27.000",
    "date_modified": "2023-11-14T17:00:28.000",
    "request_status": "Pending",
    "responsible_agency": "Department of Sanitation",
    "final_address": "6010 Kensington Blvd",
    "address_councildis": "E",
    "status": "Assigned to Contractor",
    "contractor": "Waste Pro",
    "rowid": "1050073",
    "final_x": "3713424.18091",
    "final_y": "561650.461791",
    "longitude": "-89.96613113307166",
    "latitude": "30.03733499869554",
    "geocoded_column": {
      "latitude": "30.03733499869554",
      "longitude": "-89.96613113307166"
    }
  },
  {
    "service_request": "2023-1050072",
    "request_type": "Traffic Signals/Signs/Striping/Streetlights",
    "request_reason": "Street Light Outage/Malfunction",
    "date_created": "2023-11-14T16:56:45.000",
    "date_modified": "2023-11-14T16:56:46.000",
    "request_status": "Pending",
    "responsible_agency": "Department of Public Works",
    "final_address": "CROWDER BLVD & MORRISON RD",
    "address_councildis": "E",
    "status": "Assigned to Contractor",
    "contractor": "Legacy Professional Services",
    "rowid": "1050072",
    "final_x": "3703739.9",
    "final_y": "560831.58",
    "longitude": "-89.99676565482832",
    "latitude": "30.035397561791353",
    "geocoded_column": {
      "latitude": "30.035397561791353",
      "longitude": "-89.99676565482832"
    }
  },
  {
    "service_request": "2023-1050071",
    "request_type": "Trash/Recycling",
    "request_reason": "Order Recycling Cart",
    "date_created": "2023-11-14T16:54:34.000",
    "date_modified": "2023-11-14T16:54:35.000",
    "request_status": "Pending",
    "responsible_agency": "Department of Sanitation",
    "final_address": "4939 Arts St",
    "address_councildis": "D",
    "status": "Pending",
    "rowid": "1050071",
    "final_x": "3685916.9855",
    "final_y": "551184.287445",
    "longitude": "-90.05342952594692",
    "latitude": "30.009430672251288",
    "geocoded_column": {
      "latitude": "30.009430672251288",
      "longitude": "-90.05342952594692"
    }
  },
  {
    "service_request": "2023-1050070",
    "request_type": "Trash/Recycling",
    "request_reason": "Missed Trash Pick-Up",
    "date_created": "2023-11-14T16:47:08.000",
    "date_modified": "2023-11-14T16:47:08.000",
    "request_status": "Pending",
    "responsible_agency": "Department of Sanitation",
    "final_address": "503 Wagner St",
    "address_councildis": "C",
    "status": "Assigned to Contractor",
    "contractor": "Richards Disposal",
    "rowid": "1050070",
    "final_x": "3690539.91811",
    "final_y": "529760.344321",
    "longitude": "-90.0395883498639",
    "latitude": "29.950379668468134",
    "geocoded_column": {
      "latitude": "29.950379668468134",
      "longitude": "-90.0395883498639"
    }
  },
  {
    "service_request": "2023-1050069",
    "request_type": "Traffic Signals/Signs/Striping/Streetlights",
    "request_reason": "Traffic Signal Malfunctioning/Damaged",
    "date_created": "2023-11-14T16:40:37.000",
    "date_modified": "2023-11-14T16:40:38.000",
    "request_status": "Pending",
    "responsible_agency": "Department of Public Works",
    "final_address": "TULANE AVE & S BROAD ST",
    "address_councildis": "B",
    "status": "Pending",
    "rowid": "1050069",
    "final_x": "3674286.8",
    "final_y": "533735.08",
    "longitude": "-90.09077119498744",
    "latitude": "29.961803451002524",
    "geocoded_column": {
      "latitude": "29.961803451002524",
      "longitude": "-90.09077119498744"
    }
  },
  {
    "service_request": "2023-1050068",
    "request_type": "Trash/Recycling",
    "request_reason": "Request a Large Item Pick Up",
    "date_created": "2023-11-14T16:39:20.000",
    "date_modified": "2023-11-14T16:39:21.000",
    "request_status": "Pending",
    "responsible_agency": "Department of Sanitation",
    "final_address": "4959 Piety Dr",
    "address_councildis": "D",
    "status": "Assigned to Contractor",
    "contractor": "IV Waste",
    "rowid": "1050068",
    "final_x": "3691380.59395",
    "final_y": "552268.702358",
    "longitude": "-90.03612936732785",
    "latitude": "30.012243474228022",
    "geocoded_column": {
      "latitude": "30.012243474228022",
      "longitude": "-90.03612936732785"
    }
  },
  {
    "service_request": "2023-1050067",
    "request_type": "Trash/Recycling",
    "request_reason": "MIssed Recycling Pick-Up",
    "date_created": "2023-11-14T16:35:40.000",
    "date_modified": "2023-11-14T16:35:41.000",
    "request_status": "Pending",
    "responsible_agency": "Department of Sanitation",
    "final_address": "6325 S Tonti St",
    "address_councildis": "A",
    "status": "Assigned to Contractor",
    "contractor": "Richards Disposal",
    "rowid": "1050067",
    "final_x": "3667139.94765",
    "final_y": "528650.408448",
    "longitude": "-90.11351082230696",
    "latitude": "29.948033434500985",
    "geocoded_column": {
      "latitude": "29.948033434500985",
      "longitude": "-90.11351082230696"
    }
  },
  {
    "service_request": "2023-1050066",
    "request_type": "Trash/Recycling",
    "request_reason": "Order Trash Cart",
    "date_created": "2023-11-14T16:35:03.000",
    "date_modified": "2023-11-14T16:35:03.000",
    "request_status": "Pending",
    "responsible_agency": "Department of Sanitation",
    "final_address": "6240 Waldo Dr",
    "address_councildis": "D",
    "status": "Assigned to Contractor",
    "contractor": "IV Waste",
    "rowid": "1050066",
    "final_x": "3681016.56149",
    "final_y": "556094.095642",
    "longitude": "-90.0687404650943",
    "latitude": "30.02308045856621",
    "geocoded_column": {
      "latitude": "30.02308045856621",
      "longitude": "-90.0687404650943"
    }
  },
  {
    "service_request": "2023-1050065",
    "request_type": "Trash/Recycling",
    "request_reason": "Request a Large Item Pick Up",
    "date_created": "2023-11-14T16:33:02.000",
    "date_modified": "2023-11-14T16:33:02.000",
    "request_status": "Pending",
    "responsible_agency": "Department of Sanitation",
    "final_address": "7231 Bullard Ave",
    "address_councildis": "E",
    "status": "Assigned to Contractor",
    "contractor": "Waste Pro",
    "rowid": "1050065",
    "final_x": "3714229.70514",
    "final_y": "566038.006179",
    "longitude": "-89.9634197475214",
    "latitude": "30.04937251843217",
    "geocoded_column": {
      "latitude": "30.04937251843217",
      "longitude": "-89.9634197475214"
    }
  },
  {
    "service_request": "2023-1050064",
    "request_type": "Trash/Recycling",
    "request_reason": "Missed Trash Pick-Up",
    "date_created": "2023-11-14T16:24:58.000",
    "date_modified": "2023-11-14T16:24:58.000",
    "request_status": "Pending",
    "responsible_agency": "Department of Sanitation",
    "final_address": "6060 General Haig St",
    "address_councildis": "A",
    "status": "Assigned to Contractor",
    "contractor": "IV Waste",
    "rowid": "1050064",
    "final_x": "3670529.50766",
    "final_y": "547574.860882",
    "longitude": "-90.10216656845486",
    "latitude": "29.999969640255653",
    "geocoded_column": {
      "latitude": "29.999969640255653",
      "longitude": "-90.10216656845486"
    }
  },
  {
    "service_request": "2023-1050063",
    "request_type": "Traffic Signals/Signs/Striping/Streetlights",
    "request_reason": "Street Light Outage/Malfunction",
    "date_created": "2023-11-14T16:20:36.000",
    "date_modified": "2023-11-14T16:20:37.000",
    "request_status": "Pending",
    "responsible_agency": "Department of Public Works",
    "final_address": "2701 Danbury Dr",
    "address_councildis": "C",
    "status": "Assigned to Contractor",
    "contractor": "Legacy Professional Services",
    "rowid": "1050063",
    "final_x": "3703599.90801",
    "final_y": "520915.246329",
    "longitude": "-89.99867733230676",
    "latitude": "29.92564683746897",
    "geocoded_column": {
      "latitude": "29.92564683746897",
      "longitude": "-89.99867733230676"
    }
  },
  {
    "service_request": "2023-1050062",
    "request_type": "Trash/Recycling",
    "request_reason": "Request a Large Item Pick Up",
    "date_created": "2023-11-14T16:17:37.000",
    "date_modified": "2023-11-14T16:17:50.000",
    "request_status": "Pending",
    "responsible_agency": "Department of Sanitation",
    "final_address": "5860 Winchester Park Dr",
    "address_councildis": "E",
    "status": "Assigned to Contractor",
    "contractor": "Waste Pro",
    "rowid": "1050062",
    "final_x": "3714798.06104",
    "final_y": "562447.476703",
    "longitude": "-89.96175925329527",
    "latitude": "30.039481322693568",
    "geocoded_column": {
      "latitude": "30.039481322693568",
      "longitude": "-89.96175925329527"
    }
  },
  {
    "service_request": "2023-1050061",
    "request_type": "Roads/Drainage",
    "request_reason": "Pothole",
    "date_created": "2023-11-14T16:16:21.000",
    "date_modified": "2023-11-14T16:16:21.000",
    "request_status": "Pending",
    "responsible_agency": "Department of Public Works",
    "final_address": "1579 Henry Clay Ave",
    "address_councildis": "A",
    "status": "Pending",
    "rowid": "1050061",
    "final_x": "3665125.97453",
    "final_y": "522693.49369",
    "longitude": "-90.12006892685164",
    "latitude": "29.931712623369517",
    "geocoded_column": {
      "latitude": "29.931712623369517",
      "longitude": "-90.12006892685164"
    }
  },
  {
    "service_request": "2023-1050060",
    "request_type": "Traffic Signals/Signs/Striping/Streetlights",
    "request_reason": "Street Light Outage/Malfunction",
    "date_created": "2023-11-14T16:14:28.000",
    "date_modified": "2023-11-14T16:14:28.000",
    "request_status": "Pending",
    "responsible_agency": "Department of Public Works",
    "final_address": "2665 Danbury Dr",
    "address_councildis": "C",
    "status": "Assigned to Contractor",
    "contractor": "Legacy Professional Services",
    "rowid": "1050060",
    "final_x": "3703601.89374",
    "final_y": "520974.026169",
    "longitude": "-89.99866890274438",
    "latitude": "29.925808398031634",
    "geocoded_column": {
      "latitude": "29.925808398031634",
      "longitude": "-89.99866890274438"
    }
  },
  {
    "service_request": "2023-1050059",
    "request_type": "Trash/Recycling",
    "request_reason": "Request a Large Item Pick Up",
    "date_created": "2023-11-14T16:12:39.000",
    "date_modified": "2023-11-14T16:12:40.000",
    "request_status": "Pending",
    "responsible_agency": "Department of Sanitation",
    "final_address": "3040 Octavia St",
    "address_councildis": "A",
    "status": "Assigned to Contractor",
    "contractor": "Richards Disposal",
    "rowid": "1050059",
    "final_x": "3668162.00314",
    "final_y": "526890.727742",
    "longitude": "-90.11034307094107",
    "latitude": "29.94316492610053",
    "geocoded_column": {
      "latitude": "29.94316492610053",
      "longitude": "-90.11034307094107"
    }
  },
  {
    "service_request": "2023-1050058",
    "request_type": "Traffic Signals/Signs/Striping/Streetlights",
    "request_reason": "Street Light Outage/Malfunction",
    "date_created": "2023-11-14T16:11:50.000",
    "date_modified": "2023-11-14T16:11:51.000",
    "request_status": "Pending",
    "responsible_agency": "Department of Public Works",
    "final_address": "2639 Danbury Dr",
    "address_councildis": "C",
    "status": "Assigned to Contractor",
    "contractor": "Legacy Professional Services",
    "rowid": "1050058",
    "final_x": "3703608.15313",
    "final_y": "521170.550969",
    "longitude": "-89.99864191773271",
    "latitude": "29.926348572527637",
    "geocoded_column": {
      "latitude": "29.926348572527637",
      "longitude": "-89.99864191773271"
    }
  },
  {
    "service_request": "2023-1050057",
    "request_type": "Traffic Signals/Signs/Striping/Streetlights",
    "request_reason": "Street Light Outage/Malfunction",
    "date_created": "2023-11-14T16:09:46.000",
    "date_modified": "2023-11-14T16:09:47.000",
    "request_status": "Pending",
    "responsible_agency": "Department of Public Works",
    "final_address": "2639 Danbury Dr",
    "address_councildis": "C",
    "status": "Assigned to Contractor",
    "contractor": "Legacy Professional Services",
    "rowid": "1050057",
    "final_x": "3703608.15313",
    "final_y": "521170.550969",
    "longitude": "-89.99864191773271",
    "latitude": "29.926348572527637",
    "geocoded_column": {
      "latitude": "29.926348572527637",
      "longitude": "-89.99864191773271"
    }
  },
  {
    "service_request": "2023-1050056",
    "request_type": "Traffic Signals/Signs/Striping/Streetlights",
    "request_reason": "Street Light Outage/Malfunction",
    "date_created": "2023-11-14T16:08:20.000",
    "date_modified": "2023-11-14T16:08:21.000",
    "request_status": "Pending",
    "responsible_agency": "Department of Public Works",
    "final_address": "2601 Danbury Dr",
    "address_councildis": "C",
    "status": "Assigned to Contractor",
    "contractor": "Legacy Professional Services",
    "rowid": "1050056",
    "final_x": "3703616.97777",
    "final_y": "521455.636089",
    "longitude": "-89.99860357821888",
    "latitude": "29.927132174921503",
    "geocoded_column": {
      "latitude": "29.927132174921503",
      "longitude": "-89.99860357821888"
    }
  },
  {
    "service_request": "2023-1050055",
    "request_type": "Trash/Recycling",
    "request_reason": "Request a Large Item Pick Up",
    "date_created": "2023-11-14T16:07:37.000",
    "date_modified": "2023-11-14T16:07:38.000",
    "request_status": "Pending",
    "responsible_agency": "Department of Sanitation",
    "final_address": "7727 Alabama St",
    "address_councildis": "D",
    "status": "Assigned to Contractor",
    "contractor": "Waste Pro",
    "rowid": "1050055",
    "final_x": "3694851.65859",
    "final_y": "558981.015004",
    "longitude": "-90.02492065266472",
    "latitude": "30.03059129382983",
    "geocoded_column": {
      "latitude": "30.03059129382983",
      "longitude": "-90.02492065266472"
    }
  },
  {
    "service_request": "2023-1050054",
    "request_type": "Trash/Recycling",
    "request_reason": "Return Recycling Cart",
    "date_created": "2023-11-14T16:07:05.000",
    "date_modified": "2023-11-14T16:10:41.000",
    "request_status": "Pending",
    "responsible_agency": "Department of Sanitation",
    "final_address": "861 Wilson Dr",
    "address_councildis": "A",
    "status": "Pending",
    "rowid": "1050054",
    "final_x": "3674038.95528",
    "final_y": "539721.931978",
    "longitude": "-90.09134893171675",
    "latitude": "29.978272654804574",
    "geocoded_column": {
      "latitude": "29.978272654804574",
      "longitude": "-90.09134893171675"
    }
  },
  {
    "service_request": "2023-1050053",
    "request_type": "Abandoned Vehicles",
    "request_reason": "Abandoned/Junk Vehicles",
    "date_created": "2023-11-14T16:00:11.000",
    "date_modified": "2023-11-14T16:00:12.000",
    "request_status": "Pending",
    "responsible_agency": "Department of Public Works",
    "final_address": "7827 Hampson St",
    "address_councildis": "A",
    "status": "Pending",
    "rowid": "1050053",
    "final_x": "3661461.30867",
    "final_y": "526543.025854",
    "longitude": "-90.13151046250039",
    "latitude": "29.94240380806146",
    "geocoded_column": {
      "latitude": "29.94240380806146",
      "longitude": "-90.13151046250039"
    }
  },
  {
    "service_request": "2023-1050052",
    "request_type": "Trash/Recycling",
    "request_reason": "Start Trash Service",
    "date_created": "2023-11-14T16:00:05.000",
    "date_modified": "2023-11-14T16:00:06.000",
    "request_status": "Pending",
    "responsible_agency": "Department of Sanitation",
    "final_address": "10900 Zenith St",
    "address_councildis": "E",
    "status": "Assigned to Contractor",
    "contractor": "Waste Pro",
    "rowid": "1050052",
    "final_x": "3710443.81246",
    "final_y": "565244.754978",
    "longitude": "-89.97541508365005",
    "latitude": "30.04731530819096",
    "geocoded_column": {
      "latitude": "30.04731530819096",
      "longitude": "-89.97541508365005"
    }
  },
  {
    "service_request": "2023-1050050",
    "request_type": "Trash/Recycling",
    "request_reason": "Repair Trash Cart",
    "date_created": "2023-11-14T15:51:05.000",
    "date_modified": "2023-11-14T15:51:05.000",
    "request_status": "Pending",
    "responsible_agency": "Department of Sanitation",
    "final_address": "3120 Cambronne St",
    "address_councildis": "A",
    "status": "Assigned to Contractor",
    "contractor": "Richards Disposal",
    "rowid": "1050050",
    "final_x": "3665822.565",
    "final_y": "534274.080197",
    "longitude": "-90.11748193645994",
    "latitude": "29.96353519327269",
    "geocoded_column": {
      "latitude": "29.96353519327269",
      "longitude": "-90.11748193645994"
    }
  },
  {
    "service_request": "2023-1050049",
    "request_type": "Trash/Recycling",
    "request_reason": "Return Recycling Cart",
    "date_created": "2023-11-14T15:50:56.000",
    "date_modified": "2023-11-14T15:50:56.000",
    "request_status": "Pending",
    "responsible_agency": "Department of Sanitation",
    "final_address": "2312 Royal St",
    "address_councildis": "C",
    "status": "Pending",
    "rowid": "1050049",
    "final_x": "3685667.51356",
    "final_y": "534879.449286",
    "longitude": "-90.05479247616431",
    "latitude": "29.964605817928373",
    "geocoded_column": {
      "latitude": "29.964605817928373",
      "longitude": "-90.05479247616431"
    }
  },
  {
    "service_request": "2023-1050048",
    "request_type": "Trash/Recycling",
    "request_reason": "Illegal Dumping",
    "date_created": "2023-11-14T15:50:43.000",
    "date_modified": "2023-11-14T15:50:43.000",
    "request_status": "Pending",
    "responsible_agency": "Department of Sanitation",
    "final_address": "10000 Old Gentilly Rd",
    "address_councildis": "E",
    "status": "Pending",
    "rowid": "1050048",
    "final_x": "3712564.5173",
    "final_y": "552954.736471",
    "longitude": "-89.96917500333826",
    "latitude": "30.01345336471205",
    "geocoded_column": {
      "latitude": "30.01345336471205",
      "longitude": "-89.96917500333826"
    }
  },
  {
    "service_request": "2023-1050047",
    "request_type": "Trash/Recycling",
    "request_reason": "Repair Trash Cart",
    "date_created": "2023-11-14T15:50:36.000",
    "date_modified": "2023-11-14T15:50:37.000",
    "request_status": "Pending",
    "responsible_agency": "Department of Sanitation",
    "final_address": "3118 Cambronne St",
    "address_councildis": "A",
    "status": "Assigned to Contractor",
    "contractor": "Richards Disposal",
    "rowid": "1050047",
    "final_x": "3665816.97773",
    "final_y": "534267.039749",
    "longitude": "-90.11749981644942",
    "latitude": "29.96351599737603",
    "geocoded_column": {
      "latitude": "29.96351599737603",
      "longitude": "-90.11749981644942"
    }
  },
  {
    "service_request": "2023-1050046",
    "request_type": "Trash/Recycling",
    "request_reason": "Order Recycling Cart",
    "date_created": "2023-11-14T15:50:20.000",
    "date_modified": "2023-11-14T15:50:20.000",
    "request_status": "Pending",
    "responsible_agency": "Department of Sanitation",
    "final_address": "2312 Royal St",
    "address_councildis": "C",
    "status": "Pending",
    "rowid": "1050046",
    "final_x": "3685667.51356",
    "final_y": "534879.449286",
    "longitude": "-90.05479247616431",
    "latitude": "29.964605817928373",
    "geocoded_column": {
      "latitude": "29.964605817928373",
      "longitude": "-90.05479247616431"
    }
  },
  {
    "service_request": "2023-1050045",
    "request_type": "Trash/Recycling",
    "request_reason": "Request a Large Item Pick Up",
    "date_created": "2023-11-14T15:49:26.000",
    "date_modified": "2023-11-14T15:49:26.000",
    "request_status": "Pending",
    "responsible_agency": "Department of Sanitation",
    "final_address": "101 Country Club Dr",
    "address_councildis": "A",
    "status": "Assigned to Contractor",
    "contractor": "IV Waste",
    "rowid": "1050045",
    "final_x": "3665780.11034",
    "final_y": "544403.924367",
    "longitude": "-90.11727651146273",
    "latitude": "29.99139011159367",
    "geocoded_column": {
      "latitude": "29.99139011159367",
      "longitude": "-90.11727651146273"
    }
  },
  {
    "service_request": "2023-1050044",
    "request_type": "Roads/Drainage",
    "request_reason": "Pothole",
    "date_created": "2023-11-14T15:45:16.000",
    "date_modified": "2023-11-14T15:45:16.000",
    "request_status": "Pending",
    "responsible_agency": "Department of Public Works",
    "final_address": "1315 Peniston St",
    "address_councildis": "B",
    "status": "Pending",
    "rowid": "1050044",
    "final_x": "3673101.31451",
    "final_y": "520423.11276",
    "longitude": "-90.09496908964098",
    "latitude": "29.925235197927364",
    "geocoded_column": {
      "latitude": "29.925235197927364",
      "longitude": "-90.09496908964098"
    }
  },
  {
    "service_request": "2023-1050043",
    "request_type": "Traffic Signals/Signs/Striping/Streetlights",
    "request_reason": "Traffic Signal Malfunctioning/Damaged",
    "date_created": "2023-11-14T15:42:56.000",
    "date_modified": "2023-11-14T15:42:57.000",
    "request_status": "Pending",
    "responsible_agency": "Department of Public Works",
    "final_address": "S BROAD ST & TULANE AVE",
    "address_councildis": "B",
    "status": "Pending",
    "rowid": "1050043",
    "final_x": "3674313.3",
    "final_y": "533773.18",
    "longitude": "-90.09068620733277",
    "latitude": "29.961907423023113",
    "geocoded_column": {
      "latitude": "29.961907423023113",
      "longitude": "-90.09068620733277"
    }
  },
  {
    "service_request": "2023-1050042",
    "request_type": "Roads/Drainage",
    "request_reason": "Damaged Sidewalk",
    "date_created": "2023-11-14T15:39:12.000",
    "date_modified": "2023-11-14T15:39:12.000",
    "request_status": "Pending",
    "responsible_agency": "Department of Public Works",
    "final_address": "2452 Madrid St",
    "address_councildis": "D",
    "status": "Pending",
    "rowid": "1050042",
    "final_x": "3685435.61109",
    "final_y": "555442.077593",
    "longitude": "-90.05480025599607",
    "latitude": "30.02115280919469",
    "geocoded_column": {
      "latitude": "30.02115280919469",
      "longitude": "-90.05480025599607"
    }
  },
  {
    "service_request": "2023-1050041",
    "request_type": "Roads/Drainage",
    "request_reason": "Pothole",
    "date_created": "2023-11-14T15:35:30.000",
    "date_modified": "2023-11-14T15:35:30.000",
    "request_status": "Pending",
    "responsible_agency": "Department of Public Works",
    "final_address": "1312 Milan St",
    "address_councildis": "B",
    "status": "Pending",
    "rowid": "1050041",
    "final_x": "3671625.82823",
    "final_y": "520286.919608",
    "longitude": "-90.09963137110304",
    "latitude": "29.92490447494246",
    "geocoded_column": {
      "latitude": "29.92490447494246",
      "longitude": "-90.09963137110304"
    }
  },
  {
    "service_request": "2023-1050040",
    "request_type": "Trash/Recycling",
    "request_reason": "Order Recycling Cart",
    "date_created": "2023-11-14T15:30:31.000",
    "date_modified": "2023-11-14T15:30:31.000",
    "request_status": "Pending",
    "responsible_agency": "Department of Sanitation",
    "final_address": "3943 Magazine St",
    "address_councildis": "B",
    "status": "Pending",
    "rowid": "1050040",
    "final_x": "3672704.49147",
    "final_y": "518994.317751",
    "longitude": "-90.09627042977078",
    "latitude": "29.92131825516887",
    "geocoded_column": {
      "latitude": "29.92131825516887",
      "longitude": "-90.09627042977078"
    }
  },
  {
    "service_request": "2023-1050039",
    "request_type": "Traffic Signals/Signs/Striping/Streetlights",
    "request_reason": "Street Light Outage/Malfunction",
    "date_created": "2023-11-14T15:29:09.000",
    "date_modified": "2023-11-14T15:29:10.000",
    "request_status": "Pending",
    "responsible_agency": "Department of Public Works",
    "final_address": "6710 Maumus Ave",
    "address_councildis": "C",
    "status": "Assigned to Contractor",
    "contractor": "Legacy Professional Services",
    "rowid": "1050039",
    "final_x": "3708500.83198",
    "final_y": "516704.734325",
    "longitude": "-89.98336333911307",
    "latitude": "29.913911525125737",
    "geocoded_column": {
      "latitude": "29.913911525125737",
      "longitude": "-89.98336333911307"
    }
  },
  {
    "service_request": "2023-1050038",
    "request_type": "Trash/Recycling",
    "request_reason": "Order Recycling Cart",
    "date_created": "2023-11-14T15:26:45.000",
    "date_modified": "2023-11-14T15:26:45.000",
    "request_status": "Pending",
    "responsible_agency": "Department of Sanitation",
    "final_address": "2334 Mandeville St",
    "address_councildis": "D",
    "status": "Pending",
    "rowid": "1050038",
    "final_x": "3685360.34933",
    "final_y": "541085.979596",
    "longitude": "-90.05554390919752",
    "latitude": "29.98168102926595",
    "geocoded_column": {
      "latitude": "29.98168102926595",
      "longitude": "-90.05554390919752"
    }
  },
  {
    "service_request": "2023-1050037",
    "request_type": "Trash/Recycling",
    "request_reason": "Request a Large Item Pick Up",
    "date_created": "2023-11-14T15:24:53.000",
    "date_modified": "2023-11-14T15:24:54.000",
    "request_status": "Pending",
    "responsible_agency": "Department of Sanitation",
    "final_address": "1939 Mazant St",
    "address_councildis": "D",
    "status": "Assigned to Contractor",
    "contractor": "IV Waste",
    "rowid": "1050037",
    "final_x": "3692970.12176",
    "final_y": "538516.140041",
    "longitude": "-90.03160099331829",
    "latitude": "29.974379357687717",
    "geocoded_column": {
      "latitude": "29.974379357687717",
      "longitude": "-90.03160099331829"
    }
  },
  {
    "service_request": "2023-1050036",
    "request_type": "Parks & Parkways",
    "request_reason": "Request Tree Service (Right of Way/Public Property)",
    "date_created": "2023-11-14T15:16:45.000",
    "date_modified": "2023-11-14T15:16:46.000",
    "request_status": "Pending",
    "responsible_agency": "Department of Parks & Parkway",
    "final_address": "329 Delaronde St",
    "address_councildis": "C",
    "status": "Pending",
    "rowid": "1050036",
    "final_x": "3686486.22498",
    "final_y": "530896.104386",
    "longitude": "-90.0523476774128",
    "latitude": "29.953627848147956",
    "geocoded_column": {
      "latitude": "29.953627848147956",
      "longitude": "-90.0523476774128"
    }
  },
  {
    "service_request": "2023-1050035",
    "request_type": "Abandoned Vehicles",
    "request_reason": "Abandoned/Junk Vehicles",
    "date_created": "2023-11-14T15:16:21.000",
    "date_modified": "2023-11-14T15:16:43.000",
    "request_status": "Pending",
    "responsible_agency": "Department of Public Works",
    "final_address": "200 BLK Cherokee St",
    "address_councildis": "A",
    "status": "Inspected",
    "rowid": "1050035",
    "final_x": "3661085.04328",
    "final_y": "524249.655357",
    "longitude": "-90.13277428837986",
    "latitude": "29.93610861083797",
    "geocoded_column": {
      "latitude": "29.93610861083797",
      "longitude": "-90.13277428837986"
    }
  },
  {
    "service_request": "2023-1050034",
    "request_type": "Roads/Drainage",
    "request_reason": "Pothole",
    "date_created": "2023-11-14T15:16:14.000",
    "date_modified": "2023-11-14T15:16:14.000",
    "request_status": "Pending",
    "responsible_agency": "Department of Public Works",
    "final_address": "1325 Henry Clay Ave",
    "address_councildis": "A",
    "status": "Pending",
    "rowid": "1050034",
    "final_x": "3664550.24192",
    "final_y": "521306.716217",
    "longitude": "-90.12193274180115",
    "latitude": "29.927916172790592",
    "geocoded_column": {
      "latitude": "29.927916172790592",
      "longitude": "-90.12193274180115"
    }
  },
  {
    "service_request": "2023-1050033",
    "request_type": "Trash/Recycling",
    "request_reason": "Illegal Dumping",
    "date_created": "2023-11-14T15:14:59.000",
    "date_modified": "2023-11-14T15:14:59.000",
    "request_status": "Pending",
    "responsible_agency": "Department of Sanitation",
    "final_address": "631 N Dorgenois St",
    "address_councildis": "D",
    "status": "Pending",
    "rowid": "1050033",
    "final_x": "3676900.89781",
    "final_y": "536460.654599",
    "longitude": "-90.08242232637785",
    "latitude": "29.969219651720664",
    "geocoded_column": {
      "latitude": "29.969219651720664",
      "longitude": "-90.08242232637785"
    }
  },
  {
    "service_request": "2023-1050032",
    "request_type": "Trash/Recycling",
    "request_reason": "Order Trash Cart",
    "date_created": "2023-11-14T15:12:09.000",
    "date_modified": "2023-11-14T15:12:10.000",
    "request_status": "Pending",
    "responsible_agency": "Department of Sanitation",
    "final_address": "1926 Elizardi Blvd",
    "address_councildis": "C",
    "status": "Assigned to Contractor",
    "contractor": "Richards Disposal",
    "rowid": "1050032",
    "final_x": "3694738.67734",
    "final_y": "523532.683259",
    "longitude": "-90.02655517811839",
    "latitude": "29.933124727970046",
    "geocoded_column": {
      "latitude": "29.933124727970046",
      "longitude": "-90.02655517811839"
    }
  },
  {
    "service_request": "2023-1050031",
    "request_type": "Trash/Recycling",
    "request_reason": "Order Trash Cart",
    "date_created": "2023-11-14T15:11:49.000",
    "date_modified": "2023-11-14T15:11:50.000",
    "request_status": "Pending",
    "responsible_agency": "Department of Sanitation",
    "final_address": "1928 Elizardi Blvd",
    "address_councildis": "C",
    "status": "Assigned to Contractor",
    "contractor": "Richards Disposal",
    "rowid": "1050031",
    "final_x": "3694737.45686",
    "final_y": "523510.343675",
    "longitude": "-90.02655983536836",
    "latitude": "29.933063340025907",
    "geocoded_column": {
      "latitude": "29.933063340025907",
      "longitude": "-90.02655983536836"
    }
  },
  {
    "service_request": "2023-1050030",
    "request_type": "Roads/Drainage",
    "request_reason": "Debris in Roadway",
    "date_created": "2023-11-14T15:11:29.000",
    "date_modified": "2023-11-14T15:11:29.000",
    "request_status": "Pending",
    "responsible_agency": "Department of Public Works",
    "final_address": "3923 Eagle St",
    "address_councildis": "A",
    "status": "Pending",
    "rowid": "1050030",
    "final_x": "3666779.01908",
    "final_y": "537283.501832",
    "longitude": "-90.1143604444419",
    "latitude": "29.97178216370725",
    "geocoded_column": {
      "latitude": "29.97178216370725",
      "longitude": "-90.1143604444419"
    }
  },
  {
    "service_request": "2023-1050029",
    "request_type": "Trash/Recycling",
    "request_reason": "Repair Trash Cart",
    "date_created": "2023-11-14T15:08:28.000",
    "date_modified": "2023-11-14T15:08:29.000",
    "request_status": "Pending",
    "responsible_agency": "Department of Sanitation",
    "final_address": "134 S Hennessey St",
    "address_councildis": "A",
    "status": "Assigned to Contractor",
    "contractor": "Richards Disposal",
    "rowid": "1050029",
    "final_x": "3670121.31386",
    "final_y": "538654.752009",
    "longitude": "-90.10375845884457",
    "latitude": "29.975454449331572",
    "geocoded_column": {
      "latitude": "29.975454449331572",
      "longitude": "-90.10375845884457"
    }
  },
  {
    "service_request": "2023-1050028",
    "request_type": "Roads/Drainage",
    "request_reason": "Pothole",
    "date_created": "2023-11-14T15:05:59.000",
    "date_modified": "2023-11-14T15:05:59.000",
    "request_status": "Pending",
    "responsible_agency": "Department of Public Works",
    "final_address": "1301 Constantinople St",
    "address_councildis": "B",
    "status": "Pending",
    "rowid": "1050028",
    "final_x": "3672430.66305",
    "final_y": "520250.7726",
    "longitude": "-90.09709199725775",
    "latitude": "29.924781230435865",
    "geocoded_column": {
      "latitude": "29.924781230435865",
      "longitude": "-90.09709199725775"
    }
  },
  {
    "service_request": "2023-1050027",
    "request_type": "Roads/Drainage",
    "request_reason": "Pothole",
    "date_created": "2023-11-14T15:05:11.000",
    "date_modified": "2023-11-14T15:05:11.000",
    "request_status": "Pending",
    "responsible_agency": "Department of Public Works",
    "final_address": "1234 Henry Clay Ave",
    "address_councildis": "A",
    "status": "Pending",
    "rowid": "1050027",
    "final_x": "3664327.06445",
    "final_y": "521120.367609",
    "longitude": "-90.12264347982506",
    "latitude": "29.92741025864685",
    "geocoded_column": {
      "latitude": "29.92741025864685",
      "longitude": "-90.12264347982506"
    }
  },
  {
    "service_request": "2023-1050026",
    "request_type": "Trash/Recycling",
    "request_reason": "Repair Trash Cart",
    "date_created": "2023-11-14T14:59:12.000",
    "date_modified": "2023-11-14T14:59:13.000",
    "request_status": "Pending",
    "responsible_agency": "Department of Sanitation",
    "final_address": "143 Middle Park Pl",
    "address_councildis": "A",
    "status": "Assigned to Contractor",
    "contractor": "IV Waste",
    "rowid": "1050026",
    "final_x": "3670210.21998",
    "final_y": "544373.538511",
    "longitude": "-90.10328377986013",
    "latitude": "29.991176539933214",
    "geocoded_column": {
      "latitude": "29.991176539933214",
      "longitude": "-90.10328377986013"
    }
  },
  {
    "service_request": "2023-1050025",
    "request_type": "EMS",
    "request_reason": "EMS Lost & Found",
    "date_created": "2023-11-14T14:55:21.000",
    "date_modified": "2023-11-14T14:55:22.000",
    "request_status": "Pending",
    "responsible_agency": "Emergency Medical Services",
    "final_address": "316 Burdette St",
    "address_councildis": "A",
    "status": "Pending",
    "rowid": "1050025",
    "final_x": "3660744.12019",
    "final_y": "525419.077117",
    "longitude": "-90.13381194888429",
    "latitude": "29.939333969268738",
    "geocoded_column": {
      "latitude": "29.939333969268738",
      "longitude": "-90.13381194888429"
    }
  },
  {
    "service_request": "2023-1050024",
    "request_type": "Trash/Recycling",
    "request_reason": "Illegal Dumping",
    "date_created": "2023-11-14T14:45:58.000",
    "date_modified": "2023-11-14T14:45:58.000",
    "request_status": "Pending",
    "responsible_agency": "Department of Sanitation",
    "final_address": "2431 Freret St",
    "address_councildis": "B",
    "status": "Pending",
    "rowid": "1050024",
    "final_x": "3674899.24481",
    "final_y": "525848.371325",
    "longitude": "-90.08910762387414",
    "latitude": "29.94009934375078",
    "geocoded_column": {
      "latitude": "29.94009934375078",
      "longitude": "-90.08910762387414"
    }
  },
  {
    "service_request": "2023-1050023",
    "request_type": "Trash/Recycling",
    "request_reason": "Return Trash Cart",
    "date_created": "2023-11-14T14:45:34.000",
    "date_modified": "2023-11-14T14:45:35.000",
    "request_status": "Pending",
    "responsible_agency": "Department of Sanitation",
    "final_address": "6637 Bellaire Dr",
    "address_councildis": "A",
    "status": "Assigned to Contractor",
    "contractor": "IV Waste",
    "rowid": "1050023",
    "final_x": "3664616.82016",
    "final_y": "552276.299094",
    "longitude": "-90.1206879313687",
    "latitude": "30.013070328527718",
    "geocoded_column": {
      "latitude": "30.013070328527718",
      "longitude": "-90.1206879313687"
    }
  },
  {
    "service_request": "2023-1050022",
    "request_type": "Roads/Drainage",
    "request_reason": "Pothole",
    "date_created": "2023-11-14T14:44:42.000",
    "date_modified": "2023-11-14T14:44:43.000",
    "request_status": "Pending",
    "responsible_agency": "Department of Public Works",
    "final_address": "2101 General Meyer Ave",
    "address_councildis": "C",
    "status": "Pending",
    "rowid": "1050022",
    "final_x": "3691875.89968",
    "final_y": "527713.765375",
    "longitude": "-90.03544322890535",
    "latitude": "29.944710737805096",
    "geocoded_column": {
      "latitude": "29.944710737805096",
      "longitude": "-90.03544322890535"
    }
  },
  {
    "service_request": "2023-1050021",
    "request_type": "Traffic Signals/Signs/Striping/Streetlights",
    "request_reason": "Additional signage",
    "date_created": "2023-11-14T14:44:25.000",
    "date_modified": "2023-11-14T14:44:25.000",
    "request_status": "Pending",
    "responsible_agency": "Department of Public Works",
    "final_address": "JEFFERSON AVE & FRERET ST",
    "address_councildis": "A",
    "status": "Pending",
    "rowid": "1050021",
    "final_x": "3667902.0",
    "final_y": "524002.78",
    "longitude": "-90.11126121450557",
    "latitude": "29.935231627090978",
    "geocoded_column": {
      "latitude": "29.935231627090978",
      "longitude": "-90.11126121450557"
    }
  },
  {
    "service_request": "2023-1050020",
    "request_type": "Trash/Recycling",
    "request_reason": "Order Recycling Cart",
    "date_created": "2023-11-14T14:41:27.000",
    "date_modified": "2023-11-14T14:41:27.000",
    "request_status": "Pending",
    "responsible_agency": "Department of Sanitation",
    "final_address": "328 16Th St",
    "address_councildis": "A",
    "status": "Pending",
    "rowid": "1050020",
    "final_x": "3664943.41408",
    "final_y": "548353.125906",
    "longitude": "-90.11978734109833",
    "latitude": "30.002273454427016",
    "geocoded_column": {
      "latitude": "30.002273454427016",
      "longitude": "-90.11978734109833"
    }
  },
  {
    "service_request": "2023-1050019",
    "request_type": "Trash/Recycling",
    "request_reason": "Return Trash Cart",
    "date_created": "2023-11-14T14:37:40.000",
    "date_modified": "2023-11-14T14:37:41.000",
    "request_status": "Pending",
    "responsible_agency": "Department of Sanitation",
    "final_address": "3608 Havana St",
    "address_councildis": "D",
    "status": "Assigned to Contractor",
    "contractor": "IV Waste",
    "rowid": "1050019",
    "final_x": "3680776.54184",
    "final_y": "545679.799504",
    "longitude": "-90.06986172476225",
    "latitude": "29.994452175994443",
    "geocoded_column": {
      "latitude": "29.994452175994443",
      "longitude": "-90.06986172476225"
    }
  },
  {
    "service_request": "2023-1050018",
    "request_type": "Parks & Parkways",
    "request_reason": "Request Tree Service (Right of Way/Public Property)",
    "date_created": "2023-11-14T14:35:56.000",
    "date_modified": "2023-11-14T14:36:32.000",
    "request_status": "Pending",
    "responsible_agency": "Department of Parks & Parkway",
    "final_address": "6 Snipe St",
    "address_councildis": "D",
    "status": "Pending",
    "rowid": "1050018",
    "final_x": "3672167.10094",
    "final_y": "556691.193882",
    "longitude": "-90.09668250900766",
    "latitude": "30.024987840876765",
    "geocoded_column": {
      "latitude": "30.024987840876765",
      "longitude": "-90.09668250900766"
    }
  },
  {
    "service_request": "2023-1050017",
    "request_type": "Trash/Recycling",
    "request_reason": "Return Recycling Cart",
    "date_created": "2023-11-14T14:34:06.000",
    "date_modified": "2023-11-14T14:34:07.000",
    "request_status": "Pending",
    "responsible_agency": "Department of Sanitation",
    "final_address": "1423 New York St",
    "address_councildis": "D",
    "status": "Pending",
    "rowid": "1050017",
    "final_x": "3678010.07483",
    "final_y": "555687.324121",
    "longitude": "-90.07825438285846",
    "latitude": "30.022052877056513",
    "geocoded_column": {
      "latitude": "30.022052877056513",
      "longitude": "-90.07825438285846"
    }
  },
  {
    "service_request": "2023-1050016",
    "request_type": "Trash/Recycling",
    "request_reason": "Repair Recycling Cart",
    "date_created": "2023-11-14T14:33:01.000",
    "date_modified": "2023-11-14T14:33:01.000",
    "request_status": "Pending",
    "responsible_agency": "Department of Sanitation",
    "final_address": "1423 New York St",
    "address_councildis": "D",
    "status": "Pending",
    "rowid": "1050016",
    "final_x": "3678010.07483",
    "final_y": "555687.324121",
    "longitude": "-90.07825438285846",
    "latitude": "30.022052877056513",
    "geocoded_column": {
      "latitude": "30.022052877056513",
      "longitude": "-90.07825438285846"
    }
  },
  {
    "service_request": "2023-1050015",
    "request_type": "Traffic Signals/Signs/Striping/Streetlights",
    "request_reason": "Street Name Sign Damaged or Missing",
    "date_created": "2023-11-14T14:22:09.000",
    "date_modified": "2023-11-14T14:22:09.000",
    "request_status": "Pending",
    "responsible_agency": "Department of Public Works",
    "final_address": "100 BLK Saint John Ct",
    "address_councildis": "A",
    "status": "Pending",
    "rowid": "1050015",
    "final_x": "3674824.90261",
    "final_y": "540119.371649",
    "longitude": "-90.08885299006738",
    "latitude": "29.979342030148644",
    "geocoded_column": {
      "latitude": "29.979342030148644",
      "longitude": "-90.08885299006738"
    }
  },
  {
    "service_request": "2023-1050014",
    "request_type": "Trash/Recycling",
    "request_reason": "Request a Large Item Pick Up",
    "date_created": "2023-11-14T14:21:16.000",
    "date_modified": "2023-11-14T14:21:17.000",
    "request_status": "Pending",
    "responsible_agency": "Department of Sanitation",
    "final_address": "7641 Dune Dr",
    "address_councildis": "E",
    "status": "Assigned to Contractor",
    "contractor": "Waste Pro",
    "rowid": "1050014",
    "final_x": "3715373.07749",
    "final_y": "569180.354854",
    "longitude": "-89.95968696891117",
    "latitude": "30.057975052037307",
    "geocoded_column": {
      "latitude": "30.057975052037307",
      "longitude": "-89.95968696891117"
    }
  },
  {
    "service_request": "2023-1050013",
    "request_type": "Trash/Recycling",
    "request_reason": "Request a Large Item Pick Up",
    "date_created": "2023-11-14T14:19:05.000",
    "date_modified": "2023-11-14T14:19:06.000",
    "request_status": "Pending",
    "responsible_agency": "Department of Sanitation",
    "final_address": "2422 Chippewa St",
    "address_councildis": "B",
    "status": "Assigned to Contractor",
    "contractor": "Richards Disposal",
    "rowid": "1050013",
    "final_x": "3678743.84302",
    "final_y": "520116.59884",
    "longitude": "-90.07716802210494",
    "latitude": "29.924223499225846",
    "geocoded_column": {
      "latitude": "29.924223499225846",
      "longitude": "-90.07716802210494"
    }
  },
  {
    "service_request": "2023-1050012",
    "request_type": "Trash/Recycling",
    "request_reason": "Replace Trash Cart",
    "date_created": "2023-11-14T14:18:30.000",
    "date_modified": "2023-11-14T14:18:31.000",
    "request_status": "Pending",
    "responsible_agency": "Department of Sanitation",
    "final_address": "5519 Clara St",
    "address_councildis": "A",
    "status": "Assigned to Contractor",
    "contractor": "Richards Disposal",
    "rowid": "1050012",
    "final_x": "3667581.78036",
    "final_y": "525129.952509",
    "longitude": "-90.11223422896869",
    "latitude": "29.938340376994272",
    "geocoded_column": {
      "latitude": "29.938340376994272",
      "longitude": "-90.11223422896869"
    }
  },
  {
    "service_request": "2023-1050011",
    "request_type": "Abandoned Vehicles",
    "request_reason": "Abandoned/Junk Vehicles",
    "date_created": "2023-11-14T14:17:38.000",
    "date_modified": "2023-11-14T14:17:38.000",
    "request_status": "Pending",
    "responsible_agency": "Department of Public Works",
    "final_address": "643 N Dorgenois St",
    "address_councildis": "D",
    "status": "Pending",
    "rowid": "1050011",
    "final_x": "3677012.95112",
    "final_y": "536473.951367",
    "longitude": "-90.08206799491855",
    "latitude": "29.969252849216673",
    "geocoded_column": {
      "latitude": "29.969252849216673",
      "longitude": "-90.08206799491855"
    }
  },
  {
    "service_request": "2023-1050010",
    "request_type": "Roads/Drainage",
    "request_reason": "Pothole",
    "date_created": "2023-11-14T14:14:32.000",
    "date_modified": "2023-11-14T14:14:32.000",
    "request_status": "Pending",
    "responsible_agency": "Department of Public Works",
    "final_address": "5620 Hempstead Rd",
    "address_councildis": "E",
    "status": "Pending",
    "rowid": "1050010",
    "final_x": "3707845.00491",
    "final_y": "557810.545307",
    "longitude": "-89.98390537352702",
    "latitude": "30.026958602420258",
    "geocoded_column": {
      "latitude": "30.026958602420258",
      "longitude": "-89.98390537352702"
    }
  },
  {
    "service_request": "2023-1050009",
    "request_type": "Abandoned Vehicles",
    "request_reason": "Abandoned/Junk Vehicles",
    "date_created": "2023-11-14T14:13:02.000",
    "date_modified": "2023-11-14T14:13:03.000",
    "request_status": "Pending",
    "responsible_agency": "Department of Public Works",
    "final_address": "1442 N Derbigny St",
    "address_councildis": "D",
    "status": "Pending",
    "rowid": "1050009",
    "final_x": "3681256.80514",
    "final_y": "537123.788616",
    "longitude": "-90.06864294191406",
    "latitude": "29.97091156748176",
    "geocoded_column": {
      "latitude": "29.97091156748176",
      "longitude": "-90.06864294191406"
    }
  },
  {
    "service_request": "2023-1050008",
    "request_type": "Trash/Recycling",
    "request_reason": "MIssed Recycling Pick-Up",
    "date_created": "2023-11-14T14:08:16.000",
    "date_modified": "2023-11-14T14:08:17.000",
    "request_status": "Pending",
    "responsible_agency": "Department of Sanitation",
    "final_address": "10100 Chevy Chase Dr",
    "address_councildis": "E",
    "status": "Assigned to Contractor",
    "contractor": "Waste Pro",
    "rowid": "1050008",
    "final_x": "3709774.92267",
    "final_y": "562949.806304",
    "longitude": "-89.97761493971325",
    "latitude": "30.04102689841945",
    "geocoded_column": {
      "latitude": "30.04102689841945",
      "longitude": "-89.97761493971325"
    }
  },
  {
    "service_request": "2023-1050007",
    "request_type": "Trash/Recycling",
    "request_reason": "Request a Large Item Pick Up",
    "date_created": "2023-11-14T14:07:18.000",
    "date_modified": "2023-11-14T14:07:19.000",
    "request_status": "Pending",
    "responsible_agency": "Department of Sanitation",
    "final_address": "7940 Oneida St",
    "address_councildis": "E",
    "status": "Assigned to Contractor",
    "contractor": "Waste Pro",
    "rowid": "1050007",
    "final_x": "3713194.35525",
    "final_y": "568983.01399",
    "longitude": "-89.96658102744881",
    "latitude": "30.05750408200833",
    "geocoded_column": {
      "latitude": "30.05750408200833",
      "longitude": "-89.96658102744881"
    }
  },
  {
    "service_request": "2023-1050006",
    "request_type": "Trash/Recycling",
    "request_reason": "Missed Trash Pick-Up",
    "date_created": "2023-11-14T14:06:51.000",
    "date_modified": "2023-11-14T15:52:31.000",
    "case_close_date": "2023-11-14T09:52:31.000",
    "request_status": "Closed",
    "responsible_agency": "Department of Sanitation",
    "final_address": "3146 Calhoun St",
    "address_councildis": "A",
    "status": "Resolved",
    "contractor": "Richards Disposal",
    "contractor_action": "Completed",
    "rowid": "1050006",
    "final_x": "3667206.71463",
    "final_y": "528418.881728",
    "longitude": "-90.113307794765",
    "latitude": "29.94739485654926",
    "geocoded_column": {
      "latitude": "29.94739485654926",
      "longitude": "-90.113307794765"
    }
  },
  {
    "service_request": "2023-1050005",
    "request_type": "Abandoned Vehicles",
    "request_reason": "Abandoned/Junk Vehicles",
    "date_created": "2023-11-14T14:06:19.000",
    "date_modified": "2023-11-14T14:06:19.000",
    "request_status": "Pending",
    "responsible_agency": "Department of Public Works",
    "final_address": "2100 BLK Tennessee St",
    "address_councildis": "E",
    "status": "Pending",
    "rowid": "1050005",
    "final_x": "3696834.29593",
    "final_y": "538450.420262",
    "longitude": "-90.01939946009145",
    "latitude": "29.974077379276025",
    "geocoded_column": {
      "latitude": "29.974077379276025",
      "longitude": "-90.01939946009145"
    }
  },
  {
    "service_request": "2023-1050004",
    "request_type": "Abandoned Vehicles",
    "request_reason": "Abandoned/Junk Vehicles",
    "date_created": "2023-11-14T14:05:01.000",
    "date_modified": "2023-11-14T14:05:01.000",
    "request_status": "Pending",
    "responsible_agency": "Department of Public Works",
    "final_address": "2100 BLK Tennessee St",
    "address_councildis": "E",
    "status": "Pending",
    "rowid": "1050004",
    "final_x": "3696834.29593",
    "final_y": "538450.420262",
    "longitude": "-90.01939946009145",
    "latitude": "29.974077379276025",
    "geocoded_column": {
      "latitude": "29.974077379276025",
      "longitude": "-90.01939946009145"
    }
  },
  {
    "service_request": "2023-1050003",
    "request_type": "Safety & Permits",
    "request_reason": "Construction permit",
    "date_created": "2023-11-14T13:58:34.000",
    "date_modified": "2023-11-14T13:58:34.000",
    "request_status": "Pending",
    "responsible_agency": "Department of Code Enforcement",
    "final_address": "1620 Dumaine St",
    "address_councildis": "C",
    "status": "Pending",
    "rowid": "1050003",
    "final_x": "3680371.10152",
    "final_y": "535010.807494",
    "longitude": "-90.07151359108283",
    "latitude": "29.96512844429875",
    "geocoded_column": {
      "latitude": "29.96512844429875",
      "longitude": "-90.07151359108283"
    }
  },
  {
    "service_request": "2023-1050002",
    "request_type": "Trash/Recycling",
    "request_reason": "Request a Large Item Pick Up",
    "date_created": "2023-11-14T13:56:03.000",
    "date_modified": "2023-11-14T13:56:03.000",
    "request_status": "Pending",
    "responsible_agency": "Department of Sanitation",
    "final_address": "2340 Tupelo St",
    "address_councildis": "E",
    "status": "Assigned to Contractor",
    "contractor": "Waste Pro",
    "rowid": "1050002",
    "final_x": "3701227.65841",
    "final_y": "537957.931657",
    "longitude": "-90.00554233857996",
    "latitude": "29.97258395934112",
    "geocoded_column": {
      "latitude": "29.97258395934112",
      "longitude": "-90.00554233857996"
    }
  },
  {
    "service_request": "2023-1050001",
    "request_type": "Trash/Recycling",
    "request_reason": "Request a Large Item Pick Up",
    "date_created": "2023-11-14T13:51:29.000",
    "date_modified": "2023-11-14T13:51:30.000",
    "request_status": "Pending",
    "responsible_agency": "Department of Sanitation",
    "final_address": "66 Marywood Ct",
    "address_councildis": "E",
    "status": "Assigned to Contractor",
    "contractor": "Waste Pro",
    "rowid": "1050001",
    "final_x": "3712280.09451",
    "final_y": "566734.765603",
    "longitude": "-89.96955543771712",
    "latitude": "30.051352269545156",
    "geocoded_column": {
      "latitude": "30.051352269545156",
      "longitude": "-89.96955543771712"
    }
  },
  {
    "service_request": "2023-1050000",
    "request_type": "Abandoned Vehicles",
    "request_reason": "Abandoned/Junk Vehicles",
    "date_created": "2023-11-14T13:50:15.000",
    "date_modified": "2023-11-14T13:50:15.000",
    "request_status": "Pending",
    "responsible_agency": "Department of Public Works",
    "final_address": "1624 Dumaine St",
    "address_councildis": "C",
    "status": "Pending",
    "rowid": "1050000",
    "final_x": "3680323.07419",
    "final_y": "535043.725702",
    "longitude": "-90.07166411406293",
    "latitude": "29.965220412284868",
    "geocoded_column": {
      "latitude": "29.965220412284868",
      "longitude": "-90.07166411406293"
    }
  },
  {
    "service_request": "2023-1049999",
    "request_type": "Property Maintenance",
    "request_reason": "Property Maintenance",
    "date_created": "2023-11-14T13:46:23.000",
    "date_modified": "2023-11-14T13:46:24.000",
    "request_status": "Pending",
    "responsible_agency": "Department of Code Enforcement",
    "final_address": "2139 Benton St",
    "address_councildis": "E",
    "status": "Pending",
    "rowid": "1049999",
    "final_x": "3700429.04196",
    "final_y": "537422.97332",
    "longitude": "-90.00808403721756",
    "latitude": "29.9711384393361",
    "geocoded_column": {
      "latitude": "29.9711384393361",
      "longitude": "-90.00808403721756"
    }
  },
  {
    "service_request": "2023-1049998",
    "request_type": "Property Maintenance",
    "request_reason": "Property Maintenance",
    "date_created": "2023-11-14T13:45:00.000",
    "date_modified": "2023-11-14T13:45:01.000",
    "request_status": "Pending",
    "responsible_agency": "Department of Code Enforcement",
    "final_address": "2142 Gordon St",
    "address_councildis": "E",
    "status": "Pending",
    "rowid": "1049998",
    "final_x": "3700687.06551",
    "final_y": "537342.625608",
    "longitude": "-90.00727210605699",
    "latitude": "29.97090930405814",
    "geocoded_column": {
      "latitude": "29.97090930405814",
      "longitude": "-90.00727210605699"
    }
  },
  {
    "service_request": "2023-1049997",
    "request_type": "Property Maintenance",
    "request_reason": "Property Maintenance",
    "date_created": "2023-11-14T13:42:40.000",
    "date_modified": "2023-11-14T13:47:03.000",
    "request_status": "Pending",
    "responsible_agency": "Department of Code Enforcement",
    "final_address": "GORDON ST & N MIRO ST",
    "address_councildis": "E",
    "status": "Pending",
    "rowid": "1049997",
    "final_x": "3700741.1",
    "final_y": "537366.78",
    "longitude": "-90.00710057646266",
    "latitude": "29.970974000347535",
    "geocoded_column": {
      "latitude": "29.970974000347535",
      "longitude": "-90.00710057646266"
    }
  },
  {
    "service_request": "2023-1049996",
    "request_type": "Traffic Signals/Signs/Striping/Streetlights",
    "request_reason": "Traffic Signal Malfunctioning/Damaged",
    "date_created": "2023-11-14T13:34:18.000",
    "date_modified": "2023-11-14T13:34:18.000",
    "request_status": "Pending",
    "responsible_agency": "Department of Public Works",
    "final_address": "S CLAIBORNE AVE & TOLEDANO ST",
    "address_councildis": "B",
    "status": "Pending",
    "rowid": "1049996",
    "final_x": "3672686.1",
    "final_y": "526316.28",
    "longitude": "-90.09607892276615",
    "latitude": "29.941451833708907",
    "geocoded_column": {
      "latitude": "29.941451833708907",
      "longitude": "-90.09607892276615"
    }
  },
  {
    "service_request": "2023-1049995",
    "request_type": "Trash/Recycling",
    "request_reason": "Request a Large Item Pick Up",
    "date_created": "2023-11-14T13:32:29.000",
    "date_modified": "2023-11-14T13:32:30.000",
    "request_status": "Pending",
    "responsible_agency": "Department of Sanitation",
    "final_address": "1909 Mirabeau Ave",
    "address_councildis": "D",
    "status": "Assigned to Contractor",
    "contractor": "IV Waste",
    "rowid": "1049995",
    "final_x": "3681659.2292",
    "final_y": "550661.393236",
    "longitude": "-90.0668995059241",
    "latitude": "30.008122985167507",
    "geocoded_column": {
      "latitude": "30.008122985167507",
      "longitude": "-90.0668995059241"
    }
  },
  {
    "service_request": "2023-1049994",
    "request_type": "Trash/Recycling",
    "request_reason": "Request a Large Item Pick Up",
    "date_created": "2023-11-14T13:31:20.000",
    "date_modified": "2023-11-14T13:31:21.000",
    "request_status": "Pending",
    "responsible_agency": "Department of Sanitation",
    "final_address": "520 N Salcedo St",
    "address_councildis": "A",
    "status": "Assigned to Contractor",
    "contractor": "Richards Disposal",
    "rowid": "1049994",
    "final_x": "3675129.11259",
    "final_y": "537389.872264",
    "longitude": "-90.08798586862079",
    "latitude": "29.971827751089823",
    "geocoded_column": {
      "latitude": "29.971827751089823",
      "longitude": "-90.08798586862079"
    }
  },
  {
    "service_request": "2023-1049993",
    "request_type": "Abandoned Vehicles",
    "request_reason": "Abandoned/Junk Vehicles",
    "date_created": "2023-11-14T13:27:00.000",
    "date_modified": "2023-11-14T13:27:00.000",
    "request_status": "Pending",
    "responsible_agency": "Department of Public Works",
    "final_address": "3921 General Meyer Ave",
    "address_councildis": "C",
    "status": "Pending",
    "rowid": "1049993",
    "final_x": "3698647.31082",
    "final_y": "524826.64518",
    "longitude": "-90.01416893306495",
    "latitude": "29.936559527335092",
    "geocoded_column": {
      "latitude": "29.936559527335092",
      "longitude": "-90.01416893306495"
    }
  },
  {
    "service_request": "2023-1049992",
    "request_type": "Trash/Recycling",
    "request_reason": "MIssed Recycling Pick-Up",
    "date_created": "2023-11-14T13:24:37.000",
    "date_modified": "2023-11-14T13:24:38.000",
    "request_status": "Pending",
    "responsible_agency": "Department of Sanitation",
    "final_address": "3320 Toledano St",
    "address_councildis": "B",
    "status": "Assigned to Contractor",
    "contractor": "Richards Disposal",
    "rowid": "1049992",
    "final_x": "3671918.75342",
    "final_y": "527807.494015",
    "longitude": "-90.09845085213547",
    "latitude": "29.94557494565654",
    "geocoded_column": {
      "latitude": "29.94557494565654",
      "longitude": "-90.09845085213547"
    }
  },
  {
    "service_request": "2023-1049991",
    "request_type": "Trash/Recycling",
    "request_reason": "Illegal Dumping",
    "date_created": "2023-11-14T13:24:13.000",
    "date_modified": "2023-11-14T13:24:14.000",
    "request_status": "Pending",
    "responsible_agency": "Department of Sanitation",
    "final_address": "N MIRO ST & TUPELO ST",
    "address_councildis": "E",
    "status": "Pending",
    "rowid": "1049991",
    "final_x": "3701076.7",
    "final_y": "537224.68",
    "longitude": "-90.0060459136643",
    "latitude": "29.97057259190875",
    "geocoded_column": {
      "latitude": "29.97057259190875",
      "longitude": "-90.0060459136643"
    }
  },
  {
    "service_request": "2023-1049990",
    "request_type": "Trash/Recycling",
    "request_reason": "MIssed Recycling Pick-Up",
    "date_created": "2023-11-14T13:24:02.000",
    "date_modified": "2023-11-14T13:24:03.000",
    "request_status": "Pending",
    "responsible_agency": "Department of Sanitation",
    "final_address": "4200 BLK MacArthur Blvd",
    "address_councildis": "C",
    "status": "Assigned to Contractor",
    "contractor": "Richards Disposal",
    "rowid": "1049990",
    "final_x": "3699711.12285",
    "final_y": "520353.436771",
    "longitude": "-90.01097343243623",
    "latitude": "29.924226030043013",
    "geocoded_column": {
      "latitude": "29.924226030043013",
      "longitude": "-90.01097343243623"
    }
  },
  {
    "service_request": "2023-1049988",
    "request_type": "Trash/Recycling",
    "request_reason": "Replace Trash Cart",
    "date_created": "2023-11-14T13:21:40.000",
    "date_modified": "2023-11-14T13:21:41.000",
    "request_status": "Pending",
    "responsible_agency": "Department of Sanitation",
    "final_address": "4859 Charmes Ct",
    "address_councildis": "E",
    "status": "Assigned to Contractor",
    "contractor": "Waste Pro",
    "rowid": "1049988",
    "final_x": "3726382.94765",
    "final_y": "561620.468383",
    "longitude": "-89.92518021401243",
    "latitude": "30.036821009617437",
    "geocoded_column": {
      "latitude": "30.036821009617437",
      "longitude": "-89.92518021401243"
    }
  },
  {
    "service_request": "2023-1049987",
    "request_type": "Traffic Signals/Signs/Striping/Streetlights",
    "request_reason": "Street Name Sign Damaged or Missing",
    "date_created": "2023-11-14T13:18:43.000",
    "date_modified": "2023-11-14T13:19:02.000",
    "request_status": "Pending",
    "responsible_agency": "Department of Public Works",
    "final_address": "SYCAMORE ST & PINE ST",
    "address_councildis": "A",
    "status": "Pending",
    "rowid": "1049987",
    "final_x": "3665900.2",
    "final_y": "529604.78",
    "longitude": "-90.11739324484799",
    "latitude": "29.950693878804255",
    "geocoded_column": {
      "latitude": "29.950693878804255",
      "longitude": "-90.11739324484799"
    }
  },
  {
    "service_request": "2023-1049986",
    "request_type": "Roads/Drainage",
    "request_reason": "Damaged Sidewalk",
    "date_created": "2023-11-14T13:18:12.000",
    "date_modified": "2023-11-14T13:18:12.000",
    "request_status": "Pending",
    "responsible_agency": "Department of Public Works",
    "final_address": "CABILDO ALY & PIRATES ALY",
    "address_councildis": "C",
    "status": "Pending",
    "rowid": "1049986",
    "final_x": "3682757.78",
    "final_y": "532450.58",
    "longitude": "-90.06406615997433",
    "latitude": "29.958016211686434",
    "geocoded_column": {
      "latitude": "29.958016211686434",
      "longitude": "-90.06406615997433"
    }
  },
  {
    "service_request": "2023-1049985",
    "request_type": "Traffic Signals/Signs/Striping/Streetlights",
    "request_reason": "Street Name Sign Damaged or Missing",
    "date_created": "2023-11-14T13:17:43.000",
    "date_modified": "2023-11-14T13:19:30.000",
    "request_status": "Pending",
    "responsible_agency": "Department of Public Works",
    "final_address": "LOWERLINE ST & SYCAMORE ST",
    "address_councildis": "A",
    "status": "Pending",
    "rowid": "1049985",
    "final_x": "3665659.7",
    "final_y": "529764.08",
    "longitude": "-90.11814728947388",
    "latitude": "29.951138917460796",
    "geocoded_column": {
      "latitude": "29.951138917460796",
      "longitude": "-90.11814728947388"
    }
  },
  {
    "service_request": "2023-1049983",
    "request_type": "Roads/Drainage",
    "request_reason": "Damaged Sidewalk",
    "date_created": "2023-11-14T13:13:56.000",
    "date_modified": "2023-11-14T13:13:56.000",
    "request_status": "Pending",
    "responsible_agency": "Department of Public Works",
    "final_address": "CABILDO ALY & PIRATES ALY",
    "address_councildis": "C",
    "status": "Pending",
    "rowid": "1049983",
    "final_x": "3682757.78",
    "final_y": "532450.58",
    "longitude": "-90.06406615997433",
    "latitude": "29.958016211686434",
    "geocoded_column": {
      "latitude": "29.958016211686434",
      "longitude": "-90.06406615997433"
    }
  },
  {
    "service_request": "2023-1049981",
    "request_type": "Trash/Recycling",
    "request_reason": "Request a Large Item Pick Up",
    "date_created": "2023-11-14T13:09:12.000",
    "date_modified": "2023-11-14T13:09:13.000",
    "request_status": "Pending",
    "responsible_agency": "Department of Sanitation",
    "final_address": "3225 Gravier St",
    "address_councildis": "B",
    "status": "Assigned to Contractor",
    "contractor": "Richards Disposal",
    "rowid": "1049981",
    "final_x": "3672161.36155",
    "final_y": "534375.476997",
    "longitude": "-90.09746119097116",
    "latitude": "29.963627533146266",
    "geocoded_column": {
      "latitude": "29.963627533146266",
      "longitude": "-90.09746119097116"
    }
  },
  {
    "service_request": "2023-1049980",
    "request_type": "Abandoned Vehicles",
    "request_reason": "Abandoned/Junk Vehicles",
    "date_created": "2023-11-14T13:09:03.000",
    "date_modified": "2023-11-14T13:09:04.000",
    "request_status": "Pending",
    "responsible_agency": "Department of Public Works",
    "final_address": "1213 Leonidas St",
    "address_councildis": "A",
    "status": "Pending",
    "rowid": "1049980",
    "final_x": "3660758.22349",
    "final_y": "529632.732289",
    "longitude": "-90.13362813832578",
    "latitude": "29.950919774009307",
    "geocoded_column": {
      "latitude": "29.950919774009307",
      "longitude": "-90.13362813832578"
    }
  },
  {
    "service_request": "2023-1049978",
    "request_type": "Property Maintenance",
    "request_reason": "Property Maintenance",
    "date_created": "2023-11-14T13:00:34.000",
    "date_modified": "2023-11-14T13:00:35.000",
    "request_status": "Pending",
    "responsible_agency": "Department of Code Enforcement",
    "final_address": "4333 St Bernard Ave",
    "address_councildis": "D",
    "status": "Pending",
    "rowid": "1049978",
    "final_x": "3676930.18075",
    "final_y": "548544.365522",
    "longitude": "-90.0819130735056",
    "latitude": "30.002444780690364",
    "geocoded_column": {
      "latitude": "30.002444780690364",
      "longitude": "-90.0819130735056"
    }
  },
  {
    "service_request": "2023-1049977",
    "request_type": "Traffic Signals/Signs/Striping/Streetlights",
    "request_reason": "Street Light Outage/Malfunction",
    "date_created": "2023-11-14T12:58:19.000",
    "date_modified": "2023-11-14T12:58:20.000",
    "request_status": "Pending",
    "responsible_agency": "Department of Public Works",
    "final_address": "1243 Richland Rd",
    "address_councildis": "C",
    "status": "Assigned to Contractor",
    "contractor": "Legacy Professional Services",
    "rowid": "1049977",
    "final_x": "3697917.67568",
    "final_y": "526612.254718",
    "longitude": "-90.01640761839936",
    "latitude": "29.941492411211158",
    "geocoded_column": {
      "latitude": "29.941492411211158",
      "longitude": "-90.01640761839936"
    }
  },
  {
    "service_request": "2023-1049976",
    "request_type": "Trash/Recycling",
    "request_reason": "Request a Large Item Pick Up",
    "date_created": "2023-11-14T12:54:03.000",
    "date_modified": "2023-11-14T13:13:27.000",
    "case_close_date": "2023-11-14T07:13:27.000",
    "request_status": "Closed",
    "responsible_agency": "Department of Sanitation",
    "final_address": "6549 General Haig St",
    "address_councildis": "A",
    "status": "Assigned to Contractor",
    "contractor": "IV Waste",
    "contractor_action": "Completed",
    "rowid": "1049976",
    "final_x": "3670979.06855",
    "final_y": "550887.851285",
    "longitude": "-90.10063378806356",
    "latitude": "30.009065914208787",
    "geocoded_column": {
      "latitude": "30.009065914208787",
      "longitude": "-90.10063378806356"
    }
  },
  {
    "service_request": "2023-1049975",
    "request_type": "Trash/Recycling",
    "request_reason": "Repair Trash Cart",
    "date_created": "2023-11-14T12:50:37.000",
    "date_modified": "2023-11-14T12:52:29.000",
    "request_status": "Pending",
    "responsible_agency": "Department of Sanitation",
    "final_address": "6024 Airway St",
    "address_councildis": "D",
    "status": "Assigned to Contractor",
    "contractor": "Waste Pro",
    "rowid": "1049975",
    "final_x": "3696647.14506",
    "final_y": "552817.272406",
    "longitude": "-90.01947025020587",
    "latitude": "30.013586844270478",
    "geocoded_column": {
      "latitude": "30.013586844270478",
      "longitude": "-90.01947025020587"
    }
  },
  {
    "service_request": "2023-1049974",
    "request_type": "Roads/Drainage",
    "request_reason": "Debris in Roadway",
    "date_created": "2023-11-14T12:42:32.000",
    "date_modified": "2023-11-14T12:42:32.000",
    "request_status": "Pending",
    "responsible_agency": "Department of Public Works",
    "final_address": "N CLAIBORNE AVE & POLAND AVE",
    "address_councildis": "D",
    "status": "Pending",
    "rowid": "1049974",
    "final_x": "3693481.9",
    "final_y": "536875.08",
    "longitude": "-90.0300436334021",
    "latitude": "29.96985102981372",
    "geocoded_column": {
      "latitude": "29.96985102981372",
      "longitude": "-90.0300436334021"
    }
  },
  {
    "service_request": "2023-1049973",
    "request_type": "Abandoned Vehicles",
    "request_reason": "Abandoned/Junk Vehicles",
    "date_created": "2023-11-14T12:40:06.000",
    "date_modified": "2023-11-14T12:40:06.000",
    "request_status": "Closed",
    "responsible_agency": "Department of Public Works",
    "final_address": "222 N Tonti St",
    "address_councildis": "B",
    "status": "Pending",
    "rowid": "1049973",
    "final_x": "3676831.96449",
    "final_y": "534776.733574",
    "longitude": "-90.08269806618439",
    "latitude": "29.964591509861442",
    "geocoded_column": {
      "latitude": "29.964591509861442",
      "longitude": "-90.08269806618439"
    }
  },
  {
    "service_request": "2023-1049972",
    "request_type": "Trash/Recycling",
    "request_reason": "Request a Large Item Pick Up",
    "date_created": "2023-11-14T12:34:11.000",
    "date_modified": "2023-11-14T12:34:12.000",
    "request_status": "Pending",
    "responsible_agency": "Department of Sanitation",
    "final_address": "2110 Easter Ln",
    "address_councildis": "C",
    "status": "Assigned to Contractor",
    "contractor": "Richards Disposal",
    "rowid": "1049972",
    "final_x": "3699538.46512",
    "final_y": "523560.262779",
    "longitude": "-90.01140166447901",
    "latitude": "29.933049174497764",
    "geocoded_column": {
      "latitude": "29.933049174497764",
      "longitude": "-90.01140166447901"
    }
  },
  {
    "service_request": "2023-1049971",
    "request_type": "Traffic Signals/Signs/Striping/Streetlights",
    "request_reason": "Street Light Outage/Malfunction",
    "date_created": "2023-11-14T12:29:12.000",
    "date_modified": "2023-11-14T12:29:12.000",
    "request_status": "Pending",
    "responsible_agency": "Department of Public Works",
    "final_address": "2300 BLK Chestnut St",
    "address_councildis": "B",
    "status": "Assigned to Contractor",
    "contractor": "Legacy Professional Services",
    "rowid": "1049971",
    "final_x": "3677887.40042",
    "final_y": "522265.375861",
    "longitude": "-90.07979730875776",
    "latitude": "29.930157725464746",
    "geocoded_column": {
      "latitude": "29.930157725464746",
      "longitude": "-90.07979730875776"
    }
  },
  {
    "service_request": "2023-1049970",
    "request_type": "Abandoned Vehicles",
    "request_reason": "Vehicle Blocking Your Driveway",
    "date_created": "2023-11-14T12:23:56.000",
    "date_modified": "2023-11-14T12:23:56.000",
    "request_status": "Pending",
    "responsible_agency": "Department of Public Works",
    "final_address": "2300 BLK Decatur St",
    "address_councildis": "C",
    "status": "Pending",
    "rowid": "1049970",
    "final_x": "3685770.55296",
    "final_y": "534201.691883",
    "longitude": "-90.05449097320157",
    "latitude": "29.962739057712053",
    "geocoded_column": {
      "latitude": "29.962739057712053",
      "longitude": "-90.05449097320157"
    }
  },
  {
    "service_request": "2023-1049969",
    "request_type": "Traffic Signals/Signs/Striping/Streetlights",
    "request_reason": "Street Light Outage/Malfunction",
    "date_created": "2023-11-14T12:17:25.000",
    "date_modified": "2023-11-14T12:17:26.000",
    "request_status": "Pending",
    "responsible_agency": "Department of Public Works",
    "final_address": "1303 Amelia St",
    "address_councildis": "B",
    "status": "Assigned to Contractor",
    "contractor": "Legacy Professional Services",
    "rowid": "1049969",
    "final_x": "3673494.48206",
    "final_y": "519927.302776",
    "longitude": "-90.09374491397055",
    "latitude": "29.923860189988442",
    "geocoded_column": {
      "latitude": "29.923860189988442",
      "longitude": "-90.09374491397055"
    }
  },
  {
    "service_request": "2023-1049968",
    "request_type": "Abandoned Vehicles",
    "request_reason": "Vehicle Blocking Your Driveway",
    "date_created": "2023-11-14T12:16:31.000",
    "date_modified": "2023-11-14T12:16:31.000",
    "request_status": "Pending",
    "responsible_agency": "Department of Public Works",
    "final_address": "2300 BLK Decatur St",
    "address_councildis": "C",
    "status": "Pending",
    "rowid": "1049968",
    "final_x": "3685770.55296",
    "final_y": "534201.691883",
    "longitude": "-90.05449097320157",
    "latitude": "29.962739057712053",
    "geocoded_column": {
      "latitude": "29.962739057712053",
      "longitude": "-90.05449097320157"
    }
  },
  {
    "service_request": "2023-1049967",
    "request_type": "Trash/Recycling",
    "request_reason": "Request a Large Item Pick Up",
    "date_created": "2023-11-14T12:16:21.000",
    "date_modified": "2023-11-14T12:16:22.000",
    "request_status": "Pending",
    "responsible_agency": "Department of Sanitation",
    "final_address": "4749 Bonita Dr",
    "address_councildis": "E",
    "status": "Assigned to Contractor",
    "contractor": "Waste Pro",
    "rowid": "1049967",
    "final_x": "3704524.66218",
    "final_y": "555343.724825",
    "longitude": "-89.99448832912817",
    "latitude": "30.020282901024704",
    "geocoded_column": {
      "latitude": "30.020282901024704",
      "longitude": "-89.99448832912817"
    }
  },
  {
    "service_request": "2023-1049966",
    "request_type": "Trash/Recycling",
    "request_reason": "Request a Large Item Pick Up",
    "date_created": "2023-11-14T12:14:48.000",
    "date_modified": "2023-11-14T13:10:02.000",
    "case_close_date": "2023-11-14T07:10:02.000",
    "request_status": "Closed",
    "responsible_agency": "Department of Sanitation",
    "final_address": "321 Tacoma St",
    "address_councildis": "A",
    "status": "Assigned to Contractor",
    "contractor": "IV Waste",
    "contractor_action": "Completed",
    "rowid": "1049966",
    "final_x": "3665129.22541",
    "final_y": "551274.825941",
    "longitude": "-90.11910252906037",
    "latitude": "30.010301705670557",
    "geocoded_column": {
      "latitude": "30.010301705670557",
      "longitude": "-90.11910252906037"
    }
  },
  {
    "service_request": "2023-1049965",
    "request_type": "Traffic Signals/Signs/Striping/Streetlights",
    "request_reason": "Traffic Sign Missing/Damaged",
    "date_created": "2023-11-14T12:13:42.000",
    "date_modified": "2023-11-14T12:13:42.000",
    "request_status": "Pending",
    "responsible_agency": "Department of Public Works",
    "final_address": "4340 Lincoln St",
    "address_councildis": "C",
    "status": "Pending",
    "rowid": "1049965",
    "final_x": "3710904.51883",
    "final_y": "514090.923826",
    "longitude": "-89.97587433501606",
    "latitude": "29.906646369408403",
    "geocoded_column": {
      "latitude": "29.906646369408403",
      "longitude": "-89.97587433501606"
    }
  },
  {
    "service_request": "2023-1049964",
    "request_type": "Abandoned Vehicles",
    "request_reason": "Abandoned/Junk Vehicles",
    "date_created": "2023-11-14T12:13:37.000",
    "date_modified": "2023-11-14T12:13:37.000",
    "request_status": "Pending",
    "responsible_agency": "Department of Public Works",
    "final_address": "2300 BLK Sixth St",
    "address_councildis": "B",
    "status": "Pending",
    "rowid": "1049964",
    "final_x": "3674025.72606",
    "final_y": "524474.220852",
    "longitude": "-90.09191246330134",
    "latitude": "29.9363469307806",
    "geocoded_column": {
      "latitude": "29.9363469307806",
      "longitude": "-90.09191246330134"
    }
  },
  {
    "service_request": "2023-1049963",
    "request_type": "Trash/Recycling",
    "request_reason": "Missed Trash Pick-Up",
    "date_created": "2023-11-14T12:12:39.000",
    "date_modified": "2023-11-14T15:51:50.000",
    "case_close_date": "2023-11-14T09:51:50.000",
    "request_status": "Closed",
    "responsible_agency": "Department of Sanitation",
    "final_address": "3327 Delachaise St",
    "address_councildis": "B",
    "status": "Resolved",
    "contractor": "Richards Disposal",
    "contractor_action": "Completed",
    "rowid": "1049963",
    "final_x": "3671542.73287",
    "final_y": "527311.904895",
    "longitude": "-90.09965492120715",
    "latitude": "29.944223374976254",
    "geocoded_column": {
      "latitude": "29.944223374976254",
      "longitude": "-90.09965492120715"
    }
  },
  {
    "service_request": "2023-1049962",
    "request_type": "Trash/Recycling",
    "request_reason": "Missed Trash Pick-Up",
    "date_created": "2023-11-14T12:10:49.000",
    "date_modified": "2023-11-14T15:50:16.000",
    "case_close_date": "2023-11-14T09:50:16.000",
    "request_status": "Closed",
    "responsible_agency": "Department of Sanitation",
    "final_address": "3324 Bell St",
    "address_councildis": "A",
    "status": "Resolved",
    "contractor": "Richards Disposal",
    "contractor_action": "Completed",
    "rowid": "1049962",
    "final_x": "3675342.91931",
    "final_y": "539682.265098",
    "longitude": "-90.08723190054971",
    "latitude": "29.978124657094956",
    "geocoded_column": {
      "latitude": "29.978124657094956",
      "longitude": "-90.08723190054971"
    }
  },
  {
    "service_request": "2023-1049961",
    "request_type": "Trash/Recycling",
    "request_reason": "Replace Trash Cart",
    "date_created": "2023-11-14T12:10:29.000",
    "date_modified": "2023-11-14T12:10:30.000",
    "request_status": "Pending",
    "responsible_agency": "Department of Sanitation",
    "final_address": "2103 General Pershing St",
    "address_councildis": "B",
    "status": "Assigned to Contractor",
    "contractor": "Richards Disposal",
    "rowid": "1049961",
    "final_x": "3671111.04276",
    "final_y": "522737.168186",
    "longitude": "-90.10117321092469",
    "latitude": "29.93165710377082",
    "geocoded_column": {
      "latitude": "29.93165710377082",
      "longitude": "-90.10117321092469"
    }
  },
  {
    "service_request": "2023-1049960",
    "request_type": "Traffic Signals/Signs/Striping/Streetlights",
    "request_reason": "Street Light Knocked Down/Leaning",
    "date_created": "2023-11-14T12:09:13.000",
    "date_modified": "2023-11-14T12:09:14.000",
    "request_status": "Pending",
    "responsible_agency": "Department of Public Works",
    "final_address": "3501 New Orleans St",
    "address_councildis": "D",
    "status": "Pending",
    "contractor": "Legacy Professional Services",
    "rowid": "1049960",
    "final_x": "3681766.41039",
    "final_y": "544992.746191",
    "longitude": "-90.06675884807414",
    "latitude": "29.99253297372766",
    "geocoded_column": {
      "latitude": "29.99253297372766",
      "longitude": "-90.06675884807414"
    }
  },
  {
    "service_request": "2023-1049959",
    "request_type": "Roads/Drainage",
    "request_reason": "Street Subsidence (Sinking)",
    "date_created": "2023-11-14T12:06:55.000",
    "date_modified": "2023-11-14T12:06:56.000",
    "request_status": "Pending",
    "responsible_agency": "Department of Public Works",
    "final_address": "LOWERLINE ST & COHN ST",
    "address_councildis": "A",
    "status": "Pending",
    "rowid": "1049959",
    "final_x": "3665059.5",
    "final_y": "528883.28",
    "longitude": "-90.12007187790726",
    "latitude": "29.94873449103786",
    "geocoded_column": {
      "latitude": "29.94873449103786",
      "longitude": "-90.12007187790726"
    }
  },