[
  {
    "service_request": "2023-1017481",
    "request_type": "Traffic Signals/Signs/Striping/Streetlights",
    "request_reason": "Traffic Signal Malfunctioning/Damaged",
    "date_created": "2023-07-16T02:04:41.000",
    "date_modified": "2023-07-16T02:04:42.000",
    "request_status": "Pending",
    "responsible_agency": "Department of Public Works",
    "final_address": "CARONDELET ST & MARTIN LUTHER KING JR BLVD",
    "address_councildis": "B",
    "status": "Pending",
    "rowid": "1017481",
    "final_x": "3678829.64",
    "final_y": "525814.81",
    "longitude": "-90.07669992621634",
    "latitude": "29.93988912370526",
    "geocoded_column": {
      "latitude": "29.93988912370526",
      "longitude": "-90.07669992621634"
    }
  },
  {
    "service_request": "2023-1017480",
    "request_type": "Roads/Drainage",
    "request_reason": "Road Shoulder Repair",
    "date_created": "2023-07-16T01:27:21.000",
    "date_modified": "2023-07-16T01:27:21.000",
    "request_status": "Pending",
    "responsible_agency": "Department of Public Works",
    "final_address": "1123 Marengo St",
    "address_councildis": "B",
    "status": "Pending",
    "rowid": "1017480",
    "final_x": "3672168.01422",
    "final_y": "519847.244856",
    "longitude": "-90.09793482789676",
    "latitude": "29.923679447344355",
    "geocoded_column": {
      "latitude": "29.923679447344355",
      "longitude": "-90.09793482789676"
    }
  },
  {
    "service_request": "2023-1017479",
    "request_type": "Abandoned Vehicles",
    "request_reason": "Abandoned/Junk Vehicles",
    "date_created": "2023-07-15T23:55:05.000",
    "date_modified": "2023-07-15T23:55:05.000",
    "request_status": "Pending",
    "responsible_agency": "Department of Public Works",
    "final_address": "2810 Second St",
    "address_councildis": "B",
    "status": "Pending",
    "rowid": "1017479",
    "final_x": "3674261.5074",
    "final_y": "526655.161854",
    "longitude": "-90.09109344677665",
    "latitude": "29.942336779252965",
    "geocoded_column": {
      "latitude": "29.942336779252965",
      "longitude": "-90.09109344677665"
    }
  },
  {
    "service_request": "2023-1017478",
    "request_type": "Abandoned Vehicles",
    "request_reason": "Abandoned/Junk Vehicles",
    "date_created": "2023-07-15T23:50:38.000",
    "date_modified": "2023-07-15T23:50:38.000",
    "request_status": "Pending",
    "responsible_agency": "Department of Public Works",
    "final_address": "2808 Second St",
    "address_councildis": "B",
    "status": "Pending",
    "rowid": "1017478",
    "final_x": "3674276.26382",
    "final_y": "526631.550526",
    "longitude": "-90.09104766559848",
    "latitude": "29.94227141595118",
    "geocoded_column": {
      "latitude": "29.94227141595118",
      "longitude": "-90.09104766559848"
    }
  },
  {
    "service_request": "2023-1017477",
    "request_type": "Property Maintenance",
    "request_reason": "Property Maintenance",
    "date_created": "2023-07-15T22:56:41.000",
    "date_modified": "2023-07-15T22:56:41.000",
    "request_status": "Pending",
    "responsible_agency": "Department of Code Enforcement",
    "final_address": "1933 France St",
    "address_councildis": "D",
    "status": "Pending",
    "rowid": "1017477",
    "final_x": "3693247.50947",
    "final_y": "538461.077001",
    "longitude": "-90.03072691777493",
    "latitude": "29.974219286159922",
    "geocoded_column": {
      "latitude": "29.974219286159922",
      "longitude": "-90.03072691777493"
    }
  },
  {
    "service_request": "2023-1017476",
    "request_type": "Health Related Request",
    "request_reason": "Noise Ordinance Complaint",
    "date_created": "2023-07-15T22:53:49.000",
    "date_modified": "2023-07-15T22:53:49.000",
    "request_status": "Pending",
    "responsible_agency": "Health Department",
    "final_address": "525 Frenchmen St",
    "address_councildis": "C",
    "status": "Pending",
    "rowid": "1017476",
    "final_x": "3684776.90357",
    "final_y": "534376.138501",
    "longitude": "-90.05762264942118",
    "latitude": "29.96324918168695",
    "geocoded_column": {
      "latitude": "29.96324918168695",
      "longitude": "-90.05762264942118"
    }
  },
  {
    "service_request": "2023-1017475",
    "request_type": "Abandoned Vehicles",
    "request_reason": "Abandoned/Junk Vehicles",
    "date_created": "2023-07-15T22:16:20.000",
    "date_modified": "2023-07-15T22:16:21.000",
    "request_status": "Pending",
    "responsible_agency": "Department of Public Works",
    "final_address": "ELYSIAN FIELDS AVE & TREASURE ST",
    "address_councildis": "D",
    "status": "Pending",
    "rowid": "1017475",
    "final_x": "3684347.8",
    "final_y": "544037.98",
    "longitude": "-90.05863828651297",
    "latitude": "29.98982899575666",
    "geocoded_column": {
      "latitude": "29.98982899575666",
      "longitude": "-90.05863828651297"
    }
  },
  {
    "service_request": "2023-1017474",
    "request_type": "Traffic Signals/Signs/Striping/Streetlights",
    "request_reason": "Street Light Outage/Malfunction",
    "date_created": "2023-07-15T21:16:23.000",
    "date_modified": "2023-07-15T21:16:24.000",
    "request_status": "Pending",
    "responsible_agency": "Department of Public Works",
    "final_address": "44 Yosemite Dr",
    "address_councildis": "C",
    "status": "Assigned to Contractor",
    "contractor": "Legacy Professional Services",
    "rowid": "1017474",
    "final_x": "3700015.00663",
    "final_y": "516968.635125",
    "longitude": "-90.01013756761661",
    "latitude": "29.914909335566335",
    "geocoded_column": {
      "latitude": "29.914909335566335",
      "longitude": "-90.01013756761661"
    }
  },
  {
    "service_request": "2023-1017473",
    "request_type": "Property Maintenance",
    "request_reason": "Property Maintenance",
    "date_created": "2023-07-15T21:16:19.000",
    "date_modified": "2023-07-15T21:16:19.000",
    "request_status": "Pending",
    "responsible_agency": "Department of Code Enforcement",
    "final_address": "1923 Flood St",
    "address_councildis": "E",
    "status": "Pending",
    "rowid": "1017473",
    "final_x": "3698600.7793",
    "final_y": "537009.599688",
    "longitude": "-90.01387293565199",
    "latitude": "29.970059825787967",
    "geocoded_column": {
      "latitude": "29.970059825787967",
      "longitude": "-90.01387293565199"
    }
  },
  {
    "service_request": "2023-1017472",
    "request_type": "Traffic Signals/Signs/Striping/Streetlights",
    "request_reason": "Street Light Outage/Malfunction",
    "date_created": "2023-07-15T21:13:43.000",
    "date_modified": "2023-07-15T21:13:44.000",
    "request_status": "Pending",
    "responsible_agency": "Department of Public Works",
    "final_address": "56 Yosemite Dr",
    "address_councildis": "C",
    "status": "Assigned to Contractor",
    "contractor": "Legacy Professional Services",
    "rowid": "1017472",
    "final_x": "3699829.66903",
    "final_y": "516590.687221",
    "longitude": "-90.01073632493409",
    "latitude": "29.91387599089563",
    "geocoded_column": {
      "latitude": "29.91387599089563",
      "longitude": "-90.01073632493409"
    }
  },
  {
    "service_request": "2023-1017471",
    "request_type": "Traffic Signals/Signs/Striping/Streetlights",
    "request_reason": "Street Light Outage/Malfunction",
    "date_created": "2023-07-15T21:02:42.000",
    "date_modified": "2023-07-15T21:02:43.000",
    "request_status": "Pending",
    "responsible_agency": "Department of Public Works",
    "final_address": "WALES ST & STAR ST",
    "address_councildis": "E",
    "status": "Assigned to Contractor",
    "contractor": "Legacy Professional Services",
    "rowid": "1017471",
    "final_x": "3720390.3",
    "final_y": "574793.28",
    "longitude": "-89.94361313123522",
    "latitude": "30.073241900269466",
    "geocoded_column": {
      "latitude": "30.073241900269466",
      "longitude": "-89.94361313123522"
    }
  },
  {
    "service_request": "2023-1017470",
    "request_type": "Taxi Issues",
    "request_reason": "Taxi Lost & Found Item",
    "date_created": "2023-07-15T20:55:05.000",
    "date_modified": "2023-07-15T20:55:06.000",
    "request_status": "Pending",
    "responsible_agency": "Ground Transportation Bureau",
    "final_address": "1222 Carondelet St",
    "address_councildis": "B",
    "status": "Pending",
    "rowid": "1017470",
    "final_x": "3679249.94568",
    "final_y": "526409.484478",
    "longitude": "-90.07535234759018",
    "latitude": "29.941511600141627",
    "geocoded_column": {
      "latitude": "29.941511600141627",
      "longitude": "-90.07535234759018"
    }
  },
  {
    "service_request": "2023-1017469",
    "request_type": "Trash/Recycling",
    "request_reason": "Order Recycling Cart",
    "date_created": "2023-07-15T20:33:35.000",
    "date_modified": "2023-07-15T20:33:35.000",
    "request_status": "Pending",
    "responsible_agency": "Department of Sanitation",
    "final_address": "1638 Cambronne St",
    "address_councildis": "A",
    "status": "Pending",
    "rowid": "1017469",
    "final_x": "3662293.24109",
    "final_y": "530396.05005",
    "longitude": "-90.1287559662384",
    "latitude": "29.95297437071311",
    "geocoded_column": {
      "latitude": "29.95297437071311",
      "longitude": "-90.1287559662384"
    }
  },
  {
    "service_request": "2023-1017468",
    "request_type": "Property Maintenance",
    "request_reason": "Property Maintenance",
    "date_created": "2023-07-15T20:26:55.000",
    "date_modified": "2023-07-15T20:26:55.000",
    "request_status": "Pending",
    "responsible_agency": "Department of Code Enforcement",
    "final_address": "6046 Pines Blvd",
    "address_councildis": "D",
    "status": "Pending",
    "rowid": "1017468",
    "final_x": "3696185.44323",
    "final_y": "556057.734681",
    "longitude": "-90.02081170516817",
    "latitude": "30.022511441711345",
    "geocoded_column": {
      "latitude": "30.022511441711345",
      "longitude": "-90.02081170516817"
    }
  },
  {
    "service_request": "2023-1017467",
    "request_type": "Trash/Recycling",
    "request_reason": "Replace Trash Cart",
    "date_created": "2023-07-15T20:26:46.000",
    "date_modified": "2023-07-15T20:26:47.000",
    "request_status": "Pending",
    "responsible_agency": "Department of Sanitation",
    "final_address": "1406 3rd St, New Orleans, Louisiana, 70130",
    "status": "Assigned to Contractor",
    "rowid": "1017467",
    "longitude": "0.0",
    "latitude": "0.0",
    "geocoded_column": {
      "latitude": "0.0",
      "longitude": "0.0"
    }
  },
  {
    "service_request": "2023-1017466",
    "request_type": "Abandoned Vehicles",
    "request_reason": "Abandoned/Junk Vehicles",
    "date_created": "2023-07-15T20:23:17.000",
    "date_modified": "2023-07-15T20:23:17.000",
    "request_status": "Pending",
    "responsible_agency": "Department of Public Works",
    "final_address": "6912 Foch Rd",
    "address_councildis": "D",
    "status": "Pending",
    "rowid": "1017466",
    "final_x": "3696550.90307",
    "final_y": "556376.64809",
    "longitude": "-90.01964539234154",
    "latitude": "30.023376816877857",
    "geocoded_column": {
      "latitude": "30.023376816877857",
      "longitude": "-90.01964539234154"
    }
  },
  {
    "service_request": "2023-1017465",
    "request_type": "Traffic Signals/Signs/Striping/Streetlights",
    "request_reason": "Street Light Outage/Malfunction",
    "date_created": "2023-07-15T20:19:17.000",
    "date_modified": "2023-07-15T20:19:18.000",
    "request_status": "Pending",
    "responsible_agency": "Department of Public Works",
    "final_address": "1837 Milan St",
    "address_councildis": "B",
    "status": "Assigned to Contractor",
    "contractor": "Legacy Professional Services",
    "rowid": "1017465",
    "final_x": "3671553.83156",
    "final_y": "521975.075706",
    "longitude": "-90.09980127364697",
    "latitude": "29.929548494655222",
    "geocoded_column": {
      "latitude": "29.929548494655222",
      "longitude": "-90.09980127364697"
    }
  },
  {
    "service_request": "2023-1017464",
    "request_type": "Abandoned Vehicles",
    "request_reason": "Abandoned/Junk Vehicles",
    "date_created": "2023-07-15T20:15:47.000",
    "date_modified": "2023-07-15T20:15:47.000",
    "request_status": "Pending",
    "responsible_agency": "Department of Public Works",
    "final_address": "6900 Deanne St",
    "address_councildis": "D",
    "status": "Pending",
    "rowid": "1017464",
    "final_x": "3695686.44778",
    "final_y": "556020.899993",
    "longitude": "-90.02238973547824",
    "latitude": "30.02242586723682",
    "geocoded_column": {
      "latitude": "30.02242586723682",
      "longitude": "-90.02238973547824"
    }
  },
  {
    "service_request": "2023-1017463",
    "request_type": "Roads/Drainage",
    "request_reason": "Pothole",
    "date_created": "2023-07-15T20:11:35.000",
    "date_modified": "2023-07-15T20:11:35.000",
    "request_status": "Pending",
    "responsible_agency": "Department of Public Works",
    "final_address": "ARGONNE BLVD & BROOKS ST",
    "address_councildis": "A",
    "status": "Pending",
    "rowid": "1017463",
    "final_x": "3670094.0",
    "final_y": "546470.28",
    "longitude": "-90.1035798113749",
    "latitude": "29.99694528548221",
    "geocoded_column": {
      "latitude": "29.99694528548221",
      "longitude": "-90.1035798113749"
    }
  },
  {
    "service_request": "2023-1017462",
    "request_type": "Abandoned Vehicles",
    "request_reason": "Vehicle Blocking Your Driveway",
    "date_created": "2023-07-15T20:08:30.000",
    "date_modified": "2023-07-15T20:08:30.000",
    "request_status": "Pending",
    "responsible_agency": "Department of Public Works",
    "final_address": "1010 Elysian Fields Ave",
    "address_councildis": "C",
    "status": "Pending",
    "rowid": "1017462",
    "final_x": "3684937.17961",
    "final_y": "536027.645447",
    "longitude": "-90.05705842760842",
    "latitude": "29.96778534709612",
    "geocoded_column": {
      "latitude": "29.96778534709612",
      "longitude": "-90.05705842760842"
    }
  },
  {
    "service_request": "2023-1017461",
    "request_type": "Roads/Drainage",
    "request_reason": "Pothole",
    "date_created": "2023-07-15T20:08:24.000",
    "date_modified": "2023-07-15T20:08:24.000",
    "request_status": "Pending",
    "responsible_agency": "Department of Public Works",
    "final_address": "5011 Prytania St",
    "address_councildis": "B",
    "status": "Pending",
    "rowid": "1017461",
    "final_x": "3668556.41332",
    "final_y": "520187.629752",
    "longitude": "-90.10932388687719",
    "latitude": "29.924721973067385",
    "geocoded_column": {
      "latitude": "29.924721973067385",
      "longitude": "-90.10932388687719"
    }
  },
  {
    "service_request": "2023-1017460",
    "request_type": "Parks & Parkways",
    "request_reason": "Request Tree Service (Right of Way/Public Property)",
    "date_created": "2023-07-15T19:56:28.000",
    "date_modified": "2023-07-15T21:05:39.000",
    "request_status": "Pending",
    "responsible_agency": "Department of Parks & Parkway",
    "final_address": "100 BLK Harrison Ave",
    "address_councildis": "A",
    "status": "Pending",
    "rowid": "1017460",
    "final_x": "3666806.8258",
    "final_y": "549403.411479",
    "longitude": "-90.11386526496649",
    "latitude": "30.005106979509627",
    "geocoded_column": {
      "latitude": "30.005106979509627",
      "longitude": "-90.11386526496649"
    }
  },
  {
    "service_request": "2023-1017459",
    "request_type": "Trash/Recycling",
    "request_reason": "Replace Trash Cart",
    "date_created": "2023-07-15T19:53:53.000",
    "date_modified": "2023-07-15T19:53:54.000",
    "request_status": "Pending",
    "responsible_agency": "Department of Sanitation",
    "final_address": "1406 Third St",
    "address_councildis": "B",
    "status": "Assigned to Contractor",
    "contractor": "Richards Disposal",
    "rowid": "1017459",
    "final_x": "3676879.67189",
    "final_y": "522106.179002",
    "longitude": "-90.0829840310538",
    "latitude": "29.929750261072115",
    "geocoded_column": {
      "latitude": "29.929750261072115",
      "longitude": "-90.0829840310538"
    }
  },
  {
    "service_request": "2023-1017458",
    "request_type": "Trash/Recycling",
    "request_reason": "Missed Trash Pick-Up",
    "date_created": "2023-07-15T19:40:54.000",
    "date_modified": "2023-07-15T19:40:54.000",
    "request_status": "Pending",
    "responsible_agency": "Department of Sanitation",
    "final_address": "117 N Solomon St",
    "address_councildis": "A",
    "status": "Assigned to Contractor",
    "contractor": "Richards Disposal",
    "rowid": "1017458",
    "final_x": "3670672.98644",
    "final_y": "538901.76385",
    "longitude": "-90.10200773925571",
    "latitude": "29.976117359233328",
    "geocoded_column": {
      "latitude": "29.976117359233328",
      "longitude": "-90.10200773925571"
    }
  },
  {
    "service_request": "2023-1017457",
    "request_type": "Trash/Recycling",
    "request_reason": "Order Trash Cart",
    "date_created": "2023-07-15T19:39:15.000",
    "date_modified": "2023-07-15T19:39:16.000",
    "request_status": "Pending",
    "responsible_agency": "Department of Sanitation",
    "final_address": "1220 Bartholomew St",
    "address_councildis": "D",
    "status": "Assigned to Contractor",
    "contractor": "IV Waste",
    "rowid": "1017457",
    "final_x": "3691898.13238",
    "final_y": "535829.571399",
    "longitude": "-90.03508271111087",
    "latitude": "29.967025687157197",
    "geocoded_column": {
      "latitude": "29.967025687157197",
      "longitude": "-90.03508271111087"
    }
  },
  {
    "service_request": "2023-1017456",
    "request_type": "Trash/Recycling",
    "request_reason": "Request a Large Item Pick Up",
    "date_created": "2023-07-15T19:33:33.000",
    "date_modified": "2023-07-15T19:33:33.000",
    "request_status": "Pending",
    "responsible_agency": "Department of Sanitation",
    "final_address": "4326 Palmyra St",
    "address_councildis": "A",
    "status": "Assigned to Contractor",
    "contractor": "Richards Disposal",
    "rowid": "1017456",
    "final_x": "3669585.46074",
    "final_y": "538419.458377",
    "longitude": "-90.10545879661791",
    "latitude": "29.97482327109428",
    "geocoded_column": {
      "latitude": "29.97482327109428",
      "longitude": "-90.10545879661791"
    }
  },
  {
    "service_request": "2023-1017455",
    "request_type": "Trash/Recycling",
    "request_reason": "Request a Large Item Pick Up",
    "date_created": "2023-07-15T19:31:09.000",
    "date_modified": "2023-07-15T19:31:10.000",
    "request_status": "Pending",
    "responsible_agency": "Department of Sanitation",
    "final_address": "334 Bermuda St",
    "address_councildis": "C",
    "status": "Assigned to Contractor",
    "contractor": "Richards Disposal",
    "rowid": "1017455",
    "final_x": "3686477.92655",
    "final_y": "530565.750722",
    "longitude": "-90.05238554144559",
    "latitude": "29.952719743768533",
    "geocoded_column": {
      "latitude": "29.952719743768533",
      "longitude": "-90.05238554144559"
    }
  },
  {
    "service_request": "2023-1017453",
    "request_type": "Parks & Parkways",
    "request_reason": "Request Tree Service (Right of Way/Public Property)",
    "date_created": "2023-07-15T19:26:50.000",
    "date_modified": "2023-07-15T19:26:50.000",
    "request_status": "Pending",
    "responsible_agency": "Department of Parks & Parkway",
    "final_address": "5712 Patton St",
    "address_councildis": "A",
    "status": "Pending",
    "rowid": "1017453",
    "final_x": "3665545.45287",
    "final_y": "518274.994486",
    "longitude": "-90.11889251370673",
    "latitude": "29.91955092244757",
    "geocoded_column": {
      "latitude": "29.91955092244757",
      "longitude": "-90.11889251370673"
    }
  },
  {
    "service_request": "2023-1017452",
    "request_type": "Health Related Request",
    "request_reason": "Noise Ordinance Complaint",
    "date_created": "2023-07-15T19:23:04.000",
    "date_modified": "2023-07-15T19:23:04.000",
    "request_status": "Pending",
    "responsible_agency": "Health Department",
    "final_address": "316 Chartres St, New Orleans, Louisiana, 70130",
    "address_councildis": "C",
    "status": "Pending",
    "rowid": "1017452",
    "final_x": "3682048.77532",
    "final_y": "531162.123394",
    "longitude": "-90.06634998337161",
    "latitude": "29.954494970034958",
    "geocoded_column": {
      "latitude": "29.954494970034958",
      "longitude": "-90.06634998337161"
    }
  },
  {
    "service_request": "2023-1017451",
    "request_type": "Trash/Recycling",
    "request_reason": "Order Recycling Cart",
    "date_created": "2023-07-15T19:22:47.000",
    "date_modified": "2023-07-15T19:22:47.000",
    "request_status": "Pending",
    "responsible_agency": "Department of Sanitation",
    "final_address": "5143 Van Chu Dr",
    "address_councildis": "E",
    "status": "Pending",
    "rowid": "1017451",
    "final_x": "3727672.97171",
    "final_y": "563660.863393",
    "longitude": "-89.92102404818317",
    "latitude": "30.042387594734286",
    "geocoded_column": {
      "latitude": "30.042387594734286",
      "longitude": "-89.92102404818317"
    }
  },
  {
    "service_request": "2023-1017450",
    "request_type": "Property Maintenance",
    "request_reason": "Property Maintenance",
    "date_created": "2023-07-15T19:20:44.000",
    "date_modified": "2023-07-15T19:20:44.000",
    "request_status": "Pending",
    "responsible_agency": "Department of Code Enforcement",
    "final_address": "6 Blanc Pl",
    "address_councildis": "B",
    "status": "Pending",
    "rowid": "1017450",
    "final_x": "3667931.45927",
    "final_y": "520833.969657",
    "longitude": "-90.11127490505687",
    "latitude": "29.926517544738985",
    "geocoded_column": {
      "latitude": "29.926517544738985",
      "longitude": "-90.11127490505687"
    }
  },
  {
    "service_request": "2023-1017449",
    "request_type": "Roads/Drainage",
    "request_reason": "Man hole cover issue",
    "date_created": "2023-07-15T19:18:52.000",
    "date_modified": "2023-07-15T19:18:53.000",
    "request_status": "Pending",
    "responsible_agency": "Department of Public Works",
    "final_address": "CALLIOPE ST & ANNUNCIATION ST & TCHOUPITOULAS EXIT",
    "address_councildis": "B",
    "status": "Pending",
    "rowid": "1017449",
    "final_x": "3681443.2",
    "final_y": "525519.78",
    "longitude": "-90.06845882301015",
    "latitude": "29.938998817801245",
    "geocoded_column": {
      "latitude": "29.938998817801245",
      "longitude": "-90.06845882301015"
    }
  },
  {
    "service_request": "2023-1017448",
    "request_type": "Roads/Drainage",
    "request_reason": "Pothole",
    "date_created": "2023-07-15T19:13:20.000",
    "date_modified": "2023-07-15T19:13:20.000",
    "request_status": "Pending",
    "responsible_agency": "Department of Public Works",
    "final_address": "1700 BLK Upperline St",
    "address_councildis": "B",
    "status": "Pending",
    "rowid": "1017448",
    "final_x": "3669078.90557",
    "final_y": "521245.352638",
    "longitude": "-90.1076388324249",
    "latitude": "29.927615017382372",
    "geocoded_column": {
      "latitude": "29.927615017382372",
      "longitude": "-90.1076388324249"
    }
  },
  {
    "service_request": "2023-1017447",
    "request_type": "Property Maintenance",
    "request_reason": "Property Maintenance",
    "date_created": "2023-07-15T19:10:44.000",
    "date_modified": "2023-07-15T19:10:44.000",
    "request_status": "Pending",
    "responsible_agency": "Department of Code Enforcement",
    "final_address": "1700 BLK Upperline St",
    "address_councildis": "B",
    "status": "Pending",
    "rowid": "1017447",
    "final_x": "3669078.90557",
    "final_y": "521245.352638",
    "longitude": "-90.1076388324249",
    "latitude": "29.927615017382372",
    "geocoded_column": {
      "latitude": "29.927615017382372",
      "longitude": "-90.1076388324249"
    }
  },
  {
    "service_request": "2023-1017446",
    "request_type": "Parks & Parkways",
    "request_reason": "Request Tree Service (Right of Way/Public Property)",
    "date_created": "2023-07-15T19:10:02.000",
    "date_modified": "2023-07-15T19:10:02.000",
    "request_status": "Pending",
    "responsible_agency": "Department of Parks & Parkway",
    "final_address": "600 Baronne St",
    "address_councildis": "B",
    "status": "Pending",
    "rowid": "1017446",
    "final_x": "3679853.90722",
    "final_y": "529065.15296",
    "longitude": "-90.07335332548715",
    "latitude": "29.94879555600546",
    "geocoded_column": {
      "latitude": "29.94879555600546",
      "longitude": "-90.07335332548715"
    }
  },
  {
    "service_request": "2023-1017445",
    "request_type": "Roads/Drainage",
    "request_reason": "Pothole",
    "date_created": "2023-07-15T19:02:18.000",
    "date_modified": "2023-07-15T19:02:18.000",
    "request_status": "Pending",
    "responsible_agency": "Department of Public Works",
    "final_address": "4901 St Charles Ave",
    "address_councildis": "B",
    "status": "Pending",
    "rowid": "1017445",
    "final_x": "3669029.03022",
    "final_y": "520880.183673",
    "longitude": "-90.10780860647249",
    "latitude": "29.92661238584354",
    "geocoded_column": {
      "latitude": "29.92661238584354",
      "longitude": "-90.10780860647249"
    }
  },
  {
    "service_request": "2023-1017444",
    "request_type": "Abandoned Vehicles",
    "request_reason": "Abandoned/Junk Vehicles",
    "date_created": "2023-07-15T18:37:17.000",
    "date_modified": "2023-07-15T18:37:17.000",
    "request_status": "Pending",
    "responsible_agency": "Department of Public Works",
    "final_address": "1000 BLK Harding Dr",
    "address_councildis": "A",
    "status": "Pending",
    "rowid": "1017444",
    "final_x": "3674626.13857",
    "final_y": "540441.689245",
    "longitude": "-90.08946971526413",
    "latitude": "29.98023422731468",
    "geocoded_column": {
      "latitude": "29.98023422731468",
      "longitude": "-90.08946971526413"
    }
  },
  {
    "service_request": "2023-1017443",
    "request_type": "Trash/Recycling",
    "request_reason": "Order Recycling Cart",
    "date_created": "2023-07-15T18:35:40.000",
    "date_modified": "2023-07-15T18:35:40.000",
    "request_status": "Pending",
    "responsible_agency": "Department of Sanitation",
    "final_address": "911 N Hennessey St",
    "address_councildis": "A",
    "status": "Pending",
    "rowid": "1017443",
    "final_x": "3672177.26331",
    "final_y": "541514.57646",
    "longitude": "-90.09716775758062",
    "latitude": "29.98325716922343",
    "geocoded_column": {
      "latitude": "29.98325716922343",
      "longitude": "-90.09716775758062"
    }
  },
  {
    "service_request": "2023-1017442",
    "request_type": "Property Maintenance",
    "request_reason": "Property Maintenance",
    "date_created": "2023-07-15T18:20:29.000",
    "date_modified": "2023-07-15T18:20:29.000",
    "request_status": "Pending",
    "responsible_agency": "Department of Code Enforcement",
    "final_address": "742 Franklin Ave",
    "address_councildis": "C",
    "status": "Pending",
    "rowid": "1017442",
    "final_x": "3686789.9142",
    "final_y": "535305.160134",
    "longitude": "-90.05123298146016",
    "latitude": "29.965741890850094",
    "geocoded_column": {
      "latitude": "29.965741890850094",
      "longitude": "-90.05123298146016"
    }
  },
  {
    "service_request": "2023-1017441",
    "request_type": "Roads/Drainage",
    "request_reason": "Pothole",
    "date_created": "2023-07-15T17:47:54.000",
    "date_modified": "2023-07-15T17:47:54.000",
    "request_status": "Pending",
    "responsible_agency": "Department of Public Works",
    "final_address": "4738 Danneel St",
    "address_councildis": "B",
    "status": "Pending",
    "rowid": "1017441",
    "final_x": "3669345.04295",
    "final_y": "522119.535418",
    "longitude": "-90.1067691586854",
    "latitude": "29.930010910452438",
    "geocoded_column": {
      "latitude": "29.930010910452438",
      "longitude": "-90.1067691586854"
    }
  },
  {
    "service_request": "2023-1017440",
    "request_type": "Roads/Drainage",
    "request_reason": "Pothole",
    "date_created": "2023-07-15T17:27:13.000",
    "date_modified": "2023-07-15T17:27:13.000",
    "request_status": "Pending",
    "responsible_agency": "Department of Public Works",
    "final_address": "5214 Danneel St",
    "address_councildis": "B",
    "status": "Pending",
    "rowid": "1017440",
    "final_x": "3668039.14682",
    "final_y": "522118.464826",
    "longitude": "-90.11089170543494",
    "latitude": "29.930046339659754",
    "geocoded_column": {
      "latitude": "29.930046339659754",
      "longitude": "-90.11089170543494"
    }
  },
  {
    "service_request": "2023-1017439",
    "request_type": "Trash/Recycling",
    "request_reason": "Request a Large Item Pick Up",
    "date_created": "2023-07-15T17:11:03.000",
    "date_modified": "2023-07-15T17:11:03.000",
    "request_status": "Pending",
    "responsible_agency": "Department of Sanitation",
    "final_address": "5447 Marcia Ave",
    "address_councildis": "A",
    "status": "Assigned to Contractor",
    "contractor": "IV Waste",
    "rowid": "1017439",
    "final_x": "3664902.34554",
    "final_y": "544022.095246",
    "longitude": "-90.12006195661223",
    "latitude": "29.99036579645197",
    "geocoded_column": {
      "latitude": "29.99036579645197",
      "longitude": "-90.12006195661223"
    }
  },
  {
    "service_request": "2023-1017438",
    "request_type": "Roads/Drainage",
    "request_reason": "Pothole",
    "date_created": "2023-07-15T17:01:38.000",
    "date_modified": "2023-07-15T17:01:38.000",
    "request_status": "Pending",
    "responsible_agency": "Department of Public Works",
    "final_address": "1654 Jefferson Ave",
    "address_councildis": "A",
    "status": "Pending",
    "rowid": "1017438",
    "final_x": "3667379.33121",
    "final_y": "522069.24505",
    "longitude": "-90.11297629652972",
    "latitude": "29.929930340096607",
    "geocoded_column": {
      "latitude": "29.929930340096607",
      "longitude": "-90.11297629652972"
    }
  },
  {
    "service_request": "2023-1017437",
    "request_type": "Traffic Signals/Signs/Striping/Streetlights",
    "request_reason": "Street Light Outage/Malfunction",
    "date_created": "2023-07-15T16:56:14.000",
    "date_modified": "2023-07-15T16:56:15.000",
    "request_status": "Pending",
    "responsible_agency": "Department of Public Works",
    "final_address": "5409 S Prieur St",
    "address_councildis": "A",
    "status": "Assigned to Contractor",
    "contractor": "Legacy Professional Services",
    "rowid": "1017437",
    "final_x": "3668405.28494",
    "final_y": "526682.652158",
    "longitude": "-90.10958198321413",
    "latitude": "29.942585643471745",
    "geocoded_column": {
      "latitude": "29.942585643471745",
      "longitude": "-90.10958198321413"
    }
  },
  {
    "service_request": "2023-1017436",
    "request_type": "Trash/Recycling",
    "request_reason": "Dead Animal Pick Up",
    "date_created": "2023-07-15T16:54:07.000",
    "date_modified": "2023-07-15T18:22:16.000",
    "request_status": "Pending",
    "responsible_agency": "Department of Sanitation",
    "final_address": "1123 Louisiana Ave",
    "address_councildis": "B",
    "status": "Assigned to Contractor",
    "contractor": "Richards Disposal",
    "rowid": "1017436",
    "final_x": "3675017.26952",
    "final_y": "519856.663736",
    "longitude": "-90.08894043886947",
    "latitude": "29.92362057005257",
    "geocoded_column": {
      "latitude": "29.92362057005257",
      "longitude": "-90.08894043886947"
    }
  },
  {
    "service_request": "2023-1017435",
    "request_type": "Trash/Recycling",
    "request_reason": "Order Recycling Cart",
    "date_created": "2023-07-15T16:41:38.000",
    "date_modified": "2023-07-15T16:41:38.000",
    "request_status": "Pending",
    "responsible_agency": "Department of Sanitation",
    "final_address": "4533 Mendez St",
    "address_councildis": "D",
    "status": "Pending",
    "rowid": "1017435",
    "final_x": "3690492.53795",
    "final_y": "553911.546007",
    "longitude": "-90.03887647751424",
    "latitude": "30.01678829914333",
    "geocoded_column": {
      "latitude": "30.01678829914333",
      "longitude": "-90.03887647751424"
    }
  },
  {
    "service_request": "2023-1017434",
    "request_type": "Trash/Recycling",
    "request_reason": "Order Recycling Cart",
    "date_created": "2023-07-15T16:27:39.000",
    "date_modified": "2023-07-15T16:27:39.000",
    "request_status": "Pending",
    "responsible_agency": "Department of Sanitation",
    "final_address": "3221 N Miro St",
    "address_councildis": "D",
    "status": "Pending",
    "rowid": "1017434",
    "final_x": "3690786.99888",
    "final_y": "539988.181067",
    "longitude": "-90.0384432514166",
    "latitude": "29.978494962223504",
    "geocoded_column": {
      "latitude": "29.978494962223504",
      "longitude": "-90.0384432514166"
    }
  },
  {
    "service_request": "2023-1017433",
    "request_type": "Trash/Recycling",
    "request_reason": "Replace Trash Cart",
    "date_created": "2023-07-15T16:19:33.000",
    "date_modified": "2023-07-15T16:19:34.000",
    "request_status": "Pending",
    "responsible_agency": "Department of Sanitation",
    "final_address": "900 French St",
    "address_councildis": "A",
    "status": "Assigned to Contractor",
    "contractor": "IV Waste",
    "rowid": "1017433",
    "final_x": "3669980.16878",
    "final_y": "548372.131218",
    "longitude": "-90.10387493684888",
    "latitude": "30.002178074542346",
    "geocoded_column": {
      "latitude": "30.002178074542346",
      "longitude": "-90.10387493684888"
    }
  },
  {
    "service_request": "2023-1017432",
    "request_type": "Trash/Recycling",
    "request_reason": "Order Recycling Cart",
    "date_created": "2023-07-15T16:15:29.000",
    "date_modified": "2023-07-15T16:15:29.000",
    "request_status": "Pending",
    "responsible_agency": "Department of Sanitation",
    "final_address": "2626 Dante St",
    "address_councildis": "A",
    "status": "Pending",
    "rowid": "1017432",
    "final_x": "3664938.78285",
    "final_y": "532779.013636",
    "longitude": "-90.12032281925413",
    "latitude": "29.9594500065885",
    "geocoded_column": {
      "latitude": "29.9594500065885",
      "longitude": "-90.12032281925413"
    }
  },
  {
    "service_request": "2023-1017431",
    "request_type": "Roads/Drainage",
    "request_reason": "Pothole",
    "date_created": "2023-07-15T15:51:20.000",
    "date_modified": "2023-07-15T15:51:20.000",
    "request_status": "Pending",
    "responsible_agency": "Department of Public Works",
    "final_address": "4630 St Charles Ave",
    "address_councildis": "B",
    "status": "Pending",
    "rowid": "1017431",
    "final_x": "3669824.55719",
    "final_y": "520628.244792",
    "longitude": "-90.10530586201752",
    "latitude": "29.925896214610017",
    "geocoded_column": {
      "latitude": "29.925896214610017",
      "longitude": "-90.10530586201752"
    }
  },
  {
    "service_request": "2023-1017430",
    "request_type": "Roads/Drainage",
    "request_reason": "Pothole",
    "date_created": "2023-07-15T15:46:45.000",
    "date_modified": "2023-07-15T15:46:45.000",
    "request_status": "Pending",
    "responsible_agency": "Department of Public Works",
    "final_address": "1407 Valence St",
    "address_councildis": "B",
    "status": "Pending",
    "rowid": "1017430",
    "final_x": "3669839.25287",
    "final_y": "520292.863992",
    "longitude": "-90.10527081865904",
    "latitude": "29.924973591096933",
    "geocoded_column": {
      "latitude": "29.924973591096933",
      "longitude": "-90.10527081865904"
    }
  },
  {
    "service_request": "2023-1017429",
    "request_type": "Trash/Recycling",
    "request_reason": "Dead Animal Pick Up",
    "date_created": "2023-07-15T15:32:50.000",
    "date_modified": "2023-07-15T15:32:50.000",
    "request_status": "Pending",
    "responsible_agency": "Department of Sanitation",
    "final_address": "2900 BLK Dublin St",
    "address_councildis": "A",
    "status": "Assigned to Contractor",
    "contractor": "Richards Disposal",
    "rowid": "1017429",
    "final_x": "3665923.66484",
    "final_y": "533244.219388",
    "longitude": "-90.11719718972303",
    "latitude": "29.960700464578014",
    "geocoded_column": {
      "latitude": "29.960700464578014",
      "longitude": "-90.11719718972303"
    }
  },
  {
    "service_request": "2023-1017428",
    "request_type": "Trash/Recycling",
    "request_reason": "MIssed Recycling Pick-Up",
    "date_created": "2023-07-15T15:30:35.000",
    "date_modified": "2023-07-15T15:30:35.000",
    "request_status": "Pending",
    "responsible_agency": "Department of Sanitation",
    "final_address": "3122 Hamilton St",
    "address_councildis": "A",
    "status": "Assigned to Contractor",
    "contractor": "Richards Disposal",
    "rowid": "1017428",
    "final_x": "3664036.48359",
    "final_y": "535942.806919",
    "longitude": "-90.12306655849386",
    "latitude": "29.96817563412154",
    "geocoded_column": {
      "latitude": "29.96817563412154",
      "longitude": "-90.12306655849386"
    }
  },
  {
    "service_request": "2023-1017426",
    "request_type": "Property Maintenance",
    "request_reason": "Property Maintenance",
    "date_created": "2023-07-15T15:13:38.000",
    "date_modified": "2023-07-15T15:13:39.000",
    "request_status": "Pending",
    "responsible_agency": "Department of Code Enforcement",
    "final_address": "COHN ST & HILLARY ST",
    "address_councildis": "A",
    "status": "Pending",
    "rowid": "1017426",
    "final_x": "3664951.4",
    "final_y": "528978.08",
    "longitude": "-90.1204100286191",
    "latitude": "29.94899830726208",
    "geocoded_column": {
      "latitude": "29.94899830726208",
      "longitude": "-90.1204100286191"
    }
  },
  {
    "service_request": "2023-1017425",
    "request_type": "Trash/Recycling",
    "request_reason": "Replace Trash Cart",
    "date_created": "2023-07-15T15:08:33.000",
    "date_modified": "2023-07-15T15:08:34.000",
    "request_status": "Pending",
    "responsible_agency": "Department of Sanitation",
    "final_address": "600 Baronne St",
    "address_councildis": "B",
    "status": "Assigned to Contractor",
    "contractor": "Empire Services",
    "rowid": "1017425",
    "final_x": "3679853.90722",
    "final_y": "529065.15296",
    "longitude": "-90.07335332548715",
    "latitude": "29.94879555600546",
    "geocoded_column": {
      "latitude": "29.94879555600546",
      "longitude": "-90.07335332548715"
    }
  },
  {
    "service_request": "2023-1017424",
    "request_type": "Trash/Recycling",
    "request_reason": "Request a Large Item Pick Up",
    "date_created": "2023-07-15T14:50:42.000",
    "date_modified": "2023-07-15T14:50:42.000",
    "request_status": "Pending",
    "responsible_agency": "Department of Sanitation",
    "final_address": "1118 Orange St",
    "address_councildis": "B",
    "status": "Assigned to Contractor",
    "contractor": "Richards Disposal",
    "rowid": "1017424",
    "final_x": "3679919.82043",
    "final_y": "523495.636923",
    "longitude": "-90.073338582148",
    "latitude": "29.933479244861044",
    "geocoded_column": {
      "latitude": "29.933479244861044",
      "longitude": "-90.073338582148"
    }
  },
  {
    "service_request": "2023-1017423",
    "request_type": "Trash/Recycling",
    "request_reason": "Repair Recycling Cart",
    "date_created": "2023-07-15T14:42:42.000",
    "date_modified": "2023-07-15T14:42:42.000",
    "request_status": "Pending",
    "responsible_agency": "Department of Sanitation",
    "final_address": "319 Broadway St",
    "address_councildis": "A",
    "status": "Pending",
    "rowid": "1017423",
    "final_x": "3661617.59603",
    "final_y": "522605.10521",
    "longitude": "-90.13114746846242",
    "latitude": "29.931571262074",
    "geocoded_column": {
      "latitude": "29.931571262074",
      "longitude": "-90.13114746846242"
    }
  },
  {
    "service_request": "2023-1017422",
    "request_type": "Parks & Parkways",
    "request_reason": "Request Tree Service (Right of Way/Public Property)",
    "date_created": "2023-07-15T14:33:27.000",
    "date_modified": "2023-07-15T14:33:27.000",
    "request_status": "Pending",
    "responsible_agency": "Department of Parks & Parkway",
    "final_address": "27 Neron Pl",
    "address_councildis": "A",
    "status": "Pending",
    "rowid": "1017422",
    "final_x": "3665127.87943",
    "final_y": "530776.048898",
    "longitude": "-90.11979268016171",
    "latitude": "29.953937001089827",
    "geocoded_column": {
      "latitude": "29.953937001089827",
      "longitude": "-90.11979268016171"
    }
  },
  {
    "service_request": "2023-1017421",
    "request_type": "Trash/Recycling",
    "request_reason": "Illegal Dumping",
    "date_created": "2023-07-15T14:31:49.000",
    "date_modified": "2023-07-15T14:31:49.000",
    "request_status": "Pending",
    "responsible_agency": "Department of Sanitation",
    "final_address": "2852 Magazine St",
    "address_councildis": "B",
    "status": "Pending",
    "rowid": "1017421",
    "final_x": "3676713.89672",
    "final_y": "520539.218168",
    "longitude": "-90.08356130771608",
    "latitude": "29.92544660061516",
    "geocoded_column": {
      "latitude": "29.92544660061516",
      "longitude": "-90.08356130771608"
    }
  },
  {
    "service_request": "2023-1017420",
    "request_type": "Trash/Recycling",
    "request_reason": "Request a Large Item Pick Up",
    "date_created": "2023-07-15T14:30:06.000",
    "date_modified": "2023-07-15T14:30:06.000",
    "request_status": "Pending",
    "responsible_agency": "Department of Sanitation",
    "final_address": "7419 Hampson St",
    "address_councildis": "A",
    "status": "Assigned to Contractor",
    "contractor": "Richards Disposal",
    "rowid": "1017420",
    "final_x": "3662597.60768",
    "final_y": "525508.202237",
    "longitude": "-90.12795726171848",
    "latitude": "29.93952555242263",
    "geocoded_column": {
      "latitude": "29.93952555242263",
      "longitude": "-90.12795726171848"
    }
  },
  {
    "service_request": "2023-1017418",
    "request_type": "Property Maintenance",
    "request_reason": "Property Maintenance",
    "date_created": "2023-07-15T14:22:23.000",
    "date_modified": "2023-07-15T14:22:23.000",
    "request_status": "Pending",
    "responsible_agency": "Department of Code Enforcement",
    "final_address": "7536 Surf St",
    "address_councildis": "E",
    "status": "Pending",
    "rowid": "1017418",
    "final_x": "3715704.94655",
    "final_y": "568854.787941",
    "longitude": "-89.95865032683218",
    "latitude": "30.057068933861675",
    "geocoded_column": {
      "latitude": "30.057068933861675",
      "longitude": "-89.95865032683218"
    }
  },
  {
    "service_request": "2023-1017417",
    "request_type": "Property Maintenance",
    "request_reason": "Property Maintenance",
    "date_created": "2023-07-15T14:15:04.000",
    "date_modified": "2023-07-15T14:15:04.000",
    "request_status": "Pending",
    "responsible_agency": "Department of Code Enforcement",
    "final_address": "7536 Surf St",
    "address_councildis": "E",
    "status": "Pending",
    "rowid": "1017417",
    "final_x": "3715704.94655",
    "final_y": "568854.787941",
    "longitude": "-89.95865032683218",
    "latitude": "30.057068933861675",
    "geocoded_column": {
      "latitude": "30.057068933861675",
      "longitude": "-89.95865032683218"
    }
  },
  {
    "service_request": "2023-1017416",
    "request_type": "Traffic Signals/Signs/Striping/Streetlights",
    "request_reason": "Traffic Sign Missing/Damaged",
    "date_created": "2023-07-15T13:57:11.000",
    "date_modified": "2023-07-15T13:57:11.000",
    "request_status": "Pending",
    "responsible_agency": "Department of Public Works",
    "final_address": "8300 Palmetto St",
    "address_councildis": "A",
    "status": "Pending",
    "rowid": "1017416",
    "final_x": "3667417.87937",
    "final_y": "535699.412999",
    "longitude": "-90.11239612413482",
    "latitude": "29.967407743776906",
    "geocoded_column": {
      "latitude": "29.967407743776906",
      "longitude": "-90.11239612413482"
    }
  },
  {
    "service_request": "2023-1017415",
    "request_type": "Property Maintenance",
    "request_reason": "Property Maintenance",
    "date_created": "2023-07-15T13:48:24.000",
    "date_modified": "2023-07-15T13:48:24.000",
    "request_status": "Pending",
    "responsible_agency": "Department of Code Enforcement",
    "final_address": "8303 Willow St",
    "address_councildis": "A",
    "status": "Pending",
    "rowid": "1017415",
    "final_x": "3661864.5424",
    "final_y": "529473.955457",
    "longitude": "-90.1301401881485",
    "latitude": "29.950451292223917",
    "geocoded_column": {
      "latitude": "29.950451292223917",
      "longitude": "-90.1301401881485"
    }
  },
  {
    "service_request": "2023-1017414",
    "request_type": "Property Maintenance",
    "request_reason": "Property Maintenance",
    "date_created": "2023-07-15T13:40:52.000",
    "date_modified": "2023-07-15T13:40:52.000",
    "request_status": "Pending",
    "responsible_agency": "Department of Code Enforcement",
    "final_address": "1321 S Derbigny St",
    "address_councildis": "B",
    "status": "Pending",
    "rowid": "1017414",
    "final_x": "3674934.65691",
    "final_y": "528705.32672",
    "longitude": "-90.08889786261544",
    "latitude": "29.94795397293434",
    "geocoded_column": {
      "latitude": "29.94795397293434",
      "longitude": "-90.08889786261544"
    }
  },
  {
    "service_request": "2023-1017413",
    "request_type": "Abandoned Vehicles",
    "request_reason": "Abandoned/Junk Vehicles",
    "date_created": "2023-07-15T13:31:40.000",
    "date_modified": "2023-07-15T13:31:40.000",
    "request_status": "Pending",
    "responsible_agency": "Department of Public Works",
    "final_address": "2315 Rousseau St",
    "address_councildis": "B",
    "status": "Pending",
    "rowid": "1017413",
    "final_x": "3679777.3933",
    "final_y": "519994.282808",
    "longitude": "-90.07390970925157",
    "latitude": "29.923855973997618",
    "geocoded_column": {
      "latitude": "29.923855973997618",
      "longitude": "-90.07390970925157"
    }
  },
  {
    "service_request": "2023-1017412",
    "request_type": "Trash/Recycling",
    "request_reason": "Order Recycling Cart",
    "date_created": "2023-07-15T13:30:23.000",
    "date_modified": "2023-07-15T13:30:23.000",
    "request_status": "Pending",
    "responsible_agency": "Department of Sanitation",
    "final_address": "6361 Eastover Dr",
    "address_councildis": "E",
    "status": "Pending",
    "rowid": "1017412",
    "final_x": "3718182.27589",
    "final_y": "563643.677153",
    "longitude": "-89.95101864809278",
    "latitude": "30.042658568078288",
    "geocoded_column": {
      "latitude": "30.042658568078288",
      "longitude": "-89.95101864809278"
    }
  },
  {
    "service_request": "2023-1017411",
    "request_type": "Trash/Recycling",
    "request_reason": "Replace Trash Cart",
    "date_created": "2023-07-15T12:53:10.000",
    "date_modified": "2023-07-15T12:53:11.000",
    "request_status": "Pending",
    "responsible_agency": "Department of Sanitation",
    "final_address": "336 Pine St",
    "address_councildis": "A",
    "status": "Assigned to Contractor",
    "contractor": "Richards Disposal",
    "rowid": "1017411",
    "final_x": "3661740.50784",
    "final_y": "523483.127931",
    "longitude": "-90.13073035694588",
    "latitude": "29.933982002002175",
    "geocoded_column": {
      "latitude": "29.933982002002175",
      "longitude": "-90.13073035694588"
    }
  },
  {
    "service_request": "2023-1017410",
    "request_type": "Trash/Recycling",
    "request_reason": "Request a Large Item Pick Up",
    "date_created": "2023-07-15T12:47:28.000",
    "date_modified": "2023-07-15T12:48:06.000",
    "request_status": "Pending",
    "responsible_agency": "Department of Sanitation",
    "final_address": "2318 Dauphine St",
    "address_councildis": "C",
    "contractor": "IV Waste",
    "rowid": "1017410",
    "final_x": "3685674.28604",
    "final_y": "535182.333126",
    "longitude": "-90.05476041637549",
    "latitude": "29.965438435817102",
    "geocoded_column": {
      "latitude": "29.965438435817102",
      "longitude": "-90.05476041637549"
    }
  },
  {
    "service_request": "2023-1017409",
    "request_type": "Utility Poles",
    "request_reason": "Utility Pole Leaning",
    "date_created": "2023-07-15T12:42:21.000",
    "date_modified": "2023-07-15T12:42:27.000",
    "request_status": "Pending",
    "responsible_agency": "Utility Company Collective",
    "final_address": "1201 Magazine St",
    "address_councildis": "B",
    "status": "Pending",
    "rowid": "1017409",
    "final_x": "3680583.4932",
    "final_y": "525582.267837",
    "longitude": "-90.07117084460873",
    "latitude": "29.939196705400956",
    "geocoded_column": {
      "latitude": "29.939196705400956",
      "longitude": "-90.07117084460873"
    }
  },
  {
    "service_request": "2023-1017408",
    "request_type": "Roads/Drainage",
    "request_reason": "Man hole cover issue",
    "date_created": "2023-07-15T12:42:12.000",
    "date_modified": "2023-07-15T12:42:12.000",
    "request_status": "Pending",
    "responsible_agency": "Department of Public Works",
    "final_address": "1037 Thalia St",
    "address_councildis": "B",
    "status": "Pending",
    "rowid": "1017408",
    "final_x": "3680630.98984",
    "final_y": "525246.565181",
    "longitude": "-90.07103256763625",
    "latitude": "29.938272195900343",
    "geocoded_column": {
      "latitude": "29.938272195900343",
      "longitude": "-90.07103256763625"
    }
  },
  {
    "service_request": "2023-1017407",
    "request_type": "Abandoned Vehicles",
    "request_reason": "Abandoned/Junk Vehicles",
    "date_created": "2023-07-15T12:34:22.000",
    "date_modified": "2023-07-15T12:34:22.000",
    "request_status": "Pending",
    "responsible_agency": "Department of Public Works",
    "final_address": "3950 Annunciation St",
    "address_councildis": "B",
    "status": "Pending",
    "rowid": "1017407",
    "final_x": "3672916.15867",
    "final_y": "517885.622326",
    "longitude": "-90.09564009057493",
    "latitude": "29.91826341102303",
    "geocoded_column": {
      "latitude": "29.91826341102303",
      "longitude": "-90.09564009057493"
    }
  },
  {
    "service_request": "2023-1017406",
    "request_type": "Abandoned Vehicles",
    "request_reason": "Abandoned/Junk Vehicles",
    "date_created": "2023-07-15T12:31:30.000",
    "date_modified": "2023-07-15T12:31:30.000",
    "request_status": "Pending",
    "responsible_agency": "Department of Public Works",
    "final_address": "1039 Fourth St",
    "address_councildis": "B",
    "status": "Pending",
    "rowid": "1017406",
    "final_x": "3677394.07208",
    "final_y": "520937.866873",
    "longitude": "-90.08140045493947",
    "latitude": "29.926522338585347",
    "geocoded_column": {
      "latitude": "29.926522338585347",
      "longitude": "-90.08140045493947"
    }
  },
  {
    "service_request": "2023-1017405",
    "request_type": "Roads/Drainage",
    "request_reason": "Culvert Issue",
    "date_created": "2023-07-15T12:22:58.000",
    "date_modified": "2023-07-15T12:22:58.000",
    "request_status": "Pending",
    "responsible_agency": "Department of Public Works",
    "final_address": "464 Pine St",
    "address_councildis": "A",
    "status": "Pending",
    "rowid": "1017405",
    "final_x": "3662259.04045",
    "final_y": "524263.752636",
    "longitude": "-90.12906746175246",
    "latitude": "29.93611349903106",
    "geocoded_column": {
      "latitude": "29.93611349903106",
      "longitude": "-90.12906746175246"
    }
  },
  {
    "service_request": "2023-1017404",
    "request_type": "Trash/Recycling",
    "request_reason": "MIssed Recycling Pick-Up",
    "date_created": "2023-07-15T12:17:20.000",
    "date_modified": "2023-07-15T12:17:20.000",
    "request_status": "Pending",
    "responsible_agency": "Department of Sanitation",
    "final_address": "411 S Dupre St",
    "address_councildis": "B",
    "status": "Assigned to Contractor",
    "contractor": "Richards Disposal",
    "rowid": "1017404",
    "final_x": "3673734.46254",
    "final_y": "534581.538437",
    "longitude": "-90.09248644480422",
    "latitude": "29.96414738552425",
    "geocoded_column": {
      "latitude": "29.96414738552425",
      "longitude": "-90.09248644480422"
    }
  },
  {
    "service_request": "2023-1017403",
    "request_type": "Roads/Drainage",
    "request_reason": "Catch Basin - Broken/Damage",
    "date_created": "2023-07-15T12:16:15.000",
    "date_modified": "2023-07-15T12:16:15.000",
    "request_status": "Pending",
    "responsible_agency": "Department of Public Works",
    "final_address": "5336 Dryades St",
    "address_councildis": "B",
    "status": "Pending",
    "rowid": "1017403",
    "final_x": "3667609.66049",
    "final_y": "521793.283898",
    "longitude": "-90.11225846699281",
    "latitude": "29.929164787498774",
    "geocoded_column": {
      "latitude": "29.929164787498774",
      "longitude": "-90.11225846699281"
    }
  },
  {
    "service_request": "2023-1017402",
    "request_type": "Trash/Recycling",
    "request_reason": "Missed Trash Pick-Up",
    "date_created": "2023-07-15T11:52:31.000",
    "date_modified": "2023-07-15T11:52:31.000",
    "request_status": "Pending",
    "responsible_agency": "Department of Sanitation",
    "final_address": "3125 General Ogden St",
    "address_councildis": "A",
    "status": "Assigned to Contractor",
    "contractor": "Richards Disposal",
    "rowid": "1017402",
    "final_x": "3664626.55168",
    "final_y": "535396.879558",
    "longitude": "-90.12122132887912",
    "latitude": "29.96665736363487",
    "geocoded_column": {
      "latitude": "29.96665736363487",
      "longitude": "-90.12122132887912"
    }
  },
  {
    "service_request": "2023-1017401",
    "request_type": "Trash/Recycling",
    "request_reason": "Request a Large Item Pick Up",
    "date_created": "2023-07-15T11:50:08.000",
    "date_modified": "2023-07-15T11:50:09.000",
    "request_status": "Pending",
    "responsible_agency": "Department of Sanitation",
    "final_address": "3530 Rue Mignon",
    "address_councildis": "C",
    "status": "Assigned to Contractor",
    "contractor": "Richards Disposal",
    "rowid": "1017401",
    "final_x": "3703388.43287",
    "final_y": "517644.477366",
    "longitude": "-89.99946508049301",
    "latitude": "29.91666012332781",
    "geocoded_column": {
      "latitude": "29.91666012332781",
      "longitude": "-89.99946508049301"
    }
  },
  {
    "service_request": "2023-1017400",
    "request_type": "Trash/Recycling",
    "request_reason": "Missed Trash Pick-Up",
    "date_created": "2023-07-15T11:49:26.000",
    "date_modified": "2023-07-15T11:49:27.000",
    "request_status": "Pending",
    "responsible_agency": "Department of Sanitation",
    "final_address": "201 Woodland Dr",
    "address_councildis": "C",
    "status": "Assigned to Contractor",
    "contractor": "Richards Disposal",
    "rowid": "1017400",
    "final_x": "3705502.35915",
    "final_y": "521379.757305",
    "longitude": "-89.99265476577432",
    "latitude": "29.926863012443192",
    "geocoded_column": {
      "latitude": "29.926863012443192",
      "longitude": "-89.99265476577432"
    }
  },
  {
    "service_request": "2023-1017399",
    "request_type": "Abandoned Vehicles",
    "request_reason": "Abandoned/Junk Vehicles",
    "date_created": "2023-07-15T11:42:32.000",
    "date_modified": "2023-07-15T11:42:32.000",
    "request_status": "Pending",
    "responsible_agency": "Department of Public Works",
    "final_address": "2339 DAbadie St",
    "address_councildis": "D",
    "status": "Pending",
    "rowid": "1017399",
    "final_x": "3680435.39759",
    "final_y": "540090.059595",
    "longitude": "-90.07113385931119",
    "latitude": "29.979092689828207",
    "geocoded_column": {
      "latitude": "29.979092689828207",
      "longitude": "-90.07113385931119"
    }
  },
  {
    "service_request": "2023-1017398",
    "request_type": "Traffic Signals/Signs/Striping/Streetlights",
    "request_reason": "Additional signage",
    "date_created": "2023-07-15T11:36:32.000",
    "date_modified": "2023-07-15T11:36:32.000",
    "request_status": "Pending",
    "responsible_agency": "Department of Public Works",
    "final_address": "1710 Audubon St",
    "address_councildis": "A",
    "status": "Pending",
    "rowid": "1017398",
    "final_x": "3665445.21402",
    "final_y": "527933.777983",
    "longitude": "-90.11888578435753",
    "latitude": "29.946112431495944",
    "geocoded_column": {
      "latitude": "29.946112431495944",
      "longitude": "-90.11888578435753"
    }
  },
  {
    "service_request": "2023-1017397",
    "request_type": "Trash/Recycling",
    "request_reason": "Repair Trash Cart",
    "date_created": "2023-07-15T11:36:27.000",
    "date_modified": "2023-07-15T11:36:27.000",
    "request_status": "Pending",
    "responsible_agency": "Department of Sanitation",
    "final_address": "2418 Joseph St",
    "address_councildis": "A",
    "status": "Assigned to Contractor",
    "contractor": "Richards Disposal",
    "rowid": "1017397",
    "final_x": "3667351.94298",
    "final_y": "524927.185853",
    "longitude": "-90.11296666838534",
    "latitude": "29.937789566614995",
    "geocoded_column": {
      "latitude": "29.937789566614995",
      "longitude": "-90.11296666838534"
    }
  },
  {
    "service_request": "2023-1017396",
    "request_type": "Trash/Recycling",
    "request_reason": "Replace Trash Cart",
    "date_created": "2023-07-15T11:27:03.000",
    "date_modified": "2023-07-15T11:27:03.000",
    "request_status": "Pending",
    "responsible_agency": "Department of Sanitation",
    "final_address": "2930 Maurepas St",
    "address_councildis": "A",
    "status": "Assigned to Contractor",
    "contractor": "IV Waste",
    "rowid": "1017396",
    "final_x": "3677485.52661",
    "final_y": "540680.936331",
    "longitude": "-90.08043029156343",
    "latitude": "29.980806415021622",
    "geocoded_column": {
      "latitude": "29.980806415021622",
      "longitude": "-90.08043029156343"
    }
  },
  {
    "service_request": "2023-1017395",
    "request_type": "Trash/Recycling",
    "request_reason": "Replace Recycling Cart",
    "date_created": "2023-07-15T11:21:15.000",
    "date_modified": "2023-07-15T11:21:15.000",
    "request_status": "Pending",
    "responsible_agency": "Department of Sanitation",
    "final_address": "2930 Maurepas St",
    "address_councildis": "A",
    "status": "Pending",
    "rowid": "1017395",
    "final_x": "3677485.52661",
    "final_y": "540680.936331",
    "longitude": "-90.08043029156343",
    "latitude": "29.980806415021622",
    "geocoded_column": {
      "latitude": "29.980806415021622",
      "longitude": "-90.08043029156343"
    }
  },
  {
    "service_request": "2023-1017394",
    "request_type": "Trash/Recycling",
    "request_reason": "Replace Trash Cart",
    "date_created": "2023-07-15T11:20:08.000",
    "date_modified": "2023-07-15T11:20:08.000",
    "request_status": "Pending",
    "responsible_agency": "Department of Sanitation",
    "final_address": "2930 Maurepas St",
    "address_councildis": "A",
    "status": "Assigned to Contractor",
    "contractor": "IV Waste",
    "rowid": "1017394",
    "final_x": "3677485.52661",
    "final_y": "540680.936331",
    "longitude": "-90.08043029156343",
    "latitude": "29.980806415021622",
    "geocoded_column": {
      "latitude": "29.980806415021622",
      "longitude": "-90.08043029156343"
    }
  },
  {
    "service_request": "2023-1017393",
    "request_type": "Trash/Recycling",
    "request_reason": "Request a Large Item Pick Up",
    "date_created": "2023-07-15T11:20:01.000",
    "date_modified": "2023-07-15T11:20:01.000",
    "request_status": "Pending",
    "responsible_agency": "Department of Sanitation",
    "final_address": "4744 St Roch Ave",
    "address_councildis": "D",
    "status": "Assigned to Contractor",
    "contractor": "IV Waste",
    "rowid": "1017393",
    "final_x": "3685251.60809",
    "final_y": "550527.93602",
    "longitude": "-90.0555548045671",
    "latitude": "30.007646363851013",
    "geocoded_column": {
      "latitude": "30.007646363851013",
      "longitude": "-90.0555548045671"
    }
  },
  {
    "service_request": "2023-1017392",
    "request_type": "Property Maintenance",
    "request_reason": "Property Maintenance",
    "date_created": "2023-07-15T11:09:48.000",
    "date_modified": "2023-07-15T11:09:48.000",
    "request_status": "Pending",
    "responsible_agency": "Department of Code Enforcement",
    "final_address": "2000 Deslonde St",
    "address_councildis": "E",
    "status": "Pending",
    "rowid": "1017392",
    "final_x": "3696299.62698",
    "final_y": "537821.874377",
    "longitude": "-90.02111079092533",
    "latitude": "29.9723659508982",
    "geocoded_column": {
      "latitude": "29.9723659508982",
      "longitude": "-90.02111079092533"
    }
  },
  {
    "service_request": "2023-1017390",
    "request_type": "Abandoned Vehicles",
    "request_reason": "Abandoned/Junk Vehicles",
    "date_created": "2023-07-15T11:02:56.000",
    "date_modified": "2023-07-15T11:02:56.000",
    "request_status": "Pending",
    "responsible_agency": "Department of Public Works",
    "final_address": " & FOREST ISLE DR",
    "address_councildis": "C",
    "status": "Pending",
    "rowid": "1017390",
    "final_x": "3705876.93",
    "final_y": "512778.89",
    "longitude": "-89.99179023228741",
    "latitude": "29.903201541007117",
    "geocoded_column": {
      "latitude": "29.903201541007117",
      "longitude": "-89.99179023228741"
    }
  },
  {
    "service_request": "2023-1017389",
    "request_type": "Abandoned Vehicles",
    "request_reason": "Abandoned/Junk Vehicles",
    "date_created": "2023-07-15T10:59:46.000",
    "date_modified": "2023-07-15T10:59:47.000",
    "request_status": "Pending",
    "responsible_agency": "Department of Public Works",
    "final_address": "4708 N Rampart St",
    "address_councildis": "E",
    "status": "Pending",
    "rowid": "1017389",
    "final_x": "3694593.05347",
    "final_y": "534106.319045",
    "longitude": "-90.02663423789521",
    "latitude": "29.962203120250173",
    "geocoded_column": {
      "latitude": "29.962203120250173",
      "longitude": "-90.02663423789521"
    }
  },
  {
    "service_request": "2023-1017388",
    "request_type": "Abandoned Vehicles",
    "request_reason": "Abandoned/Junk Vehicles",
    "date_created": "2023-07-15T10:55:23.000",
    "date_modified": "2023-07-15T10:55:23.000",
    "request_status": "Pending",
    "responsible_agency": "Department of Public Works",
    "final_address": "5350 Pratt Dr",
    "address_councildis": "D",
    "status": "Pending",
    "rowid": "1017388",
    "final_x": "3680308.32155",
    "final_y": "552074.866582",
    "longitude": "-90.07111824376224",
    "latitude": "30.01205051288932",
    "geocoded_column": {
      "latitude": "30.01205051288932",
      "longitude": "-90.07111824376224"
    }
  },
  {
    "service_request": "2023-1017387",
    "request_type": "Trash/Recycling",
    "request_reason": "Order Recycling Cart",
    "date_created": "2023-07-15T10:51:50.000",
    "date_modified": "2023-07-15T10:51:50.000",
    "request_status": "Pending",
    "responsible_agency": "Department of Sanitation",
    "status": "Pending",
    "rowid": "1017387",
    "longitude": "0.0",
    "latitude": "0.0",
    "geocoded_column": {
      "latitude": "0.0",
      "longitude": "0.0"
    }
  },
  {
    "service_request": "2023-1017386",
    "request_type": "Abandoned Vehicles",
    "request_reason": "Abandoned/Junk Vehicles",
    "date_created": "2023-07-15T10:49:53.000",
    "date_modified": "2023-07-15T10:49:53.000",
    "request_status": "Pending",
    "responsible_agency": "Department of Public Works",
    "final_address": "5350 Pratt Dr",
    "address_councildis": "D",
    "status": "Pending",
    "rowid": "1017386",
    "final_x": "3680308.32155",
    "final_y": "552074.866582",
    "longitude": "-90.07111824376224",
    "latitude": "30.01205051288932",
    "geocoded_column": {
      "latitude": "30.01205051288932",
      "longitude": "-90.07111824376224"
    }
  },
  {
    "service_request": "2023-1017385",
    "request_type": "Traffic Signals/Signs/Striping/Streetlights",
    "request_reason": "Traffic Signal Malfunctioning/Damaged",
    "date_created": "2023-07-15T10:40:07.000",
    "date_modified": "2023-07-15T10:40:07.000",
    "request_status": "Pending",
    "responsible_agency": "Department of Public Works",
    "final_address": "NAPOLEON AVE & ST CHARLES AVE",
    "address_councildis": "B",
    "status": "Pending",
    "rowid": "1017385",
    "final_x": "3670814.1",
    "final_y": "520818.48",
    "longitude": "-90.10217570850496",
    "latitude": "29.926390102746048",
    "geocoded_column": {
      "latitude": "29.926390102746048",
      "longitude": "-90.10217570850496"
    }
  },
  {
    "service_request": "2023-1017381",
    "request_type": "Parks & Parkways",
    "request_reason": "Request Tree Service (Right of Way/Public Property)",
    "date_created": "2023-07-15T10:38:05.000",
    "date_modified": "2023-07-15T10:38:56.000",
    "request_status": "Pending",
    "responsible_agency": "Department of Parks & Parkway",
    "final_address": "524 Washington Ave",
    "address_councildis": "B",
    "status": "Pending",
    "rowid": "1017381",
    "final_x": "3678061.82178",
    "final_y": "519219.996727",
    "longitude": "-90.07935189941102",
    "latitude": "29.921778675480546",
    "geocoded_column": {
      "latitude": "29.921778675480546",
      "longitude": "-90.07935189941102"
    }
  },
  {
    "service_request": "2023-1017380",
    "request_type": "Trash/Recycling",
    "request_reason": "MIssed Recycling Pick-Up",
    "date_created": "2023-07-15T10:37:30.000",
    "date_modified": "2023-07-15T10:37:30.000",
    "request_status": "Pending",
    "responsible_agency": "Department of Sanitation",
    "final_address": "2527 Eagle St",
    "address_councildis": "A",
    "status": "Assigned to Contractor",
    "contractor": "Richards Disposal",
    "rowid": "1017380",
    "final_x": "3663464.16557",
    "final_y": "533648.775237",
    "longitude": "-90.124950371683",
    "latitude": "29.961884408713747",
    "geocoded_column": {
      "latitude": "29.961884408713747",
      "longitude": "-90.124950371683"
    }
  },
  {
    "service_request": "2023-1017379",
    "request_type": "Property Maintenance",
    "request_reason": "Property Maintenance",
    "date_created": "2023-07-15T10:34:52.000",
    "date_modified": "2023-07-15T10:34:52.000",
    "request_status": "Pending",
    "responsible_agency": "Department of Code Enforcement",
    "final_address": "2323 Franklin Ave",
    "address_councildis": "D",
    "status": "Pending",
    "rowid": "1017379",
    "final_x": "3687631.02358",
    "final_y": "541138.902156",
    "longitude": "-90.04837019974725",
    "latitude": "29.981756726785513",
    "geocoded_column": {
      "latitude": "29.981756726785513",
      "longitude": "-90.04837019974725"
    }
  },
  {
    "service_request": "2023-1017378",
    "request_type": "Trash/Recycling",
    "request_reason": "Request a Large Item Pick Up",
    "date_created": "2023-07-15T10:33:51.000",
    "date_modified": "2023-07-15T10:33:51.000",
    "request_status": "Pending",
    "responsible_agency": "Department of Sanitation",
    "final_address": "465 Fairway Dr",
    "address_councildis": "A",
    "status": "Assigned to Contractor",
    "contractor": "IV Waste",
    "rowid": "1017378",
    "final_x": "3664373.82132",
    "final_y": "542870.519053",
    "longitude": "-90.12176989829223",
    "latitude": "29.987214728688123",
    "geocoded_column": {
      "latitude": "29.987214728688123",
      "longitude": "-90.12176989829223"
    }
  },
  {
    "service_request": "2023-1017377",
    "request_type": "Trash/Recycling",
    "request_reason": "Missed Trash Pick-Up",
    "date_created": "2023-07-15T10:26:57.000",
    "date_modified": "2023-07-15T10:26:58.000",
    "request_status": "Pending",
    "responsible_agency": "Department of Sanitation",
    "final_address": "465 Fairway Dr",
    "address_councildis": "A",
    "status": "Assigned to Contractor",
    "contractor": "IV Waste",
    "rowid": "1017377",
    "final_x": "3664373.82132",
    "final_y": "542870.519053",
    "longitude": "-90.12176989829223",
    "latitude": "29.987214728688123",
    "geocoded_column": {
      "latitude": "29.987214728688123",
      "longitude": "-90.12176989829223"
    }
  },
  {
    "service_request": "2023-1017376",
    "request_type": "Trash/Recycling",
    "request_reason": "Request a Large Item Pick Up",
    "date_created": "2023-07-15T10:26:07.000",
    "date_modified": "2023-07-15T10:26:08.000",
    "request_status": "Pending",
    "responsible_agency": "Department of Sanitation",
    "final_address": "1943 Rosary Dr",
    "address_councildis": "D",
    "status": "Assigned to Contractor",
    "contractor": "IV Waste",
    "rowid": "1017376",
    "final_x": "3681828.78639",
    "final_y": "555176.487257",
    "longitude": "-90.06620607873027",
    "latitude": "30.0205326991237",
    "geocoded_column": {
      "latitude": "30.0205326991237",
      "longitude": "-90.06620607873027"
    }
  },
  {
    "service_request": "2023-1017375",
    "request_type": "Trash/Recycling",
    "request_reason": "Repair Trash Cart",
    "date_created": "2023-07-15T10:25:27.000",
    "date_modified": "2023-07-15T10:26:10.000",
    "request_status": "Pending",
    "responsible_agency": "Department of Sanitation",
    "final_address": "1215 Leonidas St",
    "address_councildis": "A",
    "status": "Assigned to Contractor",
    "contractor": "Richards Disposal",
    "rowid": "1017375",
    "final_x": "3660766.67085",
    "final_y": "529641.748865",
    "longitude": "-90.1336011675939",
    "latitude": "29.950944323507866",
    "geocoded_column": {
      "latitude": "29.950944323507866",
      "longitude": "-90.1336011675939"
    }
  },
  {
    "service_request": "2023-1017374",
    "request_type": "Parks & Parkways",
    "request_reason": "Request Tree Service (Right of Way/Public Property)",
    "date_created": "2023-07-15T10:21:43.000",
    "date_modified": "2023-07-15T10:21:43.000",
    "request_status": "Pending",
    "responsible_agency": "Department of Parks & Parkway",
    "final_address": "417 Calhoun St",
    "address_councildis": "A",
    "status": "Pending",
    "rowid": "1017374",
    "final_x": "3662990.29504",
    "final_y": "518556.852151",
    "longitude": "-90.12694854879601",
    "latitude": "29.920400161110997",
    "geocoded_column": {
      "latitude": "29.920400161110997",
      "longitude": "-90.12694854879601"
    }
  },
  {
    "service_request": "2023-1017373",
    "request_type": "Trash/Recycling",
    "request_reason": "Repair Trash Cart",
    "date_created": "2023-07-15T10:21:15.000",
    "date_modified": "2023-07-15T10:21:16.000",
    "request_status": "Pending",
    "responsible_agency": "Department of Sanitation",
    "final_address": "6231 Rhodes Ave",
    "address_councildis": "C",
    "status": "Assigned to Contractor",
    "contractor": "Richards Disposal",
    "rowid": "1017373",
    "final_x": "3707216.36894",
    "final_y": "519335.125623",
    "longitude": "-89.9873199586851",
    "latitude": "29.921185735478105",
    "geocoded_column": {
      "latitude": "29.921185735478105",
      "longitude": "-89.9873199586851"
    }
  },
  {
    "service_request": "2023-1017372",
    "request_type": "Parks & Parkways",
    "request_reason": "Request Tree Service (Right of Way/Public Property)",
    "date_created": "2023-07-15T10:19:46.000",
    "date_modified": "2023-07-15T10:19:47.000",
    "request_status": "Pending",
    "responsible_agency": "Department of Parks & Parkway",
    "final_address": "406 State St",
    "address_councildis": "A",
    "status": "Pending",
    "rowid": "1017372",
    "final_x": "3664225.37504",
    "final_y": "517939.407926",
    "longitude": "-90.12307055020788",
    "latitude": "29.91866656900172",
    "geocoded_column": {
      "latitude": "29.91866656900172",
      "longitude": "-90.12307055020788"
    }
  },
  {
    "service_request": "2023-1017371",
    "request_type": "Parks & Parkways",
    "request_reason": "Request Tree Service (Right of Way/Public Property)",
    "date_created": "2023-07-15T10:18:59.000",
    "date_modified": "2023-07-15T10:21:13.000",
    "request_status": "Pending",
    "responsible_agency": "Department of Parks & Parkway",
    "final_address": "406 State St",
    "address_councildis": "A",
    "status": "Pending",
    "rowid": "1017371",
    "final_x": "3664225.37504",
    "final_y": "517939.407926",
    "longitude": "-90.12307055020788",
    "latitude": "29.91866656900172",
    "geocoded_column": {
      "latitude": "29.91866656900172",
      "longitude": "-90.12307055020788"
    }
  },
  {
    "service_request": "2023-1017370",
    "request_type": "Traffic Signals/Signs/Striping/Streetlights",
    "request_reason": "Traffic Signal Malfunctioning/Damaged",
    "date_created": "2023-07-15T10:18:35.000",
    "date_modified": "2023-07-15T10:18:35.000",
    "request_status": "Pending",
    "responsible_agency": "Department of Public Works",
    "final_address": "1340 Poydras St",
    "address_councildis": "B",
    "status": "Pending",
    "rowid": "1017370",
    "final_x": "3678596.10133",
    "final_y": "529893.831297",
    "longitude": "-90.07729607640525",
    "latitude": "29.951112114837542",
    "geocoded_column": {
      "latitude": "29.951112114837542",
      "longitude": "-90.07729607640525"
    }
  },
  {
    "service_request": "2023-1017369",
    "request_type": "Roads/Drainage",
    "request_reason": "Pothole",
    "date_created": "2023-07-15T10:18:23.000",
    "date_modified": "2023-07-15T10:18:23.000",
    "request_status": "Pending",
    "responsible_agency": "Department of Public Works",
    "final_address": "8639 Green St",
    "address_councildis": "A",
    "status": "Pending",
    "rowid": "1017369",
    "final_x": "3661617.63053",
    "final_y": "531113.053634",
    "longitude": "-90.13086549958135",
    "latitude": "29.954965411529994",
    "geocoded_column": {
      "latitude": "29.954965411529994",
      "longitude": "-90.13086549958135"
    }
  },
  {
    "service_request": "2023-1017368",
    "request_type": "Trash/Recycling",
    "request_reason": "Request a Large Item Pick Up",
    "date_created": "2023-07-15T10:12:13.000",
    "date_modified": "2023-07-15T10:12:14.000",
    "request_status": "Pending",
    "responsible_agency": "Department of Sanitation",
    "final_address": "134 Country Club Dr",
    "address_councildis": "A",
    "status": "Assigned to Contractor",
    "contractor": "IV Waste",
    "rowid": "1017368",
    "final_x": "3665569.341",
    "final_y": "544233.44443",
    "longitude": "-90.11794799923442",
    "latitude": "29.990927498646133",
    "geocoded_column": {
      "latitude": "29.990927498646133",
      "longitude": "-90.11794799923442"
    }
  },
  {
    "service_request": "2023-1017367",
    "request_type": "Property Maintenance",
    "request_reason": "Property Maintenance",
    "date_created": "2023-07-15T10:08:14.000",
    "date_modified": "2023-07-15T10:08:14.000",
    "request_status": "Pending",
    "responsible_agency": "Department of Code Enforcement",
    "final_address": "134 Country Club Dr",
    "address_councildis": "A",
    "status": "Pending",
    "rowid": "1017367",
    "final_x": "3665569.341",
    "final_y": "544233.44443",
    "longitude": "-90.11794799923442",
    "latitude": "29.990927498646133",
    "geocoded_column": {
      "latitude": "29.990927498646133",
      "longitude": "-90.11794799923442"
    }
  },
  {
    "service_request": "2023-1017366",
    "request_type": "Trash/Recycling",
    "request_reason": "Replace Trash Cart",
    "date_created": "2023-07-15T10:03:54.000",
    "date_modified": "2023-07-15T10:03:54.000",
    "request_status": "Pending",
    "responsible_agency": "Department of Sanitation",
    "final_address": "502 Passera Ct",
    "address_councildis": "A",
    "status": "Assigned to Contractor",
    "contractor": "Richards Disposal",
    "rowid": "1017366",
    "final_x": "3670533.47867",
    "final_y": "540693.852555",
    "longitude": "-90.10238754346503",
    "latitude": "29.981049116904792",
    "geocoded_column": {
      "latitude": "29.981049116904792",
      "longitude": "-90.10238754346503"
    }
  },
  {
    "service_request": "2023-1017365",
    "request_type": "Trash/Recycling",
    "request_reason": "Order Recycling Cart",
    "date_created": "2023-07-15T09:55:56.000",
    "date_modified": "2023-07-15T09:55:56.000",
    "request_status": "Pending",
    "responsible_agency": "Department of Sanitation",
    "final_address": "5530 Montegut Dr",
    "address_councildis": "D",
    "status": "Pending",
    "rowid": "1017365",
    "final_x": "3689569.7183",
    "final_y": "553664.942551",
    "longitude": "-90.04180097350519",
    "latitude": "30.01613886402764",
    "geocoded_column": {
      "latitude": "30.01613886402764",
      "longitude": "-90.04180097350519"
    }
  },
  {
    "service_request": "2023-1017364",
    "request_type": "Roads/Drainage",
    "request_reason": "Ditch Issue",
    "date_created": "2023-07-15T09:55:24.000",
    "date_modified": "2023-07-15T09:55:25.000",
    "request_status": "Pending",
    "responsible_agency": "Department of Public Works",
    "final_address": "2019 Marais St",
    "address_councildis": "C",
    "status": "Pending",
    "rowid": "1017364",
    "final_x": "3684382.01634",
    "final_y": "536651.549511",
    "longitude": "-90.05878973029225",
    "latitude": "29.969517858089105",
    "geocoded_column": {
      "latitude": "29.969517858089105",
      "longitude": "-90.05878973029225"
    }
  },
  {
    "service_request": "2023-1017363",
    "request_type": "Trash/Recycling",
    "request_reason": "MIssed Recycling Pick-Up",
    "date_created": "2023-07-15T09:23:20.000",
    "date_modified": "2023-07-15T15:15:28.000",
    "case_close_date": "2023-07-15T10:15:28.000",
    "request_status": "Closed",
    "responsible_agency": "Department of Sanitation",
    "final_address": "6318 Carlson Dr",
    "address_councildis": "D",
    "status": "Invalid Request",
    "contractor": "IV Waste",
    "contractor_action": "Invalid Pick-Up",
    "rowid": "1017363",
    "final_x": "3679353.33781",
    "final_y": "556895.299866",
    "longitude": "-90.07396806094755",
    "latitude": "30.025333844572998",
    "geocoded_column": {
      "latitude": "30.025333844572998",
      "longitude": "-90.07396806094755"
    }
  },
  {
    "service_request": "2023-1017362",
    "request_type": "Abandoned Vehicles",
    "request_reason": "Abandoned/Junk Vehicles",
    "date_created": "2023-07-15T09:21:37.000",
    "date_modified": "2023-07-15T09:26:33.000",
    "request_status": "Pending",
    "responsible_agency": "Department of Public Works",
    "final_address": "2560 Agriculture St",
    "address_councildis": "D",
    "status": "Pending",
    "rowid": "1017362",
    "final_x": "3687169.83375",
    "final_y": "543472.162446",
    "longitude": "-90.04974429625591",
    "latitude": "29.988186575771",
    "geocoded_column": {
      "latitude": "29.988186575771",
      "longitude": "-90.04974429625591"
    }
  },
  {
    "service_request": "2023-1017361",
    "request_type": "Roads/Drainage",
    "request_reason": "WaterMain Break",
    "date_created": "2023-07-15T09:21:24.000",
    "date_modified": "2023-07-15T09:48:00.000",
    "case_close_date": "2023-07-15T04:48:00.000",
    "request_status": "Closed",
    "responsible_agency": "Department of Public Works",
    "final_address": "666 Gravier St",
    "address_councildis": "B",
    "status": "Referred to External Agency",
    "rowid": "1017361",
    "final_x": "3680936.55682",
    "final_y": "530012.706433",
    "longitude": "-90.0699019505673",
    "latitude": "29.951368230146713",
    "geocoded_column": {
      "latitude": "29.951368230146713",
      "longitude": "-90.0699019505673"
    }
  },
  {
    "service_request": "2023-1017360",
    "request_type": "Traffic Signals/Signs/Striping/Streetlights",
    "request_reason": "Request for Stop Sign",
    "date_created": "2023-07-15T09:18:05.000",
    "date_modified": "2023-07-15T09:18:05.000",
    "request_status": "Pending",
    "responsible_agency": "Department of Public Works",
    "final_address": "3700 Behrman Pl",
    "address_councildis": "C",
    "status": "Pending",
    "rowid": "1017360",
    "final_x": "3697922.70397",
    "final_y": "517141.308277",
    "longitude": "-90.01673531952666",
    "latitude": "29.915450398807153",
    "geocoded_column": {
      "latitude": "29.915450398807153",
      "longitude": "-90.01673531952666"
    }
  },
  {
    "service_request": "2023-1017359",
    "request_type": "Trash/Recycling",
    "request_reason": "Repair Trash Cart",
    "date_created": "2023-07-15T09:09:43.000",
    "date_modified": "2023-07-15T09:09:43.000",
    "request_status": "Pending",
    "responsible_agency": "Department of Sanitation",
    "final_address": "4209 Vendome Pl",
    "address_councildis": "B",
    "status": "Assigned to Contractor",
    "contractor": "Richards Disposal",
    "rowid": "1017359",
    "final_x": "3669131.87118",
    "final_y": "531138.717954",
    "longitude": "-90.10713742076143",
    "latitude": "29.95481701318159",
    "geocoded_column": {
      "latitude": "29.95481701318159",
      "longitude": "-90.10713742076143"
    }
  },
  {
    "service_request": "2023-1017358",
    "request_type": "Trash/Recycling",
    "request_reason": "Return Trash Cart",
    "date_created": "2023-07-15T08:57:34.000",
    "date_modified": "2023-07-15T08:57:35.000",
    "request_status": "Pending",
    "responsible_agency": "Department of Sanitation",
    "final_address": "6034 Pitt St",
    "address_councildis": "A",
    "status": "Assigned to Contractor",
    "contractor": "Richards Disposal",
    "rowid": "1017358",
    "final_x": "3664975.2768",
    "final_y": "521175.853177",
    "longitude": "-90.12059537206552",
    "latitude": "29.927543978068122",
    "geocoded_column": {
      "latitude": "29.927543978068122",
      "longitude": "-90.12059537206552"
    }
  },
  {
    "service_request": "2023-1017357",
    "request_type": "Trash/Recycling",
    "request_reason": "Repair Recycling Cart",
    "date_created": "2023-07-15T08:57:31.000",
    "date_modified": "2023-07-15T08:57:31.000",
    "request_status": "Pending",
    "responsible_agency": "Department of Sanitation",
    "final_address": "839 Sixth St",
    "address_councildis": "B",
    "status": "Pending",
    "rowid": "1017357",
    "final_x": "3677080.40558",
    "final_y": "519909.853432",
    "longitude": "-90.082426041127",
    "latitude": "29.9237050544991",
    "geocoded_column": {
      "latitude": "29.9237050544991",
      "longitude": "-90.082426041127"
    }
  },
  {
    "service_request": "2023-1017356",
    "request_type": "Trash/Recycling",
    "request_reason": "Request a Large Item Pick Up",
    "date_created": "2023-07-15T08:49:02.000",
    "date_modified": "2023-07-15T08:49:03.000",
    "request_status": "Pending",
    "responsible_agency": "Department of Sanitation",
    "final_address": "4120 Clara St",
    "address_councildis": "B",
    "status": "Assigned to Contractor",
    "contractor": "Richards Disposal",
    "rowid": "1017356",
    "final_x": "3671378.69659",
    "final_y": "525147.471293",
    "longitude": "-90.10024637211805",
    "latitude": "29.93827674196655",
    "geocoded_column": {
      "latitude": "29.93827674196655",
      "longitude": "-90.10024637211805"
    }
  },
  {
    "service_request": "2023-1017355",
    "request_type": "Trash/Recycling",
    "request_reason": "Request a Large Item Pick Up",
    "date_created": "2023-07-15T08:47:00.000",
    "date_modified": "2023-07-15T08:47:01.000",
    "request_status": "Pending",
    "responsible_agency": "Department of Sanitation",
    "final_address": "4958 Painters St",
    "address_councildis": "D",
    "status": "Assigned to Contractor",
    "contractor": "IV Waste",
    "rowid": "1017355",
    "final_x": "3686056.92674",
    "final_y": "551438.373461",
    "longitude": "-90.05297843405377",
    "latitude": "30.010125017240046",
    "geocoded_column": {
      "latitude": "30.010125017240046",
      "longitude": "-90.05297843405377"
    }
  },
  {
    "service_request": "2023-1017354",
    "request_type": "Roads/Drainage",
    "request_reason": "Street Subsidence (Sinking)",
    "date_created": "2023-07-15T08:35:58.000",
    "date_modified": "2023-07-15T08:35:58.000",
    "request_status": "Pending",
    "responsible_agency": "Department of Public Works",
    "final_address": "2676 Wisteria St",
    "address_councildis": "D",
    "status": "Pending",
    "rowid": "1017354",
    "final_x": "3687621.90108",
    "final_y": "548347.23829",
    "longitude": "-90.04814365178576",
    "latitude": "30.00157734700328",
    "geocoded_column": {
      "latitude": "30.00157734700328",
      "longitude": "-90.04814365178576"
    }
  },
  {
    "service_request": "2023-1017353",
    "request_type": "Property Maintenance",
    "request_reason": "Property Maintenance",
    "date_created": "2023-07-15T08:24:35.000",
    "date_modified": "2023-07-15T08:24:35.000",
    "request_status": "Pending",
    "responsible_agency": "Department of Code Enforcement",
    "final_address": "2935 Dumaine St",
    "address_councildis": "A",
    "status": "Pending",
    "rowid": "1017353",
    "final_x": "3676229.61902",
    "final_y": "538271.162569",
    "longitude": "-90.08447995897187",
    "latitude": "29.974218064533357",
    "geocoded_column": {
      "latitude": "29.974218064533357",
      "longitude": "-90.08447995897187"
    }
  },
  {
    "service_request": "2023-1017352",
    "request_type": "Traffic Signals/Signs/Striping/Streetlights",
    "request_reason": "Street Light Outage/Malfunction",
    "date_created": "2023-07-15T08:21:46.000",
    "date_modified": "2023-07-15T08:21:47.000",
    "request_status": "Pending",
    "responsible_agency": "Department of Public Works",
    "final_address": "417 Calhoun St",
    "address_councildis": "A",
    "status": "Assigned to Contractor",
    "contractor": "Legacy Professional Services",
    "rowid": "1017352",
    "final_x": "3662990.29504",
    "final_y": "518556.852151",
    "longitude": "-90.12694854879601",
    "latitude": "29.920400161110997",
    "geocoded_column": {
      "latitude": "29.920400161110997",
      "longitude": "-90.12694854879601"
    }
  },
  {
    "service_request": "2023-1017351",
    "request_type": "Traffic Signals/Signs/Striping/Streetlights",
    "request_reason": "Street Light Outage/Malfunction",
    "date_created": "2023-07-15T08:19:08.000",
    "date_modified": "2023-07-15T08:19:09.000",
    "request_status": "Pending",
    "responsible_agency": "Department of Public Works",
    "final_address": "417 Calhoun St",
    "address_councildis": "A",
    "status": "Assigned to Contractor",
    "contractor": "Legacy Professional Services",
    "rowid": "1017351",
    "final_x": "3662990.29504",
    "final_y": "518556.852151",
    "longitude": "-90.12694854879601",
    "latitude": "29.920400161110997",
    "geocoded_column": {
      "latitude": "29.920400161110997",
      "longitude": "-90.12694854879601"
    }
  },
  {
    "service_request": "2023-1017350",
    "request_type": "Roads/Drainage",
    "request_reason": "Pothole",
    "date_created": "2023-07-15T08:13:30.000",
    "date_modified": "2023-07-15T08:13:30.000",
    "request_status": "Pending",
    "responsible_agency": "Department of Public Works",
    "final_address": "6200 BLK Annunciation St",
    "address_councildis": "A",
    "status": "Pending",
    "rowid": "1017350",
    "final_x": "3663071.57736",
    "final_y": "518332.79908",
    "longitude": "-90.12669942504166",
    "latitude": "29.9197817314949",
    "geocoded_column": {
      "latitude": "29.9197817314949",
      "longitude": "-90.12669942504166"
    }
  },
  {
    "service_request": "2023-1017349",
    "request_type": "Traffic Signals/Signs/Striping/Streetlights",
    "request_reason": "Street Light Outage/Malfunction",
    "date_created": "2023-07-15T08:11:48.000",
    "date_modified": "2023-07-15T08:11:49.000",
    "request_status": "Pending",
    "responsible_agency": "Department of Public Works",
    "final_address": "417 Calhoun St",
    "address_councildis": "A",
    "status": "Assigned to Contractor",
    "contractor": "Legacy Professional Services",
    "rowid": "1017349",
    "final_x": "3662990.29504",
    "final_y": "518556.852151",
    "longitude": "-90.12694854879601",
    "latitude": "29.920400161110997",
    "geocoded_column": {
      "latitude": "29.920400161110997",
      "longitude": "-90.12694854879601"
    }
  },
  {
    "service_request": "2023-1017348",
    "request_type": "Property Maintenance",
    "request_reason": "Property Maintenance",
    "date_created": "2023-07-15T08:01:44.000",
    "date_modified": "2023-07-15T08:01:44.000",
    "request_status": "Pending",
    "responsible_agency": "Department of Code Enforcement",
    "final_address": "9200 Colapissa St",
    "address_councildis": "A",
    "status": "Pending",
    "rowid": "1017348",
    "final_x": "3663620.36352",
    "final_y": "536002.728583",
    "longitude": "-90.12437869229288",
    "latitude": "29.968352477628024",
    "geocoded_column": {
      "latitude": "29.968352477628024",
      "longitude": "-90.12437869229288"
    }
  },
  {
    "service_request": "2023-1017347",
    "request_type": "Property Maintenance",
    "request_reason": "Property Maintenance",
    "date_created": "2023-07-15T07:36:31.000",
    "date_modified": "2023-07-15T07:36:31.000",
    "request_status": "Pending",
    "responsible_agency": "Department of Code Enforcement",
    "final_address": "641 Gordon St",
    "address_councildis": "E",
    "status": "Pending",
    "rowid": "1017347",
    "final_x": "3698610.748",
    "final_y": "531958.523139",
    "longitude": "-90.01402512070268",
    "latitude": "29.956170851146332",
    "geocoded_column": {
      "latitude": "29.956170851146332",
      "longitude": "-90.01402512070268"
    }
  },
  {
    "service_request": "2023-1017346",
    "request_type": "Trash/Recycling",
    "request_reason": "Missed Trash Pick-Up",
    "date_created": "2023-07-15T06:58:24.000",
    "date_modified": "2023-07-15T06:58:25.000",
    "request_status": "Pending",
    "responsible_agency": "Department of Sanitation",
    "final_address": "4028 Prytania St",
    "address_councildis": "B",
    "status": "Assigned to Contractor",
    "contractor": "Richards Disposal",
    "rowid": "1017346",
    "final_x": "3672142.74375",
    "final_y": "520403.683704",
    "longitude": "-90.09799566101609",
    "latitude": "29.925210225338862",
    "geocoded_column": {
      "latitude": "29.925210225338862",
      "longitude": "-90.09799566101609"
    }
  },
  {
    "service_request": "2023-1017345",
    "request_type": "Trash/Recycling",
    "request_reason": "Request a Large Item Pick Up",
    "date_created": "2023-07-15T06:43:48.000",
    "date_modified": "2023-07-15T06:43:48.000",
    "request_status": "Pending",
    "responsible_agency": "Department of Sanitation",
    "final_address": "5132 Bayouview Ct",
    "address_councildis": "E",
    "status": "Assigned to Contractor",
    "contractor": "Waste Pro",
    "rowid": "1017345",
    "final_x": "3699087.31133",
    "final_y": "556286.274714",
    "longitude": "-90.01163422023562",
    "latitude": "30.023048122805662",
    "geocoded_column": {
      "latitude": "30.023048122805662",
      "longitude": "-90.01163422023562"
    }
  },
  {
    "service_request": "2023-1017344",
    "request_type": "Trash/Recycling",
    "request_reason": "MIssed Recycling Pick-Up",
    "date_created": "2023-07-15T04:20:48.000",
    "date_modified": "2023-07-15T04:20:48.000",
    "request_status": "Pending",
    "responsible_agency": "Department of Sanitation",
    "final_address": "5112 Westlake Dr",
    "address_councildis": "E",
    "status": "Assigned to Contractor",
    "contractor": "Waste Pro",
    "rowid": "1017344",
    "final_x": "3699419.97168",
    "final_y": "556169.77801",
    "longitude": "-90.01058734305934",
    "latitude": "30.022717246437516",
    "geocoded_column": {
      "latitude": "30.022717246437516",
      "longitude": "-90.01058734305934"
    }
  },
  {
    "service_request": "2023-1017343",
    "request_type": "Abandoned Vehicles",
    "request_reason": "Abandoned/Junk Vehicles",
    "date_created": "2023-07-15T01:05:34.000",
    "date_modified": "2023-07-15T01:05:34.000",
    "request_status": "Pending",
    "responsible_agency": "Department of Public Works",
    "final_address": "6736 Foch Rd",
    "address_councildis": "D",
    "status": "Pending",
    "rowid": "1017343",
    "final_x": "3696631.02512",
    "final_y": "556129.858522",
    "longitude": "-90.01940116688273",
    "latitude": "30.022695713280438",
    "geocoded_column": {
      "latitude": "30.022695713280438",
      "longitude": "-90.01940116688273"
    }
  },
  {
    "service_request": "2023-1017342",
    "request_type": "Abandoned Vehicles",
    "request_reason": "Abandoned/Junk Vehicles",
    "date_created": "2023-07-15T01:01:34.000",
    "date_modified": "2023-07-15T01:01:34.000",
    "request_status": "Pending",
    "responsible_agency": "Department of Public Works",
    "final_address": "7118 Foch Rd",
    "address_councildis": "D",
    "status": "Pending",
    "rowid": "1017342",
    "final_x": "3696377.5192",
    "final_y": "556906.82505",
    "longitude": "-90.02017404722558",
    "latitude": "30.024840066646735",
    "geocoded_column": {
      "latitude": "30.024840066646735",
      "longitude": "-90.02017404722558"
    }
  },
  {
    "service_request": "2023-1017341",
    "request_type": "Trash/Recycling",
    "request_reason": "Request a Large Item Pick Up",
    "date_created": "2023-07-15T00:58:22.000",
    "date_modified": "2023-07-15T00:58:23.000",
    "request_status": "Pending",
    "responsible_agency": "Department of Sanitation",
    "final_address": "7530 Lady Gray St",
    "address_councildis": "E",
    "status": "Assigned to Contractor",
    "contractor": "Waste Pro",
    "rowid": "1017341",
    "final_x": "3710148.29304",
    "final_y": "564907.600738",
    "longitude": "-89.97636169715221",
    "latitude": "30.046397896000524",
    "geocoded_column": {
      "latitude": "30.046397896000524",
      "longitude": "-89.97636169715221"
    }
  },
  {
    "service_request": "2023-1017340",
    "request_type": "Property Maintenance",
    "request_reason": "Property Maintenance",
    "date_created": "2023-07-15T00:57:42.000",
    "date_modified": "2023-07-15T00:57:42.000",
    "request_status": "Pending",
    "responsible_agency": "Department of Code Enforcement",
    "final_address": "2805 New Orleans St",
    "address_councildis": "D",
    "status": "Pending",
    "rowid": "1017340",
    "final_x": "3681908.70498",
    "final_y": "542801.131981",
    "longitude": "-90.06638591250298",
    "latitude": "29.9865024825534",
    "geocoded_column": {
      "latitude": "29.9865024825534",
      "longitude": "-90.06638591250298"
    }
  },
  {
    "service_request": "2023-1017339",
    "request_type": "Property Maintenance",
    "request_reason": "Property Maintenance",
    "date_created": "2023-07-15T00:50:13.000",
    "date_modified": "2023-07-15T00:50:13.000",
    "request_status": "Pending",
    "responsible_agency": "Department of Code Enforcement",
    "status": "Pending",
    "rowid": "1017339",
    "longitude": "0.0",
    "latitude": "0.0",
    "geocoded_column": {
      "latitude": "0.0",
      "longitude": "0.0"
    }
  },
  {
    "service_request": "2023-1017338",
    "request_type": "Roads/Drainage",
    "request_reason": "Service Cut",
    "date_created": "2023-07-14T23:43:04.000",
    "date_modified": "2023-07-15T10:39:19.000",
    "case_close_date": "2023-07-15T05:39:19.000",
    "request_status": "Closed",
    "responsible_agency": "Department of Public Works",
    "final_address": "1320 Milan St",
    "address_councildis": "B",
    "status": "Referred to External Agency",
    "rowid": "1017338",
    "final_x": "3671624.56468",
    "final_y": "520336.202616",
    "longitude": "-90.09963368473501",
    "latitude": "29.925040024870274",
    "geocoded_column": {
      "latitude": "29.925040024870274",
      "longitude": "-90.09963368473501"
    }
  },
  {
    "service_request": "2023-1017337",
    "request_type": "Trash/Recycling",
    "request_reason": "Missed Trash Pick-Up",
    "date_created": "2023-07-14T23:05:04.000",
    "date_modified": "2023-07-14T23:05:05.000",
    "request_status": "Pending",
    "responsible_agency": "Department of Sanitation",
    "final_address": "11409 Longview Dr",
    "address_councildis": "E",
    "status": "Assigned to Contractor",
    "contractor": "Waste Pro",
    "rowid": "1017337",
    "final_x": "3719053.03813",
    "final_y": "559934.452701",
    "longitude": "-89.94840841126347",
    "latitude": "30.032430795372203",
    "geocoded_column": {
      "latitude": "30.032430795372203",
      "longitude": "-89.94840841126347"
    }
  },
  {
    "service_request": "2023-1017336",
    "request_type": "Traffic Signals/Signs/Striping/Streetlights",
    "request_reason": "Street Light Outage/Malfunction",
    "date_created": "2023-07-14T22:45:29.000",
    "date_modified": "2023-07-14T22:45:30.000",
    "request_status": "Pending",
    "responsible_agency": "Department of Public Works",
    "final_address": "6304 Beauregard Ave",
    "address_councildis": "D",
    "status": "Assigned to Contractor",
    "contractor": "Legacy Professional Services",
    "rowid": "1017336",
    "final_x": "3676206.44437",
    "final_y": "555634.552025",
    "longitude": "-90.08395522256227",
    "latitude": "30.02196197080906",
    "geocoded_column": {
      "latitude": "30.02196197080906",
      "longitude": "-90.08395522256227"
    }
  },
  {
    "service_request": "2023-1017335",
    "request_type": "Roads/Drainage",
    "request_reason": "Pothole",
    "date_created": "2023-07-14T22:21:33.000",
    "date_modified": "2023-07-15T10:34:59.000",
    "case_close_date": "2023-07-15T05:34:59.000",
    "request_status": "Closed",
    "responsible_agency": "Department of Public Works",
    "final_address": "4300 BLK General Pershing St",
    "address_councildis": "B",
    "status": "Not Enough Information- Resubmittal Required",
    "rowid": "1017335",
    "final_x": "3669547.85214",
    "final_y": "529697.986323",
    "longitude": "-90.10587264120565",
    "latitude": "29.950843227286388",
    "geocoded_column": {
      "latitude": "29.950843227286388",
      "longitude": "-90.10587264120565"
    }
  },