[
  {
    "service_request": "2024-1143863",
    "request_type": "Trash/Recycling",
    "request_reason": "Replace Trash Cart",
    "date_created": "2024-10-24T23:23:55.000",
    "date_modified": "2024-10-24T23:23:56.000",
    "request_status": "Pending",
    "responsible_agency": "Department of Sanitation",
    "final_address": "70 Cypress Grove Ct Unit 30",
    "address_councildis": "C",
    "status": "Assigned to Contractor",
    "contractor": "Richards Disposal",
    "rowid": "1143863",
    "final_x": "3705160.33918",
    "final_y": "511836.457456",
    "longitude": "-89.99408652793375",
    "latitude": "29.900633221828695",
    "geocoded_column": {
      "latitude": "29.900633221828695",
      "longitude": "-89.99408652793375"
    }
  },
  {
    "service_request": "2024-1143862",
    "request_type": "General Services",
    "request_reason": "General Service Request",
    "date_created": "2024-10-24T22:19:59.000",
    "date_modified": "2024-10-24T22:19:59.000",
    "request_status": "Pending",
    "responsible_agency": "Orleans Parish Communication District",
    "final_address": "1810 Laharpe St",
    "address_councildis": "D",
    "status": "Pending",
    "rowid": "1143862",
    "final_x": "3681260.06997",
    "final_y": "537962.866441",
    "longitude": "-90.0686033825423",
    "latitude": "29.973218642644692",
    "geocoded_column": {
      "latitude": "29.973218642644692",
      "longitude": "-90.0686033825423"
    }
  },
  {
    "service_request": "2024-1143861",
    "request_type": "Safety & Permits",
    "request_reason": "Zoning Enforcement",
    "date_created": "2024-10-24T22:09:31.000",
    "date_modified": "2024-10-24T22:09:31.000",
    "request_status": "Pending",
    "responsible_agency": "Safety and Permits",
    "final_address": "600 BLK N Broad St",
    "address_councildis": "A",
    "status": "Pending",
    "rowid": "1143861",
    "final_x": "3676359.9435",
    "final_y": "536531.150807",
    "longitude": "-90.08412827453832",
    "latitude": "29.969429719559482",
    "geocoded_column": {
      "latitude": "29.969429719559482",
      "longitude": "-90.08412827453832"
    }
  },
  {
    "service_request": "2024-1143860",
    "request_type": "Trash/Recycling",
    "request_reason": "Request a Large Item Pick Up",
    "date_created": "2024-10-24T21:56:05.000",
    "date_modified": "2024-10-24T21:56:07.000",
    "request_status": "Pending",
    "responsible_agency": "Department of Sanitation",
    "final_address": "5928 Louis Xiv St",
    "address_councildis": "A",
    "status": "Assigned to Contractor",
    "contractor": "IV Waste",
    "rowid": "1143860",
    "final_x": "3667981.50285",
    "final_y": "546902.414737",
    "longitude": "-90.11023853943531",
    "latitude": "29.998195677924368",
    "geocoded_column": {
      "latitude": "29.998195677924368",
      "longitude": "-90.11023853943531"
    }
  },
  {
    "service_request": "2024-1143859",
    "request_type": "Streetlights",
    "request_reason": "Streetlight Knocked Down/Leaning",
    "date_created": "2024-10-24T21:35:51.000",
    "date_modified": "2024-10-24T21:36:07.000",
    "request_status": "Pending",
    "responsible_agency": "Department of Public Works",
    "final_address": "3000 BLK Peoples Ave",
    "address_councildis": "D",
    "status": "Pending",
    "contractor": "Legacy Professional Services",
    "rowid": "1143859",
    "final_x": "3688705.75641",
    "final_y": "544195.754572",
    "longitude": "-90.04486712963312",
    "latitude": "29.99012879579338",
    "geocoded_column": {
      "latitude": "29.99012879579338",
      "longitude": "-90.04486712963312"
    }
  },
  {
    "service_request": "2024-1143858",
    "request_type": "Property Maintenance",
    "request_reason": "Property Maintenance",
    "date_created": "2024-10-24T21:12:35.000",
    "date_modified": "2024-10-24T21:12:35.000",
    "request_status": "Pending",
    "responsible_agency": "Department of Code Enforcement",
    "final_address": "700 Webster St",
    "address_councildis": "A",
    "status": "Pending",
    "rowid": "1143858",
    "final_x": "3663975.43123",
    "final_y": "519165.772599",
    "longitude": "-90.1238186341016",
    "latitude": "29.92204594615883",
    "geocoded_column": {
      "latitude": "29.92204594615883",
      "longitude": "-90.1238186341016"
    }
  },
  {
    "service_request": "2024-1143857",
    "request_type": "Health Related Request",
    "request_reason": "Noise Ordinance Complaint",
    "date_created": "2024-10-24T21:10:37.000",
    "date_modified": "2024-10-24T21:10:37.000",
    "request_status": "Pending",
    "responsible_agency": "Health Department",
    "final_address": "600 BLK N Broad St",
    "address_councildis": "A",
    "status": "Pending",
    "rowid": "1143857",
    "final_x": "3676359.9435",
    "final_y": "536531.150807",
    "longitude": "-90.08412827453832",
    "latitude": "29.969429719559482",
    "geocoded_column": {
      "latitude": "29.969429719559482",
      "longitude": "-90.08412827453832"
    }
  },
  {
    "service_request": "2024-1143856",
    "request_type": "Streetlights",
    "request_reason": "Streetlight Outage/Malfunction",
    "date_created": "2024-10-24T19:41:01.000",
    "date_modified": "2024-10-24T19:41:02.000",
    "request_status": "Pending",
    "responsible_agency": "Department of Public Works",
    "final_address": "5313 Wildair Dr",
    "address_councildis": "D",
    "status": "Pending",
    "contractor": "Legacy Professional Services",
    "rowid": "1143856",
    "final_x": "3681706.99042",
    "final_y": "552508.085462",
    "longitude": "-90.06668411988002",
    "latitude": "30.013199269319504",
    "geocoded_column": {
      "latitude": "30.013199269319504",
      "longitude": "-90.06668411988002"
    }
  },
  {
    "service_request": "2024-1143855",
    "request_type": "Abandoned Vehicles",
    "request_reason": "Abandoned/Junk Vehicles",
    "date_created": "2024-10-24T19:38:05.000",
    "date_modified": "2024-10-24T19:38:05.000",
    "request_status": "Pending",
    "responsible_agency": "Department of Public Works",
    "final_address": "2018 Camp St",
    "address_councildis": "B",
    "status": "Pending",
    "rowid": "1143855",
    "final_x": "3679170.34114",
    "final_y": "522756.470074",
    "longitude": "-90.07573025702844",
    "latitude": "29.9314694189033",
    "geocoded_column": {
      "latitude": "29.9314694189033",
      "longitude": "-90.07573025702844"
    }
  },
  {
    "service_request": "2024-1143854",
    "request_type": "Trash/Recycling",
    "request_reason": "Replace Trash Cart",
    "date_created": "2024-10-24T19:14:01.000",
    "date_modified": "2024-10-24T19:14:02.000",
    "request_status": "Pending",
    "responsible_agency": "Department of Sanitation",
    "final_address": "980 Taft Pl",
    "address_councildis": "A",
    "status": "Assigned to Contractor",
    "contractor": "IV Waste",
    "rowid": "1143854",
    "final_x": "3673955.95028",
    "final_y": "540638.794891",
    "longitude": "-90.09157971007843",
    "latitude": "29.980796187585423",
    "geocoded_column": {
      "latitude": "29.980796187585423",
      "longitude": "-90.09157971007843"
    }
  },
  {
    "service_request": "2024-1143853",
    "request_type": "Trash/Recycling",
    "request_reason": "Replace Recycling Cart",
    "date_created": "2024-10-24T19:12:10.000",
    "date_modified": "2024-10-24T19:12:10.000",
    "request_status": "Pending",
    "responsible_agency": "Department of Sanitation",
    "final_address": "980 Taft Pl",
    "address_councildis": "A",
    "status": "Pending",
    "rowid": "1143853",
    "final_x": "3673955.95028",
    "final_y": "540638.794891",
    "longitude": "-90.09157971007843",
    "latitude": "29.980796187585423",
    "geocoded_column": {
      "latitude": "29.980796187585423",
      "longitude": "-90.09157971007843"
    }
  },
  {
    "service_request": "2024-1143852",
    "request_type": "Trash/Recycling",
    "request_reason": "Return Trash Cart",
    "date_created": "2024-10-24T18:59:18.000",
    "date_modified": "2024-10-24T18:59:19.000",
    "request_status": "Pending",
    "responsible_agency": "Department of Sanitation",
    "final_address": "607 Bordeaux St",
    "address_councildis": "B",
    "status": "Assigned to Contractor",
    "contractor": "IV Waste",
    "rowid": "1143852",
    "final_x": "3669716.66977",
    "final_y": "517730.20799",
    "longitude": "-90.10574444080785",
    "latitude": "29.9179307109184",
    "geocoded_column": {
      "latitude": "29.9179307109184",
      "longitude": "-90.10574444080785"
    }
  },
  {
    "service_request": "2024-1143851",
    "request_type": "Trash/Recycling",
    "request_reason": "Replace Trash Cart",
    "date_created": "2024-10-24T18:44:21.000",
    "date_modified": "2024-10-24T18:44:22.000",
    "request_status": "Pending",
    "responsible_agency": "Department of Sanitation",
    "final_address": "1427 Touro St",
    "address_councildis": "C",
    "status": "Assigned to Contractor",
    "contractor": "IV Waste",
    "rowid": "1143851",
    "final_x": "3684155.84418",
    "final_y": "537575.097352",
    "longitude": "-90.05947157473933",
    "latitude": "29.97206420947199",
    "geocoded_column": {
      "latitude": "29.97206420947199",
      "longitude": "-90.05947157473933"
    }
  },
  {
    "service_request": "2024-1143850",
    "request_type": "Traffic Signals",
    "request_reason": "Traffic Signal Malfunctioning or Damaged",
    "date_created": "2024-10-24T18:24:06.000",
    "date_modified": "2024-10-24T18:24:06.000",
    "request_status": "Pending",
    "responsible_agency": "Department of Public Works",
    "final_address": "HARRISON AVE & CANAL BLVD",
    "address_councildis": "A",
    "status": "Pending",
    "rowid": "1143850",
    "final_x": "3668595.2",
    "final_y": "549241.38",
    "longitude": "-90.10822086965588",
    "latitude": "30.004608994455108",
    "geocoded_column": {
      "latitude": "30.004608994455108",
      "longitude": "-90.10822086965588"
    }
  },
  {
    "service_request": "2024-1143849",
    "request_type": "Property Maintenance",
    "request_reason": "Property Maintenance",
    "date_created": "2024-10-24T18:02:31.000",
    "date_modified": "2024-10-24T18:02:31.000",
    "request_status": "Pending",
    "responsible_agency": "Department of Code Enforcement",
    "final_address": "19 Curtis Dr",
    "address_councildis": "E",
    "status": "Pending",
    "rowid": "1143849",
    "final_x": "3698239.67261",
    "final_y": "560654.631262",
    "longitude": "-90.01415364431656",
    "latitude": "30.035086283089786",
    "geocoded_column": {
      "latitude": "30.035086283089786",
      "longitude": "-90.01415364431656"
    }
  },
  {
    "service_request": "2024-1143848",
    "request_type": "Property Maintenance",
    "request_reason": "Property Maintenance",
    "date_created": "2024-10-24T18:00:32.000",
    "date_modified": "2024-10-24T18:00:32.000",
    "request_status": "Pending",
    "responsible_agency": "Department of Code Enforcement",
    "final_address": "19 Curtis Dr",
    "address_councildis": "E",
    "status": "Pending",
    "rowid": "1143848",
    "final_x": "3698239.67261",
    "final_y": "560654.631262",
    "longitude": "-90.01415364431656",
    "latitude": "30.035086283089786",
    "geocoded_column": {
      "latitude": "30.035086283089786",
      "longitude": "-90.01415364431656"
    }
  },
  {
    "service_request": "2024-1143847",
    "request_type": "Property Maintenance",
    "request_reason": "Property Maintenance",
    "date_created": "2024-10-24T17:57:55.000",
    "date_modified": "2024-10-24T17:57:55.000",
    "request_status": "Pending",
    "responsible_agency": "Department of Code Enforcement",
    "final_address": "19 Curtis Dr",
    "address_councildis": "E",
    "status": "Pending",
    "rowid": "1143847",
    "final_x": "3698239.67261",
    "final_y": "560654.631262",
    "longitude": "-90.01415364431656",
    "latitude": "30.035086283089786",
    "geocoded_column": {
      "latitude": "30.035086283089786",
      "longitude": "-90.01415364431656"
    }
  },
  {
    "service_request": "2024-1143846",
    "request_type": "Trash/Recycling",
    "request_reason": "Request a Large Item Pick Up",
    "date_created": "2024-10-24T17:36:56.000",
    "date_modified": "2024-10-24T17:36:57.000",
    "request_status": "Pending",
    "responsible_agency": "Department of Sanitation",
    "final_address": "617 S Cortez St",
    "address_councildis": "B",
    "status": "Assigned to Contractor",
    "contractor": "IV Waste",
    "rowid": "1143846",
    "final_x": "3670749.7467",
    "final_y": "535930.047687",
    "longitude": "-90.10186617651965",
    "latitude": "29.967943871903827",
    "geocoded_column": {
      "latitude": "29.967943871903827",
      "longitude": "-90.10186617651965"
    }
  },
  {
    "service_request": "2024-1143845",
    "request_type": "Streetlights",
    "request_reason": "Streetlight Outage/Malfunction",
    "date_created": "2024-10-24T17:30:28.000",
    "date_modified": "2024-10-24T17:30:29.000",
    "request_status": "Pending",
    "responsible_agency": "Department of Public Works",
    "final_address": "1430 Deslonde St",
    "address_councildis": "E",
    "status": "Pending",
    "contractor": "Legacy Professional Services",
    "rowid": "1143845",
    "final_x": "3695685.55946",
    "final_y": "535801.022855",
    "longitude": "-90.02312309009876",
    "latitude": "29.966828652143572",
    "geocoded_column": {
      "latitude": "29.966828652143572",
      "longitude": "-90.02312309009876"
    }
  },
  {
    "service_request": "2024-1143844",
    "request_type": "Streetlights",
    "request_reason": "Streetlight Outage/Malfunction",
    "date_created": "2024-10-24T17:27:59.000",
    "date_modified": "2024-10-24T17:28:00.000",
    "request_status": "Pending",
    "responsible_agency": "Department of Public Works",
    "final_address": "1501 Deslonde St",
    "address_councildis": "E",
    "status": "Pending",
    "contractor": "Legacy Professional Services",
    "rowid": "1143844",
    "final_x": "3695841.78678",
    "final_y": "535927.050695",
    "longitude": "-90.02262517438773",
    "latitude": "29.967170271016553",
    "geocoded_column": {
      "latitude": "29.967170271016553",
      "longitude": "-90.02262517438773"
    }
  },
  {
    "service_request": "2024-1143843",
    "request_type": "Abandoned Vehicles",
    "request_reason": "Abandoned/Junk Vehicles",
    "date_created": "2024-10-24T17:27:41.000",
    "date_modified": "2024-10-24T17:27:41.000",
    "request_status": "Pending",
    "responsible_agency": "Department of Public Works",
    "final_address": "1450 N Derbigny St",
    "address_councildis": "D",
    "status": "Pending",
    "rowid": "1143843",
    "final_x": "3681304.63637",
    "final_y": "537180.302408",
    "longitude": "-90.06848991473734",
    "latitude": "29.971065509218057",
    "geocoded_column": {
      "latitude": "29.971065509218057",
      "longitude": "-90.06848991473734"
    }
  },
  {
    "service_request": "2024-1143842",
    "request_type": "Trash/Recycling",
    "request_reason": "Replace Trash Cart",
    "date_created": "2024-10-24T17:26:30.000",
    "date_modified": "2024-10-24T17:26:31.000",
    "request_status": "Pending",
    "responsible_agency": "Department of Sanitation",
    "final_address": "4707 Palmyra St",
    "address_councildis": "A",
    "status": "Assigned to Contractor",
    "contractor": "IV Waste",
    "rowid": "1143842",
    "final_x": "3668620.94535",
    "final_y": "539303.62657",
    "longitude": "-90.10847513852312",
    "latitude": "29.977282820400717",
    "geocoded_column": {
      "latitude": "29.977282820400717",
      "longitude": "-90.10847513852312"
    }
  },
  {
    "service_request": "2024-1143841",
    "request_type": "Trash/Recycling",
    "request_reason": "Request a Large Item Pick Up",
    "date_created": "2024-10-24T17:19:49.000",
    "date_modified": "2024-10-24T17:19:50.000",
    "request_status": "Pending",
    "responsible_agency": "Department of Sanitation",
    "final_address": "5611 Carlisle Ct",
    "address_councildis": "C",
    "status": "Assigned to Contractor",
    "contractor": "Richards Disposal",
    "rowid": "1143841",
    "final_x": "3704325.8826",
    "final_y": "516511.930869",
    "longitude": "-89.99654783128152",
    "latitude": "29.913515970030517",
    "geocoded_column": {
      "latitude": "29.913515970030517",
      "longitude": "-89.99654783128152"
    }
  },
  {
    "service_request": "2024-1143840",
    "request_type": "Roads and Streets",
    "request_reason": "Sidewalk Damaged or Missing",
    "date_created": "2024-10-24T17:18:05.000",
    "date_modified": "2024-10-24T17:18:05.000",
    "request_status": "Pending",
    "responsible_agency": "Department of Public Works",
    "final_address": "1208 Simon Bolivar Ave",
    "address_councildis": "B",
    "status": "Pending",
    "rowid": "1143840",
    "final_x": "3677843.21781",
    "final_y": "527435.250559",
    "longitude": "-90.07975823668251",
    "latitude": "29.944374507962774",
    "geocoded_column": {
      "latitude": "29.944374507962774",
      "longitude": "-90.07975823668251"
    }
  },
  {
    "service_request": "2024-1143839",
    "request_type": "Trash/Recycling",
    "request_reason": "Request a Large Item Pick Up",
    "date_created": "2024-10-24T17:14:54.000",
    "date_modified": "2024-10-24T17:14:55.000",
    "request_status": "Pending",
    "responsible_agency": "Department of Sanitation",
    "final_address": "6933 Lake Willow Dr",
    "address_councildis": "E",
    "status": "Assigned to Contractor",
    "contractor": "Waste Pro",
    "rowid": "1143839",
    "final_x": "3702796.48682",
    "final_y": "558824.772316",
    "longitude": "-89.99982078445142",
    "latitude": "30.02990984665359",
    "geocoded_column": {
      "latitude": "30.02990984665359",
      "longitude": "-89.99982078445142"
    }
  },
  {
    "service_request": "2024-1143838",
    "request_type": "Abandoned Vehicles",
    "request_reason": "Abandoned/Junk Vehicles",
    "date_created": "2024-10-24T17:14:09.000",
    "date_modified": "2024-10-24T17:14:09.000",
    "request_status": "Pending",
    "responsible_agency": "Department of Public Works",
    "final_address": "918 Broadway St, New Orleans, Louisiana, 70118",
    "address_councildis": "A",
    "status": "Pending",
    "rowid": "1143838",
    "final_x": "3663610.088",
    "final_y": "525759.518973",
    "longitude": "-90.12475234134668",
    "latitude": "29.940187268150197",
    "geocoded_column": {
      "latitude": "29.940187268150197",
      "longitude": "-90.12475234134668"
    }
  },
  {
    "service_request": "2024-1143837",
    "request_type": "Trash/Recycling",
    "request_reason": "Illegal Dumping",
    "date_created": "2024-10-24T17:11:29.000",
    "date_modified": "2024-10-24T17:11:29.000",
    "request_status": "Pending",
    "responsible_agency": "Department of Sanitation",
    "final_address": "1300 Simon Bolivar Ave",
    "address_councildis": "B",
    "status": "Pending",
    "rowid": "1143837",
    "final_x": "3677678.4941",
    "final_y": "527173.041407",
    "longitude": "-90.08028737038384",
    "latitude": "29.943658473918813",
    "geocoded_column": {
      "latitude": "29.943658473918813",
      "longitude": "-90.08028737038384"
    }
  },
  {
    "service_request": "2024-1143836",
    "request_type": "Mosquito, Termite & Rodent Control",
    "request_reason": "Mosquito Complaint",
    "date_created": "2024-10-24T17:05:02.000",
    "date_modified": "2024-10-24T17:05:02.000",
    "request_status": "Pending",
    "responsible_agency": "Mosquito, Termite & Rodent Control Board",
    "final_address": "8414 Green St",
    "address_councildis": "A",
    "status": "Pending",
    "rowid": "1143836",
    "final_x": "3662215.18675",
    "final_y": "530467.48365",
    "longitude": "-90.12900005804543",
    "latitude": "29.953173046105153",
    "geocoded_column": {
      "latitude": "29.953173046105153",
      "longitude": "-90.12900005804543"
    }
  },
  {
    "service_request": "2024-1143835",
    "request_type": "Trash/Recycling",
    "request_reason": "Illegal Dumping",
    "date_created": "2024-10-24T17:03:43.000",
    "date_modified": "2024-10-24T17:03:43.000",
    "request_status": "Pending",
    "responsible_agency": "Department of Sanitation",
    "final_address": "1231 S Rampart St",
    "address_councildis": "B",
    "status": "Pending",
    "rowid": "1143835",
    "final_x": "3678101.09691",
    "final_y": "527079.387326",
    "longitude": "-90.07895633769995",
    "latitude": "29.943388242134642",
    "geocoded_column": {
      "latitude": "29.943388242134642",
      "longitude": "-90.07895633769995"
    }
  },
  {
    "service_request": "2024-1143834",
    "request_type": "Healthy Homes",
    "request_reason": "Healthy Homes",
    "date_created": "2024-10-24T17:00:38.000",
    "date_modified": "2024-10-24T17:00:38.000",
    "request_status": "Pending",
    "responsible_agency": "Department of Code Enforcement",
    "final_address": "2321 Ursulines Ave",
    "address_councildis": "D",
    "status": "Pending",
    "rowid": "1143834",
    "final_x": "3678872.01288",
    "final_y": "537259.890632",
    "longitude": "-90.076169705425",
    "latitude": "29.971357960922006",
    "geocoded_column": {
      "latitude": "29.971357960922006",
      "longitude": "-90.076169705425"
    }
  },
  {
    "service_request": "2024-1143833",
    "request_type": "Trash/Recycling",
    "request_reason": "Return Trash Cart",
    "date_created": "2024-10-24T16:46:43.000",
    "date_modified": "2024-10-24T16:47:13.000",
    "request_status": "Pending",
    "responsible_agency": "Department of Sanitation",
    "final_address": "1820 Short St",
    "address_councildis": "A",
    "status": "Assigned to Contractor",
    "contractor": "IV Waste",
    "rowid": "1143833",
    "final_x": "3663800.43213",
    "final_y": "529774.436289",
    "longitude": "-90.12401761331238",
    "latitude": "29.951221480622625",
    "geocoded_column": {
      "latitude": "29.951221480622625",
      "longitude": "-90.12401761331238"
    }
  },
  {
    "service_request": "2024-1143832",
    "request_type": "Trash/Recycling",
    "request_reason": "Repair Trash Cart",
    "date_created": "2024-10-24T16:46:15.000",
    "date_modified": "2024-10-24T16:46:16.000",
    "request_status": "Pending",
    "responsible_agency": "Department of Sanitation",
    "final_address": "4310 Macarthur Blvd",
    "address_councildis": "C",
    "status": "Assigned to Contractor",
    "contractor": "Richards Disposal",
    "rowid": "1143832",
    "final_x": "3699616.68637",
    "final_y": "520489.081656",
    "longitude": "-90.0112665931836",
    "latitude": "29.924602003319812",
    "geocoded_column": {
      "latitude": "29.924602003319812",
      "longitude": "-90.0112665931836"
    }
  },
  {
    "service_request": "2024-1143831",
    "request_type": "Streetlights",
    "request_reason": "Streetlight Outage/Malfunction",
    "date_created": "2024-10-24T16:44:49.000",
    "date_modified": "2024-10-24T16:45:10.000",
    "request_status": "Pending",
    "responsible_agency": "Department of Public Works",
    "final_address": "1200 Farragut St",
    "address_councildis": "C",
    "status": "Pending",
    "contractor": "Legacy Professional Services",
    "rowid": "1143831",
    "final_x": "3692430.09437",
    "final_y": "526883.647294",
    "longitude": "-90.0337232043544",
    "latitude": "29.94241092627946",
    "geocoded_column": {
      "latitude": "29.94241092627946",
      "longitude": "-90.0337232043544"
    }
  },
  {
    "service_request": "2024-1143830",
    "request_type": "Health Related Request",
    "request_reason": "Homeless Encampment Complaint",
    "date_created": "2024-10-24T16:39:59.000",
    "date_modified": "2024-10-24T16:39:59.000",
    "request_status": "Pending",
    "responsible_agency": "Health Department",
    "final_address": "8211 S Claiborne Ave",
    "address_councildis": "A",
    "rowid": "1143830",
    "final_x": "3664561.71546",
    "final_y": "531930.071747",
    "longitude": "-90.12154186524518",
    "latitude": "29.957126663878036",
    "geocoded_column": {
      "latitude": "29.957126663878036",
      "longitude": "-90.12154186524518"
    }
  },
  {
    "service_request": "2024-1143829",
    "request_type": "Trash/Recycling",
    "request_reason": "Replace Recycling Cart",
    "date_created": "2024-10-24T16:39:56.000",
    "date_modified": "2024-10-24T16:39:56.000",
    "request_status": "Pending",
    "responsible_agency": "Department of Sanitation",
    "final_address": "2460 Lark St",
    "address_councildis": "D",
    "status": "Pending",
    "rowid": "1143829",
    "final_x": "3685106.42505",
    "final_y": "557891.214491",
    "longitude": "-90.05575410647495",
    "latitude": "30.027897123552254",
    "geocoded_column": {
      "latitude": "30.027897123552254",
      "longitude": "-90.05575410647495"
    }
  },
  {
    "service_request": "2024-1143828",
    "request_type": "Trash/Recycling",
    "request_reason": "Request a Large Item Pick Up",
    "date_created": "2024-10-24T16:38:09.000",
    "date_modified": "2024-10-24T16:38:11.000",
    "request_status": "Pending",
    "responsible_agency": "Department of Sanitation",
    "final_address": "5517 Marigny St",
    "address_councildis": "D",
    "status": "Assigned to Contractor",
    "contractor": "IV Waste",
    "rowid": "1143828",
    "final_x": "3684113.81525",
    "final_y": "553228.242903",
    "longitude": "-90.05905454465152",
    "latitude": "30.015106063301182",
    "geocoded_column": {
      "latitude": "30.015106063301182",
      "longitude": "-90.05905454465152"
    }
  },
  {
    "service_request": "2024-1143827",
    "request_type": "Trash/Recycling",
    "request_reason": "Replace Trash Cart",
    "date_created": "2024-10-24T16:38:04.000",
    "date_modified": "2024-10-24T16:38:06.000",
    "request_status": "Pending",
    "responsible_agency": "Department of Sanitation",
    "final_address": "2460 Lark St",
    "address_councildis": "D",
    "status": "Assigned to Contractor",
    "contractor": "IV Waste",
    "rowid": "1143827",
    "final_x": "3685106.42505",
    "final_y": "557891.214491",
    "longitude": "-90.05575410647495",
    "latitude": "30.027897123552254",
    "geocoded_column": {
      "latitude": "30.027897123552254",
      "longitude": "-90.05575410647495"
    }
  },
  {
    "service_request": "2024-1143826",
    "request_type": "Trash/Recycling",
    "request_reason": "Request a Large Item Pick Up",
    "date_created": "2024-10-24T16:33:36.000",
    "date_modified": "2024-10-24T16:33:37.000",
    "request_status": "Pending",
    "responsible_agency": "Department of Sanitation",
    "final_address": "1426 Egania St",
    "address_councildis": "E",
    "status": "Assigned to Contractor",
    "contractor": "Waste Pro",
    "rowid": "1143826",
    "final_x": "3697143.0673",
    "final_y": "535422.686918",
    "longitude": "-90.01853401760125",
    "latitude": "29.965742457398523",
    "geocoded_column": {
      "latitude": "29.965742457398523",
      "longitude": "-90.01853401760125"
    }
  },
  {
    "service_request": "2024-1143825",
    "request_type": "Trash/Recycling",
    "request_reason": "Request a Large Item Pick Up",
    "date_created": "2024-10-24T16:30:05.000",
    "date_modified": "2024-10-24T16:30:06.000",
    "request_status": "Pending",
    "responsible_agency": "Department of Sanitation",
    "final_address": "5892 Macarthur Blvd",
    "address_councildis": "C",
    "status": "Assigned to Contractor",
    "contractor": "Richards Disposal",
    "rowid": "1143825",
    "final_x": "3705451.85476",
    "final_y": "519216.714615",
    "longitude": "-89.99289407098216",
    "latitude": "29.92091702256523",
    "geocoded_column": {
      "latitude": "29.92091702256523",
      "longitude": "-89.99289407098216"
    }
  },
  {
    "service_request": "2024-1143824",
    "request_type": "Trash/Recycling",
    "request_reason": "Illegal Dumping",
    "date_created": "2024-10-24T16:29:28.000",
    "date_modified": "2024-10-24T16:29:29.000",
    "request_status": "Pending",
    "responsible_agency": "Department of Code Enforcement",
    "final_address": "5048 St Ferdinand Dr",
    "address_councildis": "D",
    "status": "Pending",
    "rowid": "1143824",
    "final_x": "3689111.36003",
    "final_y": "551593.232917",
    "longitude": "-90.0433228721661",
    "latitude": "30.01045662485391",
    "geocoded_column": {
      "latitude": "30.01045662485391",
      "longitude": "-90.0433228721661"
    }
  },
  {
    "service_request": "2024-1143823",
    "request_type": "Roads and Streets",
    "request_reason": "Debris in Driving Lanes",
    "date_created": "2024-10-24T16:28:57.000",
    "date_modified": "2024-10-24T16:28:58.000",
    "request_status": "Pending",
    "responsible_agency": "Department of Public Works",
    "final_address": "ST CLAUDE AVE & POLAND AVE & ST CLAUDE BRIDGE",
    "address_councildis": "D",
    "status": "Pending",
    "rowid": "1143823",
    "final_x": "3693083.7",
    "final_y": "535058.98",
    "longitude": "-90.03136634998788",
    "latitude": "29.964869844475825",
    "geocoded_column": {
      "latitude": "29.964869844475825",
      "longitude": "-90.03136634998788"
    }
  },
  {
    "service_request": "2024-1143822",
    "request_type": "Abandoned Vehicles",
    "request_reason": "Abandoned/Junk Vehicles",
    "date_created": "2024-10-24T16:28:57.000",
    "date_modified": "2024-10-24T16:28:58.000",
    "request_status": "Pending",
    "responsible_agency": "Department of Public Works",
    "final_address": "743 Fourth St",
    "address_councildis": "B",
    "status": "Pending",
    "rowid": "1143822",
    "final_x": "3677994.82056",
    "final_y": "520034.802296",
    "longitude": "-90.07953525056494",
    "latitude": "29.924021142720083",
    "geocoded_column": {
      "latitude": "29.924021142720083",
      "longitude": "-90.07953525056494"
    }
  },
  {
    "service_request": "2024-1143821",
    "request_type": "Trash/Recycling",
    "request_reason": "Return Trash Cart",
    "date_created": "2024-10-24T16:25:20.000",
    "date_modified": "2024-10-24T16:25:21.000",
    "request_status": "Pending",
    "responsible_agency": "Department of Sanitation",
    "final_address": "1937 Bayou Rd",
    "address_councildis": "D",
    "status": "Assigned to Contractor",
    "contractor": "IV Waste",
    "rowid": "1143821",
    "final_x": "3680343.08059",
    "final_y": "537027.079368",
    "longitude": "-90.0715319630713",
    "latitude": "29.970673348939297",
    "geocoded_column": {
      "latitude": "29.970673348939297",
      "longitude": "-90.0715319630713"
    }
  },
  {
    "service_request": "2024-1143820",
    "request_type": "Trash/Recycling",
    "request_reason": "Return Trash Cart",
    "date_created": "2024-10-24T16:23:27.000",
    "date_modified": "2024-10-24T16:23:28.000",
    "request_status": "Pending",
    "responsible_agency": "Department of Sanitation",
    "final_address": "242 Roselyn Park Pl",
    "address_councildis": "C",
    "status": "Assigned to Contractor",
    "contractor": "Richards Disposal",
    "rowid": "1143820",
    "final_x": "3702687.22359",
    "final_y": "523230.760507",
    "longitude": "-90.00147341843538",
    "latitude": "29.932042896740132",
    "geocoded_column": {
      "latitude": "29.932042896740132",
      "longitude": "-90.00147341843538"
    }
  },
  {
    "service_request": "2024-1143819",
    "request_type": "Trash/Recycling",
    "request_reason": "Illegal Dumping",
    "date_created": "2024-10-24T16:23:21.000",
    "date_modified": "2024-10-24T16:23:23.000",
    "request_status": "Pending",
    "responsible_agency": "Department of Sanitation",
    "final_address": "8836 Palmetto St",
    "address_councildis": "A",
    "status": "Pending",
    "rowid": "1143819",
    "final_x": "3666026.63623",
    "final_y": "536952.178248",
    "longitude": "-90.11674770542393",
    "latitude": "29.970893120950656",
    "geocoded_column": {
      "latitude": "29.970893120950656",
      "longitude": "-90.11674770542393"
    }
  },
  {
    "service_request": "2024-1143818",
    "request_type": "Trash/Recycling",
    "request_reason": "Request a Large Item Pick Up",
    "date_created": "2024-10-24T16:18:55.000",
    "date_modified": "2024-10-24T16:18:56.000",
    "request_status": "Pending",
    "responsible_agency": "Department of Sanitation",
    "final_address": "2513 Palmyra St",
    "address_councildis": "B",
    "status": "Assigned to Contractor",
    "contractor": "IV Waste",
    "rowid": "1143818",
    "final_x": "3675601.2468",
    "final_y": "534010.155781",
    "longitude": "-90.08661092723288",
    "latitude": "29.962520557609412",
    "geocoded_column": {
      "latitude": "29.962520557609412",
      "longitude": "-90.08661092723288"
    }
  },
  {
    "service_request": "2024-1143817",
    "request_type": "Trash/Recycling",
    "request_reason": "Order Trash Cart",
    "date_created": "2024-10-24T16:17:02.000",
    "date_modified": "2024-10-24T16:17:03.000",
    "request_status": "Pending",
    "responsible_agency": "Department of Sanitation",
    "final_address": "904 St Ann St",
    "address_councildis": "C",
    "status": "Assigned to Contractor",
    "contractor": "Empire Services",
    "rowid": "1143817",
    "final_x": "3682145.83426",
    "final_y": "533214.229316",
    "longitude": "-90.06597184006117",
    "latitude": "29.960134611639447",
    "geocoded_column": {
      "latitude": "29.960134611639447",
      "longitude": "-90.06597184006117"
    }
  },
  {
    "service_request": "2024-1143816",
    "request_type": "Trash/Recycling",
    "request_reason": "Request a Large Item Pick Up",
    "date_created": "2024-10-24T16:15:37.000",
    "date_modified": "2024-10-24T16:22:11.000",
    "request_status": "Pending",
    "responsible_agency": "Department of Sanitation",
    "final_address": "6025 Chartres St",
    "address_councildis": "E",
    "status": "Assigned to Contractor",
    "contractor": "Waste Pro",
    "rowid": "1143816",
    "final_x": "3698646.99178",
    "final_y": "531644.308739",
    "longitude": "-90.01392210056378",
    "latitude": "29.95530572522395",
    "geocoded_column": {
      "latitude": "29.95530572522395",
      "longitude": "-90.01392210056378"
    }
  },
  {
    "service_request": "2024-1143815",
    "request_type": "Safety & Permits",
    "request_reason": "Zoning Enforcement",
    "date_created": "2024-10-24T16:14:12.000",
    "date_modified": "2024-10-24T16:14:12.000",
    "request_status": "Pending",
    "responsible_agency": "Safety and Permits",
    "final_address": "CAMERON BLVD & FILMORE ST",
    "address_councildis": "D",
    "rowid": "1143815",
    "final_x": "3682583.8",
    "final_y": "552195.98",
    "longitude": "-90.06392479625805",
    "latitude": "30.01231441257073",
    "geocoded_column": {
      "latitude": "30.01231441257073",
      "longitude": "-90.06392479625805"
    }
  },
  {
    "service_request": "2024-1143814",
    "request_type": "Trash/Recycling",
    "request_reason": "Illegal Dumping",
    "date_created": "2024-10-24T16:13:57.000",
    "date_modified": "2024-10-24T16:13:57.000",
    "request_status": "Pending",
    "responsible_agency": "Department of Sanitation",
    "final_address": "PHILIP ST & S ROBERTSON ST",
    "address_councildis": "B",
    "status": "Pending",
    "rowid": "1143814",
    "final_x": "3675150.4",
    "final_y": "526357.98",
    "longitude": "-90.08829720562106",
    "latitude": "29.94149309902687",
    "geocoded_column": {
      "latitude": "29.94149309902687",
      "longitude": "-90.08829720562106"
    }
  },
  {
    "service_request": "2024-1143813",
    "request_type": "Trash/Recycling",
    "request_reason": "Missed Trash Pick-Up",
    "date_created": "2024-10-24T16:10:14.000",
    "date_modified": "2024-10-24T16:10:15.000",
    "request_status": "Pending",
    "responsible_agency": "Department of Sanitation",
    "final_address": "4926 Bundy Rd",
    "address_councildis": "E",
    "status": "Assigned to Contractor",
    "contractor": "Waste Pro",
    "rowid": "1143813",
    "final_x": "3709105.50763",
    "final_y": "556775.463322",
    "longitude": "-89.97996097638757",
    "latitude": "30.024071655208036",
    "geocoded_column": {
      "latitude": "30.024071655208036",
      "longitude": "-89.97996097638757"
    }
  },
  {
    "service_request": "2024-1143812",
    "request_type": "Trash/Recycling",
    "request_reason": "Order Second Trash Cart",
    "date_created": "2024-10-24T16:09:43.000",
    "date_modified": "2024-10-24T16:09:44.000",
    "request_status": "Pending",
    "responsible_agency": "Department of Sanitation",
    "final_address": "1938 Esplanade Ave",
    "address_councildis": "D",
    "status": "Assigned to Contractor",
    "contractor": "IV Waste",
    "rowid": "1143812",
    "final_x": "3680126.71675",
    "final_y": "537378.037384",
    "longitude": "-90.07220306702685",
    "latitude": "29.97164491230311",
    "geocoded_column": {
      "latitude": "29.97164491230311",
      "longitude": "-90.07220306702685"
    }
  },
  {
    "service_request": "2024-1143811",
    "request_type": "Property Maintenance",
    "request_reason": "Property Maintenance",
    "date_created": "2024-10-24T16:00:00.000",
    "date_modified": "2024-10-24T16:00:01.000",
    "request_status": "Pending",
    "responsible_agency": "Department of Code Enforcement",
    "final_address": "4950 Marque Dr",
    "address_councildis": "E",
    "status": "Pending",
    "rowid": "1143811",
    "final_x": "3709903.31096",
    "final_y": "557018.91113",
    "longitude": "-89.97743099013114",
    "latitude": "30.024715107374643",
    "geocoded_column": {
      "latitude": "30.024715107374643",
      "longitude": "-89.97743099013114"
    }
  },
  {
    "service_request": "2024-1143810",
    "request_type": "Trash/Recycling",
    "request_reason": "Order Second Trash Cart",
    "date_created": "2024-10-24T15:56:18.000",
    "date_modified": "2024-10-24T15:56:19.000",
    "request_status": "Pending",
    "responsible_agency": "Department of Sanitation",
    "final_address": "4720 Majestic Oaks Dr",
    "address_councildis": "D",
    "status": "Assigned to Contractor",
    "contractor": "Waste Pro",
    "rowid": "1143810",
    "final_x": "3697686.356",
    "final_y": "554252.439768",
    "longitude": "-90.01613477904989",
    "latitude": "30.01750020730951",
    "geocoded_column": {
      "latitude": "30.01750020730951",
      "longitude": "-90.01613477904989"
    }
  },
  {
    "service_request": "2024-1143809",
    "request_type": "Property Maintenance",
    "request_reason": "Property Maintenance",
    "date_created": "2024-10-24T15:53:37.000",
    "date_modified": "2024-10-24T15:53:37.000",
    "request_status": "Pending",
    "responsible_agency": "Department of Code Enforcement",
    "final_address": "1036 Joseph St",
    "address_councildis": "A",
    "status": "Pending",
    "rowid": "1143809",
    "final_x": "3666285.1049",
    "final_y": "519842.103352",
    "longitude": "-90.11650526047484",
    "latitude": "29.92383840316231",
    "geocoded_column": {
      "latitude": "29.92383840316231",
      "longitude": "-90.11650526047484"
    }
  },
  {
    "service_request": "2024-1143808",
    "request_type": "Trash/Recycling",
    "request_reason": "Request a Large Item Pick Up",
    "date_created": "2024-10-24T15:50:36.000",
    "date_modified": "2024-10-24T15:50:37.000",
    "request_status": "Pending",
    "responsible_agency": "Department of Sanitation",
    "final_address": "8520 Gervais St",
    "address_councildis": "E",
    "status": "Assigned to Contractor",
    "contractor": "Waste Pro",
    "rowid": "1143808",
    "final_x": "3703753.33418",
    "final_y": "562595.176672",
    "longitude": "-89.99665818633895",
    "latitude": "30.040246329272694",
    "geocoded_column": {
      "latitude": "30.040246329272694",
      "longitude": "-89.99665818633895"
    }
  },
  {
    "service_request": "2024-1143807",
    "request_type": "Trash/Recycling",
    "request_reason": "Request a Large Item Pick Up",
    "date_created": "2024-10-24T15:50:19.000",
    "date_modified": "2024-10-24T15:50:20.000",
    "request_status": "Pending",
    "responsible_agency": "Department of Sanitation",
    "final_address": "4901 Michoud Blvd",
    "address_councildis": "E",
    "status": "Assigned to Contractor",
    "contractor": "Waste Pro",
    "rowid": "1143807",
    "final_x": "3725089.9056",
    "final_y": "561155.121182",
    "longitude": "-89.92928446490467",
    "latitude": "30.035585125654556",
    "geocoded_column": {
      "latitude": "30.035585125654556",
      "longitude": "-89.92928446490467"
    }
  },
  {
    "service_request": "2024-1143806",
    "request_type": "Parks & Parkways",
    "request_reason": "Request Tree Service (Right of Way/Public Property)",
    "date_created": "2024-10-24T15:48:11.000",
    "date_modified": "2024-10-24T15:48:12.000",
    "request_status": "Pending",
    "responsible_agency": "Department of Parks & Parkway",
    "final_address": "1489 Madrid St",
    "address_councildis": "D",
    "status": "Pending",
    "rowid": "1143806",
    "final_x": "3678147.34158",
    "final_y": "554685.107416",
    "longitude": "-90.07785535204576",
    "latitude": "30.019293010096487",
    "geocoded_column": {
      "latitude": "30.019293010096487",
      "longitude": "-90.07785535204576"
    }
  },
  {
    "service_request": "2024-1143805",
    "request_type": "Trash/Recycling",
    "request_reason": "Repair Trash Cart",
    "date_created": "2024-10-24T15:47:08.000",
    "date_modified": "2024-10-24T15:47:09.000",
    "request_status": "Pending",
    "responsible_agency": "Department of Sanitation",
    "final_address": "613 Napoleon Ave",
    "address_councildis": "B",
    "status": "Assigned to Contractor",
    "contractor": "IV Waste",
    "rowid": "1143805",
    "final_x": "3671235.28244",
    "final_y": "517885.092726",
    "longitude": "-90.10094574361838",
    "latitude": "29.918311771456004",
    "geocoded_column": {
      "latitude": "29.918311771456004",
      "longitude": "-90.10094574361838"
    }
  },
  {
    "service_request": "2024-1143804",
    "request_type": "Trash/Recycling",
    "request_reason": "Order Recycling Cart",
    "date_created": "2024-10-24T15:45:50.000",
    "date_modified": "2024-10-24T15:45:50.000",
    "request_status": "Pending",
    "responsible_agency": "Department of Sanitation",
    "final_address": "6943 Salem Dr",
    "address_councildis": "E",
    "status": "Pending",
    "rowid": "1143804",
    "final_x": "3706855.57585",
    "final_y": "560515.658334",
    "longitude": "-89.98693140554248",
    "latitude": "30.034428604508022",
    "geocoded_column": {
      "latitude": "30.034428604508022",
      "longitude": "-89.98693140554248"
    }
  },
  {
    "service_request": "2024-1143803",
    "request_type": "Trash/Recycling",
    "request_reason": "Repair Recycling Cart",
    "date_created": "2024-10-24T15:45:49.000",
    "date_modified": "2024-10-24T15:45:50.000",
    "request_status": "Pending",
    "responsible_agency": "Department of Sanitation",
    "final_address": "800 Emerald St",
    "address_councildis": "D",
    "status": "Pending",
    "rowid": "1143803",
    "final_x": "3670268.29652",
    "final_y": "554820.30076",
    "longitude": "-90.10274593338559",
    "latitude": "30.019899764671663",
    "geocoded_column": {
      "latitude": "30.019899764671663",
      "longitude": "-90.10274593338559"
    }
  },
  {
    "service_request": "2024-1143802",
    "request_type": "Trash/Recycling",
    "request_reason": "Repair Trash Cart",
    "date_created": "2024-10-24T15:42:46.000",
    "date_modified": "2024-10-24T15:42:48.000",
    "request_status": "Pending",
    "responsible_agency": "Department of Sanitation",
    "final_address": "7168 E Tamaron Blvd",
    "address_councildis": "E",
    "status": "Assigned to Contractor",
    "contractor": "Waste Pro",
    "rowid": "1143802",
    "final_x": "3718253.05945",
    "final_y": "569245.903462",
    "longitude": "-89.95058128752896",
    "latitude": "30.058060037217057",
    "geocoded_column": {
      "latitude": "30.058060037217057",
      "longitude": "-89.95058128752896"
    }
  },
  {
    "service_request": "2024-1143801",
    "request_type": "Parks & Parkways",
    "request_reason": "Request Tree Service (Right of Way/Public Property)",
    "date_created": "2024-10-24T15:41:42.000",
    "date_modified": "2024-10-24T15:41:42.000",
    "request_status": "Pending",
    "responsible_agency": "Department of Parks & Parkway",
    "final_address": "8138 Hayne Blvd",
    "address_councildis": "E",
    "status": "Pending",
    "rowid": "1143801",
    "final_x": "3702315.20145",
    "final_y": "563005.578656",
    "longitude": "-90.00118803984837",
    "latitude": "30.04142082405483",
    "geocoded_column": {
      "latitude": "30.04142082405483",
      "longitude": "-90.00118803984837"
    }
  },
  {
    "service_request": "2024-1143800",
    "request_type": "Trash/Recycling",
    "request_reason": "Request a Large Item Pick Up",
    "date_created": "2024-10-24T15:40:58.000",
    "date_modified": "2024-10-24T15:42:01.000",
    "request_status": "Pending",
    "responsible_agency": "Department of Sanitation",
    "final_address": "7915 Means Ave",
    "address_councildis": "E",
    "status": "Assigned to Contractor",
    "contractor": "Waste Pro",
    "rowid": "1143800",
    "final_x": "3707639.03889",
    "final_y": "565606.397922",
    "longitude": "-89.9842661685792",
    "latitude": "30.048400777390995",
    "geocoded_column": {
      "latitude": "30.048400777390995",
      "longitude": "-89.9842661685792"
    }
  },
  {
    "service_request": "2024-1143799",
    "request_type": "Trash/Recycling",
    "request_reason": "Illegal Dumping",
    "date_created": "2024-10-24T15:40:29.000",
    "date_modified": "2024-10-24T15:40:31.000",
    "request_status": "Pending",
    "responsible_agency": "Department of Sanitation",
    "final_address": "WARWICK CT & WESTCHESTER ST",
    "address_councildis": "C",
    "status": "Pending",
    "rowid": "1143799",
    "final_x": "3705863.0",
    "final_y": "515879.38",
    "longitude": "-89.99171962570144",
    "latitude": "29.91172727461784",
    "geocoded_column": {
      "latitude": "29.91172727461784",
      "longitude": "-89.99171962570144"
    }
  },
  {
    "service_request": "2024-1143798",
    "request_type": "Trash/Recycling",
    "request_reason": "Request a Large Item Pick Up",
    "date_created": "2024-10-24T15:31:32.000",
    "date_modified": "2024-10-24T15:31:33.000",
    "request_status": "Pending",
    "responsible_agency": "Department of Sanitation",
    "final_address": "6641 Morrison Rd",
    "address_councildis": "E",
    "status": "Assigned to Contractor",
    "contractor": "Waste Pro",
    "rowid": "1143798",
    "final_x": "3698174.01207",
    "final_y": "558606.440668",
    "longitude": "-90.01443564252658",
    "latitude": "30.029456626398463",
    "geocoded_column": {
      "latitude": "30.029456626398463",
      "longitude": "-90.01443564252658"
    }
  },
  {
    "service_request": "2024-1143797",
    "request_type": "Roads and Streets",
    "request_reason": "Pothole",
    "date_created": "2024-10-24T15:27:58.000",
    "date_modified": "2024-10-24T15:27:58.000",
    "request_status": "Pending",
    "responsible_agency": "Department of Public Works",
    "final_address": "6005 Canal Blvd",
    "address_councildis": "A",
    "status": "Pending",
    "rowid": "1143797",
    "final_x": "3668646.76756",
    "final_y": "547317.931793",
    "longitude": "-90.10812293181935",
    "latitude": "29.999318663598146",
    "geocoded_column": {
      "latitude": "29.999318663598146",
      "longitude": "-90.10812293181935"
    }
  },
  {
    "service_request": "2024-1143796",
    "request_type": "Streetlights",
    "request_reason": "Streetlight Outage/Malfunction",
    "date_created": "2024-10-24T15:24:53.000",
    "date_modified": "2024-10-24T15:24:54.000",
    "request_status": "Pending",
    "responsible_agency": "Department of Public Works",
    "final_address": "1014 N Carrollton Ave",
    "address_councildis": "A",
    "status": "Pending",
    "contractor": "Legacy Professional Services",
    "rowid": "1143796",
    "final_x": "3673787.24987",
    "final_y": "541106.512972",
    "longitude": "-90.09209653868531",
    "latitude": "29.982087277803604",
    "geocoded_column": {
      "latitude": "29.982087277803604",
      "longitude": "-90.09209653868531"
    }
  },
  {
    "service_request": "2024-1143795",
    "request_type": "Streetlights",
    "request_reason": "Streetlight Knocked Down/Leaning",
    "date_created": "2024-10-24T15:24:05.000",
    "date_modified": "2024-10-24T15:24:07.000",
    "request_status": "Pending",
    "responsible_agency": "Department of Public Works",
    "final_address": "3900 BLK Pauger St",
    "address_councildis": "D",
    "status": "Pending",
    "contractor": "Legacy Professional Services",
    "rowid": "1143795",
    "final_x": "3683115.30991",
    "final_y": "545602.538832",
    "longitude": "-90.06247656904715",
    "latitude": "29.99416861967791",
    "geocoded_column": {
      "latitude": "29.99416861967791",
      "longitude": "-90.06247656904715"
    }
  },
  {
    "service_request": "2024-1143794",
    "request_type": "Trash/Recycling",
    "request_reason": "Order Recycling Cart",
    "date_created": "2024-10-24T15:23:22.000",
    "date_modified": "2024-10-24T15:23:22.000",
    "request_status": "Pending",
    "responsible_agency": "Department of Sanitation",
    "final_address": "8323 Jeannette St",
    "address_councildis": "A",
    "status": "Pending",
    "rowid": "1143794",
    "final_x": "3662006.15712",
    "final_y": "529814.639233",
    "longitude": "-90.12968174041735",
    "latitude": "29.951383973505543",
    "geocoded_column": {
      "latitude": "29.951383973505543",
      "longitude": "-90.12968174041735"
    }
  },
  {
    "service_request": "2024-1143793",
    "request_type": "Abandoned Vehicles",
    "request_reason": "Abandoned/Junk Vehicles",
    "date_created": "2024-10-24T15:20:32.000",
    "date_modified": "2024-10-24T15:20:34.000",
    "request_status": "Pending",
    "responsible_agency": "Department of Public Works",
    "final_address": "6218 Memphis St",
    "address_councildis": "A",
    "status": "Pending",
    "rowid": "1143793",
    "final_x": "3669248.20666",
    "final_y": "548710.656211",
    "longitude": "-90.1061758448413",
    "latitude": "30.003130475260274",
    "geocoded_column": {
      "latitude": "30.003130475260274",
      "longitude": "-90.1061758448413"
    }
  },
  {
    "service_request": "2024-1143792",
    "request_type": "Trash/Recycling",
    "request_reason": "Repair Recycling Cart",
    "date_created": "2024-10-24T15:19:52.000",
    "date_modified": "2024-10-24T15:19:52.000",
    "request_status": "Pending",
    "responsible_agency": "Department of Sanitation",
    "final_address": "826 Frenchmen St",
    "address_councildis": "C",
    "status": "Pending",
    "rowid": "1143792",
    "final_x": "3684631.30095",
    "final_y": "535406.803654",
    "longitude": "-90.05804622093298",
    "latitude": "29.96608761154468",
    "geocoded_column": {
      "latitude": "29.96608761154468",
      "longitude": "-90.05804622093298"
    }
  },
  {
    "service_request": "2024-1143791",
    "request_type": "Roads and Streets",
    "request_reason": "Debris in Driving Lanes",
    "date_created": "2024-10-24T15:13:13.000",
    "date_modified": "2024-10-24T15:13:14.000",
    "request_status": "Pending",
    "responsible_agency": "Department of Public Works",
    "final_address": "GENERAL DE GAULLE DR & BEHRMAN PL",
    "address_councildis": "C",
    "status": "Pending",
    "rowid": "1143791",
    "final_x": "3697676.3",
    "final_y": "519624.78",
    "longitude": "-90.01742303595206",
    "latitude": "29.92228688581134",
    "geocoded_column": {
      "latitude": "29.92228688581134",
      "longitude": "-90.01742303595206"
    }
  },
  {
    "service_request": "2024-1143790",
    "request_type": "Roads and Streets",
    "request_reason": "Pothole",
    "date_created": "2024-10-24T15:07:14.000",
    "date_modified": "2024-10-24T15:07:38.000",
    "case_close_date": "2024-10-24T10:07:38.000",
    "request_status": "Closed",
    "responsible_agency": "Department of Public Works",
    "final_address": "4030 Clio St",
    "address_councildis": "B",
    "status": "Resolved",
    "rowid": "1143790",
    "final_x": "3672082.76999",
    "final_y": "531133.635138",
    "longitude": "-90.09781976144522",
    "latitude": "29.954715877193877",
    "geocoded_column": {
      "latitude": "29.954715877193877",
      "longitude": "-90.09781976144522"
    }
  },
  {
    "service_request": "2024-1143789",
    "request_type": "Trash/Recycling",
    "request_reason": "Repair Trash Cart",
    "date_created": "2024-10-24T15:07:01.000",
    "date_modified": "2024-10-24T15:07:02.000",
    "request_status": "Pending",
    "responsible_agency": "Department of Sanitation",
    "final_address": "7220 W Renaissance Ct",
    "address_councildis": "E",
    "status": "Assigned to Contractor",
    "contractor": "Waste Pro",
    "rowid": "1143789",
    "final_x": "3716415.29368",
    "final_y": "567829.356516",
    "longitude": "-89.95644399553201",
    "latitude": "30.054225968446996",
    "geocoded_column": {
      "latitude": "30.054225968446996",
      "longitude": "-89.95644399553201"
    }
  },
  {
    "service_request": "2024-1143788",
    "request_type": "Trash/Recycling",
    "request_reason": "Request a Large Item Pick Up",
    "date_created": "2024-10-24T15:06:30.000",
    "date_modified": "2024-10-24T15:06:32.000",
    "request_status": "Pending",
    "responsible_agency": "Department of Sanitation",
    "final_address": "7220 W Renaissance Ct",
    "address_councildis": "E",
    "status": "Assigned to Contractor",
    "contractor": "Waste Pro",
    "rowid": "1143788",
    "final_x": "3716415.29368",
    "final_y": "567829.356516",
    "longitude": "-89.95644399553201",
    "latitude": "30.054225968446996",
    "geocoded_column": {
      "latitude": "30.054225968446996",
      "longitude": "-89.95644399553201"
    }
  },
  {
    "service_request": "2024-1143787",
    "request_type": "Drainage",
    "request_reason": "Catch Basin Clogged",
    "date_created": "2024-10-24T15:06:21.000",
    "date_modified": "2024-10-24T15:06:21.000",
    "request_status": "Pending",
    "responsible_agency": "Department of Public Works",
    "final_address": "5909 St Claude Ave",
    "address_councildis": "E",
    "status": "Pending",
    "rowid": "1143787",
    "final_x": "3699065.07031",
    "final_y": "533597.858309",
    "longitude": "-90.01253086494992",
    "latitude": "29.96066404920907",
    "geocoded_column": {
      "latitude": "29.96066404920907",
      "longitude": "-90.01253086494992"
    }
  },
  {
    "service_request": "2024-1143786",
    "request_type": "Roads and Streets",
    "request_reason": "Pothole",
    "date_created": "2024-10-24T15:05:02.000",
    "date_modified": "2024-10-24T15:05:27.000",
    "case_close_date": "2024-10-24T10:05:27.000",
    "request_status": "Closed",
    "responsible_agency": "Department of Public Works",
    "final_address": "1300 BLK S Lopez St",
    "address_councildis": "B",
    "status": "Resolved",
    "rowid": "1143786",
    "final_x": "3670584.43701",
    "final_y": "531581.810968",
    "longitude": "-90.10253573173863",
    "latitude": "29.95599255113421",
    "geocoded_column": {
      "latitude": "29.95599255113421",
      "longitude": "-90.10253573173863"
    }
  },
  {
    "service_request": "2024-1143785",
    "request_type": "Roads and Streets",
    "request_reason": "Pothole",
    "date_created": "2024-10-24T15:02:44.000",
    "date_modified": "2024-10-24T15:03:17.000",
    "case_close_date": "2024-10-24T10:03:17.000",
    "request_status": "Closed",
    "responsible_agency": "Department of Public Works",
    "final_address": "1202 S Lopez St",
    "address_councildis": "B",
    "status": "Resolved",
    "rowid": "1143785",
    "final_x": "3670846.9387",
    "final_y": "531904.116675",
    "longitude": "-90.1016959003695",
    "latitude": "29.95687102956776",
    "geocoded_column": {
      "latitude": "29.95687102956776",
      "longitude": "-90.1016959003695"
    }
  },
  {
    "service_request": "2024-1143784",
    "request_type": "Roads and Streets",
    "request_reason": "Pothole",
    "date_created": "2024-10-24T14:59:51.000",
    "date_modified": "2024-10-24T15:00:48.000",
    "case_close_date": "2024-10-24T10:00:48.000",
    "request_status": "Closed",
    "responsible_agency": "Department of Public Works",
    "final_address": "1900 BLK S Rendon St",
    "address_councildis": "B",
    "status": "Resolved",
    "rowid": "1143784",
    "final_x": "3669228.80914",
    "final_y": "530101.199428",
    "longitude": "-90.10686639287226",
    "latitude": "29.951961324962475",
    "geocoded_column": {
      "latitude": "29.951961324962475",
      "longitude": "-90.10686639287226"
    }
  },
  {
    "service_request": "2024-1143783",
    "request_type": "Roads and Streets",
    "request_reason": "Pothole",
    "date_created": "2024-10-24T14:56:27.000",
    "date_modified": "2024-10-24T14:57:13.000",
    "case_close_date": "2024-10-24T09:57:13.000",
    "request_status": "Closed",
    "responsible_agency": "Department of Public Works",
    "final_address": "3400 BLK Milan St",
    "address_councildis": "B",
    "status": "Resolved",
    "rowid": "1143783",
    "final_x": "3670944.68235",
    "final_y": "527456.657145",
    "longitude": "-90.1015382277026",
    "latitude": "29.944639087907355",
    "geocoded_column": {
      "latitude": "29.944639087907355",
      "longitude": "-90.1015382277026"
    }
  },
  {
    "service_request": "2024-1143782",
    "request_type": "Trash/Recycling",
    "request_reason": "Request a Large Item Pick Up",
    "date_created": "2024-10-24T14:50:06.000",
    "date_modified": "2024-10-24T14:50:07.000",
    "request_status": "Pending",
    "responsible_agency": "Department of Sanitation",
    "final_address": "3001 Marigny St",
    "address_councildis": "D",
    "status": "Assigned to Contractor",
    "contractor": "IV Waste",
    "rowid": "1143782",
    "final_x": "3684868.08303",
    "final_y": "543747.733326",
    "longitude": "-90.05700506964357",
    "latitude": "29.98901499558169",
    "geocoded_column": {
      "latitude": "29.98901499558169",
      "longitude": "-90.05700506964357"
    }
  },
  {
    "service_request": "2024-1143781",
    "request_type": "Trash/Recycling",
    "request_reason": "Repair Recycling Cart",
    "date_created": "2024-10-24T14:48:56.000",
    "date_modified": "2024-10-24T14:48:58.000",
    "request_status": "Pending",
    "responsible_agency": "Department of Sanitation",
    "final_address": "1347 Exposition Blvd",
    "address_councildis": "A",
    "status": "Pending",
    "rowid": "1143781",
    "final_x": "3663998.75546",
    "final_y": "521655.668281",
    "longitude": "-90.12366203492047",
    "latitude": "29.92889170135593",
    "geocoded_column": {
      "latitude": "29.92889170135593",
      "longitude": "-90.12366203492047"
    }
  },
  {
    "service_request": "2024-1143780",
    "request_type": "Parks & Parkways",
    "request_reason": "Request Tree Service (Right of Way/Public Property)",
    "date_created": "2024-10-24T14:45:18.000",
    "date_modified": "2024-10-24T14:45:19.000",
    "request_status": "Pending",
    "responsible_agency": "Department of Parks & Parkway",
    "final_address": "TOLEDANO ST & S ROMAN ST",
    "address_councildis": "B",
    "status": "Pending",
    "rowid": "1143780",
    "final_x": "3672373.3",
    "final_y": "527072.98",
    "longitude": "-90.0970407191493",
    "latitude": "29.943541794989315",
    "geocoded_column": {
      "latitude": "29.943541794989315",
      "longitude": "-90.0970407191493"
    }
  },
  {
    "service_request": "2024-1143779",
    "request_type": "Streetlights",
    "request_reason": "Streetlight Outage/Malfunction",
    "date_created": "2024-10-24T14:41:38.000",
    "date_modified": "2024-10-24T14:41:40.000",
    "request_status": "Pending",
    "responsible_agency": "Department of Public Works",
    "final_address": "1624 Charlton Dr",
    "address_councildis": "D",
    "status": "Pending",
    "contractor": "Legacy Professional Services",
    "rowid": "1143779",
    "final_x": "3680167.23912",
    "final_y": "550686.858388",
    "longitude": "-90.07161227183606",
    "latitude": "30.008238262764575",
    "geocoded_column": {
      "latitude": "30.008238262764575",
      "longitude": "-90.07161227183606"
    }
  },
  {
    "service_request": "2024-1143778",
    "request_type": "Healthy Homes",
    "request_reason": "Healthy Homes",
    "date_created": "2024-10-24T14:39:11.000",
    "date_modified": "2024-10-24T14:47:30.000",
    "case_close_date": "2024-10-24T09:47:30.000",
    "request_status": "Closed",
    "responsible_agency": "Department of Code Enforcement",
    "final_address": "4819 Stemway Dr",
    "address_councildis": "D",
    "status": "Referred to Code Enforcement",
    "rowid": "1143778",
    "final_x": "3696944.30288",
    "final_y": "554613.412184",
    "longitude": "-90.01846627174314",
    "latitude": "30.018516179245157",
    "geocoded_column": {
      "latitude": "30.018516179245157",
      "longitude": "-90.01846627174314"
    }
  },
  {
    "service_request": "2024-1143777",
    "request_type": "Roads and Streets",
    "request_reason": "Debris in Driving Lanes",
    "date_created": "2024-10-24T14:37:47.000",
    "date_modified": "2024-10-24T14:37:48.000",
    "request_status": "Pending",
    "responsible_agency": "Department of Public Works",
    "final_address": "S CLAIBORNE AVE & TOLEDANO ST",
    "address_councildis": "B",
    "status": "Pending",
    "rowid": "1143777",
    "final_x": "3672686.1",
    "final_y": "526316.28",
    "longitude": "-90.09607892276615",
    "latitude": "29.941451833708907",
    "geocoded_column": {
      "latitude": "29.941451833708907",
      "longitude": "-90.09607892276615"
    }
  },
  {
    "service_request": "2024-1143776",
    "request_type": "Parks & Parkways",
    "request_reason": "Request Tree Service (Right of Way/Public Property)",
    "date_created": "2024-10-24T14:29:02.000",
    "date_modified": "2024-10-24T14:29:03.000",
    "request_status": "Pending",
    "responsible_agency": "Department of Parks & Parkway",
    "final_address": "1500 BLK Nunez St",
    "address_councildis": "C",
    "status": "Pending",
    "rowid": "1143776",
    "final_x": "3687094.13562",
    "final_y": "525740.864316",
    "longitude": "-90.0506103816211",
    "latitude": "29.939433991798925",
    "geocoded_column": {
      "latitude": "29.939433991798925",
      "longitude": "-90.0506103816211"
    }
  },
  {
    "service_request": "2024-1143775",
    "request_type": "Trash/Recycling",
    "request_reason": "Repair Trash Cart",
    "date_created": "2024-10-24T14:28:30.000",
    "date_modified": "2024-10-24T14:28:31.000",
    "request_status": "Pending",
    "responsible_agency": "Department of Sanitation",
    "final_address": "4923 S Galvez St",
    "address_councildis": "B",
    "status": "Assigned to Contractor",
    "contractor": "IV Waste",
    "rowid": "1143775",
    "final_x": "3669052.92161",
    "final_y": "527401.707711",
    "longitude": "-90.10751295125154",
    "latitude": "29.944543778440778",
    "geocoded_column": {
      "latitude": "29.944543778440778",
      "longitude": "-90.10751295125154"
    }
  },
  {
    "service_request": "2024-1143774",
    "request_type": "Trash/Recycling",
    "request_reason": "Request a Large Item Pick Up",
    "date_created": "2024-10-24T14:24:37.000",
    "date_modified": "2024-10-24T14:24:39.000",
    "request_status": "Pending",
    "responsible_agency": "Department of Sanitation",
    "final_address": "4300 Duplessis St",
    "address_councildis": "D",
    "status": "Assigned to Contractor",
    "contractor": "IV Waste",
    "rowid": "1143774",
    "final_x": "3678224.70075",
    "final_y": "548042.609682",
    "longitude": "-90.07784088831436",
    "latitude": "30.001026192258312",
    "geocoded_column": {
      "latitude": "30.001026192258312",
      "longitude": "-90.07784088831436"
    }
  },
  {
    "service_request": "2024-1143773",
    "request_type": "Drainage",
    "request_reason": "Drainage Manhole Cover Missing or Damaged",
    "date_created": "2024-10-24T14:21:06.000",
    "date_modified": "2024-10-24T14:21:07.000",
    "request_status": "Pending",
    "responsible_agency": "Department of Public Works",
    "final_address": "6500 Magazine St",
    "address_councildis": "A",
    "status": "Pending",
    "rowid": "1143773",
    "final_x": "3662586.74362",
    "final_y": "520120.866808",
    "longitude": "-90.12817045257185",
    "latitude": "29.924712390786677",
    "geocoded_column": {
      "latitude": "29.924712390786677",
      "longitude": "-90.12817045257185"
    }
  },
  {
    "service_request": "2024-1143772",
    "request_type": "Roads and Streets",
    "request_reason": "Abandoned Service Cut",
    "date_created": "2024-10-24T14:20:41.000",
    "date_modified": "2024-10-24T14:24:48.000",
    "request_status": "Pending",
    "responsible_agency": "Department of Public Works",
    "final_address": "7700 BLK Green St",
    "address_councildis": "A",
    "status": "Pending",
    "rowid": "1143772",
    "final_x": "3664106.00344",
    "final_y": "528794.732881",
    "longitude": "-90.1230854391806",
    "latitude": "29.948518741214794",
    "geocoded_column": {
      "latitude": "29.948518741214794",
      "longitude": "-90.1230854391806"
    }
  },
  {
    "service_request": "2024-1143771",
    "request_type": "Streetlights",
    "request_reason": "Streetlight Outage/Malfunction",
    "date_created": "2024-10-24T14:18:37.000",
    "date_modified": "2024-10-24T14:18:38.000",
    "request_status": "Pending",
    "responsible_agency": "Department of Public Works",
    "final_address": "6600 Pauline Dr",
    "address_councildis": "D",
    "status": "Pending",
    "contractor": "Legacy Professional Services",
    "rowid": "1143771",
    "final_x": "3690842.45936",
    "final_y": "557953.077467",
    "longitude": "-90.03762647986024",
    "latitude": "30.027890122978544",
    "geocoded_column": {
      "latitude": "30.027890122978544",
      "longitude": "-90.03762647986024"
    }
  },
  {
    "service_request": "2024-1143770",
    "request_type": "Streetlights",
    "request_reason": "Streetlight Outage/Malfunction",
    "date_created": "2024-10-24T14:16:44.000",
    "date_modified": "2024-10-24T14:16:46.000",
    "request_status": "Pending",
    "responsible_agency": "Department of Public Works",
    "final_address": "N MIRO ST & FELICIANA ST",
    "address_councildis": "D",
    "status": "Pending",
    "contractor": "Legacy Professional Services",
    "rowid": "1143770",
    "final_x": "3689766.7",
    "final_y": "540203.48",
    "longitude": "-90.04165805472383",
    "latitude": "29.979118622329608",
    "geocoded_column": {
      "latitude": "29.979118622329608",
      "longitude": "-90.04165805472383"
    }
  },
  {
    "service_request": "2024-1143769",
    "request_type": "Abandoned Vehicles",
    "request_reason": "Abandoned/Junk Vehicles",
    "date_created": "2024-10-24T14:11:49.000",
    "date_modified": "2024-10-24T14:11:49.000",
    "request_status": "Pending",
    "responsible_agency": "Department of Public Works",
    "final_address": "3807 St Ferdinand St",
    "address_councildis": "D",
    "status": "Pending",
    "rowid": "1143769",
    "final_x": "3689980.24035",
    "final_y": "547259.048209",
    "longitude": "-90.04073222998112",
    "latitude": "29.99851227774616",
    "geocoded_column": {
      "latitude": "29.99851227774616",
      "longitude": "-90.04073222998112"
    }
  },
  {
    "service_request": "2024-1143768",
    "request_type": "Trash/Recycling",
    "request_reason": "Request a Large Item Pick Up",
    "date_created": "2024-10-24T14:08:58.000",
    "date_modified": "2024-10-24T16:06:38.000",
    "request_status": "Pending",
    "responsible_agency": "Department of Sanitation",
    "final_address": "1035 Terry St",
    "address_councildis": "C",
    "status": "Assigned to Contractor",
    "contractor": "Richards Disposal",
    "rowid": "1143768",
    "final_x": "3696961.25367",
    "final_y": "527575.020159",
    "longitude": "-90.01939235875989",
    "latitude": "29.944169871963737",
    "geocoded_column": {
      "latitude": "29.944169871963737",
      "longitude": "-90.01939235875989"
    }
  },
  {
    "service_request": "2024-1143767",
    "request_type": "Abandoned Vehicles",
    "request_reason": "Abandoned/Junk Vehicles",
    "date_created": "2024-10-24T14:07:38.000",
    "date_modified": "2024-10-24T14:07:38.000",
    "request_status": "Pending",
    "responsible_agency": "Department of Public Works",
    "final_address": "3807 St Ferdinand St",
    "address_councildis": "D",
    "status": "Pending",
    "rowid": "1143767",
    "final_x": "3689980.24035",
    "final_y": "547259.048209",
    "longitude": "-90.04073222998112",
    "latitude": "29.99851227774616",
    "geocoded_column": {
      "latitude": "29.99851227774616",
      "longitude": "-90.04073222998112"
    }
  },
  {
    "service_request": "2024-1143766",
    "request_type": "Trash/Recycling",
    "request_reason": "Return Trash Cart",
    "date_created": "2024-10-24T14:07:20.000",
    "date_modified": "2024-10-24T14:07:21.000",
    "request_status": "Pending",
    "responsible_agency": "Department of Sanitation",
    "final_address": "4124 Annunciation St",
    "address_councildis": "B",
    "status": "Assigned to Contractor",
    "contractor": "IV Waste",
    "rowid": "1143766",
    "final_x": "3672047.86107",
    "final_y": "517792.23423",
    "longitude": "-90.0983840220711",
    "latitude": "29.91803238414802",
    "geocoded_column": {
      "latitude": "29.91803238414802",
      "longitude": "-90.0983840220711"
    }
  },
  {
    "service_request": "2024-1143765",
    "request_type": "Drainage",
    "request_reason": "Catch Basin Clogged",
    "date_created": "2024-10-24T14:03:14.000",
    "date_modified": "2024-10-24T14:03:14.000",
    "request_status": "Pending",
    "responsible_agency": "Department of Public Works",
    "final_address": "3637 Desaix Blvd",
    "address_councildis": "D",
    "status": "Pending",
    "rowid": "1143765",
    "final_x": "3675467.35681",
    "final_y": "543794.89915",
    "longitude": "-90.08669756441621",
    "latitude": "29.989429259283128",
    "geocoded_column": {
      "latitude": "29.989429259283128",
      "longitude": "-90.08669756441621"
    }
  },
  {
    "service_request": "2024-1143764",
    "request_type": "Trash/Recycling",
    "request_reason": "Request a Large Item Pick Up",
    "date_created": "2024-10-24T14:02:07.000",
    "date_modified": "2024-10-24T14:02:45.000",
    "request_status": "Pending",
    "responsible_agency": "Department of Sanitation",
    "final_address": "919 St Roch Ave",
    "address_councildis": "C",
    "status": "Assigned to Contractor",
    "contractor": "IV Waste",
    "rowid": "1143764",
    "final_x": "3686567.3599",
    "final_y": "535881.161863",
    "longitude": "-90.05191545620613",
    "latitude": "29.967332540679948",
    "geocoded_column": {
      "latitude": "29.967332540679948",
      "longitude": "-90.05191545620613"
    }
  },
  {
    "service_request": "2024-1143763",
    "request_type": "Property Maintenance",
    "request_reason": "Property Maintenance",
    "date_created": "2024-10-24T14:00:50.000",
    "date_modified": "2024-10-24T14:48:33.000",
    "case_close_date": "2024-10-24T09:48:33.000",
    "request_status": "Closed",
    "responsible_agency": "Department of Code Enforcement",
    "final_address": "3803 St Ferdinand St",
    "address_councildis": "D",
    "status": "Referred to Code Enforcement",
    "rowid": "1143763",
    "final_x": "3689982.77846",
    "final_y": "547225.211345",
    "longitude": "-90.04072541793317",
    "latitude": "29.99841915994222",
    "geocoded_column": {
      "latitude": "29.99841915994222",
      "longitude": "-90.04072541793317"
    }
  },
  {
    "service_request": "2024-1143762",
    "request_type": "Property Maintenance",
    "request_reason": "Property Maintenance",
    "date_created": "2024-10-24T13:59:45.000",
    "date_modified": "2024-10-24T15:03:14.000",
    "case_close_date": "2024-10-24T10:03:14.000",
    "request_status": "Closed",
    "responsible_agency": "Department of Code Enforcement",
    "final_address": "1679 Humanity St",
    "address_councildis": "D",
    "status": "Referred to Code Enforcement",
    "rowid": "1143762",
    "final_x": "3680470.59643",
    "final_y": "544515.110991",
    "longitude": "-90.07086870272921",
    "latitude": "29.991258966351367",
    "geocoded_column": {
      "latitude": "29.991258966351367",
      "longitude": "-90.07086870272921"
    }
  },
  {
    "service_request": "2024-1143761",
    "request_type": "Roads and Streets",
    "request_reason": "Street Subsidence (Sinking)",
    "date_created": "2024-10-24T13:53:47.000",
    "date_modified": "2024-10-24T13:53:48.000",
    "request_status": "Pending",
    "responsible_agency": "Department of Public Works",
    "final_address": "2764 Sage St",
    "address_councildis": "D",
    "status": "Pending",
    "rowid": "1143761",
    "final_x": "3688424.88585",
    "final_y": "545548.99784",
    "longitude": "-90.04570628844112",
    "latitude": "29.993858409568684",
    "geocoded_column": {
      "latitude": "29.993858409568684",
      "longitude": "-90.04570628844112"
    }
  },
  {
    "service_request": "2024-1143760",
    "request_type": "Roads and Streets",
    "request_reason": "Debris in Driving Lanes",
    "date_created": "2024-10-24T13:53:22.000",
    "date_modified": "2024-10-24T13:53:22.000",
    "request_status": "Pending",
    "responsible_agency": "Department of Public Works",
    "final_address": "1527 Jourdan Ave",
    "address_councildis": "E",
    "status": "Pending",
    "rowid": "1143760",
    "final_x": "3695593.24419",
    "final_y": "536177.312263",
    "longitude": "-90.02340103516475",
    "latitude": "29.96786621632608",
    "geocoded_column": {
      "latitude": "29.96786621632608",
      "longitude": "-90.02340103516475"
    }
  },
  {
    "service_request": "2024-1143759",
    "request_type": "Trash/Recycling",
    "request_reason": "Request a Large Item Pick Up",
    "date_created": "2024-10-24T13:53:14.000",
    "date_modified": "2024-10-24T13:53:15.000",
    "request_status": "Pending",
    "responsible_agency": "Department of Sanitation",
    "final_address": "2123 Fats Domino Ave",
    "address_councildis": "E",
    "status": "Assigned to Contractor",
    "contractor": "Waste Pro",
    "rowid": "1143759",
    "final_x": "3699140.0842",
    "final_y": "537674.921736",
    "longitude": "-90.01214554008067",
    "latitude": "29.971872134826388",
    "geocoded_column": {
      "latitude": "29.971872134826388",
      "longitude": "-90.01214554008067"
    }
  },
  {
    "service_request": "2024-1143758",
    "request_type": "Safety & Permits",
    "request_reason": "Construction permit",
    "date_created": "2024-10-24T13:51:38.000",
    "date_modified": "2024-10-24T13:51:39.000",
    "request_status": "Pending",
    "responsible_agency": "Safety and Permits",
    "final_address": "4240 Toulouse St",
    "address_councildis": "A",
    "status": "Pending",
    "rowid": "1143758",
    "final_x": "3671562.44539",
    "final_y": "540174.157131",
    "longitude": "-90.09915527723946",
    "latitude": "29.979589696937843",
    "geocoded_column": {
      "latitude": "29.979589696937843",
      "longitude": "-90.09915527723946"
    }
  },
  {
    "service_request": "2024-1143757",
    "request_type": "Trash/Recycling",
    "request_reason": "Request a Large Item Pick Up",
    "date_created": "2024-10-24T13:50:19.000",
    "date_modified": "2024-10-24T13:50:20.000",
    "request_status": "Pending",
    "responsible_agency": "Department of Sanitation",
    "final_address": "1311 Frenchmen St",
    "address_councildis": "C",
    "status": "Assigned to Contractor",
    "contractor": "IV Waste",
    "rowid": "1143757",
    "final_x": "3684551.65045",
    "final_y": "537110.7602",
    "longitude": "-90.05823787430131",
    "latitude": "29.970775338622733",
    "geocoded_column": {
      "latitude": "29.970775338622733",
      "longitude": "-90.05823787430131"
    }
  },
  {
    "service_request": "2024-1143756",
    "request_type": "Trash/Recycling",
    "request_reason": "Request a Large Item Pick Up",
    "date_created": "2024-10-24T13:49:10.000",
    "date_modified": "2024-10-24T13:49:12.000",
    "request_status": "Pending",
    "responsible_agency": "Department of Sanitation",
    "final_address": "1931 Tricou St",
    "address_councildis": "E",
    "status": "Assigned to Contractor",
    "contractor": "Waste Pro",
    "rowid": "1143756",
    "final_x": "3701425.70538",
    "final_y": "536118.848455",
    "longitude": "-90.00498420739169",
    "latitude": "29.96752083418976",
    "geocoded_column": {
      "latitude": "29.96752083418976",
      "longitude": "-90.00498420739169"
    }
  },
  {
    "service_request": "2024-1143755",
    "request_type": "Trash/Recycling",
    "request_reason": "Illegal Dumping",
    "date_created": "2024-10-24T13:48:53.000",
    "date_modified": "2024-10-24T13:48:53.000",
    "request_status": "Pending",
    "responsible_agency": "Department of Sanitation",
    "final_address": "4200 BLK Almonaster Ave",
    "address_councildis": "D",
    "status": "Pending",
    "rowid": "1143755",
    "final_x": "3691176.47883",
    "final_y": "548349.501186",
    "longitude": "-90.03691435042022",
    "latitude": "30.00147346583787",
    "geocoded_column": {
      "latitude": "30.00147346583787",
      "longitude": "-90.03691435042022"
    }
  },
  {
    "service_request": "2024-1143754",
    "request_type": "Roads and Streets",
    "request_reason": "Sidewalk Damaged or Missing",
    "date_created": "2024-10-24T13:48:17.000",
    "date_modified": "2024-10-24T13:48:17.000",
    "request_status": "Pending",
    "responsible_agency": "Department of Public Works",
    "final_address": "8860 Apricot St",
    "address_councildis": "A",
    "status": "Pending",
    "rowid": "1143754",
    "final_x": "3663760.65939",
    "final_y": "534450.140933",
    "longitude": "-90.1239873783174",
    "latitude": "29.964079301064018",
    "geocoded_column": {
      "latitude": "29.964079301064018",
      "longitude": "-90.1239873783174"
    }
  },
  {
    "service_request": "2024-1143753",
    "request_type": "Abandoned Vehicles",
    "request_reason": "Abandoned/Junk Vehicles",
    "date_created": "2024-10-24T13:34:40.000",
    "date_modified": "2024-10-24T13:43:29.000",
    "request_status": "Pending",
    "responsible_agency": "Department of Public Works",
    "final_address": "2138 New Orleans St",
    "address_councildis": "D",
    "status": "Pending",
    "rowid": "1143753",
    "final_x": "3682061.79285",
    "final_y": "540058.442251",
    "longitude": "-90.0659981830645",
    "latitude": "29.978956391397",
    "geocoded_column": {
      "latitude": "29.978956391397",
      "longitude": "-90.0659981830645"
    }
  },
  {
    "service_request": "2024-1143752",
    "request_type": "Trash/Recycling",
    "request_reason": "Request a Large Item Pick Up",
    "date_created": "2024-10-24T13:32:30.000",
    "date_modified": "2024-10-24T13:32:31.000",
    "request_status": "Pending",
    "responsible_agency": "Department of Sanitation",
    "final_address": "3816 Ulloa St",
    "address_councildis": "B",
    "status": "Assigned to Contractor",
    "contractor": "IV Waste",
    "rowid": "1143752",
    "final_x": "3670504.27124",
    "final_y": "535790.987591",
    "longitude": "-90.10264611509899",
    "latitude": "29.967568755047406",
    "geocoded_column": {
      "latitude": "29.967568755047406",
      "longitude": "-90.10264611509899"
    }
  },
  {
    "service_request": "2024-1143751",
    "request_type": "Roads and Streets",
    "request_reason": "Pothole",
    "date_created": "2024-10-24T13:32:00.000",
    "date_modified": "2024-10-24T13:32:00.000",
    "request_status": "Pending",
    "responsible_agency": "Department of Public Works",
    "final_address": "2100 BLK Dublin St",
    "address_councildis": "A",
    "status": "Pending",
    "rowid": "1143751",
    "final_x": "3663949.27246",
    "final_y": "531077.260468",
    "longitude": "-90.12350421309866",
    "latitude": "29.954799505132147",
    "geocoded_column": {
      "latitude": "29.954799505132147",
      "longitude": "-90.12350421309866"
    }
  },
  {
    "service_request": "2024-1143750",
    "request_type": "Trash/Recycling",
    "request_reason": "Repair Trash Cart",
    "date_created": "2024-10-24T13:30:23.000",
    "date_modified": "2024-10-24T13:30:24.000",
    "request_status": "Pending",
    "responsible_agency": "Department of Sanitation",
    "final_address": "2919 Milan St",
    "address_councildis": "B",
    "status": "Assigned to Contractor",
    "contractor": "IV Waste",
    "rowid": "1143750",
    "final_x": "3671171.91265",
    "final_y": "525688.486909",
    "longitude": "-90.10088083879788",
    "latitude": "29.939770476621923",
    "geocoded_column": {
      "latitude": "29.939770476621923",
      "longitude": "-90.10088083879788"
    }
  },
  {
    "service_request": "2024-1143749",
    "request_type": "Trash/Recycling",
    "request_reason": "Request a Large Item Pick Up",
    "date_created": "2024-10-24T13:18:37.000",
    "date_modified": "2024-10-24T13:18:38.000",
    "request_status": "Pending",
    "responsible_agency": "Department of Sanitation",
    "final_address": "730 Julia St",
    "address_councildis": "B",
    "status": "Assigned to Contractor",
    "contractor": "Empire Services",
    "rowid": "1143749",
    "final_x": "3680225.15407",
    "final_y": "528028.325951",
    "longitude": "-90.07221717120586",
    "latitude": "29.9459333988802",
    "geocoded_column": {
      "latitude": "29.9459333988802",
      "longitude": "-90.07221717120586"
    }
  },
  {
    "service_request": "2024-1143748",
    "request_type": "Abandoned Vehicles",
    "request_reason": "Abandoned/Junk Vehicles",
    "date_created": "2024-10-24T13:18:23.000",
    "date_modified": "2024-10-24T13:20:14.000",
    "request_status": "Pending",
    "responsible_agency": "Department of Public Works",
    "final_address": "68 Yellowstone Dr",
    "address_councildis": "C",
    "status": "Pending",
    "rowid": "1143748",
    "final_x": "3700358.48592",
    "final_y": "516432.962869",
    "longitude": "-90.0090729721341",
    "latitude": "29.91342550817749",
    "geocoded_column": {
      "latitude": "29.91342550817749",
      "longitude": "-90.0090729721341"
    }
  },
  {
    "service_request": "2024-1143747",
    "request_type": "Trash/Recycling",
    "request_reason": "Illegal Dumping",
    "date_created": "2024-10-24T13:12:59.000",
    "date_modified": "2024-10-24T13:13:00.000",
    "request_status": "Pending",
    "responsible_agency": "Department of Sanitation",
    "final_address": "1020 Terpsichore St",
    "address_councildis": "B",
    "status": "Pending",
    "rowid": "1143747",
    "final_x": "3680541.99848",
    "final_y": "524456.029116",
    "longitude": "-90.07134100962033",
    "latitude": "29.93610117908119",
    "geocoded_column": {
      "latitude": "29.93610117908119",
      "longitude": "-90.07134100962033"
    }
  },
  {
    "service_request": "2024-1143746",
    "request_type": "Trash/Recycling",
    "request_reason": "Request a Large Item Pick Up",
    "date_created": "2024-10-24T13:12:44.000",
    "date_modified": "2024-10-24T13:12:45.000",
    "request_status": "Pending",
    "responsible_agency": "Department of Sanitation",
    "final_address": "634 Port St",
    "address_councildis": "C",
    "status": "Assigned to Contractor",
    "contractor": "IV Waste",
    "rowid": "1143746",
    "final_x": "3686994.49462",
    "final_y": "534825.753222",
    "longitude": "-90.05060387350812",
    "latitude": "29.964417392614596",
    "geocoded_column": {
      "latitude": "29.964417392614596",
      "longitude": "-90.05060387350812"
    }
  },
  {
    "service_request": "2024-1143745",
    "request_type": "Trash/Recycling",
    "request_reason": "Request a Large Item Pick Up",
    "date_created": "2024-10-24T13:07:26.000",
    "date_modified": "2024-10-24T13:07:27.000",
    "request_status": "Pending",
    "responsible_agency": "Department of Sanitation",
    "final_address": "3719 Dumaine St",
    "address_councildis": "A",
    "status": "Assigned to Contractor",
    "contractor": "IV Waste",
    "rowid": "1143745",
    "final_x": "3673935.0674",
    "final_y": "540025.651467",
    "longitude": "-90.09166665285481",
    "latitude": "29.979110875384787",
    "geocoded_column": {
      "latitude": "29.979110875384787",
      "longitude": "-90.09166665285481"
    }
  },
  {
    "service_request": "2024-1143744",
    "request_type": "Healthy Homes",
    "request_reason": "Healthy Homes",
    "date_created": "2024-10-24T13:05:01.000",
    "date_modified": "2024-10-24T15:21:11.000",
    "case_close_date": "2024-10-24T10:21:11.000",
    "request_status": "Closed",
    "responsible_agency": "Department of Code Enforcement",
    "final_address": "3203 Martin Luther King, Jr. Blvd",
    "address_councildis": "B",
    "status": "Referred to Code Enforcement",
    "rowid": "1143744",
    "final_x": "3674454.03572",
    "final_y": "528610.530304",
    "longitude": "-90.09041862542703",
    "latitude": "29.947707657974526",
    "geocoded_column": {
      "latitude": "29.947707657974526",
      "longitude": "-90.09041862542703"
    }
  },
  {
    "service_request": "2024-1143743",
    "request_type": "Roads and Streets",
    "request_reason": "Pothole",
    "date_created": "2024-10-24T13:03:57.000",
    "date_modified": "2024-10-24T13:12:15.000",
    "case_close_date": "2024-10-24T08:12:15.000",
    "request_status": "Closed",
    "responsible_agency": "Department of Public Works",
    "final_address": "3200 BLK Milan St",
    "address_councildis": "B",
    "status": "Resolved",
    "rowid": "1143743",
    "final_x": "3671008.98898",
    "final_y": "526807.364152",
    "longitude": "-90.10135723327627",
    "latitude": "29.942851842811134",
    "geocoded_column": {
      "latitude": "29.942851842811134",
      "longitude": "-90.10135723327627"
    }
  },
  {
    "service_request": "2024-1143742",
    "request_type": "Abandoned Vehicles",
    "request_reason": "Abandoned/Junk Vehicles",
    "date_created": "2024-10-24T12:59:40.000",
    "date_modified": "2024-10-24T12:59:41.000",
    "request_status": "Pending",
    "responsible_agency": "Department of Public Works",
    "final_address": "6200 BLK N Rampart St",
    "address_councildis": "E",
    "status": "Pending",
    "rowid": "1143742",
    "final_x": "3699818.55308",
    "final_y": "532691.254943",
    "longitude": "-90.01018458840056",
    "latitude": "29.958147309728975",
    "geocoded_column": {
      "latitude": "29.958147309728975",
      "longitude": "-90.01018458840056"
    }
  },
  {
    "service_request": "2024-1143741",
    "request_type": "Roads and Streets",
    "request_reason": "Pothole",
    "date_created": "2024-10-24T12:56:57.000",
    "date_modified": "2024-10-24T12:56:58.000",
    "request_status": "Pending",
    "responsible_agency": "Department of Public Works",
    "final_address": "1632 Wagner St",
    "address_councildis": "C",
    "status": "Pending",
    "rowid": "1143741",
    "final_x": "3690398.88252",
    "final_y": "524808.890492",
    "longitude": "-90.0402101015782",
    "latitude": "29.93676924218384",
    "geocoded_column": {
      "latitude": "29.93676924218384",
      "longitude": "-90.0402101015782"
    }
  },
  {
    "service_request": "2024-1143740",
    "request_type": "Trash/Recycling",
    "request_reason": "Repair Trash Cart",
    "date_created": "2024-10-24T12:56:02.000",
    "date_modified": "2024-10-24T12:56:03.000",
    "request_status": "Pending",
    "responsible_agency": "Department of Sanitation",
    "final_address": "1632 Wagner St",
    "address_councildis": "C",
    "status": "Assigned to Contractor",
    "contractor": "Richards Disposal",
    "rowid": "1143740",
    "final_x": "3690398.88252",
    "final_y": "524808.890492",
    "longitude": "-90.0402101015782",
    "latitude": "29.93676924218384",
    "geocoded_column": {
      "latitude": "29.93676924218384",
      "longitude": "-90.0402101015782"
    }
  },
  {
    "service_request": "2024-1143739",
    "request_type": "Parks & Parkways",
    "request_reason": "Request Tree Service (Right of Way/Public Property)",
    "date_created": "2024-10-24T12:54:18.000",
    "date_modified": "2024-10-24T12:54:18.000",
    "request_status": "Pending",
    "responsible_agency": "Department of Parks & Parkway",
    "final_address": "2543 Banks St",
    "address_councildis": "B",
    "status": "Pending",
    "rowid": "1143739",
    "final_x": "3675171.46901",
    "final_y": "533797.942981",
    "longitude": "-90.08797539132958",
    "latitude": "29.9619498946679",
    "geocoded_column": {
      "latitude": "29.9619498946679",
      "longitude": "-90.08797539132958"
    }
  },
  {
    "service_request": "2024-1143738",
    "request_type": "Drainage",
    "request_reason": "Drainage Manhole Cover Missing or Damaged",
    "date_created": "2024-10-24T12:53:13.000",
    "date_modified": "2024-10-24T12:53:13.000",
    "request_status": "Pending",
    "responsible_agency": "Department of Public Works",
    "final_address": "12931 Chanelle Ct",
    "address_councildis": "E",
    "status": "Pending",
    "rowid": "1143738",
    "final_x": "3717055.63692",
    "final_y": "567483.821156",
    "longitude": "-89.95443318702804",
    "latitude": "30.0532547157596",
    "geocoded_column": {
      "latitude": "30.0532547157596",
      "longitude": "-89.95443318702804"
    }
  },
  {
    "service_request": "2024-1143737",
    "request_type": "Property Maintenance",
    "request_reason": "Property Maintenance",
    "date_created": "2024-10-24T12:49:47.000",
    "date_modified": "2024-10-24T15:33:48.000",
    "case_close_date": "2024-10-24T10:33:48.000",
    "request_status": "Closed",
    "responsible_agency": "Department of Code Enforcement",
    "final_address": "12931 Chanelle Ct",
    "address_councildis": "E",
    "status": "Referred to Code Enforcement",
    "rowid": "1143737",
    "final_x": "3717055.63692",
    "final_y": "567483.821156",
    "longitude": "-89.95443318702804",
    "latitude": "30.0532547157596",
    "geocoded_column": {
      "latitude": "30.0532547157596",
      "longitude": "-89.95443318702804"
    }
  },
  {
    "service_request": "2024-1143736",
    "request_type": "Trash/Recycling",
    "request_reason": "Request a Large Item Pick Up",
    "date_created": "2024-10-24T12:47:07.000",
    "date_modified": "2024-10-24T12:47:08.000",
    "request_status": "Pending",
    "responsible_agency": "Department of Sanitation",
    "final_address": "1334 Flanders St",
    "address_councildis": "C",
    "status": "Assigned to Contractor",
    "contractor": "Richards Disposal",
    "rowid": "1143736",
    "final_x": "3696770.42768",
    "final_y": "526330.90643",
    "longitude": "-90.02003986736584",
    "latitude": "29.940755006599044",
    "geocoded_column": {
      "latitude": "29.940755006599044",
      "longitude": "-90.02003986736584"
    }
  },
  {
    "service_request": "2024-1143735",
    "request_type": "Trash/Recycling",
    "request_reason": "Repair Trash Cart",
    "date_created": "2024-10-24T12:46:20.000",
    "date_modified": "2024-10-24T12:46:22.000",
    "request_status": "Pending",
    "responsible_agency": "Department of Sanitation",
    "final_address": "1334 Flanders St",
    "address_councildis": "C",
    "status": "Assigned to Contractor",
    "contractor": "Richards Disposal",
    "rowid": "1143735",
    "final_x": "3696770.42768",
    "final_y": "526330.90643",
    "longitude": "-90.02003986736584",
    "latitude": "29.940755006599044",
    "geocoded_column": {
      "latitude": "29.940755006599044",
      "longitude": "-90.02003986736584"
    }
  },
  {
    "service_request": "2024-1143734",
    "request_type": "Street and Traffic Signs",
    "request_reason": "New Disabled Parking Sign Request ",
    "date_created": "2024-10-24T12:43:18.000",
    "date_modified": "2024-10-24T12:43:19.000",
    "request_status": "Pending",
    "responsible_agency": "Department of Public Works",
    "final_address": "802 Constantinople St",
    "address_councildis": "B",
    "status": "Pending",
    "rowid": "1143734",
    "final_x": "3672514.82875",
    "final_y": "518601.701111",
    "longitude": "-90.09688248571925",
    "latitude": "29.92024431353177",
    "geocoded_column": {
      "latitude": "29.92024431353177",
      "longitude": "-90.09688248571925"
    }
  },
  {
    "service_request": "2024-1143733",
    "request_type": "Property Maintenance",
    "request_reason": "Property Maintenance",
    "date_created": "2024-10-24T12:42:21.000",
    "date_modified": "2024-10-24T12:42:22.000",
    "request_status": "Pending",
    "responsible_agency": "Department of Code Enforcement",
    "final_address": "CLAIBORNE BRIDGE & N CLAIBORNE AVE",
    "address_councildis": "E",
    "status": "Pending",
    "rowid": "1143733",
    "final_x": "3695888.5",
    "final_y": "536212.08",
    "longitude": "-90.02246735675612",
    "latitude": "29.967952530781588",
    "geocoded_column": {
      "latitude": "29.967952530781588",
      "longitude": "-90.02246735675612"
    }
  },
  {
    "service_request": "2024-1143732",
    "request_type": "Trash/Recycling",
    "request_reason": "Replace Trash Cart",
    "date_created": "2024-10-24T12:36:01.000",
    "date_modified": "2024-10-24T12:36:02.000",
    "request_status": "Pending",
    "responsible_agency": "Department of Sanitation",
    "final_address": "620 Wagner St",
    "address_councildis": "C",
    "status": "Assigned to Contractor",
    "contractor": "Richards Disposal",
    "rowid": "1143732",
    "final_x": "3690610.86505",
    "final_y": "529177.708544",
    "longitude": "-90.03938511170179",
    "latitude": "29.948775418021253",
    "geocoded_column": {
      "latitude": "29.948775418021253",
      "longitude": "-90.03938511170179"
    }
  },
  {
    "service_request": "2024-1143731",
    "request_type": "Trash/Recycling",
    "request_reason": "Request a Large Item Pick Up",
    "date_created": "2024-10-24T12:26:52.000",
    "date_modified": "2024-10-24T17:50:06.000",
    "case_close_date": "2024-10-24T12:50:06.000",
    "request_status": "Closed",
    "responsible_agency": "Department of Sanitation",
    "final_address": "4619 Gabriel Dr",
    "address_councildis": "E",
    "status": "Duplicate Request",
    "contractor": "Waste Pro",
    "contractor_action": "Duplicate",
    "rowid": "1143731",
    "final_x": "3709030.2211",
    "final_y": "554931.920408",
    "longitude": "-89.98026765260477",
    "latitude": "30.019005076153203",
    "geocoded_column": {
      "latitude": "30.019005076153203",
      "longitude": "-89.98026765260477"
    }
  },
  {
    "service_request": "2024-1143730",
    "request_type": "Trash/Recycling",
    "request_reason": "Request a Large Item Pick Up",
    "date_created": "2024-10-24T12:25:31.000",
    "date_modified": "2024-10-24T12:25:32.000",
    "request_status": "Pending",
    "responsible_agency": "Department of Sanitation",
    "final_address": "2500 Memorial Park Dr",
    "address_councildis": "C",
    "status": "Assigned to Contractor",
    "contractor": "Richards Disposal",
    "rowid": "1143730",
    "final_x": "3692443.42889",
    "final_y": "521531.695673",
    "longitude": "-90.03387273121588",
    "latitude": "29.927694466911927",
    "geocoded_column": {
      "latitude": "29.927694466911927",
      "longitude": "-90.03387273121588"
    }
  },
  {
    "service_request": "2024-1143729",
    "request_type": "Trash/Recycling",
    "request_reason": "Order Trash Cart",
    "date_created": "2024-10-24T12:23:51.000",
    "date_modified": "2024-10-24T12:23:52.000",
    "request_status": "Pending",
    "responsible_agency": "Department of Sanitation",
    "final_address": "1930 Charbonnet St",
    "address_councildis": "E",
    "status": "Assigned to Contractor",
    "contractor": "Waste Pro",
    "rowid": "1143729",
    "final_x": "3699418.13732",
    "final_y": "536889.912968",
    "longitude": "-90.01129601387576",
    "latitude": "29.969704825205504",
    "geocoded_column": {
      "latitude": "29.969704825205504",
      "longitude": "-90.01129601387576"
    }
  },
  {
    "service_request": "2024-1143728",
    "request_type": "Abandoned Vehicles",
    "request_reason": "Vehicle Blocking Your Driveway",
    "date_created": "2024-10-24T12:22:16.000",
    "date_modified": "2024-10-24T12:22:16.000",
    "request_status": "Pending",
    "responsible_agency": "Department of Public Works",
    "final_address": "1960 Sumpter St",
    "address_councildis": "D",
    "status": "Pending",
    "rowid": "1143728",
    "final_x": "3682254.94863",
    "final_y": "549324.785555",
    "longitude": "-90.06506418707113",
    "latitude": "30.00442967805086",
    "geocoded_column": {
      "latitude": "30.00442967805086",
      "longitude": "-90.06506418707113"
    }
  },
  {
    "service_request": "2024-1143727",
    "request_type": "Abandoned Vehicles",
    "request_reason": "Vehicle Blocking Your Driveway",
    "date_created": "2024-10-24T12:21:19.000",
    "date_modified": "2024-10-24T12:21:19.000",
    "request_status": "Pending",
    "responsible_agency": "Department of Public Works",
    "final_address": "1960 Sumpter St",
    "address_councildis": "D",
    "status": "Pending",
    "rowid": "1143727",
    "final_x": "3682254.94863",
    "final_y": "549324.785555",
    "longitude": "-90.06506418707113",
    "latitude": "30.00442967805086",
    "geocoded_column": {
      "latitude": "30.00442967805086",
      "longitude": "-90.06506418707113"
    }
  },
  {
    "service_request": "2024-1143726",
    "request_type": "Trash/Recycling",
    "request_reason": "Repair Trash Cart",
    "date_created": "2024-10-24T12:19:49.000",
    "date_modified": "2024-10-24T12:20:29.000",
    "request_status": "Pending",
    "responsible_agency": "Department of Sanitation",
    "final_address": "2526 Elder St",
    "address_councildis": "D",
    "status": "Assigned to Contractor",
    "contractor": "IV Waste",
    "rowid": "1143726",
    "final_x": "3686815.25359",
    "final_y": "545710.583184",
    "longitude": "-90.05078515703582",
    "latitude": "29.994352348875488",
    "geocoded_column": {
      "latitude": "29.994352348875488",
      "longitude": "-90.05078515703582"
    }
  },