[
  {
    "service_request": "2025-1227428",
    "request_type": "Trash/Recycling",
    "request_reason": "Replace Trash Cart",
    "date_created": "2025-09-18T22:11:32.000",
    "date_modified": "2025-09-18T22:11:33.000",
    "request_status": "Pending",
    "responsible_agency": "Department of Sanitation",
    "final_address": "1641 N Galvez St",
    "address_councildis": "D",
    "status": "Assigned to Contractor",
    "contractor": "IV Waste",
    "rowid": "1227428",
    "final_x": "3680943.52885",
    "final_y": "539152.846026",
    "longitude": "-90.0695616325069",
    "latitude": "29.97650027761246",
    "geocoded_column": {
      "latitude": "29.97650027761246",
      "longitude": "-90.0695616325069"
    }
  },
  {
    "service_request": "2025-1227427",
    "request_type": "Street and Traffic Signs",
    "request_reason": "Disabled Parking Sign Missing or Damaged",
    "date_created": "2025-09-18T21:23:33.000",
    "date_modified": "2025-09-18T21:23:35.000",
    "request_status": "Pending",
    "responsible_agency": "Department of Public Works",
    "final_address": "800 BLK Dauphine St",
    "address_councildis": "C",
    "status": "Pending",
    "rowid": "1227427",
    "final_x": "3682317.80528",
    "final_y": "533340.937371",
    "longitude": "-90.06542436535628",
    "latitude": "29.960477784276463",
    "geocoded_column": {
      "latitude": "29.960477784276463",
      "longitude": "-90.06542436535628"
    }
  },
  {
    "service_request": "2025-1227426",
    "request_type": "Streetlights",
    "request_reason": "Streetlight Outage/Malfunction",
    "date_created": "2025-09-18T20:58:11.000",
    "date_modified": "2025-09-18T20:58:13.000",
    "request_status": "Pending",
    "responsible_agency": "Department of Public Works",
    "final_address": "2550 Dumaine St",
    "address_councildis": "D",
    "status": "Pending",
    "rowid": "1227426",
    "final_x": "3677612.72328",
    "final_y": "537123.734216",
    "longitude": "-90.08015142540307",
    "latitude": "29.971021507466098",
    "geocoded_column": {
      "latitude": "29.971021507466098",
      "longitude": "-90.08015142540307"
    }
  },
  {
    "service_request": "2025-1227425",
    "request_type": "Trash/Recycling",
    "request_reason": "Request a Large Item Pick Up",
    "date_created": "2025-09-18T20:45:38.000",
    "date_modified": "2025-09-18T20:45:39.000",
    "request_status": "Pending",
    "responsible_agency": "Department of Sanitation",
    "final_address": "1012 Cambronne St",
    "address_councildis": "A",
    "status": "Assigned to Contractor",
    "contractor": "IV Waste",
    "rowid": "1227425",
    "final_x": "3660762.97542",
    "final_y": "528717.505024",
    "longitude": "-90.13364339045046",
    "latitude": "29.94840305505996",
    "geocoded_column": {
      "latitude": "29.94840305505996",
      "longitude": "-90.13364339045046"
    }
  },
  {
    "service_request": "2025-1227424",
    "request_type": "Trash/Recycling",
    "request_reason": "Request a Large Item Pick Up",
    "date_created": "2025-09-18T20:43:15.000",
    "date_modified": "2025-09-18T20:43:22.000",
    "request_status": "Pending",
    "responsible_agency": "Department of Sanitation",
    "final_address": "1218 Clouet St",
    "address_councildis": "C",
    "status": "Assigned to Contractor",
    "contractor": "IV Waste",
    "rowid": "1227424",
    "final_x": "3689099.03484",
    "final_y": "536515.340615",
    "longitude": "-90.0438978770965",
    "latitude": "29.968998218190936",
    "geocoded_column": {
      "latitude": "29.968998218190936",
      "longitude": "-90.0438978770965"
    }
  },
  {
    "service_request": "2025-1227423",
    "request_type": "Streetlights",
    "request_reason": "Streetlight Outage/Malfunction",
    "date_created": "2025-09-18T20:17:13.000",
    "date_modified": "2025-09-18T20:17:15.000",
    "request_status": "Pending",
    "responsible_agency": "Department of Public Works",
    "final_address": "1314 Napoleon Ave Unit 27",
    "address_councildis": "B",
    "status": "Pending",
    "rowid": "1227423",
    "final_x": "3670552.41927",
    "final_y": "520153.623928",
    "longitude": "-90.10302429805549",
    "latitude": "29.924569689121963",
    "geocoded_column": {
      "latitude": "29.924569689121963",
      "longitude": "-90.10302429805549"
    }
  },
  {
    "service_request": "2025-1227422",
    "request_type": "Trash/Recycling",
    "request_reason": "Replace Recycling Cart",
    "date_created": "2025-09-18T20:09:29.000",
    "date_modified": "2025-09-18T20:09:30.000",
    "request_status": "Pending",
    "responsible_agency": "Department of Sanitation",
    "final_address": "2308 Dauphine St",
    "address_councildis": "C",
    "status": "Pending",
    "rowid": "1227422",
    "final_x": "3685603.80105",
    "final_y": "535244.20519",
    "longitude": "-90.0549808244843",
    "latitude": "29.965610724972848",
    "geocoded_column": {
      "latitude": "29.965610724972848",
      "longitude": "-90.0549808244843"
    }
  },
  {
    "service_request": "2025-1227421",
    "request_type": "Trash/Recycling",
    "request_reason": "Missed Trash Pick-Up",
    "date_created": "2025-09-18T19:55:45.000",
    "date_modified": "2025-09-18T19:55:47.000",
    "request_status": "Pending",
    "responsible_agency": "Department of Sanitation",
    "final_address": "436 S Norman C Francis Prkwy",
    "address_councildis": "B",
    "status": "Assigned to Contractor",
    "contractor": "IV Waste",
    "rowid": "1227421",
    "final_x": "3672386.35284",
    "final_y": "535411.189702",
    "longitude": "-90.09671539224095",
    "latitude": "29.96646872136742",
    "geocoded_column": {
      "latitude": "29.96646872136742",
      "longitude": "-90.09671539224095"
    }
  },
  {
    "service_request": "2025-1227420",
    "request_type": "Streetlights",
    "request_reason": "Streetlight Outage/Malfunction",
    "date_created": "2025-09-18T19:49:41.000",
    "date_modified": "2025-09-18T19:49:42.000",
    "request_status": "Pending",
    "responsible_agency": "Department of Public Works",
    "final_address": "5017 Chestnut St",
    "address_councildis": "B",
    "status": "Pending",
    "rowid": "1227420",
    "final_x": "3668517.54702",
    "final_y": "519370.501623",
    "longitude": "-90.10947412553334",
    "latitude": "29.922476270966378",
    "geocoded_column": {
      "latitude": "29.922476270966378",
      "longitude": "-90.10947412553334"
    }
  },
  {
    "service_request": "2025-1227419",
    "request_type": "Trash/Recycling",
    "request_reason": "Dead Animal Pick Up",
    "date_created": "2025-09-18T19:48:41.000",
    "date_modified": "2025-09-18T19:48:42.000",
    "request_status": "Pending",
    "responsible_agency": "Department of Sanitation",
    "final_address": "Napoleon Ave riverbound between S Miro S Galvez",
    "status": "Assigned to Contractor",
    "rowid": "1227419",
    "longitude": "0.0",
    "latitude": "0.0",
    "geocoded_column": {
      "latitude": "0.0",
      "longitude": "0.0"
    }
  },
  {
    "service_request": "2025-1227418",
    "request_type": "Trash/Recycling",
    "request_reason": "Replace Trash Cart",
    "date_created": "2025-09-18T19:43:57.000",
    "date_modified": "2025-09-18T19:43:58.000",
    "request_status": "Pending",
    "responsible_agency": "Department of Sanitation",
    "final_address": "3438 Annunciation St",
    "address_councildis": "B",
    "status": "Assigned to Contractor",
    "contractor": "IV Waste",
    "rowid": "1227418",
    "final_x": "3675164.79112",
    "final_y": "518449.32223",
    "longitude": "-90.08852302864484",
    "latitude": "29.919746427084473",
    "geocoded_column": {
      "latitude": "29.919746427084473",
      "longitude": "-90.08852302864484"
    }
  },
  {
    "service_request": "2025-1227417",
    "request_type": "Streetlights",
    "request_reason": "Streetlight Outage/Malfunction",
    "date_created": "2025-09-18T19:43:19.000",
    "date_modified": "2025-09-18T19:43:22.000",
    "request_status": "Pending",
    "responsible_agency": "Department of Public Works",
    "final_address": "0 BLK Ani St",
    "address_councildis": "D",
    "status": "Pending",
    "rowid": "1227417",
    "final_x": "3672561.96849",
    "final_y": "554474.005997",
    "longitude": "-90.0955104718156",
    "latitude": "30.01887964634331",
    "geocoded_column": {
      "latitude": "30.01887964634331",
      "longitude": "-90.0955104718156"
    }
  },
  {
    "service_request": "2025-1227416",
    "request_type": "Roads and Streets",
    "request_reason": "Road Shoulder Damage",
    "date_created": "2025-09-18T19:37:30.000",
    "date_modified": "2025-09-18T19:37:33.000",
    "request_status": "Pending",
    "responsible_agency": "Department of Public Works",
    "final_address": "5809 Tullis Dr",
    "address_councildis": "C",
    "status": "Pending",
    "rowid": "1227416",
    "final_x": "3705586.37662",
    "final_y": "512862.490865",
    "longitude": "-89.99270412022292",
    "latitude": "29.903440765473498",
    "geocoded_column": {
      "latitude": "29.903440765473498",
      "longitude": "-89.99270412022292"
    }
  },
  {
    "service_request": "2025-1227415",
    "request_type": "Trash/Recycling",
    "request_reason": "Replace Trash Cart",
    "date_created": "2025-09-18T19:02:50.000",
    "date_modified": "2025-09-18T19:02:51.000",
    "request_status": "Pending",
    "responsible_agency": "Department of Sanitation",
    "final_address": "4818 Knight Dr",
    "address_councildis": "E",
    "status": "Assigned to Contractor",
    "contractor": "Waste Pro",
    "rowid": "1227415",
    "final_x": "3708000.06897",
    "final_y": "556159.714906",
    "longitude": "-89.98347684293797",
    "latitude": "30.02241444141025",
    "geocoded_column": {
      "latitude": "30.02241444141025",
      "longitude": "-89.98347684293797"
    }
  },
  {
    "service_request": "2025-1227414",
    "request_type": "Health Related Request",
    "request_reason": "Noise Ordinance Complaint",
    "date_created": "2025-09-18T19:01:31.000",
    "date_modified": "2025-09-18T19:01:34.000",
    "request_status": "Pending",
    "responsible_agency": "Health Department",
    "final_address": "Carrollton",
    "address_councildis": "A",
    "status": "Pending",
    "rowid": "1227414",
    "final_x": "3670680.56103",
    "final_y": "537714.176904",
    "longitude": "-90.1020241216269",
    "latitude": "29.972851672217033",
    "geocoded_column": {
      "latitude": "29.972851672217033",
      "longitude": "-90.1020241216269"
    }
  },
  {
    "service_request": "2025-1227413",
    "request_type": "Streetlights",
    "request_reason": "Streetlight Outage/Malfunction",
    "date_created": "2025-09-18T18:59:04.000",
    "date_modified": "2025-09-18T18:59:06.000",
    "request_status": "Pending",
    "responsible_agency": "Department of Public Works",
    "final_address": "1323 S Derbigny St",
    "address_councildis": "B",
    "status": "Pending",
    "rowid": "1227413",
    "final_x": "3674920.98037",
    "final_y": "528685.855808",
    "longitude": "-90.08894171264667",
    "latitude": "29.947900842776853",
    "geocoded_column": {
      "latitude": "29.947900842776853",
      "longitude": "-90.08894171264667"
    }
  },
  {
    "service_request": "2025-1227412",
    "request_type": "Health Related Request",
    "request_reason": "Noise Ordinance Complaint",
    "date_created": "2025-09-18T18:43:51.000",
    "date_modified": "2025-09-18T18:43:53.000",
    "request_status": "Pending",
    "responsible_agency": "Health Department",
    "final_address": "920 Poeyfarre St",
    "address_councildis": "B",
    "status": "Pending",
    "rowid": "1227412",
    "final_x": "3681386.82191",
    "final_y": "526445.697534",
    "longitude": "-90.0686045498335",
    "latitude": "29.941546493588717",
    "geocoded_column": {
      "latitude": "29.941546493588717",
      "longitude": "-90.0686045498335"
    }
  },
  {
    "service_request": "2025-1227411",
    "request_type": "Abandoned Vehicles",
    "request_reason": "Abandoned/Junk Vehicles",
    "date_created": "2025-09-18T18:42:43.000",
    "date_modified": "2025-09-18T18:42:45.000",
    "request_status": "Pending",
    "responsible_agency": "Department of Public Works",
    "final_address": "5320 Perrier St",
    "address_councildis": "B",
    "status": "Pending",
    "rowid": "1227411",
    "final_x": "3667505.5474",
    "final_y": "519922.463864",
    "longitude": "-90.11265004882",
    "latitude": "29.924023675519003",
    "geocoded_column": {
      "latitude": "29.924023675519003",
      "longitude": "-90.11265004882"
    }
  },
  {
    "service_request": "2025-1227410",
    "request_type": "Abandoned Vehicles",
    "request_reason": "Abandoned/Junk Vehicles",
    "date_created": "2025-09-18T18:13:08.000",
    "date_modified": "2025-09-18T18:13:09.000",
    "request_status": "Pending",
    "responsible_agency": "Department of Public Works",
    "final_address": "2100 BLK Onzaga St",
    "address_councildis": "D",
    "status": "Pending",
    "rowid": "1227410",
    "final_x": "3680854.95715",
    "final_y": "539260.533143",
    "longitude": "-90.06983761846755",
    "latitude": "29.97679906560821",
    "geocoded_column": {
      "latitude": "29.97679906560821",
      "longitude": "-90.06983761846755"
    }
  },
  {
    "service_request": "2025-1227409",
    "request_type": "Abandoned Vehicles",
    "request_reason": "Abandoned/Junk Vehicles",
    "date_created": "2025-09-18T18:10:22.000",
    "date_modified": "2025-09-18T18:10:23.000",
    "request_status": "Pending",
    "responsible_agency": "Department of Public Works",
    "final_address": "2100 BLK Onzaga St",
    "address_councildis": "D",
    "status": "Pending",
    "rowid": "1227409",
    "final_x": "3680854.95715",
    "final_y": "539260.533143",
    "longitude": "-90.06983761846755",
    "latitude": "29.97679906560821",
    "geocoded_column": {
      "latitude": "29.97679906560821",
      "longitude": "-90.06983761846755"
    }
  },
  {
    "service_request": "2025-1227408",
    "request_type": "Trash/Recycling",
    "request_reason": "Request a Large Item Pick Up",
    "date_created": "2025-09-18T17:58:00.000",
    "date_modified": "2025-09-18T17:58:02.000",
    "request_status": "Pending",
    "responsible_agency": "Department of Sanitation",
    "final_address": "4777 Charlene Dr",
    "address_councildis": "E",
    "status": "Assigned to Contractor",
    "contractor": "Waste Pro",
    "rowid": "1227408",
    "final_x": "3707945.83185",
    "final_y": "555814.582297",
    "longitude": "-89.98366106286178",
    "latitude": "30.021467217828825",
    "geocoded_column": {
      "latitude": "30.021467217828825",
      "longitude": "-89.98366106286178"
    }
  },
  {
    "service_request": "2025-1227407",
    "request_type": "Trash/Recycling",
    "request_reason": "Replace Trash Cart",
    "date_created": "2025-09-18T17:40:18.000",
    "date_modified": "2025-09-18T17:40:20.000",
    "request_status": "Pending",
    "responsible_agency": "Department of Sanitation",
    "final_address": "4630 Laurel St",
    "address_councildis": "B",
    "status": "Assigned to Contractor",
    "contractor": "IV Waste",
    "rowid": "1227407",
    "final_x": "3670126.72263",
    "final_y": "517912.127606",
    "longitude": "-90.10444396683002",
    "latitude": "29.918418846462952",
    "geocoded_column": {
      "latitude": "29.918418846462952",
      "longitude": "-90.10444396683002"
    }
  },
  {
    "service_request": "2025-1227406",
    "request_type": "Trash/Recycling",
    "request_reason": "Replace Recycling Cart",
    "date_created": "2025-09-18T17:33:42.000",
    "date_modified": "2025-09-18T17:33:43.000",
    "request_status": "Pending",
    "responsible_agency": "Department of Sanitation",
    "final_address": "1224 Piety St",
    "address_councildis": "C",
    "status": "Pending",
    "rowid": "1227406",
    "final_x": "3689938.84656",
    "final_y": "536347.614471",
    "longitude": "-90.04125167691438",
    "latitude": "29.96851101773711",
    "geocoded_column": {
      "latitude": "29.96851101773711",
      "longitude": "-90.04125167691438"
    }
  },
  {
    "service_request": "2025-1227405",
    "request_type": "Trash/Recycling",
    "request_reason": "Request a Large Item Pick Up",
    "date_created": "2025-09-18T17:33:01.000",
    "date_modified": "2025-09-18T17:33:04.000",
    "request_status": "Pending",
    "responsible_agency": "Department of Sanitation",
    "final_address": "7620 Freret St",
    "address_councildis": "A",
    "status": "Assigned to Contractor",
    "contractor": "IV Waste",
    "rowid": "1227405",
    "final_x": "3662656.53639",
    "final_y": "526746.596222",
    "longitude": "-90.12773007790707",
    "latitude": "29.94292903702424",
    "geocoded_column": {
      "latitude": "29.94292903702424",
      "longitude": "-90.12773007790707"
    }
  },
  {
    "service_request": "2025-1227404",
    "request_type": "Trash/Recycling",
    "request_reason": "Request a Large Item Pick Up",
    "date_created": "2025-09-18T17:27:09.000",
    "date_modified": "2025-09-18T17:27:11.000",
    "request_status": "Pending",
    "responsible_agency": "Department of Sanitation",
    "final_address": "2437 First St",
    "address_councildis": "B",
    "status": "Assigned to Contractor",
    "contractor": "IV Waste",
    "rowid": "1227404",
    "final_x": "3675221.9595",
    "final_y": "525899.855357",
    "longitude": "-90.08808699661715",
    "latitude": "29.940231268501517",
    "geocoded_column": {
      "latitude": "29.940231268501517",
      "longitude": "-90.08808699661715"
    }
  },
  {
    "service_request": "2025-1227403",
    "request_type": "Trash/Recycling",
    "request_reason": "Request a Large Item Pick Up",
    "date_created": "2025-09-18T17:27:09.000",
    "date_modified": "2025-09-18T17:27:11.000",
    "request_status": "Pending",
    "responsible_agency": "Department of Sanitation",
    "final_address": "2437 First St",
    "address_councildis": "B",
    "status": "Assigned to Contractor",
    "contractor": "IV Waste",
    "rowid": "1227403",
    "final_x": "3675221.9595",
    "final_y": "525899.855357",
    "longitude": "-90.08808699661715",
    "latitude": "29.940231268501517",
    "geocoded_column": {
      "latitude": "29.940231268501517",
      "longitude": "-90.08808699661715"
    }
  },
  {
    "service_request": "2025-1227402",
    "request_type": "General Services",
    "request_reason": "General Service Request",
    "date_created": "2025-09-18T17:10:27.000",
    "date_modified": "2025-09-18T17:10:30.000",
    "request_status": "Pending",
    "responsible_agency": "Orleans Parish Communication District",
    "final_address": "1610 Allen Toussaint Blvd",
    "address_councildis": "D",
    "status": "Pending",
    "rowid": "1227402",
    "final_x": "3679122.13621",
    "final_y": "555269.311065",
    "longitude": "-90.07475505755605",
    "latitude": "30.020869953757085",
    "geocoded_column": {
      "latitude": "30.020869953757085",
      "longitude": "-90.07475505755605"
    }
  },
  {
    "service_request": "2025-1227401",
    "request_type": "Property Maintenance",
    "request_reason": "Property Maintenance",
    "date_created": "2025-09-18T17:04:35.000",
    "date_modified": "2025-09-18T17:04:37.000",
    "request_status": "Pending",
    "responsible_agency": "Department of Code Enforcement",
    "final_address": "7851 W Cavelier Dr",
    "address_councildis": "E",
    "status": "Pending",
    "rowid": "1227401",
    "final_x": "3724119.63398",
    "final_y": "569596.902182",
    "longitude": "-89.93202439797291",
    "latitude": "30.0588291714342",
    "geocoded_column": {
      "latitude": "30.0588291714342",
      "longitude": "-89.93202439797291"
    }
  },
  {
    "service_request": "2025-1227400",
    "request_type": "Roads and Streets",
    "request_reason": "Pothole",
    "date_created": "2025-09-18T17:01:45.000",
    "date_modified": "2025-09-18T17:01:47.000",
    "request_status": "Pending",
    "responsible_agency": "Department of Public Works",
    "final_address": "5100 Arts St",
    "address_councildis": "D",
    "status": "Pending",
    "rowid": "1227400",
    "final_x": "3685755.01295",
    "final_y": "551554.118805",
    "longitude": "-90.05392820625407",
    "latitude": "30.010452547329084",
    "geocoded_column": {
      "latitude": "30.010452547329084",
      "longitude": "-90.05392820625407"
    }
  },
  {
    "service_request": "2025-1227399",
    "request_type": "Trash/Recycling",
    "request_reason": "Repair Recycling Cart",
    "date_created": "2025-09-18T17:01:07.000",
    "date_modified": "2025-09-18T17:01:09.000",
    "request_status": "Pending",
    "responsible_agency": "Department of Sanitation",
    "final_address": "7045 Argonne Blvd",
    "address_councildis": "A",
    "status": "Pending",
    "rowid": "1227399",
    "final_x": "3670867.69479",
    "final_y": "554184.561112",
    "longitude": "-90.10087362833846",
    "latitude": "30.018133993299553",
    "geocoded_column": {
      "latitude": "30.018133993299553",
      "longitude": "-90.10087362833846"
    }
  },
  {
    "service_request": "2025-1227398",
    "request_type": "Abandoned Vehicles",
    "request_reason": "Abandoned/Junk Vehicles",
    "date_created": "2025-09-18T16:54:09.000",
    "date_modified": "2025-09-18T16:54:11.000",
    "request_status": "Pending",
    "responsible_agency": "Department of Public Works",
    "final_address": "446 Crystal St",
    "address_councildis": "D",
    "status": "Pending",
    "rowid": "1227398",
    "final_x": "3668146.12513",
    "final_y": "556144.14569",
    "longitude": "-90.1094066561213",
    "latitude": "30.023602364892938",
    "geocoded_column": {
      "latitude": "30.023602364892938",
      "longitude": "-90.1094066561213"
    }
  },
  {
    "service_request": "2025-1227397",
    "request_type": "Trash/Recycling",
    "request_reason": "Order Second Trash Cart",
    "date_created": "2025-09-18T16:47:35.000",
    "date_modified": "2025-09-18T16:47:37.000",
    "request_status": "Pending",
    "responsible_agency": "Department of Sanitation",
    "final_address": "4922 Wright Rd",
    "address_councildis": "E",
    "status": "Assigned to Contractor",
    "contractor": "Waste Pro",
    "rowid": "1227397",
    "final_x": "3716536.65605",
    "final_y": "557685.161307",
    "longitude": "-89.95644568746418",
    "latitude": "30.026329532399615",
    "geocoded_column": {
      "latitude": "30.026329532399615",
      "longitude": "-89.95644568746418"
    }
  },
  {
    "service_request": "2025-1227396",
    "request_type": "Streetlights",
    "request_reason": "Streetlight Outage/Malfunction",
    "date_created": "2025-09-18T16:43:50.000",
    "date_modified": "2025-09-18T16:43:51.000",
    "request_status": "Pending",
    "responsible_agency": "Department of Public Works",
    "final_address": "4922 Wright Rd",
    "address_councildis": "E",
    "status": "Pending",
    "rowid": "1227396",
    "final_x": "3716536.65605",
    "final_y": "557685.161307",
    "longitude": "-89.95644568746418",
    "latitude": "30.026329532399615",
    "geocoded_column": {
      "latitude": "30.026329532399615",
      "longitude": "-89.95644568746418"
    }
  },
  {
    "service_request": "2025-1227395",
    "request_type": "Healthy Homes",
    "request_reason": "Healthy Homes",
    "date_created": "2025-09-18T16:43:28.000",
    "date_modified": "2025-09-18T16:43:30.000",
    "request_status": "Pending",
    "responsible_agency": "Department of Code Enforcement",
    "final_address": "514 S Norman C Francis Prkwy",
    "address_councildis": "B",
    "status": "Pending",
    "rowid": "1227395",
    "final_x": "3672260.96353",
    "final_y": "535250.081926",
    "longitude": "-90.09711685994883",
    "latitude": "29.966029449382265",
    "geocoded_column": {
      "latitude": "29.966029449382265",
      "longitude": "-90.09711685994883"
    }
  },
  {
    "service_request": "2025-1227394",
    "request_type": "Roads and Streets",
    "request_reason": "Street Subsidence (Sinking)",
    "date_created": "2025-09-18T16:41:13.000",
    "date_modified": "2025-09-18T16:41:14.000",
    "request_status": "Pending",
    "responsible_agency": "Sewerage & Water Board",
    "final_address": "766 Harrison Ave",
    "address_councildis": "A",
    "status": "Pending",
    "rowid": "1227394",
    "final_x": "3669236.15246",
    "final_y": "549082.044115",
    "longitude": "-90.10620136087446",
    "latitude": "30.004152017571418",
    "geocoded_column": {
      "latitude": "30.004152017571418",
      "longitude": "-90.10620136087446"
    }
  },
  {
    "service_request": "2025-1227393",
    "request_type": "Trash/Recycling",
    "request_reason": "Request a Large Item Pick Up",
    "date_created": "2025-09-18T16:39:46.000",
    "date_modified": "2025-09-18T16:39:47.000",
    "request_status": "Pending",
    "responsible_agency": "Department of Sanitation",
    "final_address": "2063 N Johnson St",
    "address_councildis": "D",
    "status": "Assigned to Contractor",
    "contractor": "IV Waste",
    "rowid": "1227393",
    "final_x": "3684142.88514",
    "final_y": "539605.659082",
    "longitude": "-90.05944120643483",
    "latitude": "29.97764794194206",
    "geocoded_column": {
      "latitude": "29.97764794194206",
      "longitude": "-90.05944120643483"
    }
  },
  {
    "service_request": "2025-1227392",
    "request_type": "Trash/Recycling",
    "request_reason": "Replace Trash Cart",
    "date_created": "2025-09-18T16:38:53.000",
    "date_modified": "2025-09-18T16:38:55.000",
    "request_status": "Pending",
    "responsible_agency": "Department of Sanitation",
    "final_address": "2742 Verbena St",
    "address_councildis": "D",
    "status": "Assigned to Contractor",
    "contractor": "IV Waste",
    "rowid": "1227392",
    "final_x": "3688085.46998",
    "final_y": "547848.253586",
    "longitude": "-90.04669689622224",
    "latitude": "30.00019101537935",
    "geocoded_column": {
      "latitude": "30.00019101537935",
      "longitude": "-90.04669689622224"
    }
  },
  {
    "service_request": "2025-1227391",
    "request_type": "Abandoned Vehicles",
    "request_reason": "Abandoned/Junk Vehicles",
    "date_created": "2025-09-18T16:36:05.000",
    "date_modified": "2025-09-18T16:36:07.000",
    "request_status": "Pending",
    "responsible_agency": "Department of Public Works",
    "final_address": "8600 Grant St",
    "address_councildis": "E",
    "status": "Pending",
    "rowid": "1227391",
    "final_x": "3707155.13214",
    "final_y": "554299.675992",
    "longitude": "-89.98621571257121",
    "latitude": "30.017327397606618",
    "geocoded_column": {
      "latitude": "30.017327397606618",
      "longitude": "-89.98621571257121"
    }
  },
  {
    "service_request": "2025-1227390",
    "request_type": "Trash/Recycling",
    "request_reason": "Order Trash Cart",
    "date_created": "2025-09-18T16:34:30.000",
    "date_modified": "2025-09-18T16:34:32.000",
    "request_status": "Pending",
    "responsible_agency": "Department of Sanitation",
    "final_address": "3436 Magazine St",
    "address_councildis": "B",
    "status": "Assigned to Contractor",
    "contractor": "IV Waste",
    "rowid": "1227390",
    "final_x": "3674763.85345",
    "final_y": "519416.188087",
    "longitude": "-90.08975547132286",
    "latitude": "29.922416968636142",
    "geocoded_column": {
      "latitude": "29.922416968636142",
      "longitude": "-90.08975547132286"
    }
  },
  {
    "service_request": "2025-1227389",
    "request_type": "Trash/Recycling",
    "request_reason": "Request a Large Item Pick Up",
    "date_created": "2025-09-18T16:29:30.000",
    "date_modified": "2025-09-18T16:29:32.000",
    "request_status": "Pending",
    "responsible_agency": "Department of Sanitation",
    "final_address": "248 Cherokee St",
    "address_councildis": "A",
    "status": "Assigned to Contractor",
    "contractor": "IV Waste",
    "rowid": "1227389",
    "final_x": "3661212.55507",
    "final_y": "524446.792764",
    "longitude": "-90.13236520500695",
    "latitude": "29.93664700232731",
    "geocoded_column": {
      "latitude": "29.93664700232731",
      "longitude": "-90.13236520500695"
    }
  },
  {
    "service_request": "2025-1227388",
    "request_type": "Trash/Recycling",
    "request_reason": "Repair Trash Cart",
    "date_created": "2025-09-18T16:25:46.000",
    "date_modified": "2025-09-18T16:25:49.000",
    "request_status": "Pending",
    "responsible_agency": "Department of Sanitation",
    "final_address": "6311 St Roch Ave",
    "address_councildis": "D",
    "status": "Assigned to Contractor",
    "contractor": "IV Waste",
    "rowid": "1227388",
    "final_x": "3684975.02524",
    "final_y": "556467.65385",
    "longitude": "-90.05621945734437",
    "latitude": "30.0239868878123",
    "geocoded_column": {
      "latitude": "30.0239868878123",
      "longitude": "-90.05621945734437"
    }
  },
  {
    "service_request": "2025-1227387",
    "request_type": "Trash/Recycling",
    "request_reason": "Request a Large Item Pick Up",
    "date_created": "2025-09-18T16:17:53.000",
    "date_modified": "2025-09-18T16:17:55.000",
    "request_status": "Pending",
    "responsible_agency": "Department of Sanitation",
    "final_address": "2021 Governor Nicholls St",
    "address_councildis": "D",
    "status": "Assigned to Contractor",
    "contractor": "IV Waste",
    "rowid": "1227387",
    "final_x": "3679900.10018",
    "final_y": "536870.047112",
    "longitude": "-90.07293640323884",
    "latitude": "29.97025496987316",
    "geocoded_column": {
      "latitude": "29.97025496987316",
      "longitude": "-90.07293640323884"
    }
  },
  {
    "service_request": "2025-1227386",
    "request_type": "Trash/Recycling",
    "request_reason": "Request a Large Item Pick Up",
    "date_created": "2025-09-18T16:16:25.000",
    "date_modified": "2025-09-18T16:16:27.000",
    "request_status": "Pending",
    "responsible_agency": "Department of Sanitation",
    "final_address": "6936 Lamb Rd",
    "address_councildis": "D",
    "status": "Assigned to Contractor",
    "contractor": "Waste Pro",
    "rowid": "1227386",
    "final_x": "3697664.91127",
    "final_y": "556943.402202",
    "longitude": "-90.01610479459795",
    "latitude": "30.024900009526068",
    "geocoded_column": {
      "latitude": "30.024900009526068",
      "longitude": "-90.01610479459795"
    }
  },
  {
    "service_request": "2025-1227385",
    "request_type": "Trash/Recycling",
    "request_reason": "Return Trash Cart",
    "date_created": "2025-09-18T16:15:45.000",
    "date_modified": "2025-09-18T16:15:47.000",
    "request_status": "Pending",
    "responsible_agency": "Department of Sanitation",
    "final_address": "4919 S Derbigny St",
    "address_councildis": "B",
    "status": "Assigned to Contractor",
    "contractor": "IV Waste",
    "rowid": "1227385",
    "final_x": "3669090.45639",
    "final_y": "526377.695486",
    "longitude": "-90.10742903276821",
    "latitude": "29.94172697261908",
    "geocoded_column": {
      "latitude": "29.94172697261908",
      "longitude": "-90.10742903276821"
    }
  },
  {
    "service_request": "2025-1227384",
    "request_type": "Streetlights",
    "request_reason": "Streetlight Outage/Malfunction",
    "date_created": "2025-09-18T16:15:04.000",
    "date_modified": "2025-09-18T16:15:06.000",
    "request_status": "Pending",
    "responsible_agency": "Department of Public Works",
    "final_address": "1012 Kerlerec St",
    "address_councildis": "C",
    "status": "Pending",
    "rowid": "1227384",
    "final_x": "3683290.72245",
    "final_y": "535408.154566",
    "longitude": "-90.06227968184156",
    "latitude": "29.966132283564317",
    "geocoded_column": {
      "latitude": "29.966132283564317",
      "longitude": "-90.06227968184156"
    }
  },
  {
    "service_request": "2025-1227383",
    "request_type": "Streetlights",
    "request_reason": "Streetlight Outage/Malfunction",
    "date_created": "2025-09-18T16:11:52.000",
    "date_modified": "2025-09-18T16:11:54.000",
    "request_status": "Pending",
    "responsible_agency": "Department of Public Works",
    "final_address": "8900 BLK Oleander St",
    "address_councildis": "A",
    "status": "Pending",
    "rowid": "1227383",
    "final_x": "3664552.37361",
    "final_y": "535679.43335",
    "longitude": "-90.12144614636239",
    "latitude": "29.96743645081482",
    "geocoded_column": {
      "latitude": "29.96743645081482",
      "longitude": "-90.12144614636239"
    }
  },
  {
    "service_request": "2025-1227382",
    "request_type": "Trash/Recycling",
    "request_reason": "Request a Large Item Pick Up",
    "date_created": "2025-09-18T16:08:02.000",
    "date_modified": "2025-09-18T16:08:05.000",
    "request_status": "Pending",
    "responsible_agency": "Department of Sanitation",
    "final_address": "5742 E Louis Prima Dr",
    "address_councildis": "E",
    "status": "Assigned to Contractor",
    "contractor": "Waste Pro",
    "rowid": "1227382",
    "final_x": "3716039.60959",
    "final_y": "562237.434463",
    "longitude": "-89.95784360210354",
    "latitude": "30.038862869924355",
    "geocoded_column": {
      "latitude": "30.038862869924355",
      "longitude": "-89.95784360210354"
    }
  },
  {
    "service_request": "2025-1227381",
    "request_type": "Trash/Recycling",
    "request_reason": "Repair Trash Cart",
    "date_created": "2025-09-18T16:02:33.000",
    "date_modified": "2025-09-18T16:02:35.000",
    "request_status": "Pending",
    "responsible_agency": "Department of Sanitation",
    "final_address": "4841 Camp St",
    "address_councildis": "B",
    "status": "Assigned to Contractor",
    "contractor": "IV Waste",
    "rowid": "1227381",
    "final_x": "3669154.39662",
    "final_y": "519001.368119",
    "longitude": "-90.1074763086828",
    "latitude": "29.921442551678936",
    "geocoded_column": {
      "latitude": "29.921442551678936",
      "longitude": "-90.1074763086828"
    }
  },
  {
    "service_request": "2025-1227380",
    "request_type": "Trash/Recycling",
    "request_reason": "Missed Trash Pick-Up",
    "date_created": "2025-09-18T15:58:27.000",
    "date_modified": "2025-09-18T15:58:28.000",
    "request_status": "Pending",
    "responsible_agency": "Department of Sanitation",
    "final_address": "4700 Coronado Dr",
    "address_councildis": "E",
    "status": "Assigned to Contractor",
    "contractor": "Waste Pro",
    "rowid": "1227380",
    "final_x": "3714081.08824",
    "final_y": "556208.961818",
    "longitude": "-89.96426064189482",
    "latitude": "30.022351472970552",
    "geocoded_column": {
      "latitude": "30.022351472970552",
      "longitude": "-89.96426064189482"
    }
  },
  {
    "service_request": "2025-1227379",
    "request_type": "Streetlights",
    "request_reason": "Streetlight Outage/Malfunction",
    "date_created": "2025-09-18T15:53:16.000",
    "date_modified": "2025-09-18T15:53:17.000",
    "request_status": "Pending",
    "responsible_agency": "Department of Public Works",
    "final_address": "8126 Lincoln Beach Blvd",
    "address_councildis": "E",
    "status": "Pending",
    "rowid": "1227379",
    "final_x": "3702220.6369",
    "final_y": "562973.010208",
    "longitude": "-90.00148809218318",
    "latitude": "30.041334296213567",
    "geocoded_column": {
      "latitude": "30.041334296213567",
      "longitude": "-90.00148809218318"
    }
  },
  {
    "service_request": "2025-1227378",
    "request_type": "Trash/Recycling",
    "request_reason": "Repair Trash Cart",
    "date_created": "2025-09-18T15:51:44.000",
    "date_modified": "2025-09-18T15:51:46.000",
    "request_status": "Pending",
    "responsible_agency": "Department of Sanitation",
    "final_address": "2237 St Philip St",
    "address_councildis": "D",
    "status": "Assigned to Contractor",
    "contractor": "IV Waste",
    "rowid": "1227378",
    "final_x": "3678821.7661",
    "final_y": "536806.590856",
    "longitude": "-90.07634409642034",
    "latitude": "29.970113057670538",
    "geocoded_column": {
      "latitude": "29.970113057670538",
      "longitude": "-90.07634409642034"
    }
  },
  {
    "service_request": "2025-1227377",
    "request_type": "Trash/Recycling",
    "request_reason": "Request a Large Item Pick Up",
    "date_created": "2025-09-18T15:46:27.000",
    "date_modified": "2025-09-18T15:46:29.000",
    "request_status": "Pending",
    "responsible_agency": "Department of Sanitation",
    "final_address": "8126 Lincoln Beach Blvd",
    "address_councildis": "E",
    "status": "Assigned to Contractor",
    "contractor": "Waste Pro",
    "rowid": "1227377",
    "final_x": "3702220.6369",
    "final_y": "562973.010208",
    "longitude": "-90.00148809218318",
    "latitude": "30.041334296213567",
    "geocoded_column": {
      "latitude": "30.041334296213567",
      "longitude": "-90.00148809218318"
    }
  },
  {
    "service_request": "2025-1227376",
    "request_type": "Safety & Permits",
    "request_reason": "Zoning Enforcement",
    "date_created": "2025-09-18T15:44:01.000",
    "date_modified": "2025-09-18T15:44:03.000",
    "request_status": "Pending",
    "responsible_agency": "Safety and Permits",
    "final_address": "418 Arabella St",
    "address_councildis": "A",
    "status": "Pending",
    "rowid": "1227376",
    "final_x": "3665530.21344",
    "final_y": "517776.008886",
    "longitude": "-90.11895730980207",
    "latitude": "29.918179312104723",
    "geocoded_column": {
      "latitude": "29.918179312104723",
      "longitude": "-90.11895730980207"
    }
  },
  {
    "service_request": "2025-1227375",
    "request_type": "Parks & Parkways",
    "request_reason": "Request Grass Cutting Service (City Owned Property)",
    "date_created": "2025-09-18T15:42:27.000",
    "date_modified": "2025-09-18T15:42:29.000",
    "request_status": "Pending",
    "responsible_agency": "Department of Parks & Parkway",
    "final_address": "2038 St Ferdinand St",
    "address_councildis": "D",
    "status": "Pending",
    "rowid": "1227375",
    "final_x": "3688630.93391",
    "final_y": "540019.830987",
    "longitude": "-90.04525175421071",
    "latitude": "29.978648808020875",
    "geocoded_column": {
      "latitude": "29.978648808020875",
      "longitude": "-90.04525175421071"
    }
  },
  {
    "service_request": "2025-1227374",
    "request_type": "Trash/Recycling",
    "request_reason": "Order Recycling Cart",
    "date_created": "2025-09-18T15:41:22.000",
    "date_modified": "2025-09-18T15:41:23.000",
    "request_status": "Pending",
    "responsible_agency": "Department of Sanitation",
    "final_address": "720 Fourth St",
    "address_councildis": "B",
    "status": "Pending",
    "rowid": "1227374",
    "final_x": "3678001.0644",
    "final_y": "519872.388344",
    "longitude": "-90.07952115090451",
    "latitude": "29.923574369183704",
    "geocoded_column": {
      "latitude": "29.923574369183704",
      "longitude": "-90.07952115090451"
    }
  },
  {
    "service_request": "2025-1227373",
    "request_type": "Trash/Recycling",
    "request_reason": "Return Trash Cart",
    "date_created": "2025-09-18T15:41:21.000",
    "date_modified": "2025-09-18T15:41:23.000",
    "request_status": "Pending",
    "responsible_agency": "Department of Sanitation",
    "final_address": "2003 Napoleon Ave",
    "address_councildis": "B",
    "status": "Assigned to Contractor",
    "contractor": "IV Waste",
    "rowid": "1227373",
    "final_x": "3670835.74452",
    "final_y": "522371.700538",
    "longitude": "-90.10205469588594",
    "latitude": "29.93066032231826",
    "geocoded_column": {
      "latitude": "29.93066032231826",
      "longitude": "-90.10205469588594"
    }
  },
  {
    "service_request": "2025-1227372",
    "request_type": "Abandoned Vehicles",
    "request_reason": "Abandoned/Junk Vehicles",
    "date_created": "2025-09-18T15:41:08.000",
    "date_modified": "2025-09-18T15:41:11.000",
    "request_status": "Pending",
    "responsible_agency": "Department of Public Works",
    "final_address": "400 BLK Austerlitz St",
    "address_councildis": "B",
    "status": "Pending",
    "rowid": "1227372",
    "final_x": "3673007.00139",
    "final_y": "517528.350558",
    "longitude": "-90.09536553227875",
    "latitude": "29.917278328913394",
    "geocoded_column": {
      "latitude": "29.917278328913394",
      "longitude": "-90.09536553227875"
    }
  },
  {
    "service_request": "2025-1227371",
    "request_type": "Trash/Recycling",
    "request_reason": "Order Recycling Cart",
    "date_created": "2025-09-18T15:40:56.000",
    "date_modified": "2025-09-18T15:40:57.000",
    "request_status": "Pending",
    "responsible_agency": "Department of Sanitation",
    "final_address": "5401 S Johnson St",
    "address_councildis": "A",
    "status": "Pending",
    "rowid": "1227371",
    "final_x": "3668525.84756",
    "final_y": "527050.92307",
    "longitude": "-90.10918891615353",
    "latitude": "29.943594728233116",
    "geocoded_column": {
      "latitude": "29.943594728233116",
      "longitude": "-90.10918891615353"
    }
  },
  {
    "service_request": "2025-1227370",
    "request_type": "Trash/Recycling",
    "request_reason": "Request a Large Item Pick Up",
    "date_created": "2025-09-18T15:37:13.000",
    "date_modified": "2025-09-18T15:37:41.000",
    "request_status": "Pending",
    "responsible_agency": "Department of Sanitation",
    "final_address": "5129 Lakeview Ct",
    "address_councildis": "E",
    "status": "Assigned to Contractor",
    "contractor": "Waste Pro",
    "rowid": "1227370",
    "final_x": "3698930.59274",
    "final_y": "556212.100762",
    "longitude": "-90.01213211569527",
    "latitude": "30.02284914235903",
    "geocoded_column": {
      "latitude": "30.02284914235903",
      "longitude": "-90.01213211569527"
    }
  },
  {
    "service_request": "2025-1227369",
    "request_type": "Trash/Recycling",
    "request_reason": "Stop Trash Service",
    "date_created": "2025-09-18T15:31:35.000",
    "date_modified": "2025-09-18T16:24:10.000",
    "request_status": "Pending",
    "responsible_agency": "Department of Sanitation",
    "final_address": "6519 Foch Rd",
    "address_councildis": "D",
    "status": "Assigned to Contractor",
    "contractor": "Waste Pro",
    "rowid": "1227369",
    "final_x": "3697145.92893",
    "final_y": "555164.851417",
    "longitude": "-90.01780920690352",
    "latitude": "30.02002606503708",
    "geocoded_column": {
      "latitude": "30.02002606503708",
      "longitude": "-90.01780920690352"
    }
  },
  {
    "service_request": "2025-1227368",
    "request_type": "Health Related Request",
    "request_reason": "Noise Ordinance Complaint",
    "date_created": "2025-09-18T15:20:43.000",
    "date_modified": "2025-09-18T15:21:49.000",
    "request_status": "Pending",
    "responsible_agency": "Health Department",
    "final_address": "8800 Palm St",
    "address_councildis": "A",
    "status": "Pending",
    "rowid": "1227368",
    "final_x": "3665836.18061",
    "final_y": "536361.372359",
    "longitude": "-90.11736899118254",
    "latitude": "29.969274159687213",
    "geocoded_column": {
      "latitude": "29.969274159687213",
      "longitude": "-90.11736899118254"
    }
  },
  {
    "service_request": "2025-1227367",
    "request_type": "Parks & Parkways",
    "request_reason": "Request Tree Service (Right of Way/Public Property)",
    "date_created": "2025-09-18T15:18:29.000",
    "date_modified": "2025-09-18T15:18:54.000",
    "request_status": "Pending",
    "responsible_agency": "Department of Parks & Parkway",
    "final_address": "2300 BLK Philip St",
    "address_councildis": "B",
    "status": "Pending",
    "rowid": "1227367",
    "final_x": "3675618.72747",
    "final_y": "525646.68898",
    "longitude": "-90.0868430314426",
    "latitude": "29.93952328184487",
    "geocoded_column": {
      "latitude": "29.93952328184487",
      "longitude": "-90.0868430314426"
    }
  },
  {
    "service_request": "2025-1227366",
    "request_type": "Trash/Recycling",
    "request_reason": "Request a Large Item Pick Up",
    "date_created": "2025-09-18T15:17:18.000",
    "date_modified": "2025-09-18T15:17:19.000",
    "request_status": "Pending",
    "responsible_agency": "Department of Sanitation",
    "final_address": "7531 Hansbrough Ave",
    "address_councildis": "E",
    "status": "Assigned to Contractor",
    "contractor": "Waste Pro",
    "rowid": "1227366",
    "final_x": "3707791.91729",
    "final_y": "564292.900705",
    "longitude": "-89.98383188087105",
    "latitude": "30.044784235769225",
    "geocoded_column": {
      "latitude": "30.044784235769225",
      "longitude": "-89.98383188087105"
    }
  },
  {
    "service_request": "2025-1227365",
    "request_type": "Property Maintenance",
    "request_reason": "Property Maintenance",
    "date_created": "2025-09-18T15:16:40.000",
    "date_modified": "2025-09-18T15:16:42.000",
    "request_status": "Pending",
    "responsible_agency": "Department of Code Enforcement",
    "final_address": "6245 London Ave",
    "address_councildis": "D",
    "status": "Pending",
    "rowid": "1227365",
    "final_x": "3680611.74728",
    "final_y": "555899.107673",
    "longitude": "-90.07002638112795",
    "latitude": "30.022556591309144",
    "geocoded_column": {
      "latitude": "30.022556591309144",
      "longitude": "-90.07002638112795"
    }
  },
  {
    "service_request": "2025-1227364",
    "request_type": "Trash/Recycling",
    "request_reason": "Request a Large Item Pick Up",
    "date_created": "2025-09-18T15:16:22.000",
    "date_modified": "2025-09-18T15:16:23.000",
    "request_status": "Pending",
    "responsible_agency": "Department of Sanitation",
    "final_address": "2024 St Claude Ave",
    "address_councildis": "C",
    "status": "Assigned to Contractor",
    "contractor": "IV Waste",
    "rowid": "1227364",
    "final_x": "3684454.44143",
    "final_y": "536190.962247",
    "longitude": "-90.0585771883925",
    "latitude": "29.968249187508295",
    "geocoded_column": {
      "latitude": "29.968249187508295",
      "longitude": "-90.0585771883925"
    }
  },
  {
    "service_request": "2025-1227363",
    "request_type": "Trash/Recycling",
    "request_reason": "Request a Large Item Pick Up",
    "date_created": "2025-09-18T15:16:12.000",
    "date_modified": "2025-09-18T15:16:14.000",
    "request_status": "Pending",
    "responsible_agency": "Department of Sanitation",
    "final_address": "2648 Piety St",
    "address_councildis": "D",
    "status": "Assigned to Contractor",
    "contractor": "IV Waste",
    "rowid": "1227363",
    "final_x": "3691316.28713",
    "final_y": "541837.640076",
    "longitude": "-90.03670547120271",
    "latitude": "29.98356385608901",
    "geocoded_column": {
      "latitude": "29.98356385608901",
      "longitude": "-90.03670547120271"
    }
  },
  {
    "service_request": "2025-1227362",
    "request_type": "Trash/Recycling",
    "request_reason": "Request a Large Item Pick Up",
    "date_created": "2025-09-18T15:13:40.000",
    "date_modified": "2025-09-18T15:13:42.000",
    "request_status": "Pending",
    "responsible_agency": "Department of Sanitation",
    "final_address": "6910 Ridgefield Dr",
    "address_councildis": "E",
    "status": "Assigned to Contractor",
    "contractor": "Waste Pro",
    "rowid": "1227362",
    "final_x": "3719791.38969",
    "final_y": "568925.193765",
    "longitude": "-89.94573113611278",
    "latitude": "30.057127085788366",
    "geocoded_column": {
      "latitude": "30.057127085788366",
      "longitude": "-89.94573113611278"
    }
  },
  {
    "service_request": "2025-1227361",
    "request_type": "Property Maintenance",
    "request_reason": "Property Maintenance",
    "date_created": "2025-09-18T15:09:06.000",
    "date_modified": "2025-09-18T15:09:08.000",
    "request_status": "Pending",
    "responsible_agency": "Department of Code Enforcement",
    "final_address": "4227 Fontainebleau Dr",
    "address_councildis": "B",
    "status": "Pending",
    "rowid": "1227361",
    "final_x": "3669627.99758",
    "final_y": "529355.935681",
    "longitude": "-90.10563115366931",
    "latitude": "29.9499003390365",
    "geocoded_column": {
      "latitude": "29.9499003390365",
      "longitude": "-90.10563115366931"
    }
  },
  {
    "service_request": "2025-1227360",
    "request_type": "Trash/Recycling",
    "request_reason": "Request a Large Item Pick Up",
    "date_created": "2025-09-18T15:08:19.000",
    "date_modified": "2025-09-18T15:08:21.000",
    "request_status": "Pending",
    "responsible_agency": "Department of Sanitation",
    "final_address": "4524 Plum Orchard St",
    "address_councildis": "E",
    "status": "Assigned to Contractor",
    "contractor": "Waste Pro",
    "rowid": "1227360",
    "final_x": "3701727.25629",
    "final_y": "553268.812311",
    "longitude": "-90.00340329950075",
    "latitude": "30.0146672615995",
    "geocoded_column": {
      "latitude": "30.0146672615995",
      "longitude": "-90.00340329950075"
    }
  },
  {
    "service_request": "2025-1227359",
    "request_type": "Trash/Recycling",
    "request_reason": "Replace Recycling Cart",
    "date_created": "2025-09-18T15:03:04.000",
    "date_modified": "2025-09-18T15:03:07.000",
    "request_status": "Pending",
    "responsible_agency": "Department of Sanitation",
    "final_address": "4749 Francisco Verrett Dr",
    "address_councildis": "E",
    "status": "Pending",
    "rowid": "1227359",
    "final_x": "3704244.01751",
    "final_y": "555298.379289",
    "longitude": "-89.99537674567917",
    "latitude": "30.020167231765164",
    "geocoded_column": {
      "latitude": "30.020167231765164",
      "longitude": "-89.99537674567917"
    }
  },
  {
    "service_request": "2025-1227358",
    "request_type": "Trash/Recycling",
    "request_reason": "Repair Trash Cart",
    "date_created": "2025-09-18T15:00:10.000",
    "date_modified": "2025-09-18T15:00:13.000",
    "request_status": "Pending",
    "responsible_agency": "Department of Sanitation",
    "final_address": "1657 N Robertson St",
    "address_councildis": "C",
    "status": "Assigned to Contractor",
    "contractor": "IV Waste",
    "rowid": "1227358",
    "final_x": "3682786.88924",
    "final_y": "537633.862472",
    "longitude": "-90.0637928983099",
    "latitude": "29.972267569283055",
    "geocoded_column": {
      "latitude": "29.972267569283055",
      "longitude": "-90.0637928983099"
    }
  },
  {
    "service_request": "2025-1227357",
    "request_type": "Property Maintenance",
    "request_reason": "Property Maintenance",
    "date_created": "2025-09-18T14:45:37.000",
    "date_modified": "2025-09-18T14:45:39.000",
    "request_status": "Pending",
    "responsible_agency": "Department of Code Enforcement",
    "final_address": "2318 Pauger St",
    "address_councildis": "D",
    "status": "Pending",
    "rowid": "1227357",
    "final_x": "3683678.4493",
    "final_y": "538219.288201",
    "longitude": "-90.06095667285157",
    "latitude": "29.973850094984748",
    "geocoded_column": {
      "latitude": "29.973850094984748",
      "longitude": "-90.06095667285157"
    }
  },
  {
    "service_request": "2025-1227356",
    "request_type": "Trash/Recycling",
    "request_reason": "Request a Large Item Pick Up",
    "date_created": "2025-09-18T14:38:16.000",
    "date_modified": "2025-09-18T14:38:19.000",
    "request_status": "Pending",
    "responsible_agency": "Department of Sanitation",
    "final_address": "4223 Loyola Ave",
    "address_councildis": "B",
    "status": "Assigned to Contractor",
    "contractor": "IV Waste",
    "rowid": "1227356",
    "final_x": "3671185.49364",
    "final_y": "523093.081979",
    "longitude": "-90.10092609278348",
    "latitude": "29.93263355056735",
    "geocoded_column": {
      "latitude": "29.93263355056735",
      "longitude": "-90.10092609278348"
    }
  },
  {
    "service_request": "2025-1227355",
    "request_type": "Trash/Recycling",
    "request_reason": "Request a Large Item Pick Up",
    "date_created": "2025-09-18T14:38:11.000",
    "date_modified": "2025-09-18T14:38:12.000",
    "request_status": "Pending",
    "responsible_agency": "Department of Sanitation",
    "final_address": "2318 Fern St",
    "address_councildis": "A",
    "status": "Assigned to Contractor",
    "contractor": "IV Waste",
    "rowid": "1227355",
    "final_x": "3665228.71834",
    "final_y": "530866.60397",
    "longitude": "-90.1194712417408",
    "latitude": "29.954183061147557",
    "geocoded_column": {
      "latitude": "29.954183061147557",
      "longitude": "-90.1194712417408"
    }
  },
  {
    "service_request": "2025-1227354",
    "request_type": "Trash/Recycling",
    "request_reason": "Replace Recycling Cart",
    "date_created": "2025-09-18T14:35:03.000",
    "date_modified": "2025-09-18T14:35:06.000",
    "request_status": "Pending",
    "responsible_agency": "Department of Sanitation",
    "final_address": "2420 Valentine Ct",
    "address_councildis": "C",
    "status": "Pending",
    "rowid": "1227354",
    "final_x": "3699305.81514",
    "final_y": "522301.990586",
    "longitude": "-90.01218191973277",
    "latitude": "29.92959673857645",
    "geocoded_column": {
      "latitude": "29.92959673857645",
      "longitude": "-90.01218191973277"
    }
  },
  {
    "service_request": "2025-1227353",
    "request_type": "Roads and Streets",
    "request_reason": "Sidewalk Damaged or Missing",
    "date_created": "2025-09-18T14:34:37.000",
    "date_modified": "2025-09-18T14:34:39.000",
    "request_status": "Pending",
    "responsible_agency": "Department of Public Works",
    "final_address": "7600 Jeannette St",
    "address_councildis": "A",
    "status": "Pending",
    "rowid": "1227353",
    "final_x": "3663911.84019",
    "final_y": "527909.582335",
    "longitude": "-90.12372799996021",
    "latitude": "29.946090499374762",
    "geocoded_column": {
      "latitude": "29.946090499374762",
      "longitude": "-90.12372799996021"
    }
  },
  {
    "service_request": "2025-1227352",
    "request_type": "Trash/Recycling",
    "request_reason": "Request a Large Item Pick Up",
    "date_created": "2025-09-18T14:31:26.000",
    "date_modified": "2025-09-18T14:31:28.000",
    "request_status": "Pending",
    "responsible_agency": "Department of Sanitation",
    "final_address": "7530 Dalewood Rd",
    "address_councildis": "E",
    "status": "Assigned to Contractor",
    "contractor": "Waste Pro",
    "rowid": "1227352",
    "final_x": "3699942.3665",
    "final_y": "560175.521757",
    "longitude": "-90.00879039531947",
    "latitude": "30.033714907677883",
    "geocoded_column": {
      "latitude": "30.033714907677883",
      "longitude": "-90.00879039531947"
    }
  },
  {
    "service_request": "2025-1227351",
    "request_type": "Trash/Recycling",
    "request_reason": "Repair Trash Cart",
    "date_created": "2025-09-18T14:30:48.000",
    "date_modified": "2025-09-18T14:30:51.000",
    "request_status": "Pending",
    "responsible_agency": "Department of Sanitation",
    "final_address": "6236 Oxford St",
    "address_councildis": "C",
    "status": "Assigned to Contractor",
    "contractor": "Richards Disposal",
    "rowid": "1227351",
    "final_x": "3707269.03492",
    "final_y": "519800.929784",
    "longitude": "-89.98713644282587",
    "latitude": "29.92246483317642",
    "geocoded_column": {
      "latitude": "29.92246483317642",
      "longitude": "-89.98713644282587"
    }
  },
  {
    "service_request": "2025-1227350",
    "request_type": "Trash/Recycling",
    "request_reason": "Replace Recycling Cart",
    "date_created": "2025-09-18T14:30:37.000",
    "date_modified": "2025-09-18T14:30:38.000",
    "request_status": "Pending",
    "responsible_agency": "Department of Sanitation",
    "final_address": "5128 Chestnut St",
    "address_councildis": "B",
    "status": "Pending",
    "rowid": "1227350",
    "final_x": "3668135.13844",
    "final_y": "519275.038007",
    "longitude": "-90.11068445411158",
    "latitude": "29.922225001593066",
    "geocoded_column": {
      "latitude": "29.922225001593066",
      "longitude": "-90.11068445411158"
    }
  },
  {
    "service_request": "2025-1227349",
    "request_type": "Trash/Recycling",
    "request_reason": "Request a Large Item Pick Up",
    "date_created": "2025-09-18T14:29:47.000",
    "date_modified": "2025-09-18T14:29:49.000",
    "request_status": "Pending",
    "responsible_agency": "Department of Sanitation",
    "final_address": "7229 Cohn St",
    "address_councildis": "A",
    "status": "Assigned to Contractor",
    "contractor": "IV Waste",
    "rowid": "1227349",
    "final_x": "3665375.67341",
    "final_y": "528764.663488",
    "longitude": "-90.1190775485147",
    "latitude": "29.948399124923053",
    "geocoded_column": {
      "latitude": "29.948399124923053",
      "longitude": "-90.1190775485147"
    }
  },
  {
    "service_request": "2025-1227348",
    "request_type": "Streetlights",
    "request_reason": "Streetlight Outage/Malfunction",
    "date_created": "2025-09-18T14:27:42.000",
    "date_modified": "2025-09-18T14:27:43.000",
    "request_status": "Pending",
    "responsible_agency": "Department of Public Works",
    "final_address": "13845 Linden St",
    "address_councildis": "E",
    "status": "Pending",
    "rowid": "1227348",
    "final_x": "3717811.03276",
    "final_y": "572054.047848",
    "longitude": "-89.9518714532024",
    "latitude": "30.06579592429055",
    "geocoded_column": {
      "latitude": "30.06579592429055",
      "longitude": "-89.9518714532024"
    }
  },
  {
    "service_request": "2025-1227347",
    "request_type": "Roads and Streets",
    "request_reason": "Ditch and Culvert Maintenance",
    "date_created": "2025-09-18T14:20:54.000",
    "date_modified": "2025-09-18T14:22:13.000",
    "request_status": "Pending",
    "responsible_agency": "Department of Public Works",
    "final_address": "Morris Fx jeff park 1520 shirley drive",
    "address_councildis": "C",
    "status": "Pending",
    "rowid": "1227347",
    "final_x": "3693143.19581",
    "final_y": "525178.945149",
    "longitude": "-90.03153293844254",
    "latitude": "29.93770132183734",
    "geocoded_column": {
      "latitude": "29.93770132183734",
      "longitude": "-90.03153293844254"
    }
  },
  {
    "service_request": "2025-1227346",
    "request_type": "Drainage",
    "request_reason": "Catch Basin Not Draining",
    "date_created": "2025-09-18T14:18:40.000",
    "date_modified": "2025-09-18T14:18:41.000",
    "request_status": "Pending",
    "responsible_agency": "Sewerage & Water Board",
    "final_address": "6 Charlotte Dr",
    "address_councildis": "D",
    "status": "Pending",
    "rowid": "1227346",
    "final_x": "3680272.00021",
    "final_y": "551297.000277",
    "longitude": "-90.0712600675902",
    "latitude": "30.009912761147813",
    "geocoded_column": {
      "latitude": "30.009912761147813",
      "longitude": "-90.0712600675902"
    }
  },
  {
    "service_request": "2025-1227345",
    "request_type": "Property Maintenance",
    "request_reason": "Property Maintenance",
    "date_created": "2025-09-18T14:15:39.000",
    "date_modified": "2025-09-18T14:15:41.000",
    "request_status": "Pending",
    "responsible_agency": "Department of Code Enforcement",
    "final_address": "5516 Rosemary Pl",
    "address_councildis": "A",
    "status": "Pending",
    "rowid": "1227345",
    "final_x": "3666973.1698",
    "final_y": "544120.70843",
    "longitude": "-90.113517413796",
    "latitude": "29.990576495217546",
    "geocoded_column": {
      "latitude": "29.990576495217546",
      "longitude": "-90.113517413796"
    }
  },
  {
    "service_request": "2025-1227344",
    "request_type": "Trash/Recycling",
    "request_reason": "Order Recycling Cart",
    "date_created": "2025-09-18T14:15:33.000",
    "date_modified": "2025-09-18T14:15:34.000",
    "request_status": "Pending",
    "responsible_agency": "Department of Sanitation",
    "final_address": "4608 Mirabeau Ave",
    "address_councildis": "D",
    "status": "Pending",
    "rowid": "1227344",
    "final_x": "3690956.54787",
    "final_y": "551459.820245",
    "longitude": "-90.0374980106279",
    "latitude": "30.010032540621236",
    "geocoded_column": {
      "latitude": "30.010032540621236",
      "longitude": "-90.0374980106279"
    }
  },
  {
    "service_request": "2025-1227343",
    "request_type": "Trash/Recycling",
    "request_reason": "Illegal Dumping",
    "date_created": "2025-09-18T14:12:06.000",
    "date_modified": "2025-09-18T14:12:08.000",
    "request_status": "Pending",
    "responsible_agency": "Department of Sanitation",
    "final_address": "2640 Reynes St",
    "address_councildis": "E",
    "status": "Pending",
    "rowid": "1227343",
    "final_x": "3697588.11703",
    "final_y": "540187.269451",
    "longitude": "-90.01695571729698",
    "latitude": "29.978829297817718",
    "geocoded_column": {
      "latitude": "29.978829297817718",
      "longitude": "-90.01695571729698"
    }
  },
  {
    "service_request": "2025-1227342",
    "request_type": "Trash/Recycling",
    "request_reason": "Replace Trash Cart",
    "date_created": "2025-09-18T14:04:18.000",
    "date_modified": "2025-09-18T14:04:19.000",
    "request_status": "Pending",
    "responsible_agency": "Department of Sanitation",
    "final_address": "601 Whitney Ave",
    "address_councildis": "C",
    "status": "Assigned to Contractor",
    "contractor": "Richards Disposal",
    "rowid": "1227342",
    "final_x": "3690146.8911",
    "final_y": "529333.586241",
    "longitude": "-90.04084451917464",
    "latitude": "29.949218426661496",
    "geocoded_column": {
      "latitude": "29.949218426661496",
      "longitude": "-90.04084451917464"
    }
  },
  {
    "service_request": "2025-1227341",
    "request_type": "Streetlights",
    "request_reason": "Streetlight Outage/Malfunction",
    "date_created": "2025-09-18T14:03:49.000",
    "date_modified": "2025-09-18T14:03:51.000",
    "request_status": "Pending",
    "responsible_agency": "Department of Public Works",
    "final_address": "920 Poeyfarre St",
    "address_councildis": "B",
    "status": "Pending",
    "rowid": "1227341",
    "final_x": "3681386.82191",
    "final_y": "526445.697534",
    "longitude": "-90.0686045498335",
    "latitude": "29.941546493588717",
    "geocoded_column": {
      "latitude": "29.941546493588717",
      "longitude": "-90.0686045498335"
    }
  },
  {
    "service_request": "2025-1227340",
    "request_type": "Parks & Parkways",
    "request_reason": "Request Grass Cutting Service (City Owned Property)",
    "date_created": "2025-09-18T14:02:46.000",
    "date_modified": "2025-09-18T14:02:48.000",
    "request_status": "Pending",
    "responsible_agency": "Department of Parks & Parkway",
    "final_address": "BANCROFT DR & MIRABEAU AVE",
    "address_councildis": "D",
    "status": "Pending",
    "rowid": "1227340",
    "final_x": "3676384.3",
    "final_y": "550146.68",
    "longitude": "-90.08358237155745",
    "latitude": "30.00686695870198",
    "geocoded_column": {
      "latitude": "30.00686695870198",
      "longitude": "-90.08358237155745"
    }
  },
  {
    "service_request": "2025-1227339",
    "request_type": "Streetlights",
    "request_reason": "Streetlight Outage/Malfunction",
    "date_created": "2025-09-18T13:55:34.000",
    "date_modified": "2025-09-18T13:55:36.000",
    "request_status": "Pending",
    "responsible_agency": "Department of Public Works",
    "final_address": "4733 Constance St",
    "address_councildis": "B",
    "status": "Pending",
    "rowid": "1227339",
    "final_x": "3669697.10862",
    "final_y": "518317.257398",
    "longitude": "-90.10578633354467",
    "latitude": "29.919545487605106",
    "geocoded_column": {
      "latitude": "29.919545487605106",
      "longitude": "-90.10578633354467"
    }
  },
  {
    "service_request": "2025-1227338",
    "request_type": "General Services",
    "request_reason": "General Service Request",
    "date_created": "2025-09-18T13:50:32.000",
    "date_modified": "2025-09-18T13:50:34.000",
    "request_status": "Pending",
    "responsible_agency": "Orleans Parish Communication District",
    "final_address": "1222 Jena St",
    "address_councildis": "B",
    "status": "Pending",
    "rowid": "1227338",
    "final_x": "3670482.04174",
    "final_y": "519971.9662",
    "longitude": "-90.10325261258939",
    "latitude": "29.92407226584169",
    "geocoded_column": {
      "latitude": "29.92407226584169",
      "longitude": "-90.10325261258939"
    }
  },
  {
    "service_request": "2025-1227337",
    "request_type": "Property Maintenance",
    "request_reason": "Property Maintenance",
    "date_created": "2025-09-18T13:49:48.000",
    "date_modified": "2025-09-18T13:49:49.000",
    "request_status": "Pending",
    "responsible_agency": "Department of Code Enforcement",
    "final_address": "5171 Marigny St",
    "address_councildis": "D",
    "status": "Pending",
    "rowid": "1227337",
    "final_x": "3684379.98127",
    "final_y": "551842.09807",
    "longitude": "-90.05826232217214",
    "latitude": "30.011286529340925",
    "geocoded_column": {
      "latitude": "30.011286529340925",
      "longitude": "-90.05826232217214"
    }
  },
  {
    "service_request": "2025-1227336",
    "request_type": "Abandoned Vehicles",
    "request_reason": "Abandoned/Junk Vehicles",
    "date_created": "2025-09-18T13:48:05.000",
    "date_modified": "2025-09-18T13:48:06.000",
    "request_status": "Pending",
    "responsible_agency": "Department of Public Works",
    "final_address": "2000 BLK Desire St",
    "address_councildis": "D",
    "status": "Pending",
    "rowid": "1227336",
    "final_x": "3691066.89309",
    "final_y": "539279.378906",
    "longitude": "-90.03758456112337",
    "latitude": "29.976537308309055",
    "geocoded_column": {
      "latitude": "29.976537308309055",
      "longitude": "-90.03758456112337"
    }
  },
  {
    "service_request": "2025-1227335",
    "request_type": "Trash/Recycling",
    "request_reason": "Request a Large Item Pick Up",
    "date_created": "2025-09-18T13:47:58.000",
    "date_modified": "2025-09-18T13:47:59.000",
    "request_status": "Pending",
    "responsible_agency": "Department of Sanitation",
    "final_address": "6220 Craigie Rd",
    "address_councildis": "E",
    "status": "Assigned to Contractor",
    "contractor": "Waste Pro",
    "rowid": "1227335",
    "final_x": "3696229.79767",
    "final_y": "558852.443292",
    "longitude": "-90.02057038631786",
    "latitude": "30.030194428761295",
    "geocoded_column": {
      "latitude": "30.030194428761295",
      "longitude": "-90.02057038631786"
    }
  },
  {
    "service_request": "2025-1227334",
    "request_type": "Trash/Recycling",
    "request_reason": "Replace Trash Cart",
    "date_created": "2025-09-18T13:47:54.000",
    "date_modified": "2025-09-18T13:47:56.000",
    "request_status": "Pending",
    "responsible_agency": "Department of Sanitation",
    "final_address": "3759 Herald St",
    "address_councildis": "C",
    "status": "Assigned to Contractor",
    "contractor": "Richards Disposal",
    "rowid": "1227334",
    "final_x": "3702097.37245",
    "final_y": "517079.066357",
    "longitude": "-90.00356088097642",
    "latitude": "29.915146698727803",
    "geocoded_column": {
      "latitude": "29.915146698727803",
      "longitude": "-90.00356088097642"
    }
  },
  {
    "service_request": "2025-1227333",
    "request_type": "Trash/Recycling",
    "request_reason": "Replace Trash Cart",
    "date_created": "2025-09-18T13:44:20.000",
    "date_modified": "2025-09-18T13:44:21.000",
    "request_status": "Pending",
    "responsible_agency": "Department of Sanitation",
    "final_address": "516 Peniston St",
    "address_councildis": "B",
    "status": "Assigned to Contractor",
    "contractor": "IV Waste",
    "rowid": "1227333",
    "final_x": "3673638.69992",
    "final_y": "517872.54527",
    "longitude": "-90.09335985924933",
    "latitude": "29.918205973336878",
    "geocoded_column": {
      "latitude": "29.918205973336878",
      "longitude": "-90.09335985924933"
    }
  },
  {
    "service_request": "2025-1227332",
    "request_type": "Utility Poles",
    "request_reason": "Utility Pole Leaning",
    "date_created": "2025-09-18T13:43:50.000",
    "date_modified": "2025-09-18T13:43:52.000",
    "request_status": "Pending",
    "responsible_agency": "Utility Company Collective",
    "final_address": "5146 Cameron Blvd",
    "address_councildis": "D",
    "status": "Pending",
    "rowid": "1227332",
    "final_x": "3682577.50434",
    "final_y": "551867.47183",
    "longitude": "-90.06395618499506",
    "latitude": "30.011411326101403",
    "geocoded_column": {
      "latitude": "30.011411326101403",
      "longitude": "-90.06395618499506"
    }
  },
  {
    "service_request": "2025-1227331",
    "request_type": "Trash/Recycling",
    "request_reason": "Request a Large Item Pick Up",
    "date_created": "2025-09-18T13:42:06.000",
    "date_modified": "2025-09-18T13:42:07.000",
    "request_status": "Pending",
    "responsible_agency": "Department of Sanitation",
    "final_address": "7901 Tarpon St",
    "address_councildis": "E",
    "status": "Assigned to Contractor",
    "contractor": "Waste Pro",
    "rowid": "1227331",
    "final_x": "3698474.65783",
    "final_y": "560736.467934",
    "longitude": "-90.01340807872916",
    "latitude": "30.03530386154461",
    "geocoded_column": {
      "latitude": "30.03530386154461",
      "longitude": "-90.01340807872916"
    }
  },
  {
    "service_request": "2025-1227330",
    "request_type": "Trash/Recycling",
    "request_reason": "Request a Large Item Pick Up",
    "date_created": "2025-09-18T13:38:52.000",
    "date_modified": "2025-09-18T13:38:54.000",
    "request_status": "Pending",
    "responsible_agency": "Department of Sanitation",
    "final_address": "4311 America St",
    "address_councildis": "E",
    "status": "Assigned to Contractor",
    "contractor": "Waste Pro",
    "rowid": "1227330",
    "final_x": "3699986.93207",
    "final_y": "552681.93999",
    "longitude": "-90.00892327339697",
    "latitude": "30.013109010640793",
    "geocoded_column": {
      "latitude": "30.013109010640793",
      "longitude": "-90.00892327339697"
    }
  },
  {
    "service_request": "2025-1227329",
    "request_type": "Roads and Streets",
    "request_reason": "Pothole",
    "date_created": "2025-09-18T13:37:54.000",
    "date_modified": "2025-09-18T13:37:55.000",
    "request_status": "Pending",
    "responsible_agency": "Department of Public Works",
    "final_address": "3000 Alvar St",
    "address_councildis": "D",
    "status": "Pending",
    "rowid": "1227329",
    "final_x": "3693272.31101",
    "final_y": "543078.693261",
    "longitude": "-90.03048277105603",
    "latitude": "29.986915298054253",
    "geocoded_column": {
      "latitude": "29.986915298054253",
      "longitude": "-90.03048277105603"
    }
  },
  {
    "service_request": "2025-1227328",
    "request_type": "Trash/Recycling",
    "request_reason": "Repair Trash Cart",
    "date_created": "2025-09-18T13:36:28.000",
    "date_modified": "2025-09-18T13:36:30.000",
    "request_status": "Pending",
    "responsible_agency": "Department of Sanitation",
    "final_address": "2021 N Roman St",
    "address_councildis": "D",
    "status": "Assigned to Contractor",
    "contractor": "IV Waste",
    "rowid": "1227328",
    "final_x": "3684222.16949",
    "final_y": "538870.513481",
    "longitude": "-90.05921661748566",
    "latitude": "29.975624124678358",
    "geocoded_column": {
      "latitude": "29.975624124678358",
      "longitude": "-90.05921661748566"
    }
  },
  {
    "service_request": "2025-1227327",
    "request_type": "Roads and Streets",
    "request_reason": "Street Subsidence (Sinking)",
    "date_created": "2025-09-18T13:31:33.000",
    "date_modified": "2025-09-18T13:31:34.000",
    "request_status": "Pending",
    "responsible_agency": "Sewerage & Water Board",
    "final_address": "2412 St Bernard Ave",
    "address_councildis": "D",
    "status": "Pending",
    "rowid": "1227327",
    "final_x": "3680629.59061",
    "final_y": "540654.649035",
    "longitude": "-90.07050087034246",
    "latitude": "29.980639231045327",
    "geocoded_column": {
      "latitude": "29.980639231045327",
      "longitude": "-90.07050087034246"
    }
  },
  {
    "service_request": "2025-1227326",
    "request_type": "Drainage",
    "request_reason": "Catch Basin Frame and Cover Missing or Damaged",
    "date_created": "2025-09-18T13:27:59.000",
    "date_modified": "2025-09-18T13:28:01.000",
    "request_status": "Pending",
    "responsible_agency": "Sewerage & Water Board",
    "final_address": "HAYNE BLVD & SCOTTWOOD DR",
    "address_councildis": "E",
    "status": "Pending",
    "rowid": "1227326",
    "final_x": "3716295.8",
    "final_y": "572004.48",
    "longitude": "-89.95666313288818",
    "latitude": "30.065709776431277",
    "geocoded_column": {
      "latitude": "30.065709776431277",
      "longitude": "-89.95666313288818"
    }
  },
  {
    "service_request": "2025-1227325",
    "request_type": "Streetlights",
    "request_reason": "New Streetlight Request",
    "date_created": "2025-09-18T13:27:08.000",
    "date_modified": "2025-09-18T13:27:11.000",
    "request_status": "Pending",
    "responsible_agency": "Department of Public Works",
    "final_address": "2318 Constance St",
    "address_councildis": "B",
    "status": "Pending",
    "rowid": "1227325",
    "final_x": "3678653.95682",
    "final_y": "521422.388153",
    "longitude": "-90.07740658215732",
    "latitude": "29.927816703679287",
    "geocoded_column": {
      "latitude": "29.927816703679287",
      "longitude": "-90.07740658215732"
    }
  },
  {
    "service_request": "2025-1227324",
    "request_type": "Property Maintenance",
    "request_reason": "Property Maintenance",
    "date_created": "2025-09-18T13:13:09.000",
    "date_modified": "2025-09-18T14:03:48.000",
    "case_close_date": "2025-09-18T09:03:48.000",
    "request_status": "Closed",
    "responsible_agency": "Department of Code Enforcement",
    "final_address": "2555 N Derbigny St",
    "address_councildis": "D",
    "status": "Referred to Code Enforcement",
    "rowid": "1227324",
    "final_x": "3687462.127",
    "final_y": "538757.137289",
    "longitude": "-90.04898797384737",
    "latitude": "29.975212921354764",
    "geocoded_column": {
      "latitude": "29.975212921354764",
      "longitude": "-90.04898797384737"
    }
  },
  {
    "service_request": "2025-1227323",
    "request_type": "Trash/Recycling",
    "request_reason": "Request a Large Item Pick Up",
    "date_created": "2025-09-18T13:11:05.000",
    "date_modified": "2025-09-18T13:11:08.000",
    "request_status": "Pending",
    "responsible_agency": "Department of Sanitation",
    "final_address": "1015 Pleasant St",
    "address_councildis": "B",
    "status": "Assigned to Contractor",
    "contractor": "IV Waste",
    "rowid": "1227323",
    "final_x": "3675694.05787",
    "final_y": "519672.081976",
    "longitude": "-90.08681040361196",
    "latitude": "29.923092802304254",
    "geocoded_column": {
      "latitude": "29.923092802304254",
      "longitude": "-90.08681040361196"
    }
  },
  {
    "service_request": "2025-1227322",
    "request_type": "Property Maintenance",
    "request_reason": "Property Maintenance",
    "date_created": "2025-09-18T13:07:06.000",
    "date_modified": "2025-09-18T13:07:08.000",
    "request_status": "Pending",
    "responsible_agency": "Department of Code Enforcement",
    "final_address": "2556 N Miro St",
    "address_councildis": "D",
    "status": "Pending",
    "rowid": "1227322",
    "final_x": "3687386.86831",
    "final_y": "540471.952203",
    "longitude": "-90.04916496362854",
    "latitude": "29.979930376805424",
    "geocoded_column": {
      "latitude": "29.979930376805424",
      "longitude": "-90.04916496362854"
    }
  },
  {
    "service_request": "2025-1227321",
    "request_type": "Utility Poles",
    "request_reason": "Utility Pole Leaning",
    "date_created": "2025-09-18T13:04:13.000",
    "date_modified": "2025-09-18T13:04:16.000",
    "request_status": "Pending",
    "responsible_agency": "Utility Company Collective",
    "final_address": "3930 Chestnut St",
    "address_councildis": "B",
    "status": "Pending",
    "rowid": "1227321",
    "final_x": "3672644.42529",
    "final_y": "519602.440184",
    "longitude": "-90.09643931144208",
    "latitude": "29.922992180574077",
    "geocoded_column": {
      "latitude": "29.922992180574077",
      "longitude": "-90.09643931144208"
    }
  },
  {
    "service_request": "2025-1227320",
    "request_type": "Abandoned Vehicles",
    "request_reason": "Abandoned/Junk Vehicles",
    "date_created": "2025-09-18T13:04:07.000",
    "date_modified": "2025-09-18T13:04:11.000",
    "request_status": "Pending",
    "responsible_agency": "Department of Public Works",
    "final_address": "809 St Ferdinand St",
    "address_councildis": "C",
    "status": "Pending",
    "rowid": "1227320",
    "final_x": "3687473.3407",
    "final_y": "535257.661062",
    "longitude": "-90.04907643174062",
    "latitude": "29.965590240680687",
    "geocoded_column": {
      "latitude": "29.965590240680687",
      "longitude": "-90.04907643174062"
    }
  },
  {
    "service_request": "2025-1227319",
    "request_type": "Trash/Recycling",
    "request_reason": "Request a Large Item Pick Up",
    "date_created": "2025-09-18T12:57:53.000",
    "date_modified": "2025-09-18T12:57:55.000",
    "request_status": "Pending",
    "responsible_agency": "Department of Sanitation",
    "final_address": "1133 Burdette St",
    "address_councildis": "A",
    "status": "Assigned to Contractor",
    "contractor": "IV Waste",
    "rowid": "1227319",
    "final_x": "3662769.30355",
    "final_y": "527534.649535",
    "longitude": "-90.1273478561412",
    "latitude": "29.945092668974823",
    "geocoded_column": {
      "latitude": "29.945092668974823",
      "longitude": "-90.1273478561412"
    }
  },
  {
    "service_request": "2025-1227318",
    "request_type": "Trash/Recycling",
    "request_reason": "Order Recycling Cart",
    "date_created": "2025-09-18T12:57:05.000",
    "date_modified": "2025-09-18T12:57:07.000",
    "request_status": "Pending",
    "responsible_agency": "Department of Sanitation",
    "final_address": "721 Congress St",
    "address_councildis": "C",
    "status": "Pending",
    "rowid": "1227318",
    "final_x": "3690417.79017",
    "final_y": "534241.143173",
    "longitude": "-90.03981425045859",
    "latitude": "29.962704101323272",
    "geocoded_column": {
      "latitude": "29.962704101323272",
      "longitude": "-90.03981425045859"
    }
  },
  {
    "service_request": "2025-1227317",
    "request_type": "Trash/Recycling",
    "request_reason": "Order Trash Cart",
    "date_created": "2025-09-18T12:56:46.000",
    "date_modified": "2025-09-18T12:56:54.000",
    "request_status": "Pending",
    "responsible_agency": "Department of Sanitation",
    "final_address": "721 Congress St",
    "address_councildis": "C",
    "status": "Assigned to Contractor",
    "contractor": "IV Waste",
    "rowid": "1227317",
    "final_x": "3690417.79017",
    "final_y": "534241.143173",
    "longitude": "-90.03981425045859",
    "latitude": "29.962704101323272",
    "geocoded_column": {
      "latitude": "29.962704101323272",
      "longitude": "-90.03981425045859"
    }
  },
  {
    "service_request": "2025-1227316",
    "request_type": "Street and Traffic Signs",
    "request_reason": "Stop Sign Missing or Damaged",
    "date_created": "2025-09-18T12:56:34.000",
    "date_modified": "2025-09-18T12:56:36.000",
    "request_status": "Pending",
    "responsible_agency": "Department of Public Works",
    "final_address": "N TONTI ST & ALLEN ST",
    "address_councildis": "D",
    "status": "Pending",
    "rowid": "1227316",
    "final_x": "3682419.0",
    "final_y": "540545.58",
    "longitude": "-90.06485295498824",
    "latitude": "29.980284981805752",
    "geocoded_column": {
      "latitude": "29.980284981805752",
      "longitude": "-90.06485295498824"
    }
  },
  {
    "service_request": "2025-1227315",
    "request_type": "Trash/Recycling",
    "request_reason": "Request a Large Item Pick Up",
    "date_created": "2025-09-18T12:55:18.000",
    "date_modified": "2025-09-18T12:55:20.000",
    "request_status": "Pending",
    "responsible_agency": "Department of Sanitation",
    "final_address": "3560 White Oak Ave",
    "address_councildis": "C",
    "status": "Assigned to Contractor",
    "contractor": "Richards Disposal",
    "rowid": "1227315",
    "final_x": "3703534.68458",
    "final_y": "514451.687667",
    "longitude": "-89.99912079815307",
    "latitude": "29.907876362177888",
    "geocoded_column": {
      "latitude": "29.907876362177888",
      "longitude": "-89.99912079815307"
    }
  },
  {
    "service_request": "2025-1227314",
    "request_type": "Property Maintenance",
    "request_reason": "Property Maintenance",
    "date_created": "2025-09-18T12:54:31.000",
    "date_modified": "2025-09-18T12:54:34.000",
    "request_status": "Pending",
    "responsible_agency": "Department of Code Enforcement",
    "final_address": "1424 S Derbigny St",
    "address_councildis": "B",
    "status": "Pending",
    "rowid": "1227314",
    "final_x": "3674867.20865",
    "final_y": "528432.929024",
    "longitude": "-90.08912016319552",
    "latitude": "29.947206983328428",
    "geocoded_column": {
      "latitude": "29.947206983328428",
      "longitude": "-90.08912016319552"
    }
  },
  {
    "service_request": "2025-1227313",
    "request_type": "Property Maintenance",
    "request_reason": "Property Maintenance",
    "date_created": "2025-09-18T12:52:51.000",
    "date_modified": "2025-09-18T12:52:53.000",
    "request_status": "Pending",
    "responsible_agency": "Department of Code Enforcement",
    "final_address": "1426 S Derbigny St",
    "address_councildis": "B",
    "status": "Pending",
    "rowid": "1227313",
    "final_x": "3674859.41877",
    "final_y": "528423.939904",
    "longitude": "-90.08914506700175",
    "latitude": "29.947182498801222",
    "geocoded_column": {
      "latitude": "29.947182498801222",
      "longitude": "-90.08914506700175"
    }
  },
  {
    "service_request": "2025-1227312",
    "request_type": "Parks & Parkways",
    "request_reason": "Request Tree Service (Right of Way/Public Property)",
    "date_created": "2025-09-18T12:52:40.000",
    "date_modified": "2025-09-18T16:46:05.000",
    "request_status": "Pending",
    "responsible_agency": "Department of Parks & Parkway",
    "final_address": "300 BLK Wagner St",
    "address_councildis": "C",
    "status": "Pending",
    "rowid": "1227312",
    "final_x": "3690625.0344",
    "final_y": "530433.128554",
    "longitude": "-90.03929560753939",
    "latitude": "29.952226950078035",
    "geocoded_column": {
      "latitude": "29.952226950078035",
      "longitude": "-90.03929560753939"
    }
  },
  {
    "service_request": "2025-1227311",
    "request_type": "Property Maintenance",
    "request_reason": "Property Maintenance",
    "date_created": "2025-09-18T12:51:04.000",
    "date_modified": "2025-09-18T12:51:05.000",
    "request_status": "Pending",
    "responsible_agency": "Department of Code Enforcement",
    "final_address": "1428 S Derbigny St",
    "address_councildis": "B",
    "status": "Pending",
    "rowid": "1227311",
    "final_x": "3674848.7819",
    "final_y": "528400.666496",
    "longitude": "-90.08917944953133",
    "latitude": "29.947118822196373",
    "geocoded_column": {
      "latitude": "29.947118822196373",
      "longitude": "-90.08917944953133"
    }
  },
  {
    "service_request": "2025-1227310",
    "request_type": "Property Maintenance",
    "request_reason": "Property Maintenance",
    "date_created": "2025-09-18T12:48:11.000",
    "date_modified": "2025-09-18T12:48:12.000",
    "request_status": "Pending",
    "responsible_agency": "Department of Code Enforcement",
    "final_address": "3125 Thalia St",
    "address_councildis": "B",
    "status": "Pending",
    "rowid": "1227310",
    "final_x": "3674715.77243",
    "final_y": "528770.55136",
    "longitude": "-90.0895867343185",
    "latitude": "29.94813985378458",
    "geocoded_column": {
      "latitude": "29.94813985378458",
      "longitude": "-90.0895867343185"
    }
  },
  {
    "service_request": "2025-1227309",
    "request_type": "Trash/Recycling",
    "request_reason": "Return Trash Cart",
    "date_created": "2025-09-18T12:47:56.000",
    "date_modified": "2025-09-18T12:47:58.000",
    "request_status": "Pending",
    "responsible_agency": "Department of Sanitation",
    "final_address": "530 S Solomon St",
    "address_councildis": "A",
    "status": "Assigned to Contractor",
    "contractor": "IV Waste",
    "rowid": "1227309",
    "final_x": "3669491.24302",
    "final_y": "537227.534472",
    "longitude": "-90.10579668868031",
    "latitude": "29.971548656753583",
    "geocoded_column": {
      "latitude": "29.971548656753583",
      "longitude": "-90.10579668868031"
    }
  },
  {
    "service_request": "2025-1227308",
    "request_type": "Trash/Recycling",
    "request_reason": "Order Recycling Cart",
    "date_created": "2025-09-18T12:46:57.000",
    "date_modified": "2025-09-18T12:46:59.000",
    "request_status": "Pending",
    "responsible_agency": "Department of Sanitation",
    "final_address": "530 S Solomon St",
    "address_councildis": "A",
    "status": "Pending",
    "rowid": "1227308",
    "final_x": "3669491.24302",
    "final_y": "537227.534472",
    "longitude": "-90.10579668868031",
    "latitude": "29.971548656753583",
    "geocoded_column": {
      "latitude": "29.971548656753583",
      "longitude": "-90.10579668868031"
    }
  },
  {
    "service_request": "2025-1227307",
    "request_type": "Property Maintenance",
    "request_reason": "Property Maintenance",
    "date_created": "2025-09-18T12:46:51.000",
    "date_modified": "2025-09-18T12:46:54.000",
    "request_status": "Pending",
    "responsible_agency": "Department of Code Enforcement",
    "final_address": "1322 S Roman St",
    "address_councildis": "B",
    "status": "Pending",
    "rowid": "1227307",
    "final_x": "3674713.31412",
    "final_y": "528852.998464",
    "longitude": "-90.08959167060463",
    "latitude": "29.94836662942631",
    "geocoded_column": {
      "latitude": "29.94836662942631",
      "longitude": "-90.08959167060463"
    }
  },
  {
    "service_request": "2025-1227306",
    "request_type": "Trash/Recycling",
    "request_reason": "Request a Large Item Pick Up",
    "date_created": "2025-09-18T12:44:17.000",
    "date_modified": "2025-09-18T12:44:19.000",
    "request_status": "Pending",
    "responsible_agency": "Department of Sanitation",
    "final_address": "5754 Pasteur Blvd",
    "address_councildis": "D",
    "status": "Assigned to Contractor",
    "contractor": "IV Waste",
    "rowid": "1227306",
    "final_x": "3682671.4701",
    "final_y": "554462.722328",
    "longitude": "-90.06356844651391",
    "latitude": "30.01854445677738",
    "geocoded_column": {
      "latitude": "30.01854445677738",
      "longitude": "-90.06356844651391"
    }
  },
  {
    "service_request": "2025-1227305",
    "request_type": "Property Maintenance",
    "request_reason": "Property Maintenance",
    "date_created": "2025-09-18T12:43:06.000",
    "date_modified": "2025-09-18T12:43:09.000",
    "request_status": "Pending",
    "responsible_agency": "Department of Code Enforcement",
    "final_address": "1328 S Roman St",
    "address_councildis": "B",
    "status": "Pending",
    "rowid": "1227305",
    "final_x": "3674684.40916",
    "final_y": "528819.293696",
    "longitude": "-90.08968409070373",
    "latitude": "29.94827481512613",
    "geocoded_column": {
      "latitude": "29.94827481512613",
      "longitude": "-90.08968409070373"
    }
  },
  {
    "service_request": "2025-1227304",
    "request_type": "Property Maintenance",
    "request_reason": "Property Maintenance",
    "date_created": "2025-09-18T12:42:15.000",
    "date_modified": "2025-09-18T12:42:17.000",
    "request_status": "Pending",
    "responsible_agency": "Department of Code Enforcement",
    "final_address": "1326 S Roman St",
    "address_councildis": "B",
    "status": "Pending",
    "rowid": "1227304",
    "final_x": "3674694.82587",
    "final_y": "528833.043648",
    "longitude": "-90.089650729606",
    "latitude": "29.948312312068964",
    "geocoded_column": {
      "latitude": "29.948312312068964",
      "longitude": "-90.089650729606"
    }
  },
  {
    "service_request": "2025-1227303",
    "request_type": "Trash/Recycling",
    "request_reason": "Request a Large Item Pick Up",
    "date_created": "2025-09-18T12:41:56.000",
    "date_modified": "2025-09-18T12:41:59.000",
    "request_status": "Pending",
    "responsible_agency": "Department of Sanitation",
    "final_address": "4856 Chantilly Dr",
    "address_councildis": "E",
    "status": "Assigned to Contractor",
    "contractor": "Waste Pro",
    "rowid": "1227303",
    "final_x": "3700740.58545",
    "final_y": "554825.167064",
    "longitude": "-90.0064637363177",
    "latitude": "30.018978096262053",
    "geocoded_column": {
      "latitude": "30.018978096262053",
      "longitude": "-90.0064637363177"
    }
  },
  {
    "service_request": "2025-1227302",
    "request_type": "Property Maintenance",
    "request_reason": "Property Maintenance",
    "date_created": "2025-09-18T12:40:37.000",
    "date_modified": "2025-09-18T12:40:38.000",
    "request_status": "Pending",
    "responsible_agency": "Department of Code Enforcement",
    "final_address": "3121 Thalia St",
    "address_councildis": "B",
    "status": "Pending",
    "rowid": "1227302",
    "final_x": "3674792.5755",
    "final_y": "528736.531136",
    "longitude": "-90.08934540159737",
    "latitude": "29.948044016922328",
    "geocoded_column": {
      "latitude": "29.948044016922328",
      "longitude": "-90.08934540159737"
    }
  },
  {
    "service_request": "2025-1227301",
    "request_type": "Property Maintenance",
    "request_reason": "Property Maintenance",
    "date_created": "2025-09-18T12:39:28.000",
    "date_modified": "2025-09-18T12:39:33.000",
    "request_status": "Pending",
    "responsible_agency": "Department of Code Enforcement",
    "final_address": "3117 Thalia St",
    "address_councildis": "B",
    "status": "Pending",
    "rowid": "1227301",
    "final_x": "3674817.87566",
    "final_y": "528720.670336",
    "longitude": "-90.0892660623818",
    "latitude": "29.947999649685144",
    "geocoded_column": {
      "latitude": "29.947999649685144",
      "longitude": "-90.0892660623818"
    }
  },
  {
    "service_request": "2025-1227300",
    "request_type": "Streetlights",
    "request_reason": "Streetlight Outage/Malfunction",
    "date_created": "2025-09-18T12:32:35.000",
    "date_modified": "2025-09-18T12:32:37.000",
    "request_status": "Pending",
    "responsible_agency": "Department of Public Works",
    "final_address": "3741 Rue Nadine",
    "address_councildis": "C",
    "status": "Pending",
    "rowid": "1227300",
    "final_x": "3704684.1754",
    "final_y": "516647.578549",
    "longitude": "-89.9954119571772",
    "latitude": "29.913877456053942",
    "geocoded_column": {
      "latitude": "29.913877456053942",
      "longitude": "-89.9954119571772"
    }
  },
  {
    "service_request": "2025-1227299",
    "request_type": "Streetlights",
    "request_reason": "Streetlight Outage/Malfunction",
    "date_created": "2025-09-18T12:31:40.000",
    "date_modified": "2025-09-18T12:31:42.000",
    "request_status": "Pending",
    "responsible_agency": "Department of Public Works",
    "final_address": "4477 Venus St",
    "address_councildis": "D",
    "status": "Pending",
    "rowid": "1227299",
    "final_x": "3686665.39132",
    "final_y": "549495.537363",
    "longitude": "-90.0511247604616",
    "latitude": "30.00476421741446",
    "geocoded_column": {
      "latitude": "30.00476421741446",
      "longitude": "-90.0511247604616"
    }
  },
  {
    "service_request": "2025-1227298",
    "request_type": "Roads and Streets",
    "request_reason": "Curb Damage",
    "date_created": "2025-09-18T12:30:47.000",
    "date_modified": "2025-09-18T12:30:52.000",
    "request_status": "Pending",
    "responsible_agency": "Department of Public Works",
    "final_address": "5809 Tullis Dr",
    "address_councildis": "C",
    "status": "Pending",
    "rowid": "1227298",
    "final_x": "3705586.37662",
    "final_y": "512862.490865",
    "longitude": "-89.99270412022292",
    "latitude": "29.903440765473498",
    "geocoded_column": {
      "latitude": "29.903440765473498",
      "longitude": "-89.99270412022292"
    }
  },
  {
    "service_request": "2025-1227297",
    "request_type": "Parks & Parkways",
    "request_reason": "Request Grass Cutting Service (City Owned Property)",
    "date_created": "2025-09-18T12:27:52.000",
    "date_modified": "2025-09-18T12:27:54.000",
    "request_status": "Pending",
    "responsible_agency": "Department of Parks & Parkway",
    "final_address": "300 BLK Wagner St",
    "address_councildis": "C",
    "status": "Pending",
    "rowid": "1227297",
    "final_x": "3690625.0344",
    "final_y": "530433.128554",
    "longitude": "-90.03929560753939",
    "latitude": "29.952226950078035",
    "geocoded_column": {
      "latitude": "29.952226950078035",
      "longitude": "-90.03929560753939"
    }
  },
  {
    "service_request": "2025-1227296",
    "request_type": "Property Maintenance",
    "request_reason": "Property Maintenance",
    "date_created": "2025-09-18T12:22:22.000",
    "date_modified": "2025-09-18T12:22:25.000",
    "request_status": "Pending",
    "responsible_agency": "Department of Code Enforcement",
    "final_address": "4314 Loyola Ave",
    "address_councildis": "B",
    "status": "Pending",
    "rowid": "1227296",
    "final_x": "3670889.26721",
    "final_y": "522969.148091",
    "longitude": "-90.10186546213964",
    "latitude": "29.932301529547672",
    "geocoded_column": {
      "latitude": "29.932301529547672",
      "longitude": "-90.10186546213964"
    }
  },
  {
    "service_request": "2025-1227295",
    "request_type": "Trash/Recycling",
    "request_reason": "Request a Large Item Pick Up",
    "date_created": "2025-09-18T12:17:04.000",
    "date_modified": "2025-09-18T12:17:06.000",
    "request_status": "Pending",
    "responsible_agency": "Department of Sanitation",
    "final_address": "709 N Salcedo St",
    "address_councildis": "A",
    "status": "Assigned to Contractor",
    "contractor": "IV Waste",
    "rowid": "1227295",
    "final_x": "3675428.95809",
    "final_y": "537912.177609",
    "longitude": "-90.08702096685914",
    "latitude": "29.973254948724637",
    "geocoded_column": {
      "latitude": "29.973254948724637",
      "longitude": "-90.08702096685914"
    }
  },
  {
    "service_request": "2025-1227294",
    "request_type": "Trash/Recycling",
    "request_reason": "Replace Trash Cart",
    "date_created": "2025-09-18T12:17:01.000",
    "date_modified": "2025-09-18T12:17:02.000",
    "request_status": "Pending",
    "responsible_agency": "Department of Sanitation",
    "final_address": "2023 Jena St",
    "address_councildis": "B",
    "status": "Assigned to Contractor",
    "contractor": "IV Waste",
    "rowid": "1227294",
    "final_x": "3670329.91578",
    "final_y": "522438.125946",
    "longitude": "-90.10364927735274",
    "latitude": "29.930857906923514",
    "geocoded_column": {
      "latitude": "29.930857906923514",
      "longitude": "-90.10364927735274"
    }
  },
  {
    "service_request": "2025-1227293",
    "request_type": "Trash/Recycling",
    "request_reason": "Replace Recycling Cart",
    "date_created": "2025-09-18T12:16:58.000",
    "date_modified": "2025-09-18T12:17:02.000",
    "request_status": "Pending",
    "responsible_agency": "Department of Sanitation",
    "final_address": "1806 Robert St",
    "address_councildis": "B",
    "status": "Pending",
    "rowid": "1227293",
    "final_x": "3668717.8825",
    "final_y": "522226.453562",
    "longitude": "-90.1087453989585",
    "latitude": "29.930323346093953",
    "geocoded_column": {
      "latitude": "29.930323346093953",
      "longitude": "-90.1087453989585"
    }
  },
  {
    "service_request": "2025-1227292",
    "request_type": "Roads and Streets",
    "request_reason": "Pothole",
    "date_created": "2025-09-18T12:14:56.000",
    "date_modified": "2025-09-18T12:16:15.000",
    "request_status": "Pending",
    "responsible_agency": "Department of Public Works",
    "final_address": "6221 Colbert St",
    "address_councildis": "A",
    "status": "Pending",
    "rowid": "1227292",
    "final_x": "3667641.07117",
    "final_y": "548980.542099",
    "longitude": "-90.11124394751482",
    "latitude": "30.003919796505564",
    "geocoded_column": {
      "latitude": "30.003919796505564",
      "longitude": "-90.11124394751482"
    }
  },
  {
    "service_request": "2025-1227291",
    "request_type": "Trash/Recycling",
    "request_reason": "Return Trash Cart",
    "date_created": "2025-09-18T12:12:40.000",
    "date_modified": "2025-09-18T12:12:43.000",
    "request_status": "Pending",
    "responsible_agency": "Department of Sanitation",
    "final_address": "4413 Elba St",
    "address_councildis": "B",
    "status": "Assigned to Contractor",
    "contractor": "IV Waste",
    "rowid": "1227291",
    "final_x": "3669733.89722",
    "final_y": "530470.213122",
    "longitude": "-90.10525907063196",
    "latitude": "29.952961116360285",
    "geocoded_column": {
      "latitude": "29.952961116360285",
      "longitude": "-90.10525907063196"
    }
  },
  {
    "service_request": "2025-1227290",
    "request_type": "Property Maintenance",
    "request_reason": "Property Maintenance",
    "date_created": "2025-09-18T12:12:34.000",
    "date_modified": "2025-09-18T13:01:03.000",
    "case_close_date": "2025-09-18T08:01:00.000",
    "request_status": "Closed",
    "responsible_agency": "Department of Code Enforcement",
    "final_address": "1020 Charbonnet St",
    "address_councildis": "E",
    "status": "Referred to Code Enforcement",
    "rowid": "1227290",
    "final_x": "3698514.56548",
    "final_y": "533372.236292",
    "longitude": "-90.0142774423113",
    "latitude": "29.960061105688045",
    "geocoded_column": {
      "latitude": "29.960061105688045",
      "longitude": "-90.0142774423113"
    }
  },
  {
    "service_request": "2025-1227289",
    "request_type": "Trash/Recycling",
    "request_reason": "Repair Recycling Cart",
    "date_created": "2025-09-18T12:10:16.000",
    "date_modified": "2025-09-18T12:25:44.000",
    "request_status": "Pending",
    "responsible_agency": "Department of Sanitation",
    "final_address": "904 First St",
    "address_councildis": "B",
    "status": "Assigned to Contractor",
    "rowid": "1227289",
    "final_x": "3678409.2493",
    "final_y": "520921.505337",
    "longitude": "-90.07819638621608",
    "latitude": "29.926446812053943",
    "geocoded_column": {
      "latitude": "29.926446812053943",
      "longitude": "-90.07819638621608"
    }
  },