[
  {
    "service_request": "2022-860577",
    "request_type": "Trash/Recycling",
    "request_reason": "Request a Large Item Pick Up",
    "date_created": "2022-02-12T00:22:40.000",
    "date_modified": "2022-02-12T00:22:41.000",
    "request_status": "Pending",
    "responsible_agency": "Department of Sanitation",
    "final_address": "8803 Pritchard Pl",
    "address_councildis": "A",
    "status": "Assigned to Contractor",
    "contractor": "Richards Disposal",
    "rowid": "860577",
    "final_x": "3664224.0066",
    "final_y": "534607.766918",
    "longitude": "-90.1225189023639",
    "latitude": "29.964499266032774",
    "geocoded_column": {
      "latitude": "29.964499266032774",
      "longitude": "-90.1225189023639"
    }
  },
  {
    "service_request": "2022-860576",
    "request_type": "Abandoned Vehicles",
    "request_reason": "Vehicle Blocking Your Driveway",
    "date_created": "2022-02-11T23:17:27.000",
    "date_modified": "2022-02-11T23:17:27.000",
    "request_status": "Pending",
    "responsible_agency": "Department of Public Works",
    "final_address": "1610 S Carrollton Ave",
    "address_councildis": "A",
    "status": "Pending",
    "rowid": "860576",
    "final_x": "3662971.86381",
    "final_y": "529515.571201",
    "longitude": "-90.1266424419972",
    "latitude": "29.95053370399292",
    "geocoded_column": {
      "latitude": "29.95053370399292",
      "longitude": "-90.1266424419972"
    }
  },
  {
    "service_request": "2022-860575",
    "request_type": "Trash/Recycling",
    "request_reason": "MIssed Recycling Pick-Up",
    "date_created": "2022-02-11T22:32:01.000",
    "date_modified": "2022-02-11T22:32:02.000",
    "request_status": "Pending",
    "responsible_agency": "Department of Sanitation",
    "final_address": "7320 Hurst St",
    "address_councildis": "A",
    "status": "Assigned to Contractor",
    "contractor": "Richards Disposal",
    "rowid": "860575",
    "final_x": "3661819.1513",
    "final_y": "523847.623483",
    "longitude": "-90.13047000182155",
    "latitude": "29.934981980100186",
    "geocoded_column": {
      "latitude": "29.934981980100186",
      "longitude": "-90.13047000182155"
    }
  },
  {
    "service_request": "2022-860574",
    "request_type": "Trash/Recycling",
    "request_reason": "MIssed Recycling Pick-Up",
    "date_created": "2022-02-11T22:23:25.000",
    "date_modified": "2022-02-11T22:23:25.000",
    "request_status": "Pending",
    "responsible_agency": "Department of Sanitation",
    "final_address": "7320 Hurst St",
    "address_councildis": "A",
    "status": "Assigned to Contractor",
    "contractor": "Richards Disposal",
    "rowid": "860574",
    "final_x": "3661819.1513",
    "final_y": "523847.623483",
    "longitude": "-90.13047000182155",
    "latitude": "29.934981980100186",
    "geocoded_column": {
      "latitude": "29.934981980100186",
      "longitude": "-90.13047000182155"
    }
  },
  {
    "service_request": "2022-860573",
    "request_type": "Trash/Recycling",
    "request_reason": "Request a Large Item Pick Up",
    "date_created": "2022-02-11T22:17:30.000",
    "date_modified": "2022-02-11T22:17:31.000",
    "request_status": "Pending",
    "responsible_agency": "Department of Sanitation",
    "final_address": "6519 Memphis St",
    "address_councildis": "A",
    "status": "Assigned to Contractor",
    "contractor": "Metro Disposal",
    "rowid": "860573",
    "final_x": "3669601.00698",
    "final_y": "550786.416917",
    "longitude": "-90.10499099528124",
    "latitude": "30.008827697432586",
    "geocoded_column": {
      "latitude": "30.008827697432586",
      "longitude": "-90.10499099528124"
    }
  },
  {
    "service_request": "2022-860572",
    "request_type": "Safety & Permits",
    "request_reason": "Licenses & Permits",
    "date_created": "2022-02-11T21:21:10.000",
    "date_modified": "2022-02-11T21:21:10.000",
    "request_status": "Pending",
    "responsible_agency": "Safety and Permits",
    "final_address": "239 Decatur St",
    "address_councildis": "C",
    "status": "Pending",
    "rowid": "860572",
    "final_x": "3682195.63317",
    "final_y": "530830.069826",
    "longitude": "-90.06589786183099",
    "latitude": "29.95357746948798",
    "geocoded_column": {
      "latitude": "29.95357746948798",
      "longitude": "-90.06589786183099"
    }
  },
  {
    "service_request": "2022-860571",
    "request_type": "COVID-19",
    "request_reason": "COVID-19 Business Non-Compliance",
    "date_created": "2022-02-11T21:13:53.000",
    "date_modified": "2022-02-11T21:13:55.000",
    "request_status": "Pending",
    "responsible_agency": "Safety and Permits",
    "final_address": "344 Camp St",
    "address_councildis": "B",
    "status": "Pending",
    "rowid": "860571",
    "final_x": "3681226.95074",
    "final_y": "529538.247873",
    "longitude": "-90.06900155988403",
    "latitude": "29.95005482152158",
    "geocoded_column": {
      "latitude": "29.95005482152158",
      "longitude": "-90.06900155988403"
    }
  },
  {
    "service_request": "2022-860570",
    "request_type": "Trash/Recycling",
    "request_reason": "MIssed Recycling Pick-Up",
    "date_created": "2022-02-11T20:41:00.000",
    "date_modified": "2022-02-11T20:41:00.000",
    "request_status": "Pending",
    "responsible_agency": "Department of Sanitation",
    "final_address": "3108 College Ct",
    "address_councildis": "B",
    "status": "Assigned to Contractor",
    "contractor": "Richards Disposal",
    "rowid": "860570",
    "final_x": "3668438.72218",
    "final_y": "531824.666499",
    "longitude": "-90.10930299017294",
    "latitude": "29.956723524055274",
    "geocoded_column": {
      "latitude": "29.956723524055274",
      "longitude": "-90.10930299017294"
    }
  },
  {
    "service_request": "2022-860569",
    "request_type": "Roads/Drainage",
    "request_reason": "Man hole cover issue",
    "date_created": "2022-02-11T20:33:38.000",
    "date_modified": "2022-02-11T20:33:38.000",
    "request_status": "Pending",
    "responsible_agency": "Department of Public Works",
    "final_address": "TOULOUSE ST & DECATUR ST",
    "address_councildis": "C",
    "status": "Pending",
    "rowid": "860569",
    "final_x": "3682943.7",
    "final_y": "531690.38",
    "longitude": "-90.0635056798676",
    "latitude": "29.9559202566575",
    "geocoded_column": {
      "latitude": "29.9559202566575",
      "longitude": "-90.0635056798676"
    }
  },
  {
    "service_request": "2022-860568",
    "request_type": "Trash/Recycling",
    "request_reason": "Request a Large Item Pick Up",
    "date_created": "2022-02-11T19:57:06.000",
    "date_modified": "2022-02-11T19:57:07.000",
    "request_status": "Pending",
    "responsible_agency": "Department of Sanitation",
    "final_address": "412 Octavia St",
    "address_councildis": "A",
    "status": "Assigned to Contractor",
    "contractor": "Richards Disposal",
    "rowid": "860568",
    "final_x": "3666141.48545",
    "final_y": "517669.44863",
    "longitude": "-90.11703141726298",
    "latitude": "29.917868477217628",
    "geocoded_column": {
      "latitude": "29.917868477217628",
      "longitude": "-90.11703141726298"
    }
  },
  {
    "service_request": "2022-860567",
    "request_type": "Traffic Signals/Signs/Striping/Streetlights",
    "request_reason": "Traffic Signal Malfunctioning/Damaged",
    "date_created": "2022-02-11T19:30:01.000",
    "date_modified": "2022-02-11T19:30:01.000",
    "request_status": "Pending",
    "responsible_agency": "Department of Public Works",
    "final_address": "N Claiborne Ave & Esplanade Ave, New Orleans, Louisiana, 70116",
    "address_councildis": "D",
    "status": "Pending",
    "rowid": "860567",
    "final_x": "3681187.9",
    "final_y": "536587.48",
    "longitude": "-90.06887924362073",
    "latitude": "29.969438994559713",
    "geocoded_column": {
      "latitude": "29.969438994559713",
      "longitude": "-90.06887924362073"
    }
  },
  {
    "service_request": "2022-860566",
    "request_type": "Traffic Signals/Signs/Striping/Streetlights",
    "request_reason": "Traffic Signal Malfunctioning/Damaged",
    "date_created": "2022-02-11T19:27:21.000",
    "date_modified": "2022-02-11T19:27:21.000",
    "request_status": "Pending",
    "responsible_agency": "Department of Public Works",
    "final_address": "N Claiborne Ave & Esplanade Ave, New Orleans, Louisiana, 70116",
    "address_councildis": "D",
    "status": "Pending",
    "rowid": "860566",
    "final_x": "3681187.9",
    "final_y": "536587.48",
    "longitude": "-90.06887924362073",
    "latitude": "29.969438994559713",
    "geocoded_column": {
      "latitude": "29.969438994559713",
      "longitude": "-90.06887924362073"
    }
  },
  {
    "service_request": "2022-860565",
    "request_type": "Traffic Signals/Signs/Striping/Streetlights",
    "request_reason": "Traffic Sign Missing/Damaged",
    "date_created": "2022-02-11T19:22:17.000",
    "date_modified": "2022-02-11T19:22:17.000",
    "request_status": "Pending",
    "responsible_agency": "Department of Public Works",
    "final_address": "N RAMPART ST & CAFFIN AVE",
    "address_councildis": "E",
    "status": "Pending",
    "rowid": "860565",
    "final_x": "3697905.2",
    "final_y": "533326.28",
    "longitude": "-90.01620334408608",
    "latitude": "29.95995401647851",
    "geocoded_column": {
      "latitude": "29.95995401647851",
      "longitude": "-90.01620334408608"
    }
  },
  {
    "service_request": "2022-860564",
    "request_type": "Property Maintenance",
    "request_reason": "Property Maintenance",
    "date_created": "2022-02-11T19:20:32.000",
    "date_modified": "2022-02-11T19:20:32.000",
    "request_status": "Pending",
    "responsible_agency": "Department of Code Enforcement",
    "final_address": "6000 Chef Menteur Hwy",
    "address_councildis": "E",
    "status": "Pending",
    "rowid": "860564",
    "final_x": "3696741.35837",
    "final_y": "551496.105173",
    "longitude": "-90.01922045878081",
    "latitude": "30.009951159081027",
    "geocoded_column": {
      "latitude": "30.009951159081027",
      "longitude": "-90.01922045878081"
    }
  },
  {
    "service_request": "2022-860563",
    "request_type": "Traffic Signals/Signs/Striping/Streetlights",
    "request_reason": "Street Light Outage/Malfunction",
    "date_created": "2022-02-11T19:10:28.000",
    "date_modified": "2022-02-11T19:10:30.000",
    "request_status": "Pending",
    "responsible_agency": "Department of Public Works",
    "final_address": "1800 BLK Marigny St",
    "address_councildis": "D",
    "status": "Pending",
    "contractor": "Royal Engineering",
    "rowid": "860563",
    "final_x": "3685196.60956",
    "final_y": "539098.946196",
    "longitude": "-90.0561310299064",
    "latitude": "29.976222405399547",
    "geocoded_column": {
      "latitude": "29.976222405399547",
      "longitude": "-90.0561310299064"
    }
  },
  {
    "service_request": "2022-860562",
    "request_type": "Traffic Signals/Signs/Striping/Streetlights",
    "request_reason": "Street Light Outage/Malfunction",
    "date_created": "2022-02-11T19:07:27.000",
    "date_modified": "2022-02-11T19:07:28.000",
    "request_status": "Pending",
    "responsible_agency": "Department of Public Works",
    "final_address": "819 St Louis St",
    "address_councildis": "C",
    "status": "Pending",
    "contractor": "Royal Engineering",
    "rowid": "860562",
    "final_x": "3681732.08834",
    "final_y": "532255.725251",
    "longitude": "-90.06731180252456",
    "latitude": "29.957511628543656",
    "geocoded_column": {
      "latitude": "29.957511628543656",
      "longitude": "-90.06731180252456"
    }
  },
  {
    "service_request": "2022-860561",
    "request_type": "Trash/Recycling",
    "request_reason": "Repair Trash Cart",
    "date_created": "2022-02-11T18:49:35.000",
    "date_modified": "2022-02-11T18:49:36.000",
    "request_status": "Pending",
    "responsible_agency": "Department of Sanitation",
    "final_address": "New Orleans,LA",
    "status": "Assigned to Contractor",
    "rowid": "860561",
    "longitude": "0.0",
    "latitude": "0.0",
    "geocoded_column": {
      "latitude": "0.0",
      "longitude": "0.0"
    }
  },
  {
    "service_request": "2022-860560",
    "request_type": "Traffic Signals/Signs/Striping/Streetlights",
    "request_reason": "Street Light Outage/Malfunction",
    "date_created": "2022-02-11T18:27:24.000",
    "date_modified": "2022-02-11T18:27:25.000",
    "request_status": "Pending",
    "responsible_agency": "Department of Public Works",
    "final_address": "2428 Bristol Pl",
    "address_councildis": "C",
    "status": "Pending",
    "contractor": "Royal Engineering",
    "rowid": "860560",
    "final_x": "3702694.36721",
    "final_y": "522054.051066",
    "longitude": "-90.00149404431058",
    "latitude": "29.92880712687749",
    "geocoded_column": {
      "latitude": "29.92880712687749",
      "longitude": "-90.00149404431058"
    }
  },
  {
    "service_request": "2022-860559",
    "request_type": "Trash/Recycling",
    "request_reason": "Repair Trash Cart",
    "date_created": "2022-02-11T18:27:21.000",
    "date_modified": "2022-02-11T18:27:22.000",
    "request_status": "Pending",
    "responsible_agency": "Department of Sanitation",
    "final_address": "433 S Cortez St",
    "address_councildis": "B",
    "status": "Assigned to Contractor",
    "contractor": "Richards Disposal",
    "rowid": "860559",
    "final_x": "3671127.87758",
    "final_y": "536422.863815",
    "longitude": "-90.10065528074315",
    "latitude": "29.969287771155468",
    "geocoded_column": {
      "latitude": "29.969287771155468",
      "longitude": "-90.10065528074315"
    }
  },
  {
    "service_request": "2022-860558",
    "request_type": "Roads/Drainage",
    "request_reason": "Pothole",
    "date_created": "2022-02-11T18:13:48.000",
    "date_modified": "2022-02-11T18:13:48.000",
    "request_status": "Pending",
    "responsible_agency": "Department of Public Works",
    "final_address": "1701 Franklin Ave",
    "address_councildis": "D",
    "status": "Pending",
    "rowid": "860558",
    "final_x": "3687749.08374",
    "final_y": "538755.962761",
    "longitude": "-90.04808173271113",
    "latitude": "29.97520084463036",
    "geocoded_column": {
      "latitude": "29.97520084463036",
      "longitude": "-90.04808173271113"
    }
  },
  {
    "service_request": "2022-860556",
    "request_type": "Abandoned Vehicles",
    "request_reason": "Abandoned/Junk Vehicles",
    "date_created": "2022-02-11T18:02:06.000",
    "date_modified": "2022-02-11T18:02:06.000",
    "request_status": "Pending",
    "responsible_agency": "Department of Public Works",
    "final_address": "1908 Washington Ave",
    "address_councildis": "B",
    "status": "Pending",
    "rowid": "860556",
    "final_x": "3675238.45429",
    "final_y": "523494.995963",
    "longitude": "-90.08811742990353",
    "latitude": "29.93361819844051",
    "geocoded_column": {
      "latitude": "29.93361819844051",
      "longitude": "-90.08811742990353"
    }
  },
  {
    "service_request": "2022-860555",
    "request_type": "Roads/Drainage",
    "request_reason": "Man hole cover issue",
    "date_created": "2022-02-11T17:36:52.000",
    "date_modified": "2022-02-11T17:36:52.000",
    "request_status": "Pending",
    "responsible_agency": "Department of Public Works",
    "final_address": "600 BLK Decatur St",
    "address_councildis": "C",
    "status": "Pending",
    "rowid": "860555",
    "final_x": "3682991.75176",
    "final_y": "531758.533055",
    "longitude": "-90.0633515640523",
    "latitude": "29.95610619003354",
    "geocoded_column": {
      "latitude": "29.95610619003354",
      "longitude": "-90.0633515640523"
    }
  },
  {
    "service_request": "2022-860554",
    "request_type": "Traffic Signals/Signs/Striping/Streetlights",
    "request_reason": "Traffic Sign Missing/Damaged",
    "date_created": "2022-02-11T17:31:39.000",
    "date_modified": "2022-02-11T17:31:39.000",
    "request_status": "Pending",
    "responsible_agency": "Department of Public Works",
    "final_address": "2635 State St",
    "address_councildis": "A",
    "status": "Pending",
    "rowid": "860554",
    "final_x": "3667025.25959",
    "final_y": "526205.373566",
    "longitude": "-90.11395509438292",
    "latitude": "29.941313735207462",
    "geocoded_column": {
      "latitude": "29.941313735207462",
      "longitude": "-90.11395509438292"
    }
  },
  {
    "service_request": "2022-860552",
    "request_type": "Trash/Recycling",
    "request_reason": "Replace Recycling Cart",
    "date_created": "2022-02-11T17:09:16.000",
    "date_modified": "2022-02-11T17:09:16.000",
    "request_status": "Pending",
    "responsible_agency": "Department of Sanitation",
    "final_address": "8420 Hickory St, New Orleans, Louisiana, 70118",
    "address_councildis": "A",
    "status": "Pending",
    "rowid": "860552",
    "final_x": "3662435.63501",
    "final_y": "530734.153858",
    "longitude": "-90.1282951192448",
    "latitude": "29.953899930237977",
    "geocoded_column": {
      "latitude": "29.953899930237977",
      "longitude": "-90.1282951192448"
    }
  },
  {
    "service_request": "2022-860551",
    "request_type": "Trash/Recycling",
    "request_reason": "Request a Large Item Pick Up",
    "date_created": "2022-02-11T17:02:38.000",
    "date_modified": "2022-02-11T17:02:40.000",
    "request_status": "Pending",
    "responsible_agency": "Department of Sanitation",
    "final_address": "7802 Sycamore St",
    "address_councildis": "A",
    "status": "Assigned to Contractor",
    "contractor": "Richards Disposal",
    "rowid": "860551",
    "final_x": "3665106.94279",
    "final_y": "530216.040961",
    "longitude": "-90.11987751600891",
    "latitude": "29.95239777081363",
    "geocoded_column": {
      "latitude": "29.95239777081363",
      "longitude": "-90.11987751600891"
    }
  },
  {
    "service_request": "2022-860550",
    "request_type": "Trash/Recycling",
    "request_reason": "Illegal Dumping",
    "date_created": "2022-02-11T17:01:09.000",
    "date_modified": "2022-02-11T17:01:09.000",
    "request_status": "Pending",
    "responsible_agency": "Department of Sanitation",
    "final_address": "1100 BLK Ninth St",
    "address_councildis": "B",
    "status": "Pending",
    "rowid": "860550",
    "final_x": "3675758.6222",
    "final_y": "520194.506315",
    "longitude": "-90.08658865552702",
    "latitude": "29.924527369245766",
    "geocoded_column": {
      "latitude": "29.924527369245766",
      "longitude": "-90.08658865552702"
    }
  },
  {
    "service_request": "2022-860549",
    "request_type": "Traffic Signals/Signs/Striping/Streetlights",
    "request_reason": "Street Light Outage/Malfunction",
    "date_created": "2022-02-11T16:58:56.000",
    "date_modified": "2022-02-11T16:59:26.000",
    "request_status": "Pending",
    "responsible_agency": "Department of Public Works",
    "final_address": "1661 Octavia St",
    "address_councildis": "A",
    "status": "Pending",
    "contractor": "Royal Engineering",
    "rowid": "860549",
    "final_x": "3667234.7225",
    "final_y": "522219.920954",
    "longitude": "-90.1134277393968",
    "latitude": "29.930348884994224",
    "geocoded_column": {
      "latitude": "29.930348884994224",
      "longitude": "-90.1134277393968"
    }
  },
  {
    "service_request": "2022-860548",
    "request_type": "Traffic Signals/Signs/Striping/Streetlights",
    "request_reason": "Traffic Sign Missing/Damaged",
    "date_created": "2022-02-11T16:49:56.000",
    "date_modified": "2022-02-11T16:49:56.000",
    "request_status": "Pending",
    "responsible_agency": "Department of Public Works",
    "final_address": "1853 Shirley Dr",
    "address_councildis": "C",
    "status": "Pending",
    "rowid": "860548",
    "final_x": "3692857.58569",
    "final_y": "522466.130682",
    "longitude": "-90.03253185583212",
    "latitude": "29.93025092536533",
    "geocoded_column": {
      "latitude": "29.93025092536533",
      "longitude": "-90.03253185583212"
    }
  },
  {
    "service_request": "2022-860547",
    "request_type": "Trash/Recycling",
    "request_reason": "MIssed Recycling Pick-Up",
    "date_created": "2022-02-11T16:48:19.000",
    "date_modified": "2022-02-11T16:48:20.000",
    "request_status": "Pending",
    "responsible_agency": "Department of Sanitation",
    "final_address": "2920 College Ct",
    "address_councildis": "B",
    "status": "Assigned to Contractor",
    "contractor": "Richards Disposal",
    "rowid": "860547",
    "final_x": "3668172.05729",
    "final_y": "531292.434242",
    "longitude": "-90.11016297541529",
    "latitude": "29.955267890130102",
    "geocoded_column": {
      "latitude": "29.955267890130102",
      "longitude": "-90.11016297541529"
    }
  },
  {
    "service_request": "2022-860546",
    "request_type": "Abandoned Vehicles",
    "request_reason": "Abandoned/Junk Vehicles",
    "date_created": "2022-02-11T16:44:41.000",
    "date_modified": "2022-02-11T16:44:41.000",
    "request_status": "Pending",
    "responsible_agency": "Department of Public Works",
    "final_address": "7701 Brevard Ave",
    "address_councildis": "E",
    "status": "Pending",
    "rowid": "860546",
    "final_x": "3706327.14782",
    "final_y": "563656.573281",
    "longitude": "-89.98848480173329",
    "latitude": "30.043081941192497",
    "geocoded_column": {
      "latitude": "30.043081941192497",
      "longitude": "-89.98848480173329"
    }
  },
  {
    "service_request": "2022-860545",
    "request_type": "Trash/Recycling",
    "request_reason": "MIssed Recycling Pick-Up",
    "date_created": "2022-02-11T16:44:10.000",
    "date_modified": "2022-02-11T16:44:11.000",
    "request_status": "Pending",
    "responsible_agency": "Department of Sanitation",
    "final_address": "2331 Louisiana Ave",
    "address_councildis": "B",
    "status": "Assigned to Contractor",
    "contractor": "Richards Disposal",
    "rowid": "860545",
    "final_x": "3673184.938",
    "final_y": "524089.2631",
    "longitude": "-90.09458000343022",
    "latitude": "29.935313442605924",
    "geocoded_column": {
      "latitude": "29.935313442605924",
      "longitude": "-90.09458000343022"
    }
  },
  {
    "service_request": "2022-860544",
    "request_type": "Traffic Signals/Signs/Striping/Streetlights",
    "request_reason": "Traffic Signal Malfunctioning/Damaged",
    "date_created": "2022-02-11T16:43:47.000",
    "date_modified": "2022-02-11T16:43:47.000",
    "request_status": "Pending",
    "responsible_agency": "Department of Public Works",
    "final_address": "LELONG AVE & WISNER BLVD & ESPLANADE AVE & N CARROLLTON AVE",
    "address_councildis": "A",
    "status": "Pending",
    "rowid": "860544",
    "final_x": "3674451.08",
    "final_y": "541919.89",
    "longitude": "-90.08997196364814",
    "latitude": "29.984303995316992",
    "geocoded_column": {
      "latitude": "29.984303995316992",
      "longitude": "-90.08997196364814"
    }
  },
  {
    "service_request": "2022-860543",
    "request_type": "Trash/Recycling",
    "request_reason": "Return Trash Cart",
    "date_created": "2022-02-11T16:43:34.000",
    "date_modified": "2022-02-11T16:43:34.000",
    "request_status": "Pending",
    "responsible_agency": "Department of Sanitation",
    "final_address": "1911 Casa Calvo St",
    "address_councildis": "C",
    "status": "Assigned to Contractor",
    "contractor": "Richards Disposal",
    "rowid": "860543",
    "final_x": "3691905.43664",
    "final_y": "524182.594236",
    "longitude": "-90.03547625284719",
    "latitude": "29.93500030489929",
    "geocoded_column": {
      "latitude": "29.93500030489929",
      "longitude": "-90.03547625284719"
    }
  },
  {
    "service_request": "2022-860542",
    "request_type": "Trash/Recycling",
    "request_reason": "Missed Trash Pick-Up",
    "date_created": "2022-02-11T16:39:07.000",
    "date_modified": "2022-02-11T16:39:08.000",
    "request_status": "Pending",
    "responsible_agency": "Department of Sanitation",
    "final_address": "923 Clouet St, New Orleans, Louisiana, 70117",
    "address_councildis": "D",
    "status": "Assigned to Contractor",
    "contractor": "Metro Disposal",
    "rowid": "860542",
    "final_x": "3689839.10179",
    "final_y": "539177.491082",
    "longitude": "-90.04146591691",
    "latitude": "29.976295272512164",
    "geocoded_column": {
      "latitude": "29.976295272512164",
      "longitude": "-90.04146591691"
    }
  },
  {
    "service_request": "2022-860541",
    "request_type": "Traffic Signals/Signs/Striping/Streetlights",
    "request_reason": "Traffic Signal Malfunctioning/Damaged",
    "date_created": "2022-02-11T16:30:19.000",
    "date_modified": "2022-02-11T16:30:19.000",
    "request_status": "Pending",
    "responsible_agency": "Department of Public Works",
    "final_address": "Esplanade Ave & N Claiborne Ave, New Orleans, Louisiana, 70116",
    "address_councildis": "D",
    "status": "Pending",
    "rowid": "860541",
    "final_x": "3681231.3",
    "final_y": "536639.18",
    "longitude": "-90.06874038104324",
    "latitude": "29.969579834804723",
    "geocoded_column": {
      "latitude": "29.969579834804723",
      "longitude": "-90.06874038104324"
    }
  },
  {
    "service_request": "2022-860540",
    "request_type": "Traffic Signals/Signs/Striping/Streetlights",
    "request_reason": "Traffic Signal Malfunctioning/Damaged",
    "date_created": "2022-02-11T16:28:54.000",
    "date_modified": "2022-02-11T17:08:12.000",
    "request_status": "Pending",
    "responsible_agency": "Department of Public Works",
    "final_address": "New Orleans,LA",
    "address_councildis": "D",
    "rowid": "860540",
    "final_x": "3681231.3",
    "final_y": "536639.18",
    "longitude": "-90.06874038104324",
    "latitude": "29.969579834804723",
    "geocoded_column": {
      "latitude": "29.969579834804723",
      "longitude": "-90.06874038104324"
    }
  },
  {
    "service_request": "2022-860539",
    "request_type": "Trash/Recycling",
    "request_reason": "Order Recycling Cart",
    "date_created": "2022-02-11T16:28:12.000",
    "date_modified": "2022-02-11T16:29:11.000",
    "case_close_date": "2021-06-01T19:00:00.000",
    "request_status": "Pending",
    "responsible_agency": "Department of Sanitation",
    "final_address": "2402 Ap Tureaud Ave",
    "address_councildis": "D",
    "contractor": "Metro Disposal",
    "rowid": "860539",
    "final_x": "3681543.21743",
    "final_y": "540888.886283",
    "longitude": "-90.06760706856693",
    "latitude": "29.981255583552784",
    "geocoded_column": {
      "latitude": "29.981255583552784",
      "longitude": "-90.06760706856693"
    }
  },
  {
    "service_request": "2022-860538",
    "request_type": "Traffic Signals/Signs/Striping/Streetlights",
    "request_reason": "Traffic Signal Malfunctioning/Damaged",
    "date_created": "2022-02-11T16:27:14.000",
    "date_modified": "2022-02-11T16:27:14.000",
    "request_status": "Pending",
    "responsible_agency": "Department of Public Works",
    "final_address": "Esplanade Ave & N Claiborne Ave, New Orleans, Louisiana, 70116",
    "address_councildis": "D",
    "status": "Pending",
    "rowid": "860538",
    "final_x": "3681231.3",
    "final_y": "536639.18",
    "longitude": "-90.06874038104324",
    "latitude": "29.969579834804723",
    "geocoded_column": {
      "latitude": "29.969579834804723",
      "longitude": "-90.06874038104324"
    }
  },
  {
    "service_request": "2022-860537",
    "request_type": "Traffic Signals/Signs/Striping/Streetlights",
    "request_reason": "Street Light Outage/Malfunction",
    "date_created": "2022-02-11T16:20:15.000",
    "date_modified": "2022-02-11T16:20:16.000",
    "request_status": "Pending",
    "responsible_agency": "Department of Public Works",
    "final_address": "COUNTRY CLUB DR & ACADEMY DR",
    "address_councildis": "A",
    "status": "Pending",
    "contractor": "Royal Engineering",
    "rowid": "860537",
    "final_x": "3665847.2",
    "final_y": "544324.78",
    "longitude": "-90.11706724305994",
    "latitude": "29.991170533584764",
    "geocoded_column": {
      "latitude": "29.991170533584764",
      "longitude": "-90.11706724305994"
    }
  },
  {
    "service_request": "2022-860536",
    "request_type": "Traffic Signals/Signs/Striping/Streetlights",
    "request_reason": "Street Light Outage/Malfunction",
    "date_created": "2022-02-11T16:17:54.000",
    "date_modified": "2022-02-11T16:17:55.000",
    "request_status": "Pending",
    "responsible_agency": "Department of Public Works",
    "final_address": "JACQUELYN CT & MARCIA AVE",
    "address_councildis": "A",
    "status": "Pending",
    "contractor": "Royal Engineering",
    "rowid": "860536",
    "final_x": "3664827.4",
    "final_y": "544584.08",
    "longitude": "-90.12027989840456",
    "latitude": "29.991913245472855",
    "geocoded_column": {
      "latitude": "29.991913245472855",
      "longitude": "-90.12027989840456"
    }
  },
  {
    "service_request": "2022-860535",
    "request_type": "Traffic Signals/Signs/Striping/Streetlights",
    "request_reason": "Street Light Outage/Malfunction",
    "date_created": "2022-02-11T16:14:44.000",
    "date_modified": "2022-02-11T16:14:45.000",
    "request_status": "Pending",
    "responsible_agency": "Department of Public Works",
    "final_address": "BELLAIRE DR & ACADEMY DR",
    "address_councildis": "A",
    "status": "Pending",
    "contractor": "Royal Engineering",
    "rowid": "860535",
    "final_x": "3664152.2",
    "final_y": "545718.58",
    "longitude": "-90.12237485156511",
    "latitude": "29.995052372101675",
    "geocoded_column": {
      "latitude": "29.995052372101675",
      "longitude": "-90.12237485156511"
    }
  },
  {
    "service_request": "2022-860534",
    "request_type": "Traffic Signals/Signs/Striping/Streetlights",
    "request_reason": "Street Light Outage/Malfunction",
    "date_created": "2022-02-11T16:13:58.000",
    "date_modified": "2022-02-11T16:13:59.000",
    "request_status": "Pending",
    "responsible_agency": "Department of Public Works",
    "final_address": "BELLAIRE DR & ACADEMY DR",
    "address_councildis": "A",
    "status": "Pending",
    "contractor": "Royal Engineering",
    "rowid": "860534",
    "final_x": "3664152.2",
    "final_y": "545718.58",
    "longitude": "-90.12237485156511",
    "latitude": "29.995052372101675",
    "geocoded_column": {
      "latitude": "29.995052372101675",
      "longitude": "-90.12237485156511"
    }
  },
  {
    "service_request": "2022-860533",
    "request_type": "Traffic Signals/Signs/Striping/Streetlights",
    "request_reason": "Traffic Signal Malfunctioning/Damaged",
    "date_created": "2022-02-11T16:13:34.000",
    "date_modified": "2022-02-11T16:13:34.000",
    "request_status": "Pending",
    "responsible_agency": "Department of Public Works",
    "final_address": "Esplanade Ave & N Claiborne Ave, New Orleans, Louisiana, 70116",
    "address_councildis": "D",
    "status": "Pending",
    "rowid": "860533",
    "final_x": "3681231.3",
    "final_y": "536639.18",
    "longitude": "-90.06874038104324",
    "latitude": "29.969579834804723",
    "geocoded_column": {
      "latitude": "29.969579834804723",
      "longitude": "-90.06874038104324"
    }
  },
  {
    "service_request": "2022-860532",
    "request_type": "Trash/Recycling",
    "request_reason": "Repair Trash Cart",
    "date_created": "2022-02-11T16:12:17.000",
    "date_modified": "2022-02-11T16:12:17.000",
    "request_status": "Pending",
    "responsible_agency": "Department of Sanitation",
    "final_address": "2019 Touro St",
    "address_councildis": "D",
    "status": "Assigned to Contractor",
    "contractor": "Metro Disposal",
    "rowid": "860532",
    "final_x": "3683993.00073",
    "final_y": "539734.835274",
    "longitude": "-90.05991005773112",
    "latitude": "29.978007712284917",
    "geocoded_column": {
      "latitude": "29.978007712284917",
      "longitude": "-90.05991005773112"
    }
  },
  {
    "service_request": "2022-860531",
    "request_type": "Trash/Recycling",
    "request_reason": "Repair Trash Cart",
    "date_created": "2022-02-11T16:12:02.000",
    "date_modified": "2022-02-11T16:12:02.000",
    "request_status": "Pending",
    "responsible_agency": "Department of Sanitation",
    "final_address": "2017 Touro St",
    "address_councildis": "D",
    "status": "Assigned to Contractor",
    "contractor": "Metro Disposal",
    "rowid": "860531",
    "final_x": "3683993.34793",
    "final_y": "539720.599114",
    "longitude": "-90.0599094608444",
    "latitude": "29.977968557217924",
    "geocoded_column": {
      "latitude": "29.977968557217924",
      "longitude": "-90.0599094608444"
    }
  },
  {
    "service_request": "2022-860530",
    "request_type": "Trash/Recycling",
    "request_reason": "Repair Trash Cart",
    "date_created": "2022-02-11T15:56:45.000",
    "date_modified": "2022-02-11T15:56:46.000",
    "request_status": "Pending",
    "responsible_agency": "Department of Sanitation",
    "final_address": "3341 Coliseum St",
    "address_councildis": "B",
    "status": "Assigned to Contractor",
    "contractor": "Richards Disposal",
    "rowid": "860530",
    "final_x": "3674722.77211",
    "final_y": "520671.657977",
    "longitude": "-90.08984214114024",
    "latitude": "29.925870332639764",
    "geocoded_column": {
      "latitude": "29.925870332639764",
      "longitude": "-90.08984214114024"
    }
  },
  {
    "service_request": "2022-860529",
    "request_type": "Trash/Recycling",
    "request_reason": "Missed Trash Pick-Up",
    "date_created": "2022-02-11T15:52:21.000",
    "date_modified": "2022-02-11T15:52:22.000",
    "request_status": "Pending",
    "responsible_agency": "Department of Sanitation",
    "final_address": "1325 Montegut St",
    "address_councildis": "C",
    "status": "Assigned to Contractor",
    "contractor": "Metro Disposal",
    "rowid": "860529",
    "final_x": "3688767.36547",
    "final_y": "537065.1394",
    "longitude": "-90.0449257848568",
    "latitude": "29.970520230464444",
    "geocoded_column": {
      "latitude": "29.970520230464444",
      "longitude": "-90.0449257848568"
    }
  },
  {
    "service_request": "2022-860527",
    "request_type": "Trash/Recycling",
    "request_reason": "Repair Recycling Cart",
    "date_created": "2022-02-11T15:48:46.000",
    "date_modified": "2022-02-11T15:48:46.000",
    "request_status": "Pending",
    "responsible_agency": "Department of Sanitation",
    "final_address": "2401 Jay St",
    "address_councildis": "D",
    "status": "Pending",
    "rowid": "860527",
    "final_x": "3684750.95861",
    "final_y": "557444.920667",
    "longitude": "-90.05689306446035",
    "latitude": "30.026680874293177",
    "geocoded_column": {
      "latitude": "30.026680874293177",
      "longitude": "-90.05689306446035"
    }
  },
  {
    "service_request": "2022-860526",
    "request_type": "Trash/Recycling",
    "request_reason": "Order Trash Cart",
    "date_created": "2022-02-11T15:43:24.000",
    "date_modified": "2022-02-11T15:43:24.000",
    "request_status": "Pending",
    "responsible_agency": "Department of Sanitation",
    "final_address": "4714 Laine Ave",
    "address_councildis": "E",
    "status": "Assigned to Contractor",
    "contractor": "Metro Disposal",
    "rowid": "860526",
    "final_x": "3705684.25015",
    "final_y": "555216.650009",
    "longitude": "-89.99082912390584",
    "latitude": "30.019896188467367",
    "geocoded_column": {
      "latitude": "30.019896188467367",
      "longitude": "-89.99082912390584"
    }
  },
  {
    "service_request": "2022-860525",
    "request_type": "Trash/Recycling",
    "request_reason": "Repair Trash Cart",
    "date_created": "2022-02-11T15:41:52.000",
    "date_modified": "2022-02-11T15:41:52.000",
    "request_status": "Pending",
    "responsible_agency": "Department of Sanitation",
    "final_address": "3316 Short St",
    "address_councildis": "B",
    "status": "Assigned to Contractor",
    "contractor": "Richards Disposal",
    "rowid": "860525",
    "final_x": "3667405.42535",
    "final_y": "533735.786245",
    "longitude": "-90.11250152447192",
    "latitude": "29.962008785162602",
    "geocoded_column": {
      "latitude": "29.962008785162602",
      "longitude": "-90.11250152447192"
    }
  },
  {
    "service_request": "2022-860524",
    "request_type": "Roads/Drainage",
    "request_reason": "Street Subsidence (Sinking)",
    "date_created": "2022-02-11T15:37:01.000",
    "date_modified": "2022-02-11T15:37:01.000",
    "request_status": "Pending",
    "responsible_agency": "Department of Public Works",
    "final_address": "6026 Paris Ave",
    "address_councildis": "D",
    "status": "Pending",
    "rowid": "860524",
    "final_x": "3678668.87189",
    "final_y": "554580.345112",
    "longitude": "-90.07621112501809",
    "latitude": "30.01898922915417",
    "geocoded_column": {
      "latitude": "30.01898922915417",
      "longitude": "-90.07621112501809"
    }
  },
  {
    "service_request": "2022-860523",
    "request_type": "Trash/Recycling",
    "request_reason": "Repair Recycling Cart",
    "date_created": "2022-02-11T15:34:16.000",
    "date_modified": "2022-02-11T15:34:17.000",
    "request_status": "Pending",
    "responsible_agency": "Department of Sanitation",
    "final_address": "3701 Delgado Dr",
    "address_councildis": "A",
    "status": "Pending",
    "rowid": "860523",
    "final_x": "3674311.29409",
    "final_y": "540561.876555",
    "longitude": "-90.09046001124534",
    "latitude": "29.980574095172003",
    "geocoded_column": {
      "latitude": "29.980574095172003",
      "longitude": "-90.09046001124534"
    }
  },
  {
    "service_request": "2022-860522",
    "request_type": "Trash/Recycling",
    "request_reason": "Repair Trash Cart",
    "date_created": "2022-02-11T15:31:18.000",
    "date_modified": "2022-02-11T15:31:23.000",
    "request_status": "Pending",
    "responsible_agency": "Department of Sanitation",
    "final_address": "4556 Marque Dr",
    "address_councildis": "E",
    "status": "Assigned to Contractor",
    "contractor": "Metro Disposal",
    "rowid": "860522",
    "final_x": "3710118.04331",
    "final_y": "554568.90812",
    "longitude": "-89.97684412631453",
    "latitude": "30.017971568491106",
    "geocoded_column": {
      "latitude": "30.017971568491106",
      "longitude": "-89.97684412631453"
    }
  },
  {
    "service_request": "2022-860521",
    "request_type": "Trash/Recycling",
    "request_reason": "Replace Trash Cart",
    "date_created": "2022-02-11T15:28:28.000",
    "date_modified": "2022-02-11T15:28:29.000",
    "request_status": "Pending",
    "responsible_agency": "Department of Sanitation",
    "final_address": "1714 Piety St",
    "address_councildis": "D",
    "status": "Assigned to Contractor",
    "contractor": "Metro Disposal",
    "rowid": "860521",
    "final_x": "3690391.92739",
    "final_y": "538178.592329",
    "longitude": "-90.0397555506062",
    "latitude": "29.97353150519549",
    "geocoded_column": {
      "latitude": "29.97353150519549",
      "longitude": "-90.0397555506062"
    }
  },
  {
    "service_request": "2022-860520",
    "request_type": "Roads/Drainage",
    "request_reason": "Catch Basin - Clogged",
    "date_created": "2022-02-11T15:25:26.000",
    "date_modified": "2022-02-11T15:25:26.000",
    "request_status": "Pending",
    "responsible_agency": "Department of Public Works",
    "final_address": "1700 BLK Dublin St",
    "address_councildis": "A",
    "status": "Pending",
    "rowid": "860520",
    "final_x": "3663004.48793",
    "final_y": "530036.983677",
    "longitude": "-90.12652209183204",
    "latitude": "29.951966475493695",
    "geocoded_column": {
      "latitude": "29.951966475493695",
      "longitude": "-90.12652209183204"
    }
  },
  {
    "service_request": "2022-860519",
    "request_type": "Trash/Recycling",
    "request_reason": "Replace Trash Cart",
    "date_created": "2022-02-11T15:24:38.000",
    "date_modified": "2022-02-11T15:24:40.000",
    "request_status": "Pending",
    "responsible_agency": "Department of Sanitation",
    "final_address": "4229 Tchoupitoulas St",
    "address_councildis": "B",
    "status": "Assigned to Contractor",
    "contractor": "Richards Disposal",
    "rowid": "860519",
    "final_x": "3671687.73057",
    "final_y": "517555.031606",
    "longitude": "-90.09952882231508",
    "latitude": "29.917390819752622",
    "geocoded_column": {
      "latitude": "29.917390819752622",
      "longitude": "-90.09952882231508"
    }
  },
  {
    "service_request": "2022-860518",
    "request_type": "Trash/Recycling",
    "request_reason": "Replace Trash Cart",
    "date_created": "2022-02-11T15:19:27.000",
    "date_modified": "2022-02-11T15:19:28.000",
    "request_status": "Pending",
    "responsible_agency": "Department of Sanitation",
    "final_address": "2471 Dauphine St",
    "address_councildis": "C",
    "status": "Assigned to Contractor",
    "contractor": "Metro Disposal",
    "rowid": "860518",
    "final_x": "3686469.98818",
    "final_y": "535375.44743",
    "longitude": "-90.05224081246855",
    "latitude": "29.965944995591002",
    "geocoded_column": {
      "latitude": "29.965944995591002",
      "longitude": "-90.05224081246855"
    }
  },
  {
    "service_request": "2022-860517",
    "request_type": "Trash/Recycling",
    "request_reason": "Replace Trash Cart",
    "date_created": "2022-02-11T15:19:16.000",
    "date_modified": "2022-02-11T15:19:16.000",
    "request_status": "Pending",
    "responsible_agency": "Department of Sanitation",
    "final_address": "737 Ursulines Ave",
    "address_councildis": "C",
    "status": "Assigned to Contractor",
    "contractor": "Empire Services",
    "rowid": "860517",
    "final_x": "3683251.506",
    "final_y": "533868.019525",
    "longitude": "-90.06245747073285",
    "latitude": "29.96189863786667",
    "geocoded_column": {
      "latitude": "29.96189863786667",
      "longitude": "-90.06245747073285"
    }
  },
  {
    "service_request": "2022-860516",
    "request_type": "Trash/Recycling",
    "request_reason": "Replace Trash Cart",
    "date_created": "2022-02-11T15:19:03.000",
    "date_modified": "2022-02-11T15:19:03.000",
    "request_status": "Pending",
    "responsible_agency": "Department of Sanitation",
    "final_address": "735 Ursulines Ave",
    "address_councildis": "C",
    "status": "Assigned to Contractor",
    "contractor": "Empire Services",
    "rowid": "860516",
    "final_x": "3683222.89871",
    "final_y": "533818.347909",
    "longitude": "-90.0625495475257",
    "latitude": "29.9617629303656",
    "geocoded_column": {
      "latitude": "29.9617629303656",
      "longitude": "-90.0625495475257"
    }
  },
  {
    "service_request": "2022-860515",
    "request_type": "Traffic Signals/Signs/Striping/Streetlights",
    "request_reason": "Street Light Outage/Malfunction",
    "date_created": "2022-02-11T15:14:22.000",
    "date_modified": "2022-02-11T15:14:22.000",
    "request_status": "Pending",
    "responsible_agency": "Department of Public Works",
    "final_address": "5980 Louis Xiv St",
    "address_councildis": "A",
    "status": "Pending",
    "contractor": "Royal Engineering",
    "rowid": "860515",
    "final_x": "3667977.11258",
    "final_y": "547267.363089",
    "longitude": "-90.11024010233977",
    "latitude": "29.99919928873482",
    "geocoded_column": {
      "latitude": "29.99919928873482",
      "longitude": "-90.11024010233977"
    }
  },
  {
    "service_request": "2022-860514",
    "request_type": "Property Maintenance",
    "request_reason": "Property Maintenance",
    "date_created": "2022-02-11T15:04:30.000",
    "date_modified": "2022-02-11T15:04:32.000",
    "request_status": "Pending",
    "responsible_agency": "Department of Code Enforcement",
    "final_address": "GOOD DR & PRENTISS AVE",
    "address_councildis": "E",
    "status": "Pending",
    "rowid": "860514",
    "final_x": "3714811.5",
    "final_y": "556528.98",
    "longitude": "-89.96194064223923",
    "latitude": "30.023207379806358",
    "geocoded_column": {
      "latitude": "30.023207379806358",
      "longitude": "-89.96194064223923"
    }
  },
  {
    "service_request": "2022-860513",
    "request_type": "Trash/Recycling",
    "request_reason": "Order Trash Cart",
    "date_created": "2022-02-11T14:56:09.000",
    "date_modified": "2022-02-11T14:56:10.000",
    "request_status": "Pending",
    "responsible_agency": "Department of Sanitation",
    "final_address": "2239 St Andrew St",
    "address_councildis": "B",
    "status": "Assigned to Contractor",
    "contractor": "Richards Disposal",
    "rowid": "860513",
    "final_x": "3676590.22901",
    "final_y": "526216.428734",
    "longitude": "-90.08375625198832",
    "latitude": "29.94106078327879",
    "geocoded_column": {
      "latitude": "29.94106078327879",
      "longitude": "-90.08375625198832"
    }
  },
  {
    "service_request": "2022-860512",
    "request_type": "Roads/Drainage",
    "request_reason": "Street Flooding / Drainage",
    "date_created": "2022-02-11T14:47:34.000",
    "date_modified": "2022-02-11T14:47:34.000",
    "request_status": "Pending",
    "responsible_agency": "Department of Public Works",
    "final_address": "626 Kerlerec St",
    "address_councildis": "C",
    "status": "Pending",
    "rowid": "860512",
    "final_x": "3684308.24751",
    "final_y": "534512.749893",
    "longitude": "-90.05909781175012",
    "latitude": "29.963639154625255",
    "geocoded_column": {
      "latitude": "29.963639154625255",
      "longitude": "-90.05909781175012"
    }
  },
  {
    "service_request": "2022-860511",
    "request_type": "Traffic Signals/Signs/Striping/Streetlights",
    "request_reason": "Street Light Outage/Malfunction",
    "date_created": "2022-02-11T14:43:21.000",
    "date_modified": "2022-02-11T14:43:41.000",
    "request_status": "Pending",
    "responsible_agency": "Department of Public Works",
    "final_address": "3931 Louisiana Avenue Prkwy",
    "address_councildis": "B",
    "status": "Pending",
    "contractor": "Royal Engineering",
    "rowid": "860511",
    "final_x": "3671165.69748",
    "final_y": "529259.999553",
    "longitude": "-90.1007791700258",
    "latitude": "29.949591154267402",
    "geocoded_column": {
      "latitude": "29.949591154267402",
      "longitude": "-90.1007791700258"
    }
  },
  {
    "service_request": "2022-860510",
    "request_type": "Property Maintenance",
    "request_reason": "Property Maintenance",
    "date_created": "2022-02-11T14:43:07.000",
    "date_modified": "2022-02-11T14:43:07.000",
    "request_status": "Pending",
    "responsible_agency": "Department of Code Enforcement",
    "final_address": "626 Kerlerec St",
    "address_councildis": "C",
    "status": "Pending",
    "rowid": "860510",
    "final_x": "3684308.24751",
    "final_y": "534512.749893",
    "longitude": "-90.05909781175012",
    "latitude": "29.963639154625255",
    "geocoded_column": {
      "latitude": "29.963639154625255",
      "longitude": "-90.05909781175012"
    }
  },
  {
    "service_request": "2022-860509",
    "request_type": "Abandoned Vehicles",
    "request_reason": "Abandoned/Junk Vehicles",
    "date_created": "2022-02-11T14:40:09.000",
    "date_modified": "2022-02-11T14:40:09.000",
    "request_status": "Pending",
    "responsible_agency": "Department of Public Works",
    "final_address": "300 Basin St, New Orleans, Louisiana, 70112",
    "status": "Pending",
    "rowid": "860509",
    "longitude": "0.0",
    "latitude": "0.0",
    "geocoded_column": {
      "latitude": "0.0",
      "longitude": "0.0"
    }
  },
  {
    "service_request": "2022-860508",
    "request_type": "Trash/Recycling",
    "request_reason": "Replace Recycling Cart",
    "date_created": "2022-02-11T14:37:02.000",
    "date_modified": "2022-02-11T14:37:02.000",
    "request_status": "Pending",
    "responsible_agency": "Department of Sanitation",
    "final_address": "4636 Mandeville St",
    "address_councildis": "D",
    "status": "Pending",
    "rowid": "860508",
    "final_x": "3684655.02217",
    "final_y": "549876.563924",
    "longitude": "-90.05746250390226",
    "latitude": "30.00587360601688",
    "geocoded_column": {
      "latitude": "30.00587360601688",
      "longitude": "-90.05746250390226"
    }
  },
  {
    "service_request": "2022-860507",
    "request_type": "Trash/Recycling",
    "request_reason": "Missed Trash Pick-Up",
    "date_created": "2022-02-11T14:33:20.000",
    "date_modified": "2022-02-11T14:33:21.000",
    "request_status": "Pending",
    "responsible_agency": "Department of Sanitation",
    "final_address": "6016 St Charles Ave",
    "address_councildis": "A",
    "status": "Assigned to Contractor",
    "contractor": "Richards Disposal",
    "rowid": "860507",
    "final_x": "3665536.5257",
    "final_y": "522450.08089",
    "longitude": "-90.11878100278054",
    "latitude": "29.931031355859783",
    "geocoded_column": {
      "latitude": "29.931031355859783",
      "longitude": "-90.11878100278054"
    }
  },
  {
    "service_request": "2022-860506",
    "request_type": "Property Maintenance",
    "request_reason": "Property Maintenance",
    "date_created": "2022-02-11T14:30:39.000",
    "date_modified": "2022-02-11T14:31:47.000",
    "request_status": "Pending",
    "responsible_agency": "Department of Code Enforcement",
    "final_address": "2525 Carondelet St",
    "address_councildis": "B",
    "status": "Pending",
    "rowid": "860506",
    "final_x": "3676283.51822",
    "final_y": "523287.804347",
    "longitude": "-90.08482534169606",
    "latitude": "29.933017219759464",
    "geocoded_column": {
      "latitude": "29.933017219759464",
      "longitude": "-90.08482534169606"
    }
  },
  {
    "service_request": "2022-860505",
    "request_type": "Trash/Recycling",
    "request_reason": "Request a Large Item Pick Up",
    "date_created": "2022-02-11T14:25:47.000",
    "date_modified": "2022-02-11T14:25:48.000",
    "request_status": "Pending",
    "responsible_agency": "Department of Sanitation",
    "final_address": "3456 Derby Pl",
    "address_councildis": "A",
    "status": "Assigned to Contractor",
    "contractor": "Metro Disposal",
    "rowid": "860505",
    "final_x": "3676923.02114",
    "final_y": "542871.764493",
    "longitude": "-90.08213137440016",
    "latitude": "29.986847333536033",
    "geocoded_column": {
      "latitude": "29.986847333536033",
      "longitude": "-90.08213137440016"
    }
  },
  {
    "service_request": "2022-860504",
    "request_type": "COVID-19",
    "request_reason": "COVID-19 Business Non-Compliance",
    "date_created": "2022-02-11T14:23:22.000",
    "date_modified": "2022-02-11T14:23:23.000",
    "request_status": "Pending",
    "responsible_agency": "Safety and Permits",
    "final_address": "706 S Carrollton Ave",
    "address_councildis": "A",
    "status": "Pending",
    "rowid": "860504",
    "final_x": "3660856.56461",
    "final_y": "527173.089407",
    "longitude": "-90.1333989546761",
    "latitude": "29.944153709745056",
    "geocoded_column": {
      "latitude": "29.944153709745056",
      "longitude": "-90.1333989546761"
    }
  },
  {
    "service_request": "2022-860503",
    "request_type": "Trash/Recycling",
    "request_reason": "Replace Trash Cart",
    "date_created": "2022-02-11T14:21:59.000",
    "date_modified": "2022-02-11T14:22:00.000",
    "request_status": "Pending",
    "responsible_agency": "Department of Sanitation",
    "final_address": "3443 Vincennes Pl",
    "address_councildis": "A",
    "status": "Assigned to Contractor",
    "contractor": "Richards Disposal",
    "rowid": "860503",
    "final_x": "3668103.78189",
    "final_y": "528828.946496",
    "longitude": "-90.11046158219004",
    "latitude": "29.94849610747294",
    "geocoded_column": {
      "latitude": "29.94849610747294",
      "longitude": "-90.11046158219004"
    }
  },
  {
    "service_request": "2022-860502",
    "request_type": "Trash/Recycling",
    "request_reason": "Order Recycling Cart",
    "date_created": "2022-02-11T14:16:28.000",
    "date_modified": "2022-02-11T14:22:56.000",
    "case_close_date": "2022-02-10T18:00:00.000",
    "request_status": "Closed",
    "responsible_agency": "Department of Sanitation",
    "final_address": "1424 Franklin Ave",
    "address_councildis": "C",
    "status": "Canceled By Citizen",
    "rowid": "860502",
    "final_x": "3687345.72802",
    "final_y": "537800.720264",
    "longitude": "-90.04938943840173",
    "latitude": "29.972586697363525",
    "geocoded_column": {
      "latitude": "29.972586697363525",
      "longitude": "-90.04938943840173"
    }
  },
  {
    "service_request": "2022-860501",
    "request_type": "Trash/Recycling",
    "request_reason": "Replace Trash Cart",
    "date_created": "2022-02-11T14:16:03.000",
    "date_modified": "2022-02-11T14:16:04.000",
    "request_status": "Pending",
    "responsible_agency": "Department of Sanitation",
    "final_address": "1424 Franklin Ave",
    "address_councildis": "C",
    "status": "Assigned to Contractor",
    "contractor": "Metro Disposal",
    "rowid": "860501",
    "final_x": "3687345.72802",
    "final_y": "537800.720264",
    "longitude": "-90.04938943840173",
    "latitude": "29.972586697363525",
    "geocoded_column": {
      "latitude": "29.972586697363525",
      "longitude": "-90.04938943840173"
    }
  },
  {
    "service_request": "2022-860500",
    "request_type": "Property Maintenance",
    "request_reason": "Property Maintenance",
    "date_created": "2022-02-11T14:14:04.000",
    "date_modified": "2022-02-11T14:14:04.000",
    "request_status": "Pending",
    "responsible_agency": "Department of Code Enforcement",
    "final_address": "6825 Marshal Foch St",
    "address_councildis": "A",
    "status": "Pending",
    "rowid": "860500",
    "final_x": "3670426.87431",
    "final_y": "552749.540438",
    "longitude": "-90.10231517037654",
    "latitude": "30.014201225388035",
    "geocoded_column": {
      "latitude": "30.014201225388035",
      "longitude": "-90.10231517037654"
    }
  },
  {
    "service_request": "2022-860499",
    "request_type": "Trash/Recycling",
    "request_reason": "Request a Large Item Pick Up",
    "date_created": "2022-02-11T14:02:42.000",
    "date_modified": "2022-02-11T14:02:47.000",
    "request_status": "Pending",
    "responsible_agency": "Department of Sanitation",
    "final_address": "2120 Cadiz St",
    "address_councildis": "B",
    "status": "Assigned to Contractor",
    "contractor": "Richards Disposal",
    "rowid": "860499",
    "final_x": "3669871.16538",
    "final_y": "522750.692538",
    "longitude": "-90.10508691549002",
    "latitude": "29.931730894057985",
    "geocoded_column": {
      "latitude": "29.931730894057985",
      "longitude": "-90.10508691549002"
    }
  },
  {
    "service_request": "2022-860498",
    "request_type": "Abandoned Vehicles",
    "request_reason": "Abandoned/Junk Vehicles",
    "date_created": "2022-02-11T13:53:02.000",
    "date_modified": "2022-02-11T13:53:02.000",
    "request_status": "Pending",
    "responsible_agency": "Department of Public Works",
    "final_address": "4443 Wellington Ave",
    "address_councildis": "D",
    "status": "Pending",
    "rowid": "860498",
    "final_x": "3677275.19931",
    "final_y": "548787.598739",
    "longitude": "-90.08081471629033",
    "latitude": "30.003103220356483",
    "geocoded_column": {
      "latitude": "30.003103220356483",
      "longitude": "-90.08081471629033"
    }
  },
  {
    "service_request": "2022-860497",
    "request_type": "Trash/Recycling",
    "request_reason": "Request a Large Item Pick Up",
    "date_created": "2022-02-11T13:51:59.000",
    "date_modified": "2022-02-11T13:52:00.000",
    "request_status": "Pending",
    "responsible_agency": "Department of Sanitation",
    "final_address": "5600 Macarthur Blvd",
    "address_councildis": "C",
    "status": "Assigned to Contractor",
    "contractor": "Richards Disposal",
    "rowid": "860497",
    "final_x": "3704201.42455",
    "final_y": "519610.672184",
    "longitude": "-89.99682657624919",
    "latitude": "29.922040432242518",
    "geocoded_column": {
      "latitude": "29.922040432242518",
      "longitude": "-89.99682657624919"
    }
  },
  {
    "service_request": "2022-860496",
    "request_type": "Trash/Recycling",
    "request_reason": "Request a Large Item Pick Up",
    "date_created": "2022-02-11T13:51:01.000",
    "date_modified": "2022-02-11T13:51:03.000",
    "request_status": "Pending",
    "responsible_agency": "Department of Sanitation",
    "final_address": "9770 W Wheaton Cir",
    "address_councildis": "E",
    "status": "Assigned to Contractor",
    "contractor": "Metro Disposal",
    "rowid": "860496",
    "final_x": "3708298.18724",
    "final_y": "562398.143199",
    "longitude": "-89.98230245221198",
    "latitude": "30.039558003591555",
    "geocoded_column": {
      "latitude": "30.039558003591555",
      "longitude": "-89.98230245221198"
    }
  },
  {
    "service_request": "2022-860495",
    "request_type": "Abandoned Vehicles",
    "request_reason": "Abandoned/Junk Vehicles",
    "date_created": "2022-02-11T13:49:33.000",
    "date_modified": "2022-02-11T13:49:33.000",
    "request_status": "Pending",
    "responsible_agency": "Department of Public Works",
    "final_address": "4025 S Saratoga St",
    "address_councildis": "B",
    "status": "Pending",
    "rowid": "860495",
    "final_x": "3671971.55585",
    "final_y": "522829.760251",
    "longitude": "-90.09845351331239",
    "latitude": "29.931886230273975",
    "geocoded_column": {
      "latitude": "29.931886230273975",
      "longitude": "-90.09845351331239"
    }
  },
  {
    "service_request": "2022-860494",
    "request_type": "Trash/Recycling",
    "request_reason": "Missed Trash Pick-Up",
    "date_created": "2022-02-11T13:48:58.000",
    "date_modified": "2022-02-11T13:48:59.000",
    "request_status": "Pending",
    "responsible_agency": "Department of Sanitation",
    "final_address": "1814 N Miro St",
    "address_councildis": "D",
    "status": "Assigned to Contractor",
    "contractor": "Metro Disposal",
    "rowid": "860494",
    "final_x": "3681871.83836",
    "final_y": "540088.184651",
    "longitude": "-90.06659709300575",
    "latitude": "29.9790439481592",
    "geocoded_column": {
      "latitude": "29.9790439481592",
      "longitude": "-90.06659709300575"
    }
  },
  {
    "service_request": "2022-860493",
    "request_type": "Trash/Recycling",
    "request_reason": "Order Recycling Cart",
    "date_created": "2022-02-11T13:35:52.000",
    "date_modified": "2022-02-11T13:35:52.000",
    "request_status": "Pending",
    "responsible_agency": "Department of Sanitation",
    "final_address": "8201 Hickory St",
    "address_councildis": "A",
    "status": "Pending",
    "rowid": "860493",
    "final_x": "3663117.4496",
    "final_y": "530229.277889",
    "longitude": "-90.12615901370967",
    "latitude": "29.952491950672485",
    "geocoded_column": {
      "latitude": "29.952491950672485",
      "longitude": "-90.12615901370967"
    }
  },
  {
    "service_request": "2022-860492",
    "request_type": "Roads/Drainage",
    "request_reason": "Accessibility Ramps, Curbs and Sidewalk Repair",
    "date_created": "2022-02-11T13:32:31.000",
    "date_modified": "2022-02-11T13:32:31.000",
    "request_status": "Pending",
    "responsible_agency": "Department of Public Works",
    "final_address": "6118 Marigny St",
    "address_councildis": "D",
    "status": "Pending",
    "rowid": "860492",
    "final_x": "3683782.23189",
    "final_y": "555514.860953",
    "longitude": "-90.06002190637068",
    "latitude": "30.021403559551338",
    "geocoded_column": {
      "latitude": "30.021403559551338",
      "longitude": "-90.06002190637068"
    }
  },
  {
    "service_request": "2022-860491",
    "request_type": "Abandoned Vehicles",
    "request_reason": "Abandoned/Junk Vehicles",
    "date_created": "2022-02-11T13:31:37.000",
    "date_modified": "2022-02-11T13:31:37.000",
    "request_status": "Pending",
    "responsible_agency": "Department of Public Works",
    "final_address": "Louisiana Dental Center New Orleans",
    "status": "Pending",
    "rowid": "860491",
    "longitude": "0.0",
    "latitude": "0.0",
    "geocoded_column": {
      "latitude": "0.0",
      "longitude": "0.0"
    }
  },
  {
    "service_request": "2022-860490",
    "request_type": "Trash/Recycling",
    "request_reason": "Missed Trash Pick-Up",
    "date_created": "2022-02-11T13:30:14.000",
    "date_modified": "2022-02-11T13:30:15.000",
    "request_status": "Pending",
    "responsible_agency": "Department of Sanitation",
    "final_address": "2430 Annette St",
    "address_councildis": "D",
    "status": "Assigned to Contractor",
    "contractor": "Metro Disposal",
    "rowid": "860490",
    "final_x": "3682696.34191",
    "final_y": "541208.27342",
    "longitude": "-90.06395380513959",
    "latitude": "29.982098711568927",
    "geocoded_column": {
      "latitude": "29.982098711568927",
      "longitude": "-90.06395380513959"
    }
  },
  {
    "service_request": "2022-860489",
    "request_type": "Traffic Signals/Signs/Striping/Streetlights",
    "request_reason": "Street Light Outage/Malfunction",
    "date_created": "2022-02-11T13:26:44.000",
    "date_modified": "2022-02-11T13:26:45.000",
    "request_status": "Pending",
    "responsible_agency": "Department of Public Works",
    "final_address": "3700 BLK S Rocheblave St",
    "address_councildis": "B",
    "status": "Pending",
    "contractor": "Royal Engineering",
    "rowid": "860489",
    "final_x": "3670986.09106",
    "final_y": "528575.155236",
    "longitude": "-90.10136951919472",
    "latitude": "29.947713367979883",
    "geocoded_column": {
      "latitude": "29.947713367979883",
      "longitude": "-90.10136951919472"
    }
  },
  {
    "service_request": "2022-860488",
    "request_type": "Trash/Recycling",
    "request_reason": "Illegal Dumping",
    "date_created": "2022-02-11T13:24:55.000",
    "date_modified": "2022-02-11T13:24:55.000",
    "request_status": "Pending",
    "responsible_agency": "Department of Sanitation",
    "final_address": "515 Reynes St",
    "address_councildis": "E",
    "status": "Pending",
    "rowid": "860488",
    "final_x": "3695456.58435",
    "final_y": "532262.290179",
    "longitude": "-90.02397389035983",
    "latitude": "29.957105585305822",
    "geocoded_column": {
      "latitude": "29.957105585305822",
      "longitude": "-90.02397389035983"
    }
  },
  {
    "service_request": "2022-860487",
    "request_type": "Traffic Signals/Signs/Striping/Streetlights",
    "request_reason": "Street Light Outage/Malfunction",
    "date_created": "2022-02-11T13:24:51.000",
    "date_modified": "2022-02-11T13:24:52.000",
    "request_status": "Pending",
    "responsible_agency": "Department of Public Works",
    "final_address": "1016 Crete St",
    "address_councildis": "A",
    "status": "Pending",
    "contractor": "Royal Engineering",
    "rowid": "860487",
    "final_x": "3677559.72181",
    "final_y": "538465.779209",
    "longitude": "-90.08027246155306",
    "latitude": "29.97471326520945",
    "geocoded_column": {
      "latitude": "29.97471326520945",
      "longitude": "-90.08027246155306"
    }
  },
  {
    "service_request": "2022-860486",
    "request_type": "Tax and Revenue",
    "request_reason": "Sales Tax Question",
    "date_created": "2022-02-11T13:23:41.000",
    "date_modified": "2022-02-11T13:28:15.000",
    "request_status": "Pending",
    "responsible_agency": "Bureau of Revenue",
    "final_address": "New Orleans,LA",
    "rowid": "860486",
    "longitude": "0.0",
    "latitude": "0.0",
    "geocoded_column": {
      "latitude": "0.0",
      "longitude": "0.0"
    }
  },
  {
    "service_request": "2022-860485",
    "request_type": "Roads/Drainage",
    "request_reason": "Drainage Issue (Catch Basins, Culverts, Ditches, and Manhole Covers)",
    "date_created": "2022-02-11T13:22:00.000",
    "date_modified": "2022-02-11T13:22:00.000",
    "request_status": "Pending",
    "responsible_agency": "Department of Public Works",
    "final_address": "100 BLK Nashville Ave",
    "address_councildis": "A",
    "status": "Pending",
    "rowid": "860485",
    "final_x": "3665042.67939",
    "final_y": "516819.405453",
    "longitude": "-90.1205281572945",
    "latitude": "29.915563149029442",
    "geocoded_column": {
      "latitude": "29.915563149029442",
      "longitude": "-90.1205281572945"
    }
  },
  {
    "service_request": "2022-860484",
    "request_type": "Abandoned Vehicles",
    "request_reason": "Abandoned/Junk Vehicles",
    "date_created": "2022-02-11T13:20:14.000",
    "date_modified": "2022-02-11T13:20:14.000",
    "request_status": "Pending",
    "responsible_agency": "Department of Public Works",
    "final_address": "2511 St Andrew St",
    "address_councildis": "B",
    "status": "Pending",
    "rowid": "860484",
    "final_x": "3676025.77224",
    "final_y": "526777.404094",
    "longitude": "-90.08551905992732",
    "latitude": "29.942620194505537",
    "geocoded_column": {
      "latitude": "29.942620194505537",
      "longitude": "-90.08551905992732"
    }
  },
  {
    "service_request": "2022-860483",
    "request_type": "Trash/Recycling",
    "request_reason": "Missed Trash Pick-Up",
    "date_created": "2022-02-11T13:20:00.000",
    "date_modified": "2022-02-11T13:20:01.000",
    "request_status": "Pending",
    "responsible_agency": "Department of Sanitation",
    "final_address": "831 Calhoun St",
    "address_councildis": "A",
    "status": "Assigned to Contractor",
    "contractor": "Richards Disposal",
    "rowid": "860483",
    "final_x": "3663607.45293",
    "final_y": "519973.042168",
    "longitude": "-90.12495332013025",
    "latitude": "29.924276360562533",
    "geocoded_column": {
      "latitude": "29.924276360562533",
      "longitude": "-90.12495332013025"
    }
  },
  {
    "service_request": "2022-860482",
    "request_type": "Abandoned Vehicles",
    "request_reason": "Abandoned/Junk Vehicles",
    "date_created": "2022-02-11T13:17:28.000",
    "date_modified": "2022-02-11T13:29:49.000",
    "request_status": "Pending",
    "responsible_agency": "Department of Public Works",
    "final_address": "New Orleans,LA",
    "address_councildis": "C",
    "rowid": "860482",
    "final_x": "3687809.6",
    "final_y": "536668.78",
    "longitude": "-90.04796455246945",
    "latitude": "29.96945995801076",
    "geocoded_column": {
      "latitude": "29.96945995801076",
      "longitude": "-90.04796455246945"
    }
  },
  {
    "service_request": "2022-860481",
    "request_type": "Trash/Recycling",
    "request_reason": "Missed Trash Pick-Up",
    "date_created": "2022-02-11T13:16:10.000",
    "date_modified": "2022-02-11T13:16:11.000",
    "request_status": "Pending",
    "responsible_agency": "Department of Sanitation",
    "final_address": "8216 Plum St",
    "address_councildis": "A",
    "status": "Assigned to Contractor",
    "contractor": "Richards Disposal",
    "rowid": "860481",
    "final_x": "3661782.90912",
    "final_y": "528954.487552",
    "longitude": "-90.13041516411438",
    "latitude": "29.949025278873584",
    "geocoded_column": {
      "latitude": "29.949025278873584",
      "longitude": "-90.13041516411438"
    }
  },
  {
    "service_request": "2022-860480",
    "request_type": "Property Maintenance",
    "request_reason": "Property Maintenance",
    "date_created": "2022-02-11T13:12:37.000",
    "date_modified": "2022-02-11T13:12:37.000",
    "request_status": "Pending",
    "responsible_agency": "Department of Code Enforcement",
    "final_address": "1475 N Johnson St",
    "address_councildis": "D",
    "status": "Pending",
    "rowid": "860480",
    "final_x": "3680503.122",
    "final_y": "537984.684105",
    "longitude": "-90.07099321616563",
    "latitude": "29.973301584990484",
    "geocoded_column": {
      "latitude": "29.973301584990484",
      "longitude": "-90.07099321616563"
    }
  },
  {
    "service_request": "2022-860479",
    "request_type": "Abandoned Vehicles",
    "request_reason": "Abandoned/Junk Vehicles",
    "date_created": "2022-02-11T13:10:56.000",
    "date_modified": "2022-02-11T13:10:56.000",
    "request_status": "Pending",
    "responsible_agency": "Department of Public Works",
    "final_address": "2414 St Andrew St",
    "address_councildis": "B",
    "status": "Pending",
    "rowid": "860479",
    "final_x": "3676168.2363",
    "final_y": "526502.951358",
    "longitude": "-90.08507870694001",
    "latitude": "29.941861273276718",
    "geocoded_column": {
      "latitude": "29.941861273276718",
      "longitude": "-90.08507870694001"
    }
  },
  {
    "service_request": "2022-860478",
    "request_type": "Abandoned Vehicles",
    "request_reason": "Abandoned/Junk Vehicles",
    "date_created": "2022-02-11T13:06:56.000",
    "date_modified": "2022-02-11T13:06:56.000",
    "request_status": "Pending",
    "responsible_agency": "Department of Public Works",
    "final_address": "5622 Canal Blvd",
    "address_councildis": "A",
    "status": "Pending",
    "rowid": "860478",
    "final_x": "3668131.29415",
    "final_y": "544944.143887",
    "longitude": "-90.10983140288653",
    "latitude": "29.992806709608",
    "geocoded_column": {
      "latitude": "29.992806709608",
      "longitude": "-90.10983140288653"
    }
  },
  {
    "service_request": "2022-860477",
    "request_type": "Abandoned Vehicles",
    "request_reason": "Abandoned/Junk Vehicles",
    "date_created": "2022-02-11T13:05:02.000",
    "date_modified": "2022-02-11T13:05:02.000",
    "request_status": "Pending",
    "responsible_agency": "Department of Public Works",
    "final_address": "2428 St Andrew St",
    "address_councildis": "B",
    "status": "Pending",
    "rowid": "860477",
    "final_x": "3676118.74779",
    "final_y": "526559.12371",
    "longitude": "-90.08523302088044",
    "latitude": "29.942017211038067",
    "geocoded_column": {
      "latitude": "29.942017211038067",
      "longitude": "-90.08523302088044"
    }
  },
  {
    "service_request": "2022-860476",
    "request_type": "Trash/Recycling",
    "request_reason": "Missed Trash Pick-Up",
    "date_created": "2022-02-11T13:04:44.000",
    "date_modified": "2022-02-11T13:04:45.000",
    "request_status": "Pending",
    "responsible_agency": "Department of Sanitation",
    "final_address": "360 Millaudon St",
    "address_councildis": "A",
    "status": "Assigned to Contractor",
    "contractor": "Richards Disposal",
    "rowid": "860476",
    "final_x": "3661752.80909",
    "final_y": "524537.012988",
    "longitude": "-90.13065660111481",
    "latitude": "29.936879498453802",
    "geocoded_column": {
      "latitude": "29.936879498453802",
      "longitude": "-90.13065660111481"
    }
  },
  {
    "service_request": "2022-860475",
    "request_type": "Trash/Recycling",
    "request_reason": "Return Trash Cart",
    "date_created": "2022-02-11T13:03:56.000",
    "date_modified": "2022-02-11T13:03:57.000",
    "request_status": "Pending",
    "responsible_agency": "Department of Sanitation",
    "final_address": "TULANE AVE & S RAMPART ST & COMMON ST",
    "address_councildis": "B",
    "status": "Assigned to Contractor",
    "contractor": "Empire Services",
    "rowid": "860475",
    "final_x": "3679627.79",
    "final_y": "531022.73",
    "longitude": "-90.07399934305039",
    "latitude": "29.954185069998477",
    "geocoded_column": {
      "latitude": "29.954185069998477",
      "longitude": "-90.07399934305039"
    }
  },
  {
    "service_request": "2022-860474",
    "request_type": "Roads/Drainage",
    "request_reason": "Accessibility Ramps, Curbs and Sidewalk Repair",
    "date_created": "2022-02-11T13:02:23.000",
    "date_modified": "2022-02-11T13:02:23.000",
    "request_status": "Pending",
    "responsible_agency": "Department of Public Works",
    "final_address": "833 Poydras St",
    "address_councildis": "B",
    "status": "Pending",
    "rowid": "860474",
    "final_x": "3680011.55458",
    "final_y": "529610.537345",
    "longitude": "-90.07283662222024",
    "latitude": "29.950290412537097",
    "geocoded_column": {
      "latitude": "29.950290412537097",
      "longitude": "-90.07283662222024"
    }
  },
  {
    "service_request": "2022-860473",
    "request_type": "Property Maintenance",
    "request_reason": "Property Maintenance",
    "date_created": "2022-02-11T13:00:21.000",
    "date_modified": "2022-02-11T13:00:21.000",
    "request_status": "Pending",
    "responsible_agency": "Department of Code Enforcement",
    "final_address": "3701 Mansfield Ave",
    "address_councildis": "C",
    "status": "Pending",
    "rowid": "860473",
    "final_x": "3708942.3596",
    "final_y": "517373.531829",
    "longitude": "-89.98194485150553",
    "latitude": "29.9157361748237",
    "geocoded_column": {
      "latitude": "29.9157361748237",
      "longitude": "-89.98194485150553"
    }
  },
  {
    "service_request": "2022-860472",
    "request_type": "Trash/Recycling",
    "request_reason": "Replace Trash Cart",
    "date_created": "2022-02-11T13:00:05.000",
    "date_modified": "2022-02-11T13:00:06.000",
    "request_status": "Pending",
    "responsible_agency": "Department of Sanitation",
    "final_address": "736 Pacific Ave",
    "address_councildis": "C",
    "status": "Assigned to Contractor",
    "contractor": "Richards Disposal",
    "rowid": "860472",
    "final_x": "3688508.18415",
    "final_y": "528759.86528",
    "longitude": "-90.0460389766132",
    "latitude": "29.947691614378588",
    "geocoded_column": {
      "latitude": "29.947691614378588",
      "longitude": "-90.0460389766132"
    }
  },
  {
    "service_request": "2022-860471",
    "request_type": "Traffic Signals/Signs/Striping/Streetlights",
    "request_reason": "Street Light Outage/Malfunction",
    "date_created": "2022-02-11T12:53:19.000",
    "date_modified": "2022-02-11T12:53:20.000",
    "request_status": "Pending",
    "responsible_agency": "Department of Public Works",
    "final_address": "833 Poydras St",
    "address_councildis": "B",
    "status": "Pending",
    "contractor": "Royal Engineering",
    "rowid": "860471",
    "final_x": "3680011.55458",
    "final_y": "529610.537345",
    "longitude": "-90.07283662222024",
    "latitude": "29.950290412537097",
    "geocoded_column": {
      "latitude": "29.950290412537097",
      "longitude": "-90.07283662222024"
    }
  },
  {
    "service_request": "2022-860470",
    "request_type": "Trash/Recycling",
    "request_reason": "Missed Trash Pick-Up",
    "date_created": "2022-02-11T12:52:25.000",
    "date_modified": "2022-02-11T12:52:26.000",
    "request_status": "Pending",
    "responsible_agency": "Department of Sanitation",
    "final_address": "5300 Press Dr",
    "address_councildis": "D",
    "status": "Assigned to Contractor",
    "contractor": "Metro Disposal",
    "rowid": "860470",
    "final_x": "3689194.36303",
    "final_y": "552971.481047",
    "longitude": "-90.04301160035546",
    "latitude": "30.01424372929821",
    "geocoded_column": {
      "latitude": "30.01424372929821",
      "longitude": "-90.04301160035546"
    }
  },
  {
    "service_request": "2022-860469",
    "request_type": "Abandoned Vehicles",
    "request_reason": "Vehicle Blocking Your Driveway",
    "date_created": "2022-02-11T12:51:30.000",
    "date_modified": "2022-02-11T12:51:30.000",
    "request_status": "Pending",
    "responsible_agency": "Department of Public Works",
    "final_address": "4408 Congress Dr",
    "address_councildis": "D",
    "status": "Pending",
    "rowid": "860469",
    "final_x": "3692610.06781",
    "final_y": "550715.439125",
    "longitude": "-90.03230065966783",
    "latitude": "30.007934247029194",
    "geocoded_column": {
      "latitude": "30.007934247029194",
      "longitude": "-90.03230065966783"
    }
  },
  {
    "service_request": "2022-860468",
    "request_type": "Abandoned Vehicles",
    "request_reason": "Abandoned/Junk Vehicles",
    "date_created": "2022-02-11T12:50:08.000",
    "date_modified": "2022-02-11T12:53:59.000",
    "request_status": "Pending",
    "responsible_agency": "Department of Public Works",
    "final_address": "DELERY ST & VALJEAN ST",
    "address_councildis": "E",
    "status": "Pending",
    "rowid": "860468",
    "final_x": "3701812.5",
    "final_y": "536330.48",
    "longitude": "-90.00375495563144",
    "latitude": "29.968090409287782",
    "geocoded_column": {
      "latitude": "29.968090409287782",
      "longitude": "-90.00375495563144"
    }
  },
  {
    "service_request": "2022-860467",
    "request_type": "Abandoned Vehicles",
    "request_reason": "Abandoned/Junk Vehicles",
    "date_created": "2022-02-11T12:46:56.000",
    "date_modified": "2022-02-11T12:46:56.000",
    "request_status": "Pending",
    "responsible_agency": "Department of Public Works",
    "final_address": "1750 N Rocheblave St",
    "address_councildis": "D",
    "status": "Pending",
    "rowid": "860467",
    "final_x": "3680690.23829",
    "final_y": "540438.141579",
    "longitude": "-90.07031685617373",
    "latitude": "29.980042072921652",
    "geocoded_column": {
      "latitude": "29.980042072921652",
      "longitude": "-90.07031685617373"
    }
  },
  {
    "service_request": "2022-860466",
    "request_type": "Trash/Recycling",
    "request_reason": "Request a Large Item Pick Up",
    "date_created": "2022-02-11T12:46:36.000",
    "date_modified": "2022-02-11T12:46:37.000",
    "request_status": "Pending",
    "responsible_agency": "Department of Sanitation",
    "final_address": "7632 Ebbtide Dr",
    "address_councildis": "E",
    "status": "Assigned to Contractor",
    "contractor": "Metro Disposal",
    "rowid": "860466",
    "final_x": "3702096.62647",
    "final_y": "561526.568927",
    "longitude": "-90.00193312219432",
    "latitude": "30.037361112279243",
    "geocoded_column": {
      "latitude": "30.037361112279243",
      "longitude": "-90.00193312219432"
    }
  },
  {
    "service_request": "2022-860465",
    "request_type": "Trash/Recycling",
    "request_reason": "Replace Trash Cart",
    "date_created": "2022-02-11T12:44:34.000",
    "date_modified": "2022-02-11T12:44:35.000",
    "request_status": "Pending",
    "responsible_agency": "Department of Sanitation",
    "final_address": "5501 S Robertson St",
    "address_councildis": "A",
    "status": "Assigned to Contractor",
    "contractor": "Richards Disposal",
    "rowid": "860465",
    "final_x": "3667595.85357",
    "final_y": "524395.145916",
    "longitude": "-90.11221452098654",
    "latitude": "29.936319482220707",
    "geocoded_column": {
      "latitude": "29.936319482220707",
      "longitude": "-90.11221452098654"
    }
  },
  {
    "service_request": "2022-860464",
    "request_type": "Traffic Signals/Signs/Striping/Streetlights",
    "request_reason": "Street Light Outage/Malfunction",
    "date_created": "2022-02-11T12:39:46.000",
    "date_modified": "2022-02-11T12:39:47.000",
    "request_status": "Pending",
    "responsible_agency": "Department of Public Works",
    "final_address": "1400 Jena St",
    "address_councildis": "B",
    "status": "Pending",
    "contractor": "Royal Engineering",
    "rowid": "860464",
    "final_x": "3670468.57972",
    "final_y": "520320.399416",
    "longitude": "-90.10328330039945",
    "latitude": "29.92503074356913",
    "geocoded_column": {
      "latitude": "29.92503074356913",
      "longitude": "-90.10328330039945"
    }
  },
  {
    "service_request": "2022-860463",
    "request_type": "Roads/Drainage",
    "request_reason": "Pothole",
    "date_created": "2022-02-11T12:38:14.000",
    "date_modified": "2022-02-11T12:38:14.000",
    "case_close_date": "2022-02-10T18:00:00.000",
    "request_status": "Pending",
    "responsible_agency": "Department of Public Works",
    "final_address": "1021 Decatur St",
    "address_councildis": "C",
    "status": "Pending",
    "rowid": "860463",
    "final_x": "3683914.61929",
    "final_y": "533034.587204",
    "longitude": "-90.06039270418516",
    "latitude": "29.95958674529692",
    "geocoded_column": {
      "latitude": "29.95958674529692",
      "longitude": "-90.06039270418516"
    }
  },
  {
    "service_request": "2022-860462",
    "request_type": "Traffic Signals/Signs/Striping/Streetlights",
    "request_reason": "Additional signage",
    "date_created": "2022-02-11T12:33:03.000",
    "date_modified": "2022-02-11T12:33:03.000",
    "request_status": "Pending",
    "responsible_agency": "Department of Public Works",
    "final_address": "GENERAL DE GAULLE DR & BEHRMAN AVE",
    "address_councildis": "C",
    "status": "Pending",
    "rowid": "860462",
    "final_x": "3691980.1",
    "final_y": "522529.88",
    "longitude": "-90.0352996482907",
    "latitude": "29.930453576198886",
    "geocoded_column": {
      "latitude": "29.930453576198886",
      "longitude": "-90.0352996482907"
    }
  },
  {
    "service_request": "2022-860461",
    "request_type": "Traffic Signals/Signs/Striping/Streetlights",
    "request_reason": "Street Light Outage/Malfunction",
    "date_created": "2022-02-11T12:31:13.000",
    "date_modified": "2022-02-11T13:19:00.000",
    "request_status": "Pending",
    "responsible_agency": "Department of Public Works",
    "final_address": "1200 Frenchmen St, New Orleans, Louisiana, 70116",
    "address_councildis": "C",
    "status": "Pending",
    "contractor": "Royal Engineering",
    "rowid": "860461",
    "final_x": "3684498.6285",
    "final_y": "536673.452167",
    "longitude": "-90.05842069031115",
    "latitude": "29.969574515689832",
    "geocoded_column": {
      "latitude": "29.969574515689832",
      "longitude": "-90.05842069031115"
    }
  },
  {
    "service_request": "2022-860460",
    "request_type": "Roads/Drainage",
    "request_reason": "Pothole",
    "date_created": "2022-02-11T12:30:10.000",
    "date_modified": "2022-02-11T12:30:10.000",
    "request_status": "Pending",
    "responsible_agency": "Department of Public Works",
    "final_address": "GENERAL DE GAULLE DR & BEHRMAN AVE",
    "address_councildis": "C",
    "status": "Pending",
    "rowid": "860460",
    "final_x": "3691980.1",
    "final_y": "522529.88",
    "longitude": "-90.0352996482907",
    "latitude": "29.930453576198886",
    "geocoded_column": {
      "latitude": "29.930453576198886",
      "longitude": "-90.0352996482907"
    }
  },
  {
    "service_request": "2022-860459",
    "request_type": "Abandoned Vehicles",
    "request_reason": "Abandoned/Junk Vehicles",
    "date_created": "2022-02-11T12:29:26.000",
    "date_modified": "2022-02-11T12:29:26.000",
    "request_status": "Pending",
    "responsible_agency": "Department of Public Works",
    "final_address": "4604 Eastern St",
    "address_councildis": "D",
    "status": "Pending",
    "rowid": "860459",
    "final_x": "3688024.2342",
    "final_y": "549844.373716",
    "longitude": "-90.04681954280166",
    "latitude": "30.00568151022467",
    "geocoded_column": {
      "latitude": "30.00568151022467",
      "longitude": "-90.04681954280166"
    }
  },
  {
    "service_request": "2022-860458",
    "request_type": "Abandoned Vehicles",
    "request_reason": "Abandoned/Junk Vehicles",
    "date_created": "2022-02-11T12:23:34.000",
    "date_modified": "2022-02-11T12:23:34.000",
    "request_status": "Pending",
    "responsible_agency": "Department of Public Works",
    "final_address": "1217 Frenchmen St, New Orleans, Louisiana, 70116",
    "address_councildis": "C",
    "status": "Pending",
    "rowid": "860458",
    "final_x": "3684578.27145",
    "final_y": "536780.318408",
    "longitude": "-90.05816541563995",
    "latitude": "29.969865923920686",
    "geocoded_column": {
      "latitude": "29.969865923920686",
      "longitude": "-90.05816541563995"
    }
  },
  {
    "service_request": "2022-860457",
    "request_type": "Trash/Recycling",
    "request_reason": "Request a Large Item Pick Up",
    "date_created": "2022-02-11T12:20:51.000",
    "date_modified": "2022-02-11T12:20:52.000",
    "request_status": "Pending",
    "responsible_agency": "Department of Sanitation",
    "final_address": "2328 Touro St",
    "address_councildis": "D",
    "status": "Assigned to Contractor",
    "contractor": "Metro Disposal",
    "rowid": "860457",
    "final_x": "3683825.40188",
    "final_y": "540899.588427",
    "longitude": "-90.06039852587745",
    "latitude": "29.98121549562343",
    "geocoded_column": {
      "latitude": "29.98121549562343",
      "longitude": "-90.06039852587745"
    }
  },
  {
    "service_request": "2022-860456",
    "request_type": "Traffic Signals/Signs/Striping/Streetlights",
    "request_reason": "Street Light Outage/Malfunction",
    "date_created": "2022-02-11T12:18:39.000",
    "date_modified": "2022-02-11T12:18:40.000",
    "request_status": "Pending",
    "responsible_agency": "Department of Public Works",
    "final_address": "4530 S Tonti St",
    "address_councildis": "B",
    "status": "Pending",
    "contractor": "Royal Engineering",
    "rowid": "860456",
    "final_x": "3669463.23354",
    "final_y": "528043.803839",
    "longitude": "-90.10619576109674",
    "latitude": "29.946297257789908",
    "geocoded_column": {
      "latitude": "29.946297257789908",
      "longitude": "-90.10619576109674"
    }
  },
  {
    "service_request": "2022-860455",
    "request_type": "Traffic Signals/Signs/Striping/Streetlights",
    "request_reason": "Traffic Sign Missing/Damaged",
    "date_created": "2022-02-11T12:16:30.000",
    "date_modified": "2022-02-11T12:16:30.000",
    "request_status": "Pending",
    "responsible_agency": "Department of Public Works",
    "final_address": "933 Caffin Ave",
    "address_councildis": "E",
    "status": "Pending",
    "rowid": "860455",
    "final_x": "3697940.70339",
    "final_y": "533242.6089",
    "longitude": "-90.01609427017287",
    "latitude": "29.95972282843731",
    "geocoded_column": {
      "latitude": "29.95972282843731",
      "longitude": "-90.01609427017287"
    }
  },
  {
    "service_request": "2022-860454",
    "request_type": "Roads/Drainage",
    "request_reason": "Accessibility Ramps, Curbs and Sidewalk Repair",
    "date_created": "2022-02-11T12:11:27.000",
    "date_modified": "2022-02-11T12:11:27.000",
    "request_status": "Pending",
    "responsible_agency": "Department of Public Works",
    "final_address": "57 Neron Pl",
    "address_councildis": "A",
    "status": "Pending",
    "rowid": "860454",
    "final_x": "3665724.89229",
    "final_y": "530234.953729",
    "longitude": "-90.11792567332182",
    "latitude": "29.95243176609284",
    "geocoded_column": {
      "latitude": "29.95243176609284",
      "longitude": "-90.11792567332182"
    }
  },
  {
    "service_request": "2022-860453",
    "request_type": "Abandoned Vehicles",
    "request_reason": "Abandoned/Junk Vehicles",
    "date_created": "2022-02-11T12:06:36.000",
    "date_modified": "2022-02-11T12:06:36.000",
    "request_status": "Pending",
    "responsible_agency": "Department of Public Works",
    "final_address": "3806 Bienville St, New Orleans, Louisiana, 70119",
    "status": "Pending",
    "rowid": "860453",
    "longitude": "0.0",
    "latitude": "0.0",
    "geocoded_column": {
      "latitude": "0.0",
      "longitude": "0.0"
    }
  },
  {
    "service_request": "2022-860452",
    "request_type": "Abandoned Vehicles",
    "request_reason": "Vehicle Blocking Your Driveway",
    "date_created": "2022-02-11T12:03:05.000",
    "date_modified": "2022-02-11T12:03:05.000",
    "request_status": "Pending",
    "responsible_agency": "Department of Public Works",
    "final_address": "2309 Governor Nicholls St",
    "address_councildis": "D",
    "status": "Pending",
    "rowid": "860452",
    "final_x": "3679143.17679",
    "final_y": "537457.837256",
    "longitude": "-90.07530646781059",
    "latitude": "29.971894062910586",
    "geocoded_column": {
      "latitude": "29.971894062910586",
      "longitude": "-90.07530646781059"
    }
  },
  {
    "service_request": "2022-860451",
    "request_type": "Trash/Recycling",
    "request_reason": "Missed Trash Pick-Up",
    "date_created": "2022-02-11T11:58:38.000",
    "date_modified": "2022-02-11T11:58:39.000",
    "request_status": "Pending",
    "responsible_agency": "Department of Sanitation",
    "final_address": "937 Pleasant St",
    "address_councildis": "B",
    "status": "Assigned to Contractor",
    "contractor": "Richards Disposal",
    "rowid": "860451",
    "final_x": "3675779.67451",
    "final_y": "519500.729015",
    "longitude": "-90.0865460300411",
    "latitude": "29.922619075569454",
    "geocoded_column": {
      "latitude": "29.922619075569454",
      "longitude": "-90.0865460300411"
    }
  },
  {
    "service_request": "2022-860450",
    "request_type": "Trash/Recycling",
    "request_reason": "Illegal Dumping",
    "date_created": "2022-02-11T11:58:19.000",
    "date_modified": "2022-02-11T11:58:42.000",
    "case_close_date": "2022-02-11T05:58:42.000",
    "request_status": "Closed",
    "responsible_agency": "Department of Sanitation",
    "final_address": "2429 Josephine St",
    "address_councildis": "B",
    "status": "Resolved",
    "rowid": "860450",
    "final_x": "3676047.32449",
    "final_y": "526426.42899",
    "longitude": "-90.0854630822023",
    "latitude": "29.941654483245397",
    "geocoded_column": {
      "latitude": "29.941654483245397",
      "longitude": "-90.0854630822023"
    }
  },
  {
    "service_request": "2022-860449",
    "request_type": "Trash/Recycling",
    "request_reason": "Illegal Dumping",
    "date_created": "2022-02-11T11:56:57.000",
    "date_modified": "2022-02-11T11:57:47.000",
    "case_close_date": "2022-02-11T05:57:47.000",
    "request_status": "Closed",
    "responsible_agency": "Department of Sanitation",
    "final_address": "2726 St Andrew St",
    "address_councildis": "B",
    "status": "Resolved",
    "rowid": "860449",
    "final_x": "3675460.98747",
    "final_y": "527343.255551",
    "longitude": "-90.08728279113122",
    "latitude": "29.944192999253573",
    "geocoded_column": {
      "latitude": "29.944192999253573",
      "longitude": "-90.08728279113122"
    }
  },
  {
    "service_request": "2022-860448",
    "request_type": "Tax and Revenue",
    "request_reason": "Occupational License Tax",
    "date_created": "2022-02-11T11:56:42.000",
    "date_modified": "2022-02-11T11:56:42.000",
    "request_status": "Pending",
    "responsible_agency": "Bureau of Revenue",
    "final_address": "1458 N Broad St",
    "address_councildis": "D",
    "status": "Pending",
    "rowid": "860448",
    "final_x": "3678559.46139",
    "final_y": "539287.25601",
    "longitude": "-90.07708659121906",
    "latitude": "29.976941943788656",
    "geocoded_column": {
      "latitude": "29.976941943788656",
      "longitude": "-90.07708659121906"
    }
  },
  {
    "service_request": "2022-860447",
    "request_type": "Trash/Recycling",
    "request_reason": "Illegal Dumping",
    "date_created": "2022-02-11T11:55:34.000",
    "date_modified": "2022-02-11T11:56:00.000",
    "case_close_date": "2022-02-11T05:56:00.000",
    "request_status": "Closed",
    "responsible_agency": "Department of Sanitation",
    "final_address": "2702 Felicity St",
    "address_councildis": "B",
    "status": "Resolved",
    "rowid": "860447",
    "final_x": "3675435.41499",
    "final_y": "527586.851263",
    "longitude": "-90.08735516761921",
    "latitude": "29.9448635717295",
    "geocoded_column": {
      "latitude": "29.9448635717295",
      "longitude": "-90.08735516761921"
    }
  },
  {
    "service_request": "2022-860446",
    "request_type": "Trash/Recycling",
    "request_reason": "Illegal Dumping",
    "date_created": "2022-02-11T11:54:05.000",
    "date_modified": "2022-02-11T11:54:36.000",
    "case_close_date": "2022-02-11T05:54:36.000",
    "request_status": "Closed",
    "responsible_agency": "Department of Sanitation",
    "final_address": "2500 Martin Luther King, Jr. Blvd",
    "address_councildis": "B",
    "status": "Resolved",
    "rowid": "860446",
    "final_x": "3676320.17045",
    "final_y": "527253.011327",
    "longitude": "-90.08457321073259",
    "latitude": "29.943919138705205",
    "geocoded_column": {
      "latitude": "29.943919138705205",
      "longitude": "-90.08457321073259"
    }
  },
  {
    "service_request": "2022-860445",
    "request_type": "Trash/Recycling",
    "request_reason": "Request a Large Item Pick Up",
    "date_created": "2022-02-11T11:53:40.000",
    "date_modified": "2022-02-11T11:53:41.000",
    "request_status": "Pending",
    "responsible_agency": "Department of Sanitation",
    "final_address": "1101 Napoleon Ave Unit B",
    "address_councildis": "B",
    "status": "Assigned to Contractor",
    "contractor": "Richards Disposal",
    "rowid": "860445",
    "final_x": "3671099.30343",
    "final_y": "519578.060216",
    "longitude": "-90.10131750061853",
    "latitude": "29.922970914975682",
    "geocoded_column": {
      "latitude": "29.922970914975682",
      "longitude": "-90.10131750061853"
    }
  },
  {
    "service_request": "2022-860444",
    "request_type": "Trash/Recycling",
    "request_reason": "Illegal Dumping",
    "date_created": "2022-02-11T11:52:27.000",
    "date_modified": "2022-02-11T11:53:05.000",
    "case_close_date": "2022-02-11T05:53:05.000",
    "request_status": "Closed",
    "responsible_agency": "Department of Sanitation",
    "final_address": "1500 BLK Rev. John Raphael, Jr. Way",
    "address_councildis": "B",
    "status": "Resolved",
    "rowid": "860444",
    "final_x": "3676556.53136",
    "final_y": "526996.499929",
    "longitude": "-90.08383578547736",
    "latitude": "29.943206732115815",
    "geocoded_column": {
      "latitude": "29.943206732115815",
      "longitude": "-90.08383578547736"
    }
  },
  {
    "service_request": "2022-860442",
    "request_type": "Trash/Recycling",
    "request_reason": "Illegal Dumping",
    "date_created": "2022-02-11T11:50:06.000",
    "date_modified": "2022-02-11T11:51:21.000",
    "case_close_date": "2022-02-11T05:51:21.000",
    "request_status": "Closed",
    "responsible_agency": "Department of Sanitation",
    "final_address": "1600 Magnolia St",
    "address_councildis": "B",
    "status": "Resolved",
    "rowid": "860442",
    "final_x": "3675866.66465",
    "final_y": "527559.214655",
    "longitude": "-90.0859945300419",
    "latitude": "29.944774678916282",
    "geocoded_column": {
      "latitude": "29.944774678916282",
      "longitude": "-90.0859945300419"
    }
  },
  {
    "service_request": "2022-860441",
    "request_type": "Trash/Recycling",
    "request_reason": "Illegal Dumping",
    "date_created": "2022-02-11T11:47:51.000",
    "date_modified": "2022-02-11T11:48:27.000",
    "case_close_date": "2022-02-11T05:48:27.000",
    "request_status": "Closed",
    "responsible_agency": "Department of Sanitation",
    "final_address": "2708 Martin Luther King, Jr. Blvd",
    "address_councildis": "B",
    "status": "Resolved",
    "rowid": "860441",
    "final_x": "3675771.80014",
    "final_y": "527602.878783",
    "longitude": "-90.08629254577012",
    "latitude": "29.94489758002139",
    "geocoded_column": {
      "latitude": "29.94489758002139",
      "longitude": "-90.08629254577012"
    }
  },
  {
    "service_request": "2022-860440",
    "request_type": "Trash/Recycling",
    "request_reason": "Illegal Dumping",
    "date_created": "2022-02-11T11:46:42.000",
    "date_modified": "2022-02-11T11:47:04.000",
    "case_close_date": "2022-02-11T05:47:04.000",
    "request_status": "Closed",
    "responsible_agency": "Department of Sanitation",
    "final_address": "2400 Jackson Ave",
    "address_councildis": "B",
    "status": "Resolved",
    "rowid": "860440",
    "final_x": "3675569.19349",
    "final_y": "526308.323262",
    "longitude": "-90.08697669595185",
    "latitude": "29.941344040353535",
    "geocoded_column": {
      "latitude": "29.941344040353535",
      "longitude": "-90.08697669595185"
    }
  },
  {
    "service_request": "2022-860439",
    "request_type": "Mayor's Request",
    "request_reason": "Requests to the Mayor",
    "date_created": "2022-02-11T11:42:18.000",
    "date_modified": "2022-02-11T11:42:18.000",
    "request_status": "Pending",
    "responsible_agency": "Executive Office of the Mayor",
    "status": "Pending",
    "rowid": "860439",
    "longitude": "0.0",
    "latitude": "0.0",
    "geocoded_column": {
      "latitude": "0.0",
      "longitude": "0.0"
    }
  },
  {
    "service_request": "2022-860438",
    "request_type": "Trash/Recycling",
    "request_reason": "Illegal Dumping",
    "date_created": "2022-02-11T11:41:49.000",
    "date_modified": "2022-02-11T11:42:25.000",
    "case_close_date": "2022-02-11T05:42:25.000",
    "request_status": "Closed",
    "responsible_agency": "Department of Sanitation",
    "final_address": "2214 Freret St",
    "address_councildis": "B",
    "status": "Resolved",
    "rowid": "860438",
    "final_x": "3675522.33083",
    "final_y": "526199.429118",
    "longitude": "-90.08712838967404",
    "latitude": "29.941046018775154",
    "geocoded_column": {
      "latitude": "29.941046018775154",
      "longitude": "-90.08712838967404"
    }
  },
  {
    "service_request": "2022-860437",
    "request_type": "Abandoned Vehicles",
    "request_reason": "Abandoned/Junk Vehicles",
    "date_created": "2022-02-11T11:36:38.000",
    "date_modified": "2022-02-11T11:36:38.000",
    "request_status": "Pending",
    "responsible_agency": "Department of Public Works",
    "final_address": "122 N Bernadotte St",
    "address_councildis": "A",
    "status": "Pending",
    "rowid": "860437",
    "final_x": "3669000.53818",
    "final_y": "540233.685387",
    "longitude": "-90.10724482410592",
    "latitude": "29.979829005199434",
    "geocoded_column": {
      "latitude": "29.979829005199434",
      "longitude": "-90.10724482410592"
    }
  },
  {
    "service_request": "2022-860436",
    "request_type": "Traffic Signals/Signs/Striping/Streetlights",
    "request_reason": "Street Light Outage/Malfunction",
    "date_created": "2022-02-11T11:33:37.000",
    "date_modified": "2022-02-11T11:33:40.000",
    "request_status": "Pending",
    "responsible_agency": "Department of Public Works",
    "final_address": "4419 St Ann St",
    "address_councildis": "A",
    "status": "Pending",
    "contractor": "Royal Engineering",
    "rowid": "860436",
    "final_x": "3671492.67681",
    "final_y": "541430.167564",
    "longitude": "-90.09933291293981",
    "latitude": "29.9830453634559",
    "geocoded_column": {
      "latitude": "29.9830453634559",
      "longitude": "-90.09933291293981"
    }
  },
  {
    "service_request": "2022-860435",
    "request_type": "Trash/Recycling",
    "request_reason": "Repair Recycling Cart",
    "date_created": "2022-02-11T11:32:06.000",
    "date_modified": "2022-02-11T11:32:07.000",
    "request_status": "Pending",
    "responsible_agency": "Department of Sanitation",
    "final_address": "3216 Second St",
    "address_councildis": "B",
    "status": "Pending",
    "rowid": "860435",
    "final_x": "3673422.88827",
    "final_y": "527945.808447",
    "longitude": "-90.0936970752596",
    "latitude": "29.945910606513554",
    "geocoded_column": {
      "latitude": "29.945910606513554",
      "longitude": "-90.0936970752596"
    }
  },