[
  {
    "service_request": "2025-1203974",
    "request_type": "Streetlights",
    "request_reason": "Streetlight Outage/Malfunction",
    "date_created": "2025-06-24T23:44:24.000",
    "date_modified": "2025-06-24T23:44:26.000",
    "request_status": "Pending",
    "responsible_agency": "Department of Public Works",
    "final_address": "5313 Wildair Dr",
    "address_councildis": "D",
    "status": "Pending",
    "contractor": "Legacy Professional Services",
    "rowid": "1203974",
    "final_x": "3681706.99042",
    "final_y": "552508.085462",
    "longitude": "-90.06668411988002",
    "latitude": "30.013199269319504",
    "geocoded_column": {
      "latitude": "30.013199269319504",
      "longitude": "-90.06668411988002"
    }
  },
  {
    "service_request": "2025-1203973",
    "request_type": "Trash/Recycling",
    "request_reason": "Request a Large Item Pick Up",
    "date_created": "2025-06-24T23:34:10.000",
    "date_modified": "2025-06-24T23:34:13.000",
    "request_status": "Pending",
    "responsible_agency": "Department of Sanitation",
    "final_address": "5850 Vicksburg St",
    "address_councildis": "A",
    "status": "Assigned to Contractor",
    "contractor": "IV Waste",
    "rowid": "1203973",
    "final_x": "3668693.77908",
    "final_y": "546342.570832",
    "longitude": "-90.10800737002204",
    "latitude": "29.99663537573426",
    "geocoded_column": {
      "latitude": "29.99663537573426",
      "longitude": "-90.10800737002204"
    }
  },
  {
    "service_request": "2025-1203972",
    "request_type": "Healthy Homes",
    "request_reason": "Healthy Homes",
    "date_created": "2025-06-24T23:29:18.000",
    "date_modified": "2025-06-24T23:29:23.000",
    "request_status": "Pending",
    "responsible_agency": "Department of Code Enforcement",
    "final_address": "4138 Thalia St",
    "address_councildis": "B",
    "status": "Pending",
    "rowid": "1203972",
    "final_x": "3671288.26209",
    "final_y": "530846.08653",
    "longitude": "-90.10033828794313",
    "latitude": "29.953948745548143",
    "geocoded_column": {
      "latitude": "29.953948745548143",
      "longitude": "-90.10033828794313"
    }
  },
  {
    "service_request": "2025-1203971",
    "request_type": "Trash/Recycling",
    "request_reason": "Request a Large Item Pick Up",
    "date_created": "2025-06-24T23:16:53.000",
    "date_modified": "2025-06-24T23:16:55.000",
    "request_status": "Pending",
    "responsible_agency": "Department of Sanitation",
    "final_address": "2920 New Orleans St",
    "address_councildis": "D",
    "status": "Assigned to Contractor",
    "contractor": "IV Waste",
    "rowid": "1203971",
    "final_x": "3681788.97058",
    "final_y": "543277.046414",
    "longitude": "-90.06674749143667",
    "latitude": "29.987814719482117",
    "geocoded_column": {
      "latitude": "29.987814719482117",
      "longitude": "-90.06674749143667"
    }
  },
  {
    "service_request": "2025-1203970",
    "request_type": "Trash/Recycling",
    "request_reason": "Replace Trash Cart",
    "date_created": "2025-06-24T23:09:35.000",
    "date_modified": "2025-06-24T23:09:37.000",
    "request_status": "Pending",
    "responsible_agency": "Department of Sanitation",
    "final_address": "6313 Kingston Ct",
    "address_councildis": "C",
    "status": "Assigned to Contractor",
    "contractor": "Richards Disposal",
    "rowid": "1203970",
    "final_x": "3707271.48203",
    "final_y": "517747.51071",
    "longitude": "-89.98720486618984",
    "latitude": "29.91681856651682",
    "geocoded_column": {
      "latitude": "29.91681856651682",
      "longitude": "-89.98720486618984"
    }
  },
  {
    "service_request": "2025-1203969",
    "request_type": "Abandoned Vehicles",
    "request_reason": "Abandoned/Junk Vehicles",
    "date_created": "2025-06-24T22:32:39.000",
    "date_modified": "2025-06-24T22:32:41.000",
    "request_status": "Pending",
    "responsible_agency": "Department of Public Works",
    "final_address": "2124 Camp St",
    "address_councildis": "B",
    "status": "Pending",
    "rowid": "1203969",
    "final_x": "3678793.04117",
    "final_y": "522464.221242",
    "longitude": "-90.07693146400749",
    "latitude": "29.930677211414945",
    "geocoded_column": {
      "latitude": "29.930677211414945",
      "longitude": "-90.07693146400749"
    }
  },
  {
    "service_request": "2025-1203968",
    "request_type": "Streetlights",
    "request_reason": "Streetlight Outage/Malfunction",
    "date_created": "2025-06-24T22:19:19.000",
    "date_modified": "2025-06-24T22:19:22.000",
    "request_status": "Pending",
    "responsible_agency": "Department of Public Works",
    "final_address": "6341 Memphis St",
    "address_councildis": "A",
    "status": "Pending",
    "contractor": "Legacy Professional Services",
    "rowid": "1203968",
    "final_x": "3669489.86874",
    "final_y": "549588.035923",
    "longitude": "-90.10538269239957",
    "latitude": "30.005535844725394",
    "geocoded_column": {
      "latitude": "30.005535844725394",
      "longitude": "-90.10538269239957"
    }
  },
  {
    "service_request": "2025-1203967",
    "request_type": "Healthy Homes",
    "request_reason": "Healthy Homes",
    "date_created": "2025-06-24T21:55:59.000",
    "date_modified": "2025-06-24T21:56:01.000",
    "request_status": "Pending",
    "responsible_agency": "Department of Code Enforcement",
    "final_address": "1201 Canal St Unit 226",
    "address_councildis": "C",
    "status": "Pending",
    "rowid": "1203967",
    "final_x": "3679849.8148",
    "final_y": "531940.169795",
    "longitude": "-90.07326642110094",
    "latitude": "29.95670100814675",
    "geocoded_column": {
      "latitude": "29.95670100814675",
      "longitude": "-90.07326642110094"
    }
  },
  {
    "service_request": "2025-1203966",
    "request_type": "Streetlights",
    "request_reason": "Streetlight Outage/Malfunction",
    "date_created": "2025-06-24T21:48:01.000",
    "date_modified": "2025-06-24T21:48:04.000",
    "request_status": "Pending",
    "responsible_agency": "Department of Public Works",
    "final_address": "4626 Viola St",
    "address_councildis": "E",
    "status": "Pending",
    "contractor": "Legacy Professional Services",
    "rowid": "1203966",
    "final_x": "3704024.07345",
    "final_y": "554487.45244",
    "longitude": "-89.99610159727551",
    "latitude": "30.017944554552063",
    "geocoded_column": {
      "latitude": "30.017944554552063",
      "longitude": "-89.99610159727551"
    }
  },
  {
    "service_request": "2025-1203965",
    "request_type": "Roads and Streets",
    "request_reason": "Push-up/Pavement Expansion",
    "date_created": "2025-06-24T21:25:34.000",
    "date_modified": "2025-06-24T21:25:36.000",
    "request_status": "Pending",
    "responsible_agency": "Department of Public Works",
    "final_address": "2207 S Gayoso St",
    "address_councildis": "A",
    "status": "Pending",
    "rowid": "1203965",
    "final_x": "3669445.89614",
    "final_y": "528809.724864",
    "longitude": "-90.10622460349789",
    "latitude": "29.948403801409494",
    "geocoded_column": {
      "latitude": "29.948403801409494",
      "longitude": "-90.10622460349789"
    }
  },
  {
    "service_request": "2025-1203964",
    "request_type": "Trash/Recycling",
    "request_reason": "Illegal Dumping",
    "date_created": "2025-06-24T21:24:24.000",
    "date_modified": "2025-06-24T21:24:26.000",
    "request_status": "Pending",
    "responsible_agency": "Department of Sanitation",
    "final_address": "2119 Foucher St",
    "address_councildis": "B",
    "status": "Pending",
    "rowid": "1203964",
    "final_x": "3672891.85793",
    "final_y": "523126.229883",
    "longitude": "-90.09553810224921",
    "latitude": "29.932674122146526",
    "geocoded_column": {
      "latitude": "29.932674122146526",
      "longitude": "-90.09553810224921"
    }
  },
  {
    "service_request": "2025-1203963",
    "request_type": "General Services",
    "request_reason": "General Service Request",
    "date_created": "2025-06-24T21:14:58.000",
    "date_modified": "2025-06-24T21:15:00.000",
    "request_status": "Pending",
    "responsible_agency": "Orleans Parish Communication District",
    "final_address": "ALVAR ST OVERPASS & N FLORIDA AVE & FRANCE ST & MAZANT ST & FLORIDA AVE",
    "address_councildis": "D",
    "status": "Pending",
    "rowid": "1203963",
    "final_x": "3693617.7",
    "final_y": "541311.48",
    "longitude": "-90.02945533689848",
    "latitude": "29.982045296437914",
    "geocoded_column": {
      "latitude": "29.982045296437914",
      "longitude": "-90.02945533689848"
    }
  },
  {
    "service_request": "2025-1203962",
    "request_type": "Streetlights",
    "request_reason": "Streetlight Outage/Malfunction",
    "date_created": "2025-06-24T21:06:43.000",
    "date_modified": "2025-06-24T21:07:12.000",
    "request_status": "Pending",
    "responsible_agency": "Department of Public Works",
    "final_address": "1019 Opelousas Ave",
    "address_councildis": "C",
    "status": "Pending",
    "contractor": "Legacy Professional Services",
    "rowid": "1203962",
    "final_x": "3688631.01641",
    "final_y": "529013.955136",
    "longitude": "-90.04564213223962",
    "latitude": "29.94838647952265",
    "geocoded_column": {
      "latitude": "29.94838647952265",
      "longitude": "-90.04564213223962"
    }
  },
  {
    "service_request": "2025-1203961",
    "request_type": "Streetlights",
    "request_reason": "Streetlight Outage/Malfunction",
    "date_created": "2025-06-24T20:51:38.000",
    "date_modified": "2025-06-24T20:51:40.000",
    "request_status": "Pending",
    "responsible_agency": "Department of Public Works",
    "final_address": "6631 Avenue A",
    "address_councildis": "A",
    "status": "Pending",
    "contractor": "Legacy Professional Services",
    "rowid": "1203961",
    "final_x": "3666093.77965",
    "final_y": "552259.123094",
    "longitude": "-90.11602209125849",
    "latitude": "30.012980039010884",
    "geocoded_column": {
      "latitude": "30.012980039010884",
      "longitude": "-90.11602209125849"
    }
  },
  {
    "service_request": "2025-1203960",
    "request_type": "Trash/Recycling",
    "request_reason": "Order Second Trash Cart",
    "date_created": "2025-06-24T20:39:39.000",
    "date_modified": "2025-06-24T20:39:42.000",
    "request_status": "Pending",
    "responsible_agency": "Department of Sanitation",
    "final_address": "1638 Joseph St",
    "address_councildis": "A",
    "status": "Assigned to Contractor",
    "contractor": "IV Waste",
    "rowid": "1203960",
    "final_x": "3666789.06663",
    "final_y": "522231.527354",
    "longitude": "-90.11483422121826",
    "latitude": "29.9303938375578",
    "geocoded_column": {
      "latitude": "29.9303938375578",
      "longitude": "-90.11483422121826"
    }
  },
  {
    "service_request": "2025-1203959",
    "request_type": "Trash/Recycling",
    "request_reason": "Repair Trash Cart",
    "date_created": "2025-06-24T20:34:49.000",
    "date_modified": "2025-06-24T20:34:51.000",
    "request_status": "Pending",
    "responsible_agency": "Department of Sanitation",
    "final_address": "543 Atlantic Ave",
    "address_councildis": "C",
    "status": "Assigned to Contractor",
    "contractor": "Richards Disposal",
    "rowid": "1203959",
    "final_x": "3688753.09206",
    "final_y": "529519.154689",
    "longitude": "-90.04523875833343",
    "latitude": "29.949771832353736",
    "geocoded_column": {
      "latitude": "29.949771832353736",
      "longitude": "-90.04523875833343"
    }
  },
  {
    "service_request": "2025-1203958",
    "request_type": "Roads and Streets",
    "request_reason": "Abandoned Service Cut",
    "date_created": "2025-06-24T20:32:46.000",
    "date_modified": "2025-06-24T20:32:48.000",
    "request_status": "Pending",
    "responsible_agency": "Department of Public Works",
    "final_address": "900 BLK Harmony St",
    "address_councildis": "B",
    "status": "Pending",
    "rowid": "1203958",
    "final_x": "3676051.54681",
    "final_y": "519505.436171",
    "longitude": "-90.08568767533788",
    "latitude": "29.922623881734665",
    "geocoded_column": {
      "latitude": "29.922623881734665",
      "longitude": "-90.08568767533788"
    }
  },
  {
    "service_request": "2025-1203957",
    "request_type": "Trash/Recycling",
    "request_reason": "Request a Large Item Pick Up",
    "date_created": "2025-06-24T20:22:55.000",
    "date_modified": "2025-06-24T20:22:57.000",
    "request_status": "Pending",
    "responsible_agency": "Department of Sanitation",
    "final_address": "2110 Josephine St",
    "address_councildis": "B",
    "status": "Assigned to Contractor",
    "contractor": "IV Waste",
    "rowid": "1203957",
    "final_x": "3676667.30235",
    "final_y": "525513.277821",
    "longitude": "-90.0835371309745",
    "latitude": "29.93912503843695",
    "geocoded_column": {
      "latitude": "29.93912503843695",
      "longitude": "-90.0835371309745"
    }
  },
  {
    "service_request": "2025-1203956",
    "request_type": "Abandoned Vehicles",
    "request_reason": "Abandoned/Junk Vehicles",
    "date_created": "2025-06-24T20:09:40.000",
    "date_modified": "2025-06-24T20:09:41.000",
    "request_status": "Pending",
    "responsible_agency": "Department of Public Works",
    "final_address": "905 Esplanade Ave",
    "address_councildis": "C",
    "status": "Pending",
    "rowid": "1203956",
    "final_x": "3683467.54012",
    "final_y": "534964.76839",
    "longitude": "-90.06173683526774",
    "latitude": "29.964907730024606",
    "geocoded_column": {
      "latitude": "29.964907730024606",
      "longitude": "-90.06173683526774"
    }
  },
  {
    "service_request": "2025-1203955",
    "request_type": "Trash/Recycling",
    "request_reason": "Return Trash Cart",
    "date_created": "2025-06-24T20:05:25.000",
    "date_modified": "2025-06-24T20:05:27.000",
    "request_status": "Pending",
    "responsible_agency": "Department of Sanitation",
    "final_address": "7517 Zimple St",
    "address_councildis": "A",
    "status": "Assigned to Contractor",
    "contractor": "IV Waste",
    "rowid": "1203955",
    "final_x": "3663209.27725",
    "final_y": "526815.96659",
    "longitude": "-90.12598262502581",
    "latitude": "29.943103780543794",
    "geocoded_column": {
      "latitude": "29.943103780543794",
      "longitude": "-90.12598262502581"
    }
  },
  {
    "service_request": "2025-1203954",
    "request_type": "Property Maintenance",
    "request_reason": "Property Maintenance",
    "date_created": "2025-06-24T20:01:26.000",
    "date_modified": "2025-06-24T20:01:28.000",
    "request_status": "Pending",
    "responsible_agency": "Department of Code Enforcement",
    "final_address": "3402 Cherry St",
    "address_councildis": "A",
    "status": "Pending",
    "rowid": "1203954",
    "final_x": "3664127.92474",
    "final_y": "537106.422024",
    "longitude": "-90.12273895810745",
    "latitude": "29.97137253517573",
    "geocoded_column": {
      "latitude": "29.97137253517573",
      "longitude": "-90.12273895810745"
    }
  },
  {
    "service_request": "2025-1203953",
    "request_type": "Trash/Recycling",
    "request_reason": "Request a Large Item Pick Up",
    "date_created": "2025-06-24T19:27:42.000",
    "date_modified": "2025-06-24T19:27:44.000",
    "request_status": "Pending",
    "responsible_agency": "Department of Sanitation",
    "final_address": "636 Port St",
    "address_councildis": "C",
    "status": "Assigned to Contractor",
    "contractor": "IV Waste",
    "rowid": "1203953",
    "final_x": "3686999.96335",
    "final_y": "534843.201158",
    "longitude": "-90.05058598690007",
    "latitude": "29.964465200044334",
    "geocoded_column": {
      "latitude": "29.964465200044334",
      "longitude": "-90.05058598690007"
    }
  },
  {
    "service_request": "2025-1203952",
    "request_type": "Trash/Recycling",
    "request_reason": "Request a Large Item Pick Up",
    "date_created": "2025-06-24T19:19:50.000",
    "date_modified": "2025-06-24T19:19:52.000",
    "request_status": "Pending",
    "responsible_agency": "Department of Sanitation",
    "final_address": "5520 S Tonti St",
    "address_councildis": "A",
    "status": "Assigned to Contractor",
    "contractor": "IV Waste",
    "rowid": "1203952",
    "final_x": "3668232.66369",
    "final_y": "527989.001087",
    "longitude": "-90.1100829593664",
    "latitude": "29.9461827479449",
    "geocoded_column": {
      "latitude": "29.9461827479449",
      "longitude": "-90.1100829593664"
    }
  },
  {
    "service_request": "2025-1203951",
    "request_type": "Trash/Recycling",
    "request_reason": "Request a Large Item Pick Up",
    "date_created": "2025-06-24T19:15:58.000",
    "date_modified": "2025-06-24T19:16:15.000",
    "request_status": "Pending",
    "responsible_agency": "Department of Sanitation",
    "final_address": "6855 Tara Ln",
    "address_councildis": "E",
    "status": "Assigned to Contractor",
    "contractor": "Waste Pro",
    "rowid": "1203951",
    "final_x": "3707254.36753",
    "final_y": "559637.806685",
    "longitude": "-89.98570380597056",
    "latitude": "30.032001967477065",
    "geocoded_column": {
      "latitude": "30.032001967477065",
      "longitude": "-89.98570380597056"
    }
  },
  {
    "service_request": "2025-1203950",
    "request_type": "Abandoned Vehicles",
    "request_reason": "Abandoned/Junk Vehicles",
    "date_created": "2025-06-24T19:08:55.000",
    "date_modified": "2025-06-24T19:08:58.000",
    "request_status": "Pending",
    "responsible_agency": "Department of Public Works",
    "final_address": "2310 Seminole Ln",
    "address_councildis": "B",
    "status": "Pending",
    "rowid": "1203950",
    "final_x": "3673904.58964",
    "final_y": "528282.424",
    "longitude": "-90.09216466715381",
    "latitude": "29.946821850231483",
    "geocoded_column": {
      "latitude": "29.946821850231483",
      "longitude": "-90.09216466715381"
    }
  },
  {
    "service_request": "2025-1203949",
    "request_type": "Trash/Recycling",
    "request_reason": "Request a Large Item Pick Up",
    "date_created": "2025-06-24T18:58:57.000",
    "date_modified": "2025-06-24T18:58:59.000",
    "request_status": "Pending",
    "responsible_agency": "Department of Sanitation",
    "final_address": "4019 Camp St",
    "address_councildis": "B",
    "status": "Assigned to Contractor",
    "contractor": "IV Waste",
    "rowid": "1203949",
    "final_x": "3672317.34177",
    "final_y": "519328.154231",
    "longitude": "-90.09748112756186",
    "latitude": "29.922247686165274",
    "geocoded_column": {
      "latitude": "29.922247686165274",
      "longitude": "-90.09748112756186"
    }
  },
  {
    "service_request": "2025-1203948",
    "request_type": "General Services",
    "request_reason": "General Service Request",
    "date_created": "2025-06-24T18:55:07.000",
    "date_modified": "2025-06-24T18:55:09.000",
    "request_status": "Pending",
    "responsible_agency": "Orleans Parish Communication District",
    "final_address": "5130 Clara St",
    "address_councildis": "B",
    "status": "Pending",
    "rowid": "1203948",
    "final_x": "3668236.50772",
    "final_y": "524906.87878",
    "longitude": "-90.11017470218171",
    "latitude": "29.93770779445961",
    "geocoded_column": {
      "latitude": "29.93770779445961",
      "longitude": "-90.11017470218171"
    }
  },
  {
    "service_request": "2025-1203947",
    "request_type": "General Services",
    "request_reason": "General Service Request",
    "date_created": "2025-06-24T18:52:31.000",
    "date_modified": "2025-06-24T18:52:34.000",
    "request_status": "Pending",
    "responsible_agency": "Orleans Parish Communication District",
    "final_address": "5130 Clara St",
    "address_councildis": "B",
    "status": "Pending",
    "rowid": "1203947",
    "final_x": "3668236.50772",
    "final_y": "524906.87878",
    "longitude": "-90.11017470218171",
    "latitude": "29.93770779445961",
    "geocoded_column": {
      "latitude": "29.93770779445961",
      "longitude": "-90.11017470218171"
    }
  },
  {
    "service_request": "2025-1203946",
    "request_type": "Trash/Recycling",
    "request_reason": "Request a Large Item Pick Up",
    "date_created": "2025-06-24T18:38:50.000",
    "date_modified": "2025-06-24T18:38:52.000",
    "request_status": "Pending",
    "responsible_agency": "Department of Sanitation",
    "final_address": "2126 Amelia St",
    "address_councildis": "B",
    "status": "Assigned to Contractor",
    "contractor": "IV Waste",
    "rowid": "1203946",
    "final_x": "3672604.381",
    "final_y": "523122.238715",
    "longitude": "-90.09644578114124",
    "latitude": "29.932671683627404",
    "geocoded_column": {
      "latitude": "29.932671683627404",
      "longitude": "-90.09644578114124"
    }
  },
  {
    "service_request": "2025-1203945",
    "request_type": "Abandoned Vehicles",
    "request_reason": "Abandoned/Junk Vehicles",
    "date_created": "2025-06-24T18:29:36.000",
    "date_modified": "2025-06-24T18:29:38.000",
    "request_status": "Pending",
    "responsible_agency": "Department of Public Works",
    "final_address": "3601 Conti St",
    "address_councildis": "B",
    "status": "Pending",
    "rowid": "1203945",
    "final_x": "3673355.81339",
    "final_y": "538436.863433",
    "longitude": "-90.09355045873869",
    "latitude": "29.974759496447952",
    "geocoded_column": {
      "latitude": "29.974759496447952",
      "longitude": "-90.09355045873869"
    }
  },
  {
    "service_request": "2025-1203944",
    "request_type": "Trash/Recycling",
    "request_reason": "Replace Recycling Cart",
    "date_created": "2025-06-24T18:25:29.000",
    "date_modified": "2025-06-24T18:25:31.000",
    "request_status": "Pending",
    "responsible_agency": "Department of Sanitation",
    "final_address": "1033 Cambronne St",
    "address_councildis": "A",
    "status": "Pending",
    "rowid": "1203944",
    "final_x": "3660900.95424",
    "final_y": "528746.14848",
    "longitude": "-90.13320678438693",
    "latitude": "29.94847784242557",
    "geocoded_column": {
      "latitude": "29.94847784242557",
      "longitude": "-90.13320678438693"
    }
  },
  {
    "service_request": "2025-1203943",
    "request_type": "Mosquito, Termite & Rodent Control",
    "request_reason": "Mosquito Complaint",
    "date_created": "2025-06-24T18:08:35.000",
    "date_modified": "2025-06-24T18:08:37.000",
    "request_status": "Pending",
    "responsible_agency": "Mosquito, Termite & Rodent Control Board",
    "final_address": "1200 Marigny St",
    "address_councildis": "C",
    "status": "Pending",
    "rowid": "1203943",
    "final_x": "3685361.54799",
    "final_y": "536733.108423",
    "longitude": "-90.05569342125638",
    "latitude": "29.96971212137017",
    "geocoded_column": {
      "latitude": "29.96971212137017",
      "longitude": "-90.05569342125638"
    }
  },
  {
    "service_request": "2025-1203942",
    "request_type": "Trash/Recycling",
    "request_reason": "Repair Trash Cart",
    "date_created": "2025-06-24T18:04:20.000",
    "date_modified": "2025-06-24T18:04:23.000",
    "request_status": "Pending",
    "responsible_agency": "Department of Sanitation",
    "final_address": "7518 Oak St",
    "address_councildis": "A",
    "status": "Assigned to Contractor",
    "contractor": "IV Waste",
    "rowid": "1203942",
    "final_x": "3663386.32083",
    "final_y": "527039.44179",
    "longitude": "-90.12541621401822",
    "latitude": "29.943713135267256",
    "geocoded_column": {
      "latitude": "29.943713135267256",
      "longitude": "-90.12541621401822"
    }
  },
  {
    "service_request": "2025-1203941",
    "request_type": "Street and Traffic Signs",
    "request_reason": "Street Name Sign Damaged or Missing",
    "date_created": "2025-06-24T17:59:21.000",
    "date_modified": "2025-06-24T17:59:24.000",
    "request_status": "Pending",
    "responsible_agency": "Department of Public Works",
    "final_address": "ST JOSEPH ST & CARONDELET ST",
    "address_councildis": "B",
    "status": "Pending",
    "rowid": "1203941",
    "final_x": "3679861.5",
    "final_y": "527569.78",
    "longitude": "-90.07338126922039",
    "latitude": "29.944683550828994",
    "geocoded_column": {
      "latitude": "29.944683550828994",
      "longitude": "-90.07338126922039"
    }
  },
  {
    "service_request": "2025-1203940",
    "request_type": "Street and Traffic Signs",
    "request_reason": "Street Name Sign Damaged or Missing",
    "date_created": "2025-06-24T17:56:51.000",
    "date_modified": "2025-06-24T17:56:52.000",
    "request_status": "Pending",
    "responsible_agency": "Department of Public Works",
    "final_address": "ST JOSEPH ST & BARONNE ST",
    "address_councildis": "B",
    "status": "Pending",
    "rowid": "1203940",
    "final_x": "3679471.5",
    "final_y": "527663.18",
    "longitude": "-90.07460937584362",
    "latitude": "29.94495215558132",
    "geocoded_column": {
      "latitude": "29.94495215558132",
      "longitude": "-90.07460937584362"
    }
  },
  {
    "service_request": "2025-1203939",
    "request_type": "Traffic Signals",
    "request_reason": "Traffic Signal Malfunctioning or Damaged",
    "date_created": "2025-06-24T17:53:16.000",
    "date_modified": "2025-06-24T17:53:18.000",
    "request_status": "Pending",
    "responsible_agency": "Department of Public Works",
    "final_address": "JULIA ST & MAGAZINE ST",
    "address_councildis": "B",
    "status": "Pending",
    "rowid": "1203939",
    "final_x": "3681185.3",
    "final_y": "527834.78",
    "longitude": "-90.06919241020636",
    "latitude": "29.94537212062184",
    "geocoded_column": {
      "latitude": "29.94537212062184",
      "longitude": "-90.06919241020636"
    }
  },
  {
    "service_request": "2025-1203938",
    "request_type": "Street and Traffic Signs",
    "request_reason": "New Disabled Parking Sign Request ",
    "date_created": "2025-06-24T17:39:35.000",
    "date_modified": "2025-06-24T17:39:37.000",
    "request_status": "Pending",
    "responsible_agency": "Department of Public Works",
    "final_address": "2508 Bienville Ave",
    "address_councildis": "B",
    "status": "Pending",
    "rowid": "1203938",
    "final_x": "3676491.21934",
    "final_y": "535136.860166",
    "longitude": "-90.08376171354287",
    "latitude": "29.965591957860646",
    "geocoded_column": {
      "latitude": "29.965591957860646",
      "longitude": "-90.08376171354287"
    }
  },
  {
    "service_request": "2025-1203937",
    "request_type": "Property Maintenance",
    "request_reason": "Property Maintenance",
    "date_created": "2025-06-24T17:24:46.000",
    "date_modified": "2025-06-24T17:24:47.000",
    "request_status": "Pending",
    "responsible_agency": "Department of Code Enforcement",
    "final_address": "3333 General Meyer Ave",
    "address_councildis": "C",
    "status": "Pending",
    "rowid": "1203937",
    "final_x": "3696624.12797",
    "final_y": "525808.681853",
    "longitude": "-90.02052064852674",
    "latitude": "29.939323679603127",
    "geocoded_column": {
      "latitude": "29.939323679603127",
      "longitude": "-90.02052064852674"
    }
  },
  {
    "service_request": "2025-1203936",
    "request_type": "Trash/Recycling",
    "request_reason": "Request a Large Item Pick Up",
    "date_created": "2025-06-24T17:18:58.000",
    "date_modified": "2025-06-24T17:19:00.000",
    "request_status": "Pending",
    "responsible_agency": "Department of Sanitation",
    "final_address": "4433 Reynes St",
    "address_councildis": "E",
    "status": "Assigned to Contractor",
    "contractor": "Waste Pro",
    "rowid": "1203936",
    "final_x": "3699371.98416",
    "final_y": "553339.063127",
    "longitude": "-90.01084220468609",
    "latitude": "30.014935380277766",
    "geocoded_column": {
      "latitude": "30.014935380277766",
      "longitude": "-90.01084220468609"
    }
  },
  {
    "service_request": "2025-1203935",
    "request_type": "Trash/Recycling",
    "request_reason": "Request a Large Item Pick Up",
    "date_created": "2025-06-24T17:17:46.000",
    "date_modified": "2025-06-24T17:17:48.000",
    "request_status": "Pending",
    "responsible_agency": "Department of Sanitation",
    "final_address": "8 Yosemite Dr",
    "address_councildis": "C",
    "status": "Assigned to Contractor",
    "contractor": "Richards Disposal",
    "rowid": "1203935",
    "final_x": "3699487.83287",
    "final_y": "517836.860918",
    "longitude": "-90.01176989844953",
    "latitude": "29.917313389952753",
    "geocoded_column": {
      "latitude": "29.917313389952753",
      "longitude": "-90.01176989844953"
    }
  },
  {
    "service_request": "2025-1203934",
    "request_type": "Trash/Recycling",
    "request_reason": "Request a Large Item Pick Up",
    "date_created": "2025-06-24T17:11:37.000",
    "date_modified": "2025-06-24T17:11:39.000",
    "request_status": "Pending",
    "responsible_agency": "Department of Sanitation",
    "final_address": "1439 Alvar St",
    "address_councildis": "D",
    "status": "Assigned to Contractor",
    "contractor": "IV Waste",
    "rowid": "1203934",
    "final_x": "3691886.03574",
    "final_y": "536776.363336",
    "longitude": "-90.03508703561715",
    "latitude": "29.969629407737468",
    "geocoded_column": {
      "latitude": "29.969629407737468",
      "longitude": "-90.03508703561715"
    }
  },
  {
    "service_request": "2025-1203933",
    "request_type": "Drainage",
    "request_reason": "Catch Basin Clogged",
    "date_created": "2025-06-24T17:10:30.000",
    "date_modified": "2025-06-24T17:11:19.000",
    "request_status": "Pending",
    "responsible_agency": "Sewerage & Water Board",
    "final_address": "1243 St Roch Ave",
    "address_councildis": "C",
    "status": "Pending",
    "rowid": "1203933",
    "final_x": "3686532.02748",
    "final_y": "537139.83252",
    "longitude": "-90.05198258645376",
    "latitude": "29.970794532641694",
    "geocoded_column": {
      "latitude": "29.970794532641694",
      "longitude": "-90.05198258645376"
    }
  },
  {
    "service_request": "2025-1203932",
    "request_type": "Drainage",
    "request_reason": "Catch Basin Clogged",
    "date_created": "2025-06-24T16:59:40.000",
    "date_modified": "2025-06-24T16:59:43.000",
    "request_status": "Pending",
    "responsible_agency": "Sewerage & Water Board",
    "final_address": "1243 Elysian Fields Ave",
    "address_councildis": "C",
    "status": "Pending",
    "rowid": "1203932",
    "final_x": "3685067.52124",
    "final_y": "537016.972296",
    "longitude": "-90.05661199383424",
    "latitude": "29.970501659687564",
    "geocoded_column": {
      "latitude": "29.970501659687564",
      "longitude": "-90.05661199383424"
    }
  },
  {
    "service_request": "2025-1203931",
    "request_type": "Trash/Recycling",
    "request_reason": "Order Recycling Cart",
    "date_created": "2025-06-24T16:58:20.000",
    "date_modified": "2025-06-24T16:58:22.000",
    "request_status": "Pending",
    "responsible_agency": "Department of Sanitation",
    "final_address": "3518 Annunciation St",
    "address_councildis": "B",
    "status": "Pending",
    "rowid": "1203931",
    "final_x": "3674674.16891",
    "final_y": "518265.183862",
    "longitude": "-90.0900779907466",
    "latitude": "29.91925475215809",
    "geocoded_column": {
      "latitude": "29.91925475215809",
      "longitude": "-90.0900779907466"
    }
  },
  {
    "service_request": "2025-1203930",
    "request_type": "Roads and Streets",
    "request_reason": "Pothole",
    "date_created": "2025-06-24T16:56:55.000",
    "date_modified": "2025-06-24T16:56:56.000",
    "request_status": "Pending",
    "responsible_agency": "Department of Public Works",
    "final_address": "2601 Sage St",
    "address_councildis": "D",
    "status": "Pending",
    "rowid": "1203930",
    "final_x": "3687307.22159",
    "final_y": "545527.10376",
    "longitude": "-90.04923759319512",
    "latitude": "29.993832695932035",
    "geocoded_column": {
      "latitude": "29.993832695932035",
      "longitude": "-90.04923759319512"
    }
  },
  {
    "service_request": "2025-1203929",
    "request_type": "Trash/Recycling",
    "request_reason": "Order Trash Cart",
    "date_created": "2025-06-24T16:56:54.000",
    "date_modified": "2025-06-24T16:56:56.000",
    "request_status": "Pending",
    "responsible_agency": "Department of Sanitation",
    "final_address": "3518 Annunciation St",
    "address_councildis": "B",
    "status": "Assigned to Contractor",
    "contractor": "IV Waste",
    "rowid": "1203929",
    "final_x": "3674674.16891",
    "final_y": "518265.183862",
    "longitude": "-90.0900779907466",
    "latitude": "29.91925475215809",
    "geocoded_column": {
      "latitude": "29.91925475215809",
      "longitude": "-90.0900779907466"
    }
  },
  {
    "service_request": "2025-1203928",
    "request_type": "Abandoned Vehicles",
    "request_reason": "Abandoned/Junk Vehicles",
    "date_created": "2025-06-24T16:54:02.000",
    "date_modified": "2025-06-24T16:55:05.000",
    "request_status": "Pending",
    "responsible_agency": "Department of Public Works",
    "final_address": "2732 Orleans Ave",
    "address_councildis": "A",
    "status": "Pending",
    "rowid": "1203928",
    "final_x": "3676500.63144",
    "final_y": "537151.506952",
    "longitude": "-90.08366260366392",
    "latitude": "29.971131269461566",
    "geocoded_column": {
      "latitude": "29.971131269461566",
      "longitude": "-90.08366260366392"
    }
  },
  {
    "service_request": "2025-1203927",
    "request_type": "Roads and Streets",
    "request_reason": "Pothole",
    "date_created": "2025-06-24T16:53:17.000",
    "date_modified": "2025-06-24T16:54:20.000",
    "request_status": "Pending",
    "responsible_agency": "Department of Public Works",
    "final_address": "FRANKLIN AVE & ELDER ST",
    "address_councildis": "D",
    "status": "Pending",
    "rowid": "1203927",
    "final_x": "3687156.3",
    "final_y": "545768.88",
    "longitude": "-90.0497057754717",
    "latitude": "29.994502143375684",
    "geocoded_column": {
      "latitude": "29.994502143375684",
      "longitude": "-90.0497057754717"
    }
  },
  {
    "service_request": "2025-1203926",
    "request_type": "Utility Poles",
    "request_reason": "Utility Pole Leaning",
    "date_created": "2025-06-24T16:47:43.000",
    "date_modified": "2025-06-24T16:47:46.000",
    "request_status": "Pending",
    "responsible_agency": "Utility Company Collective",
    "final_address": "3538 Franklin Ave",
    "address_councildis": "D",
    "status": "Pending",
    "rowid": "1203926",
    "final_x": "3687099.52079",
    "final_y": "546005.878032",
    "longitude": "-90.04987674784888",
    "latitude": "29.99515555159787",
    "geocoded_column": {
      "latitude": "29.99515555159787",
      "longitude": "-90.04987674784888"
    }
  },
  {
    "service_request": "2025-1203924",
    "request_type": "Trash/Recycling",
    "request_reason": "Request a Large Item Pick Up",
    "date_created": "2025-06-24T16:33:30.000",
    "date_modified": "2025-06-24T16:33:31.000",
    "request_status": "Pending",
    "responsible_agency": "Department of Sanitation",
    "final_address": "4758 Read Blvd",
    "address_councildis": "E",
    "status": "Assigned to Contractor",
    "contractor": "Waste Pro",
    "rowid": "1203924",
    "final_x": "3712653.13093",
    "final_y": "556314.855258",
    "longitude": "-89.96876860729782",
    "latitude": "30.02268947370376",
    "geocoded_column": {
      "latitude": "30.02268947370376",
      "longitude": "-89.96876860729782"
    }
  },
  {
    "service_request": "2025-1203923",
    "request_type": "Trash/Recycling",
    "request_reason": "Request a Large Item Pick Up",
    "date_created": "2025-06-24T16:32:38.000",
    "date_modified": "2025-06-24T16:32:40.000",
    "request_status": "Pending",
    "responsible_agency": "Department of Sanitation",
    "final_address": "8015 Cohn St",
    "address_councildis": "A",
    "status": "Assigned to Contractor",
    "contractor": "IV Waste",
    "rowid": "1203923",
    "final_x": "3663920.34247",
    "final_y": "529973.465601",
    "longitude": "-90.12363235952456",
    "latitude": "29.951765266580164",
    "geocoded_column": {
      "latitude": "29.951765266580164",
      "longitude": "-90.12363235952456"
    }
  },
  {
    "service_request": "2025-1203922",
    "request_type": "Trash/Recycling",
    "request_reason": "Request a Large Item Pick Up",
    "date_created": "2025-06-24T16:28:58.000",
    "date_modified": "2025-06-24T16:28:59.000",
    "request_status": "Pending",
    "responsible_agency": "Department of Sanitation",
    "final_address": "4712 Lonely Oak Dr",
    "address_councildis": "E",
    "status": "Assigned to Contractor",
    "contractor": "Waste Pro",
    "rowid": "1203922",
    "final_x": "3702280.83991",
    "final_y": "554140.39932",
    "longitude": "-90.00162225244308",
    "latitude": "30.01704611466784",
    "geocoded_column": {
      "latitude": "30.01704611466784",
      "longitude": "-90.00162225244308"
    }
  },
  {
    "service_request": "2025-1203921",
    "request_type": "Trash/Recycling",
    "request_reason": "Request a Large Item Pick Up",
    "date_created": "2025-06-24T16:27:57.000",
    "date_modified": "2025-06-24T16:27:58.000",
    "request_status": "Pending",
    "responsible_agency": "Department of Sanitation",
    "final_address": "4736 Bright Dr",
    "address_councildis": "E",
    "status": "Assigned to Contractor",
    "contractor": "Waste Pro",
    "rowid": "1203921",
    "final_x": "3715809.59109",
    "final_y": "556952.34089",
    "longitude": "-89.95877087925382",
    "latitude": "30.024338570428238",
    "geocoded_column": {
      "latitude": "30.024338570428238",
      "longitude": "-89.95877087925382"
    }
  },
  {
    "service_request": "2025-1203920",
    "request_type": "Roads and Streets",
    "request_reason": "Street Subsidence (Sinking)",
    "date_created": "2025-06-24T16:27:44.000",
    "date_modified": "2025-06-24T16:27:46.000",
    "request_status": "Pending",
    "responsible_agency": "Department of Public Works",
    "final_address": "824 Upperline St",
    "address_councildis": "B",
    "status": "Pending",
    "rowid": "1203920",
    "final_x": "3668919.63162",
    "final_y": "518420.884534",
    "longitude": "-90.10823695216607",
    "latitude": "29.919853309166506",
    "geocoded_column": {
      "latitude": "29.919853309166506",
      "longitude": "-90.10823695216607"
    }
  },
  {
    "service_request": "2025-1203919",
    "request_type": "Trash/Recycling",
    "request_reason": "Request a Large Item Pick Up",
    "date_created": "2025-06-24T16:27:27.000",
    "date_modified": "2025-06-24T16:27:29.000",
    "request_status": "Pending",
    "responsible_agency": "Department of Sanitation",
    "final_address": "1026 Brooklyn Ave",
    "address_councildis": "C",
    "status": "Assigned to Contractor",
    "contractor": "Richards Disposal",
    "rowid": "1203919",
    "final_x": "3686245.9663",
    "final_y": "527641.660863",
    "longitude": "-90.0532211153962",
    "latitude": "29.944686620431273",
    "geocoded_column": {
      "latitude": "29.944686620431273",
      "longitude": "-90.0532211153962"
    }
  },
  {
    "service_request": "2025-1203918",
    "request_type": "Streetlights",
    "request_reason": "Streetlight Knocked Down/Leaning",
    "date_created": "2025-06-24T16:24:58.000",
    "date_modified": "2025-06-24T16:31:55.000",
    "request_status": "Pending",
    "responsible_agency": "Department of Public Works",
    "final_address": "1002 Esplanade Ave",
    "address_councildis": "C",
    "status": "Pending",
    "contractor": "Legacy Professional Services",
    "rowid": "1203918",
    "final_x": "3683114.62044",
    "final_y": "535046.962694",
    "longitude": "-90.06284845432025",
    "latitude": "29.965144500463946",
    "geocoded_column": {
      "latitude": "29.965144500463946",
      "longitude": "-90.06284845432025"
    }
  },
  {
    "service_request": "2025-1203917",
    "request_type": "Trash/Recycling",
    "request_reason": "Request a Large Item Pick Up",
    "date_created": "2025-06-24T16:24:33.000",
    "date_modified": "2025-06-24T16:24:34.000",
    "request_status": "Pending",
    "responsible_agency": "Department of Sanitation",
    "final_address": "4526 St Ann St",
    "address_councildis": "A",
    "status": "Assigned to Contractor",
    "contractor": "IV Waste",
    "rowid": "1203917",
    "final_x": "3671094.8114",
    "final_y": "541582.4651",
    "longitude": "-90.10058440341498",
    "latitude": "29.983475905309707",
    "geocoded_column": {
      "latitude": "29.983475905309707",
      "longitude": "-90.10058440341498"
    }
  },
  {
    "service_request": "2025-1203916",
    "request_type": "Streetlights",
    "request_reason": "Streetlight Outage/Malfunction",
    "date_created": "2025-06-24T16:24:10.000",
    "date_modified": "2025-06-24T16:31:27.000",
    "request_status": "Pending",
    "responsible_agency": "Department of Public Works",
    "final_address": "932 Esplanade Ave",
    "address_councildis": "C",
    "status": "Pending",
    "contractor": "Legacy Professional Services",
    "rowid": "1203916",
    "final_x": "3683221.22671",
    "final_y": "534954.574854",
    "longitude": "-90.06251503374615",
    "latitude": "29.964887215099008",
    "geocoded_column": {
      "latitude": "29.964887215099008",
      "longitude": "-90.06251503374615"
    }
  },
  {
    "service_request": "2025-1203915",
    "request_type": "Streetlights",
    "request_reason": "Streetlight Outage/Malfunction",
    "date_created": "2025-06-24T16:23:43.000",
    "date_modified": "2025-06-24T16:31:41.000",
    "request_status": "Pending",
    "responsible_agency": "Department of Public Works",
    "final_address": "908 Esplanade Ave",
    "address_councildis": "C",
    "status": "Pending",
    "contractor": "Legacy Professional Services",
    "rowid": "1203915",
    "final_x": "3683358.16412",
    "final_y": "534874.42343",
    "longitude": "-90.06208540271875",
    "latitude": "29.964662649566865",
    "geocoded_column": {
      "latitude": "29.964662649566865",
      "longitude": "-90.06208540271875"
    }
  },
  {
    "service_request": "2025-1203914",
    "request_type": "Streetlights",
    "request_reason": "Streetlight Outage/Malfunction",
    "date_created": "2025-06-24T16:23:03.000",
    "date_modified": "2025-06-24T16:32:06.000",
    "request_status": "Pending",
    "responsible_agency": "Department of Public Works",
    "final_address": "714 Esplanade Ave",
    "address_councildis": "C",
    "status": "Pending",
    "contractor": "Legacy Professional Services",
    "rowid": "1203914",
    "final_x": "3683904.33954",
    "final_y": "534443.186565",
    "longitude": "-90.06037575037037",
    "latitude": "29.963460223798265",
    "geocoded_column": {
      "latitude": "29.963460223798265",
      "longitude": "-90.06037575037037"
    }
  },
  {
    "service_request": "2025-1203913",
    "request_type": "Streetlights",
    "request_reason": "Streetlight Outage/Malfunction",
    "date_created": "2025-06-24T16:22:01.000",
    "date_modified": "2025-06-24T16:32:19.000",
    "request_status": "Pending",
    "responsible_agency": "Department of Public Works",
    "final_address": "617 Ursulines Ave",
    "address_councildis": "C",
    "status": "Pending",
    "contractor": "Legacy Professional Services",
    "rowid": "1203913",
    "final_x": "3683612.90972",
    "final_y": "533534.281157",
    "longitude": "-90.0613279155676",
    "latitude": "29.960969945178192",
    "geocoded_column": {
      "latitude": "29.960969945178192",
      "longitude": "-90.0613279155676"
    }
  },
  {
    "service_request": "2025-1203912",
    "request_type": "Trash/Recycling",
    "request_reason": "Request a Large Item Pick Up",
    "date_created": "2025-06-24T16:21:13.000",
    "date_modified": "2025-06-24T16:21:16.000",
    "request_status": "Pending",
    "responsible_agency": "Department of Sanitation",
    "final_address": "4826 Bright Dr",
    "address_councildis": "E",
    "status": "Assigned to Contractor",
    "contractor": "Waste Pro",
    "rowid": "1203912",
    "final_x": "3715777.774",
    "final_y": "557247.916379",
    "longitude": "-89.95886021117973",
    "latitude": "30.02515233494646",
    "geocoded_column": {
      "latitude": "30.02515233494646",
      "longitude": "-89.95886021117973"
    }
  },
  {
    "service_request": "2025-1203911",
    "request_type": "Trash/Recycling",
    "request_reason": "Repair Trash Cart",
    "date_created": "2025-06-24T16:19:31.000",
    "date_modified": "2025-06-24T16:19:33.000",
    "request_status": "Pending",
    "responsible_agency": "Department of Sanitation",
    "final_address": "5507 Wildair Dr",
    "address_councildis": "D",
    "status": "Assigned to Contractor",
    "contractor": "IV Waste",
    "rowid": "1203911",
    "final_x": "3681659.87823",
    "final_y": "553093.441047",
    "longitude": "-90.06681252724952",
    "latitude": "30.01481021655733",
    "geocoded_column": {
      "latitude": "30.01481021655733",
      "longitude": "-90.06681252724952"
    }
  },
  {
    "service_request": "2025-1203910",
    "request_type": "Trash/Recycling",
    "request_reason": "Request a Large Item Pick Up",
    "date_created": "2025-06-24T16:14:53.000",
    "date_modified": "2025-06-24T16:14:55.000",
    "request_status": "Pending",
    "responsible_agency": "Department of Sanitation",
    "final_address": "2215 Baronne St",
    "address_councildis": "B",
    "status": "Assigned to Contractor",
    "contractor": "IV Waste",
    "rowid": "1203910",
    "final_x": "3676863.87387",
    "final_y": "524438.52998",
    "longitude": "-90.08295355703329",
    "latitude": "29.93616393804509",
    "geocoded_column": {
      "latitude": "29.93616393804509",
      "longitude": "-90.08295355703329"
    }
  },
  {
    "service_request": "2025-1203909",
    "request_type": "Trash/Recycling",
    "request_reason": "Request a Large Item Pick Up",
    "date_created": "2025-06-24T16:08:28.000",
    "date_modified": "2025-06-24T16:08:29.000",
    "request_status": "Pending",
    "responsible_agency": "Department of Sanitation",
    "final_address": "8512 Gervais St",
    "address_councildis": "E",
    "status": "Assigned to Contractor",
    "contractor": "Waste Pro",
    "rowid": "1203909",
    "final_x": "3703718.08414",
    "final_y": "562581.2072",
    "longitude": "-89.99677010198904",
    "latitude": "30.040209049342963",
    "geocoded_column": {
      "latitude": "30.040209049342963",
      "longitude": "-89.99677010198904"
    }
  },
  {
    "service_request": "2025-1203908",
    "request_type": "Trash/Recycling",
    "request_reason": "Replace Trash Cart",
    "date_created": "2025-06-24T16:08:21.000",
    "date_modified": "2025-06-24T16:08:23.000",
    "request_status": "Pending",
    "responsible_agency": "Department of Sanitation",
    "final_address": "620 Clouet St",
    "address_councildis": "C",
    "status": "Assigned to Contractor",
    "contractor": "IV Waste",
    "rowid": "1203908",
    "final_x": "3688549.29628",
    "final_y": "534334.273349",
    "longitude": "-90.04571138581942",
    "latitude": "29.963018043413676",
    "geocoded_column": {
      "latitude": "29.963018043413676",
      "longitude": "-90.04571138581942"
    }
  },
  {
    "service_request": "2025-1203907",
    "request_type": "Trash/Recycling",
    "request_reason": "Replace Trash Cart",
    "date_created": "2025-06-24T16:07:36.000",
    "date_modified": "2025-06-24T16:07:38.000",
    "request_status": "Pending",
    "responsible_agency": "Department of Sanitation",
    "final_address": "8512 Gervais St",
    "address_councildis": "E",
    "status": "Assigned to Contractor",
    "contractor": "Waste Pro",
    "rowid": "1203907",
    "final_x": "3703718.08414",
    "final_y": "562581.2072",
    "longitude": "-89.99677010198904",
    "latitude": "30.040209049342963",
    "geocoded_column": {
      "latitude": "30.040209049342963",
      "longitude": "-89.99677010198904"
    }
  },
  {
    "service_request": "2025-1203906",
    "request_type": "Trash/Recycling",
    "request_reason": "Request a Large Item Pick Up",
    "date_created": "2025-06-24T16:06:27.000",
    "date_modified": "2025-06-24T16:06:29.000",
    "request_status": "Pending",
    "responsible_agency": "Department of Sanitation",
    "final_address": "4921 Magazine St",
    "address_councildis": "B",
    "status": "Assigned to Contractor",
    "contractor": "IV Waste",
    "rowid": "1203906",
    "final_x": "3668766.40116",
    "final_y": "518636.551927",
    "longitude": "-90.1087133519275",
    "latitude": "29.92045083032233",
    "geocoded_column": {
      "latitude": "29.92045083032233",
      "longitude": "-90.1087133519275"
    }
  },
  {
    "service_request": "2025-1203905",
    "request_type": "Trash/Recycling",
    "request_reason": "Request a Large Item Pick Up",
    "date_created": "2025-06-24T16:03:39.000",
    "date_modified": "2025-06-24T16:03:40.000",
    "request_status": "Pending",
    "responsible_agency": "Department of Sanitation",
    "final_address": "508 Red Allen Way",
    "address_councildis": "C",
    "status": "Assigned to Contractor",
    "contractor": "Richards Disposal",
    "rowid": "1203905",
    "final_x": "3686986.2031",
    "final_y": "528763.161344",
    "longitude": "-90.05084434101137",
    "latitude": "29.947747605330626",
    "geocoded_column": {
      "latitude": "29.947747605330626",
      "longitude": "-90.05084434101137"
    }
  },
  {
    "service_request": "2025-1203904",
    "request_type": "Trash/Recycling",
    "request_reason": "Request a Large Item Pick Up",
    "date_created": "2025-06-24T16:03:06.000",
    "date_modified": "2025-06-24T16:03:07.000",
    "request_status": "Pending",
    "responsible_agency": "Department of Sanitation",
    "final_address": "7500 W Sandy Cove Dr",
    "address_councildis": "E",
    "status": "Assigned to Contractor",
    "contractor": "Waste Pro",
    "rowid": "1203904",
    "final_x": "3715404.32338",
    "final_y": "569075.507558",
    "longitude": "-89.95959217859712",
    "latitude": "30.05768573522256",
    "geocoded_column": {
      "latitude": "30.05768573522256",
      "longitude": "-89.95959217859712"
    }
  },
  {
    "service_request": "2025-1203903",
    "request_type": "Utility Poles",
    "request_reason": "Utility Pole Leaning",
    "date_created": "2025-06-24T15:59:03.000",
    "date_modified": "2025-06-24T15:59:06.000",
    "request_status": "Pending",
    "responsible_agency": "Utility Company Collective",
    "final_address": "386 Bellaire Dr",
    "address_councildis": "A",
    "status": "Pending",
    "rowid": "1203903",
    "final_x": "3663874.82624",
    "final_y": "542174.074381",
    "longitude": "-90.12336928251797",
    "latitude": "29.985314238622134",
    "geocoded_column": {
      "latitude": "29.985314238622134",
      "longitude": "-90.12336928251797"
    }
  },
  {
    "service_request": "2025-1203902",
    "request_type": "Trash/Recycling",
    "request_reason": "Request a Large Item Pick Up",
    "date_created": "2025-06-24T15:57:05.000",
    "date_modified": "2025-06-24T15:57:08.000",
    "request_status": "Pending",
    "responsible_agency": "Department of Sanitation",
    "final_address": "4724 Crowder Blvd",
    "address_councildis": "E",
    "status": "Assigned to Contractor",
    "contractor": "Waste Pro",
    "rowid": "1203902",
    "final_x": "3706335.09406",
    "final_y": "555549.775961",
    "longitude": "-89.98876033236083",
    "latitude": "30.02079117251032",
    "geocoded_column": {
      "latitude": "30.02079117251032",
      "longitude": "-89.98876033236083"
    }
  },
  {
    "service_request": "2025-1203901",
    "request_type": "Street and Traffic Signs",
    "request_reason": "Stop Sign Missing or Damaged",
    "date_created": "2025-06-24T15:53:57.000",
    "date_modified": "2025-06-24T15:53:58.000",
    "request_status": "Pending",
    "responsible_agency": "Department of Public Works",
    "final_address": "WHITE OAK AVE & TALL OAKS DR",
    "address_councildis": "C",
    "status": "Pending",
    "rowid": "1203901",
    "final_x": "3703929.6",
    "final_y": "514130.78",
    "longitude": "-89.9978862060228",
    "latitude": "29.90698132554278",
    "geocoded_column": {
      "latitude": "29.90698132554278",
      "longitude": "-89.9978862060228"
    }
  },
  {
    "service_request": "2025-1203900",
    "request_type": "Streetlights",
    "request_reason": "Streetlight Outage/Malfunction",
    "date_created": "2025-06-24T15:52:34.000",
    "date_modified": "2025-06-24T15:52:36.000",
    "request_status": "Pending",
    "responsible_agency": "Department of Public Works",
    "final_address": "3641 White Oak Ave",
    "address_councildis": "C",
    "status": "Pending",
    "contractor": "Legacy Professional Services",
    "rowid": "1203900",
    "final_x": "3703721.70974",
    "final_y": "514182.602738",
    "longitude": "-89.99854041933769",
    "latitude": "29.90713048098672",
    "geocoded_column": {
      "latitude": "29.90713048098672",
      "longitude": "-89.99854041933769"
    }
  },
  {
    "service_request": "2025-1203899",
    "request_type": "Trash/Recycling",
    "request_reason": "Repair Trash Cart",
    "date_created": "2025-06-24T15:52:24.000",
    "date_modified": "2025-06-24T18:21:18.000",
    "case_close_date": "2025-06-24T13:21:17.000",
    "request_status": "Closed",
    "responsible_agency": "Department of Sanitation",
    "final_address": "7566 Lehigh St",
    "address_councildis": "E",
    "status": "Duplicate Request",
    "contractor": "Waste Pro",
    "contractor_action": "Duplicate",
    "rowid": "1203899",
    "final_x": "3710664.75582",
    "final_y": "565405.84861",
    "longitude": "-89.97471075160608",
    "latitude": "30.047751049365516",
    "geocoded_column": {
      "latitude": "30.047751049365516",
      "longitude": "-89.97471075160608"
    }
  },
  {
    "service_request": "2025-1203898",
    "request_type": "Trash/Recycling",
    "request_reason": "Illegal Dumping",
    "date_created": "2025-06-24T15:52:22.000",
    "date_modified": "2025-06-24T15:52:23.000",
    "request_status": "Pending",
    "responsible_agency": "Department of Sanitation",
    "final_address": "8300 Palm St",
    "address_councildis": "A",
    "status": "Pending",
    "rowid": "1203898",
    "final_x": "3667122.51457",
    "final_y": "535170.215814",
    "longitude": "-90.11334668809636",
    "latitude": "29.965961277503347",
    "geocoded_column": {
      "latitude": "29.965961277503347",
      "longitude": "-90.11334668809636"
    }
  },
  {
    "service_request": "2025-1203897",
    "request_type": "Trash/Recycling",
    "request_reason": "Request a Large Item Pick Up",
    "date_created": "2025-06-24T15:50:12.000",
    "date_modified": "2025-06-24T15:50:14.000",
    "request_status": "Pending",
    "responsible_agency": "Department of Sanitation",
    "final_address": "1729 Lesseps St",
    "address_councildis": "D",
    "status": "Assigned to Contractor",
    "contractor": "IV Waste",
    "rowid": "1203897",
    "final_x": "3693354.83702",
    "final_y": "537571.771016",
    "longitude": "-90.03041989030996",
    "latitude": "29.9717706559581",
    "geocoded_column": {
      "latitude": "29.9717706559581",
      "longitude": "-90.03041989030996"
    }
  },
  {
    "service_request": "2025-1203896",
    "request_type": "Property Maintenance",
    "request_reason": "Property Maintenance",
    "date_created": "2025-06-24T15:50:07.000",
    "date_modified": "2025-06-24T15:50:08.000",
    "request_status": "Pending",
    "responsible_agency": "Department of Code Enforcement",
    "final_address": "8300 Palm St",
    "address_councildis": "A",
    "status": "Pending",
    "rowid": "1203896",
    "final_x": "3667122.51457",
    "final_y": "535170.215814",
    "longitude": "-90.11334668809636",
    "latitude": "29.965961277503347",
    "geocoded_column": {
      "latitude": "29.965961277503347",
      "longitude": "-90.11334668809636"
    }
  },
  {
    "service_request": "2025-1203895",
    "request_type": "Trash/Recycling",
    "request_reason": "Replace Trash Cart",
    "date_created": "2025-06-24T15:46:44.000",
    "date_modified": "2025-06-24T15:47:02.000",
    "request_status": "Pending",
    "responsible_agency": "Department of Sanitation",
    "final_address": "7566 Lehigh St",
    "address_councildis": "E",
    "status": "Assigned to Contractor",
    "contractor": "Waste Pro",
    "rowid": "1203895",
    "final_x": "3710664.75582",
    "final_y": "565405.84861",
    "longitude": "-89.97471075160608",
    "latitude": "30.047751049365516",
    "geocoded_column": {
      "latitude": "30.047751049365516",
      "longitude": "-89.97471075160608"
    }
  },
  {
    "service_request": "2025-1203894",
    "request_type": "Street and Traffic Signs",
    "request_reason": "Additional Signage Request",
    "date_created": "2025-06-24T15:45:57.000",
    "date_modified": "2025-06-24T15:45:58.000",
    "request_status": "Pending",
    "responsible_agency": "Department of Public Works",
    "final_address": "5816 Bellaire Dr",
    "address_councildis": "A",
    "status": "Pending",
    "rowid": "1203894",
    "final_x": "3664147.12218",
    "final_y": "546744.632209",
    "longitude": "-90.12235663750891",
    "latitude": "29.997873813070946",
    "geocoded_column": {
      "latitude": "29.997873813070946",
      "longitude": "-90.12235663750891"
    }
  },
  {
    "service_request": "2025-1203893",
    "request_type": "Trash/Recycling",
    "request_reason": "Repair Recycling Cart",
    "date_created": "2025-06-24T15:41:09.000",
    "date_modified": "2025-06-24T15:41:10.000",
    "request_status": "Pending",
    "responsible_agency": "Department of Sanitation",
    "final_address": "2515 Milan St",
    "address_councildis": "B",
    "status": "Pending",
    "rowid": "1203893",
    "final_x": "3671317.80635",
    "final_y": "524250.24582",
    "longitude": "-90.10046908645111",
    "latitude": "29.93581146401201",
    "geocoded_column": {
      "latitude": "29.93581146401201",
      "longitude": "-90.10046908645111"
    }
  },
  {
    "service_request": "2025-1203892",
    "request_type": "Trash/Recycling",
    "request_reason": "Request a Large Item Pick Up",
    "date_created": "2025-06-24T15:40:06.000",
    "date_modified": "2025-06-24T15:40:08.000",
    "request_status": "Pending",
    "responsible_agency": "Department of Sanitation",
    "final_address": "5313 Zeno Pl",
    "address_councildis": "E",
    "status": "Assigned to Contractor",
    "contractor": "Waste Pro",
    "rowid": "1203892",
    "final_x": "3718340.7278",
    "final_y": "561576.304671",
    "longitude": "-89.95059672789853",
    "latitude": "30.036968877612576",
    "geocoded_column": {
      "latitude": "30.036968877612576",
      "longitude": "-89.95059672789853"
    }
  },
  {
    "service_request": "2025-1203891",
    "request_type": "Streetlights",
    "request_reason": "Streetlight Outage/Malfunction",
    "date_created": "2025-06-24T15:38:46.000",
    "date_modified": "2025-06-24T15:39:39.000",
    "request_status": "Pending",
    "responsible_agency": "Department of Public Works",
    "final_address": "5856 Vicksburg St",
    "address_councildis": "A",
    "status": "Pending",
    "contractor": "Legacy Professional Services",
    "rowid": "1203891",
    "final_x": "3668698.24634",
    "final_y": "546392.135568",
    "longitude": "-90.10799158380502",
    "latitude": "29.99677153030094",
    "geocoded_column": {
      "latitude": "29.99677153030094",
      "longitude": "-90.10799158380502"
    }
  },
  {
    "service_request": "2025-1203890",
    "request_type": "Trash/Recycling",
    "request_reason": "Request a Large Item Pick Up",
    "date_created": "2025-06-24T15:37:18.000",
    "date_modified": "2025-06-24T15:37:20.000",
    "request_status": "Pending",
    "responsible_agency": "Department of Sanitation",
    "final_address": "1831 Frenchmen St",
    "address_councildis": "D",
    "status": "Assigned to Contractor",
    "contractor": "IV Waste",
    "rowid": "1203890",
    "final_x": "3684401.18159",
    "final_y": "539120.86337",
    "longitude": "-90.05864245274189",
    "latitude": "29.976307024900024",
    "geocoded_column": {
      "latitude": "29.976307024900024",
      "longitude": "-90.05864245274189"
    }
  },
  {
    "service_request": "2025-1203889",
    "request_type": "Traffic Signals",
    "request_reason": "Traffic Signal Malfunctioning or Damaged",
    "date_created": "2025-06-24T15:35:30.000",
    "date_modified": "2025-06-24T15:35:32.000",
    "request_status": "Pending",
    "responsible_agency": "Department of Public Works",
    "final_address": "CARONDELET ST & LOUISIANA AVE",
    "address_councildis": "B",
    "status": "Pending",
    "rowid": "1203889",
    "final_x": "3674077.1",
    "final_y": "521922.48",
    "longitude": "-90.09183755827232",
    "latitude": "29.929328940838708",
    "geocoded_column": {
      "latitude": "29.929328940838708",
      "longitude": "-90.09183755827232"
    }
  },
  {
    "service_request": "2025-1203888",
    "request_type": "Drainage",
    "request_reason": "Catch Basin Clogged",
    "date_created": "2025-06-24T15:30:35.000",
    "date_modified": "2025-06-24T15:30:36.000",
    "request_status": "Pending",
    "responsible_agency": "Sewerage & Water Board",
    "final_address": "1836 St Bernard Ave",
    "address_councildis": "D",
    "status": "Pending",
    "rowid": "1203888",
    "final_x": "3681623.71074",
    "final_y": "538747.623305",
    "longitude": "-90.06742755165772",
    "latitude": "29.97536541073931",
    "geocoded_column": {
      "latitude": "29.97536541073931",
      "longitude": "-90.06742755165772"
    }
  },
  {
    "service_request": "2025-1203887",
    "request_type": "Safety & Permits",
    "request_reason": "Zoning Enforcement",
    "date_created": "2025-06-24T15:25:39.000",
    "date_modified": "2025-06-24T15:25:41.000",
    "request_status": "Pending",
    "responsible_agency": "Safety and Permits",
    "final_address": "ROYAL ST & FORSTALL ST",
    "address_councildis": "E",
    "status": "Pending",
    "rowid": "1203887",
    "final_x": "3695827.0",
    "final_y": "532716.88",
    "longitude": "-90.02278782040281",
    "latitude": "29.95834390338481",
    "geocoded_column": {
      "latitude": "29.95834390338481",
      "longitude": "-90.02278782040281"
    }
  },
  {
    "service_request": "2025-1203886",
    "request_type": "Trash/Recycling",
    "request_reason": "Request a Large Item Pick Up",
    "date_created": "2025-06-24T15:24:18.000",
    "date_modified": "2025-06-24T15:24:20.000",
    "request_status": "Pending",
    "responsible_agency": "Department of Sanitation",
    "final_address": "4783 Lancelot Dr",
    "address_councildis": "E",
    "status": "Assigned to Contractor",
    "contractor": "Waste Pro",
    "rowid": "1203886",
    "final_x": "3707491.54142",
    "final_y": "555797.698329",
    "longitude": "-89.98509711235381",
    "latitude": "30.02143549900781",
    "geocoded_column": {
      "latitude": "30.02143549900781",
      "longitude": "-89.98509711235381"
    }
  },
  {
    "service_request": "2025-1203885",
    "request_type": "Streetlights",
    "request_reason": "Streetlight Outage/Malfunction",
    "date_created": "2025-06-24T15:22:44.000",
    "date_modified": "2025-06-24T15:22:45.000",
    "request_status": "Pending",
    "responsible_agency": "Department of Public Works",
    "final_address": "107 Norland Ave",
    "address_councildis": "C",
    "status": "Pending",
    "contractor": "Legacy Professional Services",
    "rowid": "1203885",
    "final_x": "3705970.66155",
    "final_y": "520341.681208",
    "longitude": "-89.99121485438613",
    "latitude": "29.923993590878215",
    "geocoded_column": {
      "latitude": "29.923993590878215",
      "longitude": "-89.99121485438613"
    }
  },
  {
    "service_request": "2025-1203884",
    "request_type": "General Services",
    "request_reason": "General Service Request",
    "date_created": "2025-06-24T15:19:50.000",
    "date_modified": "2025-06-24T15:54:23.000",
    "case_close_date": "2025-06-24T10:54:22.000",
    "request_status": "Closed",
    "responsible_agency": "Orleans Parish Communication District",
    "final_address": "3125 Esplanade Ave",
    "address_councildis": "A",
    "status": "Referred to Risk Management",
    "rowid": "1203884",
    "final_x": "3676360.85077",
    "final_y": "540481.313675",
    "longitude": "-90.08398939135179",
    "latitude": "29.980291287751943",
    "geocoded_column": {
      "latitude": "29.980291287751943",
      "longitude": "-90.08398939135179"
    }
  },
  {
    "service_request": "2025-1203883",
    "request_type": "Traffic Signals",
    "request_reason": "Traffic Signal Malfunctioning or Damaged",
    "date_created": "2025-06-24T15:16:05.000",
    "date_modified": "2025-06-24T15:16:07.000",
    "request_status": "Pending",
    "responsible_agency": "Department of Public Works",
    "final_address": "CROWDER BLVD & MORRISON RD",
    "address_councildis": "E",
    "status": "Pending",
    "rowid": "1203883",
    "final_x": "3703739.9",
    "final_y": "560831.58",
    "longitude": "-89.99676565482832",
    "latitude": "30.035397561791353",
    "geocoded_column": {
      "latitude": "30.035397561791353",
      "longitude": "-89.99676565482832"
    }
  },
  {
    "service_request": "2025-1203882",
    "request_type": "Trash/Recycling",
    "request_reason": "Repair Trash Cart",
    "date_created": "2025-06-24T15:14:53.000",
    "date_modified": "2025-06-24T15:14:54.000",
    "request_status": "Pending",
    "responsible_agency": "Department of Sanitation",
    "final_address": "3054 St Ann St",
    "address_councildis": "A",
    "status": "Assigned to Contractor",
    "contractor": "IV Waste",
    "rowid": "1203882",
    "final_x": "3675525.66638",
    "final_y": "538235.653513",
    "longitude": "-90.08670442758267",
    "latitude": "29.97414150441491",
    "geocoded_column": {
      "latitude": "29.97414150441491",
      "longitude": "-90.08670442758267"
    }
  },
  {
    "service_request": "2025-1203881",
    "request_type": "Abandoned Vehicles",
    "request_reason": "Abandoned/Junk Vehicles",
    "date_created": "2025-06-24T15:10:49.000",
    "date_modified": "2025-06-24T15:12:39.000",
    "request_status": "Pending",
    "responsible_agency": "Department of Public Works",
    "final_address": "2100 BLK Brutus St",
    "address_councildis": "D",
    "status": "Pending",
    "rowid": "1203881",
    "final_x": "3683285.20098",
    "final_y": "550251.819888",
    "longitude": "-90.06177692928657",
    "latitude": "30.00694729267593",
    "geocoded_column": {
      "latitude": "30.00694729267593",
      "longitude": "-90.06177692928657"
    }
  },
  {
    "service_request": "2025-1203880",
    "request_type": "Trash/Recycling",
    "request_reason": "MIssed Recycling Pick-Up",
    "date_created": "2025-06-24T15:09:22.000",
    "date_modified": "2025-06-24T15:09:23.000",
    "request_status": "Pending",
    "responsible_agency": "Department of Sanitation",
    "final_address": "4834 Brittany Ct",
    "address_councildis": "E",
    "status": "Assigned to Contractor",
    "contractor": "Waste Pro",
    "rowid": "1203880",
    "final_x": "3726822.65357",
    "final_y": "561569.660191",
    "longitude": "-89.9237926450722",
    "latitude": "30.036666442762993",
    "geocoded_column": {
      "latitude": "30.036666442762993",
      "longitude": "-89.9237926450722"
    }
  },
  {
    "service_request": "2025-1203879",
    "request_type": "Traffic Signals",
    "request_reason": "Traffic Signal Malfunctioning or Damaged",
    "date_created": "2025-06-24T15:09:08.000",
    "date_modified": "2025-06-24T15:09:11.000",
    "request_status": "Pending",
    "responsible_agency": "Department of Public Works",
    "final_address": "CROWDER BLVD & I 10 E",
    "address_councildis": "E",
    "status": "Pending",
    "rowid": "1203879",
    "final_x": "3704733.8",
    "final_y": "558801.28",
    "longitude": "-89.99369979890794",
    "latitude": "30.0297831161292",
    "geocoded_column": {
      "latitude": "30.0297831161292",
      "longitude": "-89.99369979890794"
    }
  },
  {
    "service_request": "2025-1203878",
    "request_type": "Abandoned Vehicles",
    "request_reason": "Abandoned/Junk Vehicles",
    "date_created": "2025-06-24T15:03:04.000",
    "date_modified": "2025-06-24T15:03:07.000",
    "request_status": "Pending",
    "responsible_agency": "Department of Public Works",
    "final_address": "CHASE ST & BENSON ST",
    "address_councildis": "E",
    "status": "Pending",
    "rowid": "1203878",
    "final_x": "3703870.0",
    "final_y": "563543.18",
    "longitude": "-89.99625452727068",
    "latitude": "30.042849221845046",
    "geocoded_column": {
      "latitude": "30.042849221845046",
      "longitude": "-89.99625452727068"
    }
  },
  {
    "service_request": "2025-1203877",
    "request_type": "Trash/Recycling",
    "request_reason": "Illegal Dumping",
    "date_created": "2025-06-24T15:02:42.000",
    "date_modified": "2025-06-24T15:02:44.000",
    "request_status": "Pending",
    "responsible_agency": "Department of Sanitation",
    "final_address": "2119 Foucher St",
    "address_councildis": "B",
    "status": "Pending",
    "rowid": "1203877",
    "final_x": "3672891.85793",
    "final_y": "523126.229883",
    "longitude": "-90.09553810224921",
    "latitude": "29.932674122146526",
    "geocoded_column": {
      "latitude": "29.932674122146526",
      "longitude": "-90.09553810224921"
    }
  },
  {
    "service_request": "2025-1203876",
    "request_type": "Streetlights",
    "request_reason": "Streetlight Outage/Malfunction",
    "date_created": "2025-06-24T15:01:08.000",
    "date_modified": "2025-06-24T15:01:10.000",
    "request_status": "Pending",
    "responsible_agency": "Department of Public Works",
    "final_address": "4845 Elysian Fields Ave",
    "address_councildis": "D",
    "status": "Pending",
    "contractor": "Legacy Professional Services",
    "rowid": "1203876",
    "final_x": "3683971.52981",
    "final_y": "550664.430932",
    "longitude": "-90.05959414471806",
    "latitude": "30.008060863659896",
    "geocoded_column": {
      "latitude": "30.008060863659896",
      "longitude": "-90.05959414471806"
    }
  },
  {
    "service_request": "2025-1203875",
    "request_type": "Trash/Recycling",
    "request_reason": "Request a Large Item Pick Up",
    "date_created": "2025-06-24T15:00:20.000",
    "date_modified": "2025-06-24T15:00:21.000",
    "request_status": "Pending",
    "responsible_agency": "Department of Sanitation",
    "final_address": "7827 Sail St",
    "address_councildis": "E",
    "status": "Assigned to Contractor",
    "contractor": "Waste Pro",
    "rowid": "1203875",
    "final_x": "3720107.08345",
    "final_y": "574063.890538",
    "longitude": "-89.94453641964775",
    "latitude": "30.07124582987614",
    "geocoded_column": {
      "latitude": "30.07124582987614",
      "longitude": "-89.94453641964775"
    }
  },
  {
    "service_request": "2025-1203874",
    "request_type": "Trash/Recycling",
    "request_reason": "Request a Large Item Pick Up",
    "date_created": "2025-06-24T15:00:08.000",
    "date_modified": "2025-06-24T15:00:17.000",
    "request_status": "Pending",
    "responsible_agency": "Department of Sanitation",
    "final_address": "2213 St Roch Ave",
    "address_councildis": "D",
    "status": "Assigned to Contractor",
    "contractor": "IV Waste",
    "rowid": "1203874",
    "final_x": "3686239.20802",
    "final_y": "540616.962699",
    "longitude": "-90.05278462281895",
    "latitude": "29.98036442082828",
    "geocoded_column": {
      "latitude": "29.98036442082828",
      "longitude": "-90.05278462281895"
    }
  },
  {
    "service_request": "2025-1203873",
    "request_type": "Trash/Recycling",
    "request_reason": "Request a Large Item Pick Up",
    "date_created": "2025-06-24T14:56:15.000",
    "date_modified": "2025-06-24T14:57:17.000",
    "request_status": "Pending",
    "responsible_agency": "Department of Sanitation",
    "final_address": "3610 Touro St",
    "address_councildis": "D",
    "status": "Assigned to Contractor",
    "contractor": "IV Waste",
    "rowid": "1203873",
    "final_x": "3683418.02082",
    "final_y": "545904.160016",
    "longitude": "-90.06150977230449",
    "latitude": "29.994988735381984",
    "geocoded_column": {
      "latitude": "29.994988735381984",
      "longitude": "-90.06150977230449"
    }
  },
  {
    "service_request": "2025-1203872",
    "request_type": "Roads and Streets",
    "request_reason": "Pothole",
    "date_created": "2025-06-24T14:55:17.000",
    "date_modified": "2025-06-24T14:55:19.000",
    "request_status": "Pending",
    "responsible_agency": "Department of Public Works",
    "final_address": "1701 Independence St",
    "address_councildis": "D",
    "status": "Pending",
    "rowid": "1203872",
    "final_x": "3691566.92969",
    "final_y": "537798.155464",
    "longitude": "-90.03605826277577",
    "latitude": "29.97244891221377",
    "geocoded_column": {
      "latitude": "29.97244891221377",
      "longitude": "-90.03605826277577"
    }
  },
  {
    "service_request": "2025-1203871",
    "request_type": "Trash/Recycling",
    "request_reason": "Illegal Dumping",
    "date_created": "2025-06-24T14:54:56.000",
    "date_modified": "2025-06-24T14:54:57.000",
    "request_status": "Pending",
    "responsible_agency": "Department of Sanitation",
    "final_address": "1800 BLK Port St",
    "address_councildis": "D",
    "status": "Pending",
    "rowid": "1203871",
    "final_x": "3688136.22901",
    "final_y": "539202.940739",
    "longitude": "-90.04684317974203",
    "latitude": "29.976417930453",
    "geocoded_column": {
      "latitude": "29.976417930453",
      "longitude": "-90.04684317974203"
    }
  },
  {
    "service_request": "2025-1203870",
    "request_type": "Abandoned Vehicles",
    "request_reason": "Abandoned/Junk Vehicles",
    "date_created": "2025-06-24T14:54:42.000",
    "date_modified": "2025-06-24T14:54:44.000",
    "request_status": "Pending",
    "responsible_agency": "Department of Public Works",
    "final_address": "2024 Lamarque St",
    "address_councildis": "C",
    "status": "Pending",
    "rowid": "1203870",
    "final_x": "3691565.84124",
    "final_y": "526693.578366",
    "longitude": "-90.03645862827743",
    "latitude": "29.941915226696537",
    "geocoded_column": {
      "latitude": "29.941915226696537",
      "longitude": "-90.03645862827743"
    }
  },
  {
    "service_request": "2025-1203869",
    "request_type": "Trash/Recycling",
    "request_reason": "Request a Large Item Pick Up",
    "date_created": "2025-06-24T14:54:41.000",
    "date_modified": "2025-06-24T14:54:55.000",
    "request_status": "Pending",
    "responsible_agency": "Department of Sanitation",
    "final_address": "14462 Peltier Dr",
    "address_councildis": "E",
    "status": "Assigned to Contractor",
    "contractor": "Waste Pro",
    "rowid": "1203869",
    "final_x": "3730782.96839",
    "final_y": "562605.109344",
    "longitude": "-89.91123681421796",
    "latitude": "30.03937894727769",
    "geocoded_column": {
      "latitude": "30.03937894727769",
      "longitude": "-89.91123681421796"
    }
  },
  {
    "service_request": "2025-1203868",
    "request_type": "Trash/Recycling",
    "request_reason": "Missed Trash Pick-Up",
    "date_created": "2025-06-24T14:52:51.000",
    "date_modified": "2025-06-24T14:52:54.000",
    "request_status": "Pending",
    "responsible_agency": "Department of Sanitation",
    "final_address": "7415 Devine Ave",
    "address_councildis": "E",
    "status": "Assigned to Contractor",
    "contractor": "Waste Pro",
    "rowid": "1203868",
    "final_x": "3706016.58379",
    "final_y": "562567.638432",
    "longitude": "-89.98950666547107",
    "latitude": "30.040097820754326",
    "geocoded_column": {
      "latitude": "30.040097820754326",
      "longitude": "-89.98950666547107"
    }
  },
  {
    "service_request": "2025-1203867",
    "request_type": "Trash/Recycling",
    "request_reason": "Request a Large Item Pick Up",
    "date_created": "2025-06-24T14:47:33.000",
    "date_modified": "2025-06-24T14:47:36.000",
    "request_status": "Pending",
    "responsible_agency": "Department of Sanitation",
    "final_address": "10336 Brookfield Dr",
    "address_councildis": "E",
    "status": "Assigned to Contractor",
    "contractor": "Waste Pro",
    "rowid": "1203867",
    "final_x": "3710622.45976",
    "final_y": "563225.570784",
    "longitude": "-89.97492612177898",
    "latitude": "30.04175754056776",
    "geocoded_column": {
      "latitude": "30.04175754056776",
      "longitude": "-89.97492612177898"
    }
  },
  {
    "service_request": "2025-1203866",
    "request_type": "Trash/Recycling",
    "request_reason": "Request a Large Item Pick Up",
    "date_created": "2025-06-24T14:46:07.000",
    "date_modified": "2025-06-24T14:46:09.000",
    "request_status": "Pending",
    "responsible_agency": "Department of Sanitation",
    "final_address": "6304 St Roch Ave",
    "address_councildis": "D",
    "status": "Assigned to Contractor",
    "contractor": "IV Waste",
    "rowid": "1203866",
    "final_x": "3684768.41103",
    "final_y": "556374.023834",
    "longitude": "-90.05687561335914",
    "latitude": "30.023735770285754",
    "geocoded_column": {
      "latitude": "30.023735770285754",
      "longitude": "-90.05687561335914"
    }
  },
  {
    "service_request": "2025-1203864",
    "request_type": "Abandoned Vehicles",
    "request_reason": "Abandoned/Junk Vehicles",
    "date_created": "2025-06-24T14:45:32.000",
    "date_modified": "2025-06-24T14:45:34.000",
    "request_status": "Pending",
    "responsible_agency": "Department of Public Works",
    "final_address": "922 Burdette St",
    "address_councildis": "A",
    "status": "Pending",
    "rowid": "1203864",
    "final_x": "3662175.25658",
    "final_y": "526996.054398",
    "longitude": "-90.12924132614656",
    "latitude": "29.943628882567197",
    "geocoded_column": {
      "latitude": "29.943628882567197",
      "longitude": "-90.12924132614656"
    }
  },
  {
    "service_request": "2025-1203865",
    "request_type": "Abandoned Vehicles",
    "request_reason": "Abandoned/Junk Vehicles",
    "date_created": "2025-06-24T14:45:32.000",
    "date_modified": "2025-06-24T14:45:34.000",
    "request_status": "Pending",
    "responsible_agency": "Department of Public Works",
    "final_address": "922 Burdette St",
    "address_councildis": "A",
    "status": "Pending",
    "rowid": "1203865",
    "final_x": "3662175.25658",
    "final_y": "526996.054398",
    "longitude": "-90.12924132614656",
    "latitude": "29.943628882567197",
    "geocoded_column": {
      "latitude": "29.943628882567197",
      "longitude": "-90.12924132614656"
    }
  },
  {
    "service_request": "2025-1203863",
    "request_type": "Drainage",
    "request_reason": "Street Flooding",
    "date_created": "2025-06-24T14:43:45.000",
    "date_modified": "2025-06-24T14:43:47.000",
    "request_status": "Pending",
    "responsible_agency": "Sewerage & Water Board",
    "final_address": "BIENVILLE ST & DAUPHINE ST",
    "address_councildis": "C",
    "status": "Pending",
    "rowid": "1203863",
    "final_x": "3681094.2",
    "final_y": "531733.68",
    "longitude": "-90.06934424812331",
    "latitude": "29.956095545211625",
    "geocoded_column": {
      "latitude": "29.956095545211625",
      "longitude": "-90.06934424812331"
    }
  },
  {
    "service_request": "2025-1203862",
    "request_type": "Safety & Permits",
    "request_reason": "Zoning Enforcement",
    "date_created": "2025-06-24T14:43:01.000",
    "date_modified": "2025-06-24T14:43:02.000",
    "request_status": "Pending",
    "responsible_agency": "Safety and Permits",
    "final_address": "9119 Dixon St",
    "address_councildis": "A",
    "status": "Pending",
    "rowid": "1203862",
    "final_x": "3665752.62349",
    "final_y": "538035.853897",
    "longitude": "-90.11757676381251",
    "latitude": "29.973880865144107",
    "geocoded_column": {
      "latitude": "29.973880865144107",
      "longitude": "-90.11757676381251"
    }
  },
  {
    "service_request": "2025-1203861",
    "request_type": "Drainage",
    "request_reason": "Street Flooding",
    "date_created": "2025-06-24T14:42:49.000",
    "date_modified": "2025-06-24T14:42:50.000",
    "request_status": "Pending",
    "responsible_agency": "Sewerage & Water Board",
    "final_address": "CANAL ST & DAUPHINE ST",
    "address_councildis": "C",
    "status": "Pending",
    "rowid": "1203861",
    "final_x": "3680651.4",
    "final_y": "531147.58",
    "longitude": "-90.0707628512661",
    "latitude": "29.95449739199053",
    "geocoded_column": {
      "latitude": "29.95449739199053",
      "longitude": "-90.0707628512661"
    }
  },
  {
    "service_request": "2025-1203860",
    "request_type": "Abandoned Vehicles",
    "request_reason": "Abandoned/Junk Vehicles",
    "date_created": "2025-06-24T14:42:43.000",
    "date_modified": "2025-06-24T14:42:45.000",
    "request_status": "Pending",
    "responsible_agency": "Department of Public Works",
    "final_address": "2825 Louisiana Ave Apt 4",
    "address_councildis": "B",
    "status": "Pending",
    "rowid": "1203860",
    "final_x": "3672503.65044",
    "final_y": "525748.274813",
    "longitude": "-90.09667430728132",
    "latitude": "29.939895420376114",
    "geocoded_column": {
      "latitude": "29.939895420376114",
      "longitude": "-90.09667430728132"
    }
  },
  {
    "service_request": "2025-1203859",
    "request_type": "Safety & Permits",
    "request_reason": "Zoning Enforcement",
    "date_created": "2025-06-24T14:40:42.000",
    "date_modified": "2025-06-24T14:44:31.000",
    "request_status": "Pending",
    "responsible_agency": "Safety and Permits",
    "final_address": "9110 Dixon St",
    "address_councildis": "A",
    "status": "Pending",
    "rowid": "1203859",
    "final_x": "3665712.45972",
    "final_y": "537878.345225",
    "longitude": "-90.11770888784892",
    "latitude": "29.973448940473723",
    "geocoded_column": {
      "latitude": "29.973448940473723",
      "longitude": "-90.11770888784892"
    }
  },
  {
    "service_request": "2025-1203858",
    "request_type": "Utility Poles",
    "request_reason": "Utility Pole Leaning",
    "date_created": "2025-06-24T14:39:00.000",
    "date_modified": "2025-06-24T14:39:03.000",
    "request_status": "Pending",
    "responsible_agency": "Utility Company Collective",
    "final_address": "CONSTANTINOPLE ST & ST CHARLES AVE",
    "address_councildis": "B",
    "status": "Pending",
    "rowid": "1203858",
    "final_x": "3672317.5",
    "final_y": "520970.98",
    "longitude": "-90.0974246946012",
    "latitude": "29.926764926602484",
    "geocoded_column": {
      "latitude": "29.926764926602484",
      "longitude": "-90.0974246946012"
    }
  },
  {
    "service_request": "2025-1203857",
    "request_type": "Abandoned Vehicles",
    "request_reason": "Abandoned/Junk Vehicles",
    "date_created": "2025-06-24T14:38:24.000",
    "date_modified": "2025-06-24T14:38:30.000",
    "request_status": "Pending",
    "responsible_agency": "Department of Public Works",
    "final_address": "825 Louisiana Ave Unit 4",
    "address_councildis": "B",
    "status": "Pending",
    "rowid": "1203857",
    "final_x": "3675548.82318",
    "final_y": "518881.077495",
    "longitude": "-90.08729600647575",
    "latitude": "29.92092213809394",
    "geocoded_column": {
      "latitude": "29.92092213809394",
      "longitude": "-90.08729600647575"
    }
  },
  {
    "service_request": "2025-1203856",
    "request_type": "Trash/Recycling",
    "request_reason": "Repair Trash Cart",
    "date_created": "2025-06-24T14:36:58.000",
    "date_modified": "2025-06-24T14:38:14.000",
    "request_status": "Pending",
    "responsible_agency": "Department of Sanitation",
    "final_address": "1909 Independence St",
    "address_councildis": "D",
    "status": "Assigned to Contractor",
    "contractor": "IV Waste",
    "rowid": "1203856",
    "final_x": "3691764.54",
    "final_y": "538609.126729",
    "longitude": "-90.0354051656269",
    "latitude": "29.974672642242137",
    "geocoded_column": {
      "latitude": "29.974672642242137",
      "longitude": "-90.0354051656269"
    }
  },
  {
    "service_request": "2025-1203855",
    "request_type": "Property Maintenance",
    "request_reason": "Property Maintenance",
    "date_created": "2025-06-24T14:36:50.000",
    "date_modified": "2025-06-24T15:37:40.000",
    "case_close_date": "2025-06-24T10:37:39.000",
    "request_status": "Closed",
    "responsible_agency": "Department of Code Enforcement",
    "final_address": "6318 N Claiborne Ave",
    "address_councildis": "E",
    "status": "Referred to Code Enforcement",
    "rowid": "1203855",
    "final_x": "3700941.35114",
    "final_y": "534650.196742",
    "longitude": "-90.00656750118989",
    "latitude": "29.963498000608475",
    "geocoded_column": {
      "latitude": "29.963498000608475",
      "longitude": "-90.00656750118989"
    }
  },
  {
    "service_request": "2025-1203854",
    "request_type": "Property Maintenance",
    "request_reason": "Property Maintenance",
    "date_created": "2025-06-24T14:33:46.000",
    "date_modified": "2025-06-24T14:59:03.000",
    "case_close_date": "2025-06-24T09:59:02.000",
    "request_status": "Closed",
    "responsible_agency": "Department of Code Enforcement",
    "final_address": "2305 Spain St",
    "address_councildis": "D",
    "status": "Referred to Code Enforcement",
    "rowid": "1203854",
    "final_x": "3685813.52329",
    "final_y": "540880.648459",
    "longitude": "-90.05411981652661",
    "latitude": "29.981102537711063",
    "geocoded_column": {
      "latitude": "29.981102537711063",
      "longitude": "-90.05411981652661"
    }
  },
  {
    "service_request": "2025-1203853",
    "request_type": "Healthy Homes",
    "request_reason": "Healthy Homes",
    "date_created": "2025-06-24T14:31:14.000",
    "date_modified": "2025-06-24T14:36:03.000",
    "case_close_date": "2025-06-24T09:36:01.000",
    "request_status": "Closed",
    "responsible_agency": "Department of Code Enforcement",
    "final_address": "200 Carondelet St",
    "address_councildis": "B",
    "status": "Referred to Code Enforcement",
    "rowid": "1203853",
    "final_x": "3680618.51733",
    "final_y": "530414.539586",
    "longitude": "-90.07089218374696",
    "latitude": "29.952482774541487",
    "geocoded_column": {
      "latitude": "29.952482774541487",
      "longitude": "-90.07089218374696"
    }
  },
  {
    "service_request": "2025-1203852",
    "request_type": "Trash/Recycling",
    "request_reason": "Request a Large Item Pick Up",
    "date_created": "2025-06-24T14:30:17.000",
    "date_modified": "2025-06-24T14:30:19.000",
    "request_status": "Pending",
    "responsible_agency": "Department of Sanitation",
    "final_address": "2234 Eads St",
    "address_councildis": "D",
    "status": "Assigned to Contractor",
    "contractor": "IV Waste",
    "rowid": "1203852",
    "final_x": "3687888.33801",
    "final_y": "540894.889099",
    "longitude": "-90.04756612996913",
    "latitude": "29.981077840627652",
    "geocoded_column": {
      "latitude": "29.981077840627652",
      "longitude": "-90.04756612996913"
    }
  },
  {
    "service_request": "2025-1203851",
    "request_type": "Drainage",
    "request_reason": "Catch Basin Clogged",
    "date_created": "2025-06-24T14:27:27.000",
    "date_modified": "2025-06-24T14:27:29.000",
    "request_status": "Pending",
    "responsible_agency": "Sewerage & Water Board",
    "final_address": "4022 General Ogden St",
    "address_councildis": "A",
    "status": "Pending",
    "rowid": "1203851",
    "final_x": "3666666.49165",
    "final_y": "537797.607816",
    "longitude": "-90.11469855710546",
    "latitude": "29.973199074815295",
    "geocoded_column": {
      "latitude": "29.973199074815295",
      "longitude": "-90.11469855710546"
    }
  },
  {
    "service_request": "2025-1203850",
    "request_type": "Trash/Recycling",
    "request_reason": "Request a Large Item Pick Up",
    "date_created": "2025-06-24T14:24:26.000",
    "date_modified": "2025-06-24T14:24:27.000",
    "request_status": "Pending",
    "responsible_agency": "Department of Sanitation",
    "final_address": "6720 Coventry St",
    "address_councildis": "E",
    "status": "Assigned to Contractor",
    "contractor": "Waste Pro",
    "rowid": "1203850",
    "final_x": "3698122.01987",
    "final_y": "559422.597533",
    "longitude": "-90.01457025350142",
    "latitude": "30.031702389408427",
    "geocoded_column": {
      "latitude": "30.031702389408427",
      "longitude": "-90.01457025350142"
    }
  },
  {
    "service_request": "2025-1203849",
    "request_type": "Drainage",
    "request_reason": "Catch Basin Clogged",
    "date_created": "2025-06-24T14:23:41.000",
    "date_modified": "2025-06-24T14:23:43.000",
    "request_status": "Pending",
    "responsible_agency": "Sewerage & Water Board",
    "final_address": "2110 Urquhart St",
    "address_councildis": "C",
    "status": "Pending",
    "rowid": "1203849",
    "final_x": "3684652.6406",
    "final_y": "536988.356872",
    "longitude": "-90.05792323823715",
    "latitude": "29.970435681510246",
    "geocoded_column": {
      "latitude": "29.970435681510246",
      "longitude": "-90.05792323823715"
    }
  },
  {
    "service_request": "2025-1203848",
    "request_type": "Drainage",
    "request_reason": "Catch Basin Clogged",
    "date_created": "2025-06-24T14:20:46.000",
    "date_modified": "2025-06-24T14:20:48.000",
    "request_status": "Pending",
    "responsible_agency": "Sewerage & Water Board",
    "final_address": "2101 Urquhart St",
    "address_councildis": "C",
    "status": "Pending",
    "rowid": "1203848",
    "final_x": "3684632.93577",
    "final_y": "537041.445768",
    "longitude": "-90.05798360210228",
    "latitude": "29.970582260590255",
    "geocoded_column": {
      "latitude": "29.970582260590255",
      "longitude": "-90.05798360210228"
    }
  },
  {
    "service_request": "2025-1203847",
    "request_type": "Roads and Streets",
    "request_reason": "Pothole",
    "date_created": "2025-06-24T14:19:00.000",
    "date_modified": "2025-06-24T14:19:01.000",
    "request_status": "Pending",
    "responsible_agency": "Department of Public Works",
    "final_address": "4712 Magazine St",
    "address_councildis": "B",
    "status": "Pending",
    "rowid": "1203847",
    "final_x": "3669820.13786",
    "final_y": "518627.104695",
    "longitude": "-90.10538750915475",
    "latitude": "29.92039384493749",
    "geocoded_column": {
      "latitude": "29.92039384493749",
      "longitude": "-90.10538750915475"
    }
  },
  {
    "service_request": "2025-1203846",
    "request_type": "Abandoned Vehicles",
    "request_reason": "Abandoned/Junk Vehicles",
    "date_created": "2025-06-24T14:16:17.000",
    "date_modified": "2025-06-24T14:16:19.000",
    "request_status": "Pending",
    "responsible_agency": "Department of Public Works",
    "final_address": "MARIGNY ST & N PRIEUR ST",
    "address_councildis": "D",
    "status": "Pending",
    "rowid": "1203846",
    "final_x": "3685183.5",
    "final_y": "539284.48",
    "longitude": "-90.0561659024052",
    "latitude": "29.976732960134203",
    "geocoded_column": {
      "latitude": "29.976732960134203",
      "longitude": "-90.0561659024052"
    }
  },
  {
    "service_request": "2025-1203845",
    "request_type": "Drainage",
    "request_reason": "Catch Basin Clogged",
    "date_created": "2025-06-24T14:12:13.000",
    "date_modified": "2025-06-24T14:12:14.000",
    "request_status": "Pending",
    "responsible_agency": "Sewerage & Water Board",
    "final_address": "1242 Elysian Fields Ave",
    "address_councildis": "C",
    "status": "Pending",
    "rowid": "1203845",
    "final_x": "3684859.40617",
    "final_y": "537002.52116",
    "longitude": "-90.0572697522303",
    "latitude": "29.970468298527738",
    "geocoded_column": {
      "latitude": "29.970468298527738",
      "longitude": "-90.0572697522303"
    }
  },
  {
    "service_request": "2025-1203844",
    "request_type": "Trash/Recycling",
    "request_reason": "Illegal Dumping",
    "date_created": "2025-06-24T14:11:14.000",
    "date_modified": "2025-06-24T14:11:15.000",
    "request_status": "Pending",
    "responsible_agency": "Department of Sanitation",
    "final_address": "3500 BLK Nevada St",
    "address_councildis": "C",
    "status": "Pending",
    "rowid": "1203844",
    "final_x": "3694620.90173",
    "final_y": "519265.587569",
    "longitude": "-90.02708055372305",
    "latitude": "29.92139535734747",
    "geocoded_column": {
      "latitude": "29.92139535734747",
      "longitude": "-90.02708055372305"
    }
  },
  {
    "service_request": "2025-1203843",
    "request_type": "Drainage",
    "request_reason": "Catch Basin Clogged",
    "date_created": "2025-06-24T14:10:45.000",
    "date_modified": "2025-06-24T14:10:47.000",
    "request_status": "Pending",
    "responsible_agency": "Sewerage & Water Board",
    "final_address": "1241 Elysian Fields Ave",
    "address_councildis": "C",
    "status": "Pending",
    "rowid": "1203843",
    "final_x": "3685068.35452",
    "final_y": "537001.972296",
    "longitude": "-90.05660989007204",
    "latitude": "29.970460389376882",
    "geocoded_column": {
      "latitude": "29.970460389376882",
      "longitude": "-90.05660989007204"
    }
  },
  {
    "service_request": "2025-1203842",
    "request_type": "Drainage",
    "request_reason": "Catch Basin Clogged",
    "date_created": "2025-06-24T14:09:20.000",
    "date_modified": "2025-06-24T14:09:22.000",
    "request_status": "Pending",
    "responsible_agency": "Sewerage & Water Board",
    "final_address": "1301 Elysian Fields Ave",
    "address_councildis": "C",
    "status": "Pending",
    "rowid": "1203842",
    "final_x": "3685069.52713",
    "final_y": "537082.85876",
    "longitude": "-90.05660334055922",
    "latitude": "29.970682763082284",
    "geocoded_column": {
      "latitude": "29.970682763082284",
      "longitude": "-90.05660334055922"
    }
  },
  {
    "service_request": "2025-1203841",
    "request_type": "Abandoned Vehicles",
    "request_reason": "Abandoned/Junk Vehicles",
    "date_created": "2025-06-24T14:09:08.000",
    "date_modified": "2025-06-24T14:14:44.000",
    "request_status": "Pending",
    "responsible_agency": "Department of Public Works",
    "final_address": "4313 S Derbigny St",
    "address_councildis": "B",
    "status": "Inspected",
    "rowid": "1203841",
    "final_x": "3670572.56795",
    "final_y": "526321.31411",
    "longitude": "-90.10275160340542",
    "latitude": "29.94152825818461",
    "geocoded_column": {
      "latitude": "29.94152825818461",
      "longitude": "-90.10275160340542"
    }
  },
  {
    "service_request": "2025-1203840",
    "request_type": "Drainage",
    "request_reason": "Catch Basin Clogged",
    "date_created": "2025-06-24T14:08:40.000",
    "date_modified": "2025-06-24T14:08:42.000",
    "request_status": "Pending",
    "responsible_agency": "Sewerage & Water Board",
    "final_address": "2139 Annunciation St",
    "address_councildis": "B",
    "status": "Pending",
    "rowid": "1203840",
    "final_x": "3679609.27195",
    "final_y": "521317.327865",
    "longitude": "-90.07439452163308",
    "latitude": "29.927498995954007",
    "geocoded_column": {
      "latitude": "29.927498995954007",
      "longitude": "-90.07439452163308"
    }
  },
  {
    "service_request": "2025-1203839",
    "request_type": "Property Maintenance",
    "request_reason": "Property Maintenance",
    "date_created": "2025-06-24T14:08:06.000",
    "date_modified": "2025-06-24T14:30:55.000",
    "case_close_date": "2025-06-24T09:30:54.000",
    "request_status": "Closed",
    "responsible_agency": "Department of Code Enforcement",
    "final_address": "7821 S Coronet Ct",
    "address_councildis": "E",
    "status": "Referred to Code Enforcement",
    "rowid": "1203839",
    "final_x": "3703129.22161",
    "final_y": "557405.442139",
    "longitude": "-89.99882158729153",
    "latitude": "30.025996587276403",
    "geocoded_column": {
      "latitude": "30.025996587276403",
      "longitude": "-89.99882158729153"
    }
  },
  {
    "service_request": "2025-1203838",
    "request_type": "Trash/Recycling",
    "request_reason": "Order Recycling Cart",
    "date_created": "2025-06-24T14:06:34.000",
    "date_modified": "2025-06-24T14:06:36.000",
    "request_status": "Pending",
    "responsible_agency": "Department of Sanitation",
    "final_address": "4520 Alba Rd",
    "address_councildis": "E",
    "status": "Pending",
    "rowid": "1203838",
    "final_x": "3761686.49865",
    "final_y": "573427.954922",
    "longitude": "-89.8131214088831",
    "latitude": "30.068046051337674",
    "geocoded_column": {
      "latitude": "30.068046051337674",
      "longitude": "-89.8131214088831"
    }
  },
  {
    "service_request": "2025-1203837",
    "request_type": "Trash/Recycling",
    "request_reason": "Order Trash Cart",
    "date_created": "2025-06-24T14:05:39.000",
    "date_modified": "2025-06-24T14:05:40.000",
    "request_status": "Pending",
    "responsible_agency": "Department of Sanitation",
    "final_address": "4520 Alba Rd",
    "address_councildis": "E",
    "status": "Assigned to Contractor",
    "contractor": "Waste Pro",
    "rowid": "1203837",
    "final_x": "3761686.49865",
    "final_y": "573427.954922",
    "longitude": "-89.8131214088831",
    "latitude": "30.068046051337674",
    "geocoded_column": {
      "latitude": "30.068046051337674",
      "longitude": "-89.8131214088831"
    }
  },
  {
    "service_request": "2025-1203836",
    "request_type": "Healthy Homes",
    "request_reason": "Healthy Homes",
    "date_created": "2025-06-24T14:05:14.000",
    "date_modified": "2025-06-24T15:42:08.000",
    "case_close_date": "2025-06-24T10:42:05.000",
    "request_status": "Closed",
    "responsible_agency": "Department of Code Enforcement",
    "final_address": "200 Carondelet St",
    "address_councildis": "B",
    "status": "Referred to Code Enforcement",
    "rowid": "1203836",
    "final_x": "3680618.51733",
    "final_y": "530414.539586",
    "longitude": "-90.07089218374696",
    "latitude": "29.952482774541487",
    "geocoded_column": {
      "latitude": "29.952482774541487",
      "longitude": "-90.07089218374696"
    }
  },
  {
    "service_request": "2025-1203835",
    "request_type": "Drainage",
    "request_reason": "Catch Basin Clogged",
    "date_created": "2025-06-24T14:04:36.000",
    "date_modified": "2025-06-24T14:04:39.000",
    "request_status": "Pending",
    "responsible_agency": "Sewerage & Water Board",
    "final_address": "1300 Elysian Fields Ave",
    "address_councildis": "C",
    "status": "Pending",
    "rowid": "1203835",
    "final_x": "3684855.47484",
    "final_y": "537062.585032",
    "longitude": "-90.05728005535073",
    "latitude": "29.97063357367015",
    "geocoded_column": {
      "latitude": "29.97063357367015",
      "longitude": "-90.05728005535073"
    }
  },