[
  {
    "service_request": "2023-1025796",
    "request_type": "Trash/Recycling",
    "request_reason": "Missed Trash Pick-Up",
    "date_created": "2023-08-13T00:55:22.000",
    "date_modified": "2023-08-13T00:55:23.000",
    "request_status": "Pending",
    "responsible_agency": "Department of Sanitation",
    "final_address": "4822 Cleveland Ave",
    "address_councildis": "A",
    "status": "Assigned to Contractor",
    "contractor": "Richards Disposal",
    "rowid": "1025796",
    "final_x": "3668365.69857",
    "final_y": "539808.562826",
    "longitude": "-90.10926425820907",
    "latitude": "29.97867872482772",
    "geocoded_column": {
      "latitude": "29.97867872482772",
      "longitude": "-90.10926425820907"
    }
  },
  {
    "service_request": "2023-1025795",
    "request_type": "Trash/Recycling",
    "request_reason": "Missed Trash Pick-Up",
    "date_created": "2023-08-13T00:50:59.000",
    "date_modified": "2023-08-13T00:50:59.000",
    "request_status": "Pending",
    "responsible_agency": "Department of Sanitation",
    "final_address": "4822 Cleveland Ave",
    "address_councildis": "A",
    "status": "Assigned to Contractor",
    "contractor": "Richards Disposal",
    "rowid": "1025795",
    "final_x": "3668365.69857",
    "final_y": "539808.562826",
    "longitude": "-90.10926425820907",
    "latitude": "29.97867872482772",
    "geocoded_column": {
      "latitude": "29.97867872482772",
      "longitude": "-90.10926425820907"
    }
  },
  {
    "service_request": "2023-1025794",
    "request_type": "Property Maintenance",
    "request_reason": "Property Maintenance",
    "date_created": "2023-08-12T22:51:44.000",
    "date_modified": "2023-08-12T22:51:44.000",
    "request_status": "Pending",
    "responsible_agency": "Department of Code Enforcement",
    "final_address": "6500 Downman Rd",
    "address_councildis": "D",
    "status": "Pending",
    "rowid": "1025794",
    "final_x": "3695734.84746",
    "final_y": "554682.431896",
    "longitude": "-90.0222851949463",
    "latitude": "30.01874406318459",
    "geocoded_column": {
      "latitude": "30.01874406318459",
      "longitude": "-90.0222851949463"
    }
  },
  {
    "service_request": "2023-1025793",
    "request_type": "Trash/Recycling",
    "request_reason": "Missed Trash Pick-Up",
    "date_created": "2023-08-12T22:46:27.000",
    "date_modified": "2023-08-12T22:46:28.000",
    "request_status": "Pending",
    "responsible_agency": "Department of Sanitation",
    "final_address": "321 S Alexander St",
    "address_councildis": "A",
    "status": "Assigned to Contractor",
    "contractor": "Richards Disposal",
    "rowid": "1025793",
    "final_x": "3669378.10593",
    "final_y": "538424.371401",
    "longitude": "-90.10611351100955",
    "latitude": "29.974842888365515",
    "geocoded_column": {
      "latitude": "29.974842888365515",
      "longitude": "-90.10611351100955"
    }
  },
  {
    "service_request": "2023-1025792",
    "request_type": "Roads/Drainage",
    "request_reason": "Pothole",
    "date_created": "2023-08-12T22:20:11.000",
    "date_modified": "2023-08-12T22:20:11.000",
    "request_status": "Pending",
    "responsible_agency": "Department of Public Works",
    "final_address": "4315 Pitt St",
    "address_councildis": "B",
    "status": "Pending",
    "rowid": "1025792",
    "final_x": "3671135.74062",
    "final_y": "520647.281017",
    "longitude": "-90.10116618834792",
    "latitude": "29.92590985375874",
    "geocoded_column": {
      "latitude": "29.92590985375874",
      "longitude": "-90.10116618834792"
    }
  },
  {
    "service_request": "2023-1025791",
    "request_type": "Traffic Signals/Signs/Striping/Streetlights",
    "request_reason": "Street Name Sign Damaged or Missing",
    "date_created": "2023-08-12T22:04:18.000",
    "date_modified": "2023-08-12T22:04:18.000",
    "request_status": "Pending",
    "responsible_agency": "Department of Public Works",
    "final_address": "1131 General Pershing St",
    "address_councildis": "B",
    "status": "Pending",
    "rowid": "1025791",
    "final_x": "3671416.3778",
    "final_y": "519794.4046",
    "longitude": "-90.10030926903697",
    "latitude": "29.923556415029356",
    "geocoded_column": {
      "latitude": "29.923556415029356",
      "longitude": "-90.10030926903697"
    }
  },
  {
    "service_request": "2023-1025790",
    "request_type": "Health Related Request",
    "request_reason": "Noise Ordinance Complaint",
    "date_created": "2023-08-12T21:55:43.000",
    "date_modified": "2023-08-12T21:55:43.000",
    "request_status": "Pending",
    "responsible_agency": "Health Department",
    "final_address": "Bourbon Heat",
    "status": "Pending",
    "rowid": "1025790",
    "longitude": "0.0",
    "latitude": "0.0",
    "geocoded_column": {
      "latitude": "0.0",
      "longitude": "0.0"
    }
  },
  {
    "service_request": "2023-1025789",
    "request_type": "Abandoned Vehicles",
    "request_reason": "Abandoned/Junk Vehicles",
    "date_created": "2023-08-12T20:17:17.000",
    "date_modified": "2023-08-12T20:17:17.000",
    "request_status": "Pending",
    "responsible_agency": "Department of Public Works",
    "final_address": "20 Christopher Ct",
    "address_councildis": "E",
    "status": "Pending",
    "rowid": "1025789",
    "final_x": "3716721.08415",
    "final_y": "570363.839207",
    "longitude": "-89.95538113830784",
    "latitude": "30.061184640889554",
    "geocoded_column": {
      "latitude": "30.061184640889554",
      "longitude": "-89.95538113830784"
    }
  },
  {
    "service_request": "2023-1025788",
    "request_type": "Trash/Recycling",
    "request_reason": "Request a Large Item Pick Up",
    "date_created": "2023-08-12T20:15:24.000",
    "date_modified": "2023-08-12T20:15:25.000",
    "request_status": "Pending",
    "responsible_agency": "Department of Sanitation",
    "final_address": "4827 Evangeline Dr",
    "address_councildis": "E",
    "status": "Assigned to Contractor",
    "contractor": "Waste Pro",
    "rowid": "1025788",
    "final_x": "3709121.46885",
    "final_y": "556294.380378",
    "longitude": "-89.9799284973336",
    "latitude": "30.02274834684033",
    "geocoded_column": {
      "latitude": "30.02274834684033",
      "longitude": "-89.9799284973336"
    }
  },
  {
    "service_request": "2023-1025787",
    "request_type": "Abandoned Vehicles",
    "request_reason": "Abandoned/Junk Vehicles",
    "date_created": "2023-08-12T20:15:19.000",
    "date_modified": "2023-08-12T20:15:19.000",
    "request_status": "Pending",
    "responsible_agency": "Department of Public Works",
    "final_address": "2118 St Ann St",
    "address_councildis": "D",
    "status": "Pending",
    "rowid": "1025787",
    "final_x": "3678683.04322",
    "final_y": "535839.200135",
    "longitude": "-90.07681569970576",
    "latitude": "29.967457247618167",
    "geocoded_column": {
      "latitude": "29.967457247618167",
      "longitude": "-90.07681569970576"
    }
  },
  {
    "service_request": "2023-1025786",
    "request_type": "Trash/Recycling",
    "request_reason": "Replace Trash Cart",
    "date_created": "2023-08-12T19:50:19.000",
    "date_modified": "2023-08-12T19:50:20.000",
    "request_status": "Pending",
    "responsible_agency": "Department of Sanitation",
    "final_address": "134 N Alexander St",
    "address_councildis": "A",
    "status": "Assigned to Contractor",
    "contractor": "Richards Disposal",
    "rowid": "1025786",
    "final_x": "3670253.93831",
    "final_y": "539432.27457",
    "longitude": "-90.10331323336244",
    "latitude": "29.97758845966334",
    "geocoded_column": {
      "latitude": "29.97758845966334",
      "longitude": "-90.10331323336244"
    }
  },
  {
    "service_request": "2023-1025785",
    "request_type": "Trash/Recycling",
    "request_reason": "Missed Trash Pick-Up",
    "date_created": "2023-08-12T19:48:39.000",
    "date_modified": "2023-08-12T19:48:40.000",
    "request_status": "Pending",
    "responsible_agency": "Department of Sanitation",
    "final_address": "134 N Alexander St",
    "address_councildis": "A",
    "status": "Assigned to Contractor",
    "contractor": "Richards Disposal",
    "rowid": "1025785",
    "final_x": "3670253.93831",
    "final_y": "539432.27457",
    "longitude": "-90.10331323336244",
    "latitude": "29.97758845966334",
    "geocoded_column": {
      "latitude": "29.97758845966334",
      "longitude": "-90.10331323336244"
    }
  },
  {
    "service_request": "2023-1025784",
    "request_type": "Trash/Recycling",
    "request_reason": "Missed Trash Pick-Up",
    "date_created": "2023-08-12T19:48:34.000",
    "date_modified": "2023-08-12T19:48:35.000",
    "request_status": "Pending",
    "responsible_agency": "Department of Sanitation",
    "final_address": "3015 Carondelet St",
    "address_councildis": "B",
    "status": "Assigned to Contractor",
    "contractor": "Richards Disposal",
    "rowid": "1025784",
    "final_x": "3674871.98971",
    "final_y": "522343.308602",
    "longitude": "-90.08931381443753",
    "latitude": "29.93046237769801",
    "geocoded_column": {
      "latitude": "29.93046237769801",
      "longitude": "-90.08931381443753"
    }
  },
  {
    "service_request": "2023-1025783",
    "request_type": "Abandoned Vehicles",
    "request_reason": "Abandoned/Junk Vehicles",
    "date_created": "2023-08-12T19:40:17.000",
    "date_modified": "2023-08-12T19:40:17.000",
    "request_status": "Pending",
    "responsible_agency": "Department of Public Works",
    "final_address": "2223 Franklin Ave",
    "address_councildis": "D",
    "status": "Pending",
    "rowid": "1025783",
    "final_x": "3687669.14044",
    "final_y": "540782.706187",
    "longitude": "-90.0482624264193",
    "latitude": "29.980776138733003",
    "geocoded_column": {
      "latitude": "29.980776138733003",
      "longitude": "-90.0482624264193"
    }
  },
  {
    "service_request": "2023-1025780",
    "request_type": "Roads/Drainage",
    "request_reason": "Damaged Sidewalk",
    "date_created": "2023-08-12T18:57:03.000",
    "date_modified": "2023-08-12T18:57:03.000",
    "request_status": "Pending",
    "responsible_agency": "Department of Public Works",
    "final_address": "3904 Buchanan St",
    "address_councildis": "D",
    "status": "Pending",
    "rowid": "1025780",
    "final_x": "3677307.8692",
    "final_y": "546483.491025",
    "longitude": "-90.08079107570376",
    "latitude": "29.996766756555516",
    "geocoded_column": {
      "latitude": "29.996766756555516",
      "longitude": "-90.08079107570376"
    }
  },
  {
    "service_request": "2023-1025779",
    "request_type": "Traffic Signals/Signs/Striping/Streetlights",
    "request_reason": "Request for Stop Sign",
    "date_created": "2023-08-12T18:13:42.000",
    "date_modified": "2023-08-12T18:13:42.000",
    "request_status": "Pending",
    "responsible_agency": "Department of Public Works",
    "final_address": "EARHART BLVD & LEONIDAS ST",
    "address_councildis": "A",
    "status": "Pending",
    "rowid": "1025779",
    "final_x": "3665069.0",
    "final_y": "534417.68",
    "longitude": "-90.11985682266722",
    "latitude": "29.963952010523894",
    "geocoded_column": {
      "latitude": "29.963952010523894",
      "longitude": "-90.11985682266722"
    }
  },
  {
    "service_request": "2023-1025778",
    "request_type": "Trash/Recycling",
    "request_reason": "Missed Trash Pick-Up",
    "date_created": "2023-08-12T17:36:55.000",
    "date_modified": "2023-08-12T17:36:56.000",
    "request_status": "Pending",
    "responsible_agency": "Department of Sanitation",
    "final_address": "1105 Dublin St",
    "address_councildis": "A",
    "status": "Assigned to Contractor",
    "contractor": "Richards Disposal",
    "rowid": "1025778",
    "final_x": "3661537.27763",
    "final_y": "528372.97664",
    "longitude": "-90.13120999641265",
    "latitude": "29.94743339817827",
    "geocoded_column": {
      "latitude": "29.94743339817827",
      "longitude": "-90.13120999641265"
    }
  },
  {
    "service_request": "2023-1025777",
    "request_type": "Trash/Recycling",
    "request_reason": "Order Trash Cart",
    "date_created": "2023-08-12T17:08:23.000",
    "date_modified": "2023-08-12T17:08:24.000",
    "request_status": "Pending",
    "responsible_agency": "Department of Sanitation",
    "final_address": "1333 Hillary St",
    "address_councildis": "A",
    "status": "Assigned to Contractor",
    "contractor": "Richards Disposal",
    "rowid": "1025777",
    "final_x": "3663768.68307",
    "final_y": "527552.678911",
    "longitude": "-90.12419188927525",
    "latitude": "29.945113284089203",
    "geocoded_column": {
      "latitude": "29.945113284089203",
      "longitude": "-90.12419188927525"
    }
  },
  {
    "service_request": "2023-1025776",
    "request_type": "Property Maintenance",
    "request_reason": "Property Maintenance",
    "date_created": "2023-08-12T17:07:05.000",
    "date_modified": "2023-08-12T17:07:05.000",
    "request_status": "Pending",
    "responsible_agency": "Department of Code Enforcement",
    "final_address": "4518 S Robertson St",
    "address_councildis": "B",
    "status": "Pending",
    "rowid": "1025776",
    "final_x": "3669936.53985",
    "final_y": "524301.264444",
    "longitude": "-90.10482805375682",
    "latitude": "29.935992541335494",
    "geocoded_column": {
      "latitude": "29.935992541335494",
      "longitude": "-90.10482805375682"
    }
  },
  {
    "service_request": "2023-1025774",
    "request_type": "Trash/Recycling",
    "request_reason": "Order Trash Cart",
    "date_created": "2023-08-12T16:58:00.000",
    "date_modified": "2023-08-12T16:58:01.000",
    "request_status": "Pending",
    "responsible_agency": "Department of Sanitation",
    "final_address": "1331 Hillary St",
    "address_councildis": "A",
    "status": "Assigned to Contractor",
    "contractor": "Richards Disposal",
    "rowid": "1025774",
    "final_x": "3663766.14579",
    "final_y": "527549.639679",
    "longitude": "-90.12420000155369",
    "latitude": "29.945105000796502",
    "geocoded_column": {
      "latitude": "29.945105000796502",
      "longitude": "-90.12420000155369"
    }
  },
  {
    "service_request": "2023-1025773",
    "request_type": "Trash/Recycling",
    "request_reason": "Missed Trash Pick-Up",
    "date_created": "2023-08-12T16:20:31.000",
    "date_modified": "2023-08-12T16:20:31.000",
    "request_status": "Pending",
    "responsible_agency": "Department of Sanitation",
    "final_address": "315 N Bernadotte St",
    "address_councildis": "A",
    "status": "Assigned to Contractor",
    "contractor": "Richards Disposal",
    "rowid": "1025773",
    "final_x": "3669346.87566",
    "final_y": "540857.626891",
    "longitude": "-90.1061298391489",
    "latitude": "29.9815344382555",
    "geocoded_column": {
      "latitude": "29.9815344382555",
      "longitude": "-90.1061298391489"
    }
  },
  {
    "service_request": "2023-1025772",
    "request_type": "Roads/Drainage",
    "request_reason": "Pothole",
    "date_created": "2023-08-12T16:19:22.000",
    "date_modified": "2023-08-12T16:19:22.000",
    "request_status": "Pending",
    "responsible_agency": "Department of Public Works",
    "final_address": "S CARROLLTON AVE & ULLOA ST",
    "address_councildis": "A",
    "status": "Pending",
    "rowid": "1025772",
    "final_x": "3669505.3",
    "final_y": "536597.98",
    "longitude": "-90.10577359477857",
    "latitude": "29.96981717884046",
    "geocoded_column": {
      "latitude": "29.96981717884046",
      "longitude": "-90.10577359477857"
    }
  },
  {
    "service_request": "2023-1025771",
    "request_type": "Trash/Recycling",
    "request_reason": "Missed Trash Pick-Up",
    "date_created": "2023-08-12T15:45:49.000",
    "date_modified": "2023-08-12T15:45:50.000",
    "request_status": "Pending",
    "responsible_agency": "Department of Sanitation",
    "final_address": "9416 Hayne Blvd",
    "address_councildis": "E",
    "status": "Assigned to Contractor",
    "contractor": "Waste Pro",
    "rowid": "1025771",
    "final_x": "3705778.80119",
    "final_y": "564781.98941",
    "longitude": "-89.99017609692976",
    "latitude": "30.046194072793458",
    "geocoded_column": {
      "latitude": "30.046194072793458",
      "longitude": "-89.99017609692976"
    }
  },
  {
    "service_request": "2023-1025770",
    "request_type": "Trash/Recycling",
    "request_reason": "Request a Large Item Pick Up",
    "date_created": "2023-08-12T15:45:26.000",
    "date_modified": "2023-08-12T15:45:27.000",
    "request_status": "Pending",
    "responsible_agency": "Department of Sanitation",
    "final_address": "7929 Freret St",
    "address_councildis": "A",
    "status": "Assigned to Contractor",
    "contractor": "Richards Disposal",
    "rowid": "1025770",
    "final_x": "3661926.85114",
    "final_y": "527522.518655",
    "longitude": "-90.13000815603785",
    "latitude": "29.9450836666227",
    "geocoded_column": {
      "latitude": "29.9450836666227",
      "longitude": "-90.13000815603785"
    }
  },
  {
    "service_request": "2023-1025769",
    "request_type": "Trash/Recycling",
    "request_reason": "Request a Large Item Pick Up",
    "date_created": "2023-08-12T15:36:37.000",
    "date_modified": "2023-08-12T15:36:37.000",
    "request_status": "Pending",
    "responsible_agency": "Department of Sanitation",
    "final_address": "1012 City Park Ave",
    "address_councildis": "A",
    "status": "Assigned to Contractor",
    "contractor": "Richards Disposal",
    "rowid": "1025769",
    "final_x": "3672381.69287",
    "final_y": "541527.040076",
    "longitude": "-90.09652163678034",
    "latitude": "29.98328537410522",
    "geocoded_column": {
      "latitude": "29.98328537410522",
      "longitude": "-90.09652163678034"
    }
  },
  {
    "service_request": "2023-1025768",
    "request_type": "Property Maintenance",
    "request_reason": "Property Maintenance",
    "date_created": "2023-08-12T15:36:34.000",
    "date_modified": "2023-08-12T15:36:34.000",
    "request_status": "Pending",
    "responsible_agency": "Department of Code Enforcement",
    "final_address": "523 Brooks St",
    "address_councildis": "A",
    "status": "Pending",
    "rowid": "1025768",
    "final_x": "3667925.5938",
    "final_y": "546715.073041",
    "longitude": "-90.110421472426",
    "latitude": "29.997682193711515",
    "geocoded_column": {
      "latitude": "29.997682193711515",
      "longitude": "-90.110421472426"
    }
  },
  {
    "service_request": "2023-1025767",
    "request_type": "Health Related Request",
    "request_reason": "Noise Ordinance Complaint",
    "date_created": "2023-08-12T15:35:59.000",
    "date_modified": "2023-08-12T15:35:59.000",
    "request_status": "Pending",
    "responsible_agency": "Health Department",
    "final_address": "711 Bourbon St, New Orleans, Louisiana, 70116",
    "address_councildis": "C",
    "status": "Pending",
    "rowid": "1025767",
    "final_x": "3682299.38447",
    "final_y": "532765.705988",
    "longitude": "-90.06550263299877",
    "latitude": "29.95889665479323",
    "geocoded_column": {
      "latitude": "29.95889665479323",
      "longitude": "-90.06550263299877"
    }
  },
  {
    "service_request": "2023-1025766",
    "request_type": "Health Related Request",
    "request_reason": "Noise Ordinance Complaint",
    "date_created": "2023-08-12T15:35:21.000",
    "date_modified": "2023-08-12T15:35:21.000",
    "request_status": "Pending",
    "responsible_agency": "Health Department",
    "final_address": "711 Bourbon St, New Orleans, Louisiana, 70116",
    "address_councildis": "C",
    "status": "Pending",
    "rowid": "1025766",
    "final_x": "3682299.38447",
    "final_y": "532765.705988",
    "longitude": "-90.06550263299877",
    "latitude": "29.95889665479323",
    "geocoded_column": {
      "latitude": "29.95889665479323",
      "longitude": "-90.06550263299877"
    }
  },
  {
    "service_request": "2023-1025765",
    "request_type": "Trash/Recycling",
    "request_reason": "Request a Large Item Pick Up",
    "date_created": "2023-08-12T15:15:06.000",
    "date_modified": "2023-08-12T15:15:07.000",
    "request_status": "Pending",
    "responsible_agency": "Department of Sanitation",
    "final_address": "1731 Valence St",
    "address_councildis": "B",
    "status": "Assigned to Contractor",
    "contractor": "Richards Disposal",
    "rowid": "1025765",
    "final_x": "3669729.12794",
    "final_y": "521388.472953",
    "longitude": "-90.10558139102517",
    "latitude": "29.92798941156527",
    "geocoded_column": {
      "latitude": "29.92798941156527",
      "longitude": "-90.10558139102517"
    }
  },
  {
    "service_request": "2023-1025764",
    "request_type": "Traffic Signals/Signs/Striping/Streetlights",
    "request_reason": "Street Light Outage/Malfunction",
    "date_created": "2023-08-12T15:13:34.000",
    "date_modified": "2023-08-12T15:13:34.000",
    "request_status": "Pending",
    "responsible_agency": "Department of Public Works",
    "final_address": "872 Florida Blvd",
    "address_councildis": "A",
    "status": "Assigned to Contractor",
    "contractor": "Legacy Professional Services",
    "rowid": "1025764",
    "final_x": "3669432.45006",
    "final_y": "545189.497743",
    "longitude": "-90.1057129689375",
    "latitude": "29.99344308199599",
    "geocoded_column": {
      "latitude": "29.99344308199599",
      "longitude": "-90.1057129689375"
    }
  },
  {
    "service_request": "2023-1025763",
    "request_type": "Abandoned Vehicles",
    "request_reason": "Vehicle Blocking Your Driveway",
    "date_created": "2023-08-12T15:13:15.000",
    "date_modified": "2023-08-12T15:13:15.000",
    "request_status": "Pending",
    "responsible_agency": "Department of Public Works",
    "final_address": "926 Chartres St",
    "address_councildis": "C",
    "status": "Pending",
    "rowid": "1025763",
    "final_x": "3683444.16975",
    "final_y": "532986.24698",
    "longitude": "-90.0618799672208",
    "latitude": "29.959468188478247",
    "geocoded_column": {
      "latitude": "29.959468188478247",
      "longitude": "-90.0618799672208"
    }
  },
  {
    "service_request": "2023-1025762",
    "request_type": "Trash/Recycling",
    "request_reason": "Request a Large Item Pick Up",
    "date_created": "2023-08-12T14:58:51.000",
    "date_modified": "2023-08-12T14:58:51.000",
    "request_status": "Pending",
    "responsible_agency": "Department of Sanitation",
    "final_address": "3000 Palmer Ave",
    "address_councildis": "A",
    "status": "Assigned to Contractor",
    "contractor": "Richards Disposal",
    "rowid": "1025762",
    "final_x": "3667046.59687",
    "final_y": "527521.686527",
    "longitude": "-90.11384349850496",
    "latitude": "29.944932546922274",
    "geocoded_column": {
      "latitude": "29.944932546922274",
      "longitude": "-90.11384349850496"
    }
  },
  {
    "service_request": "2023-1025761",
    "request_type": "Property Maintenance",
    "request_reason": "Property Maintenance",
    "date_created": "2023-08-12T14:55:39.000",
    "date_modified": "2023-08-12T14:55:39.000",
    "request_status": "Pending",
    "responsible_agency": "Department of Code Enforcement",
    "final_address": "1448 Henriette Delille St",
    "address_councildis": "C",
    "status": "Pending",
    "rowid": "1025761",
    "final_x": "3682898.83112",
    "final_y": "535888.724935",
    "longitude": "-90.06350044552306",
    "latitude": "29.96746563383004",
    "geocoded_column": {
      "latitude": "29.96746563383004",
      "longitude": "-90.06350044552306"
    }
  },
  {
    "service_request": "2023-1025760",
    "request_type": "Property Maintenance",
    "request_reason": "Property Maintenance",
    "date_created": "2023-08-12T14:48:02.000",
    "date_modified": "2023-08-12T14:48:02.000",
    "request_status": "Pending",
    "responsible_agency": "Department of Code Enforcement",
    "final_address": "1445 Henriette Delille St",
    "address_councildis": "C",
    "status": "Pending",
    "rowid": "1025760",
    "final_x": "3682807.47772",
    "final_y": "535896.600967",
    "longitude": "-90.06378866537284",
    "latitude": "29.96749007360678",
    "geocoded_column": {
      "latitude": "29.96749007360678",
      "longitude": "-90.06378866537284"
    }
  },
  {
    "service_request": "2023-1025759",
    "request_type": "Abandoned Vehicles",
    "request_reason": "Vehicle Blocking Your Driveway",
    "date_created": "2023-08-12T14:37:45.000",
    "date_modified": "2023-08-12T14:37:45.000",
    "request_status": "Pending",
    "responsible_agency": "Department of Public Works",
    "final_address": "1518 Kerlerec St",
    "address_councildis": "C",
    "status": "Pending",
    "rowid": "1025759",
    "final_x": "3681653.97576",
    "final_y": "536727.351687",
    "longitude": "-90.06740245943207",
    "latitude": "29.96980944315269",
    "geocoded_column": {
      "latitude": "29.96980944315269",
      "longitude": "-90.06740245943207"
    }
  },
  {
    "service_request": "2023-1025758",
    "request_type": "Roads/Drainage",
    "request_reason": "Catch Basin - Clogged",
    "date_created": "2023-08-12T14:37:04.000",
    "date_modified": "2023-08-12T14:37:04.000",
    "request_status": "Pending",
    "responsible_agency": "Department of Public Works",
    "final_address": "2122 Bayou Rd",
    "address_councildis": "D",
    "status": "Pending",
    "rowid": "1025758",
    "final_x": "3679896.37429",
    "final_y": "537449.351112",
    "longitude": "-90.07292804575974",
    "latitude": "29.97184796939652",
    "geocoded_column": {
      "latitude": "29.97184796939652",
      "longitude": "-90.07292804575974"
    }
  },
  {
    "service_request": "2023-1025757",
    "request_type": "Property Maintenance",
    "request_reason": "Property Maintenance",
    "date_created": "2023-08-12T14:32:51.000",
    "date_modified": "2023-08-12T14:32:51.000",
    "request_status": "Pending",
    "responsible_agency": "Department of Code Enforcement",
    "final_address": "1440 Henriette Delille St",
    "address_councildis": "C",
    "status": "Pending",
    "rowid": "1025757",
    "final_x": "3682855.74997",
    "final_y": "535846.919687",
    "longitude": "-90.06363795936943",
    "latitude": "29.967351996512807",
    "geocoded_column": {
      "latitude": "29.967351996512807",
      "longitude": "-90.06363795936943"
    }
  },
  {
    "service_request": "2023-1025756",
    "request_type": "Parks & Parkways",
    "request_reason": "Request Tree Service (Right of Way/Public Property)",
    "date_created": "2023-08-12T14:30:11.000",
    "date_modified": "2023-08-12T14:30:36.000",
    "request_status": "Pending",
    "responsible_agency": "Department of Parks & Parkway",
    "final_address": "612 Julia St",
    "address_councildis": "B",
    "status": "Pending",
    "rowid": "1025756",
    "final_x": "3680652.74504",
    "final_y": "527929.818431",
    "longitude": "-90.07087054961761",
    "latitude": "29.945649589090255",
    "geocoded_column": {
      "latitude": "29.945649589090255",
      "longitude": "-90.07087054961761"
    }
  },
  {
    "service_request": "2023-1025755",
    "request_type": "Roads/Drainage",
    "request_reason": "Catch Basin - Clogged",
    "date_created": "2023-08-12T14:29:21.000",
    "date_modified": "2023-08-12T14:29:21.000",
    "request_status": "Pending",
    "responsible_agency": "Department of Public Works",
    "final_address": "2122 Bayou Rd",
    "address_councildis": "D",
    "status": "Pending",
    "rowid": "1025755",
    "final_x": "3679896.37429",
    "final_y": "537449.351112",
    "longitude": "-90.07292804575974",
    "latitude": "29.97184796939652",
    "geocoded_column": {
      "latitude": "29.97184796939652",
      "longitude": "-90.07292804575974"
    }
  },
  {
    "service_request": "2023-1025754",
    "request_type": "Property Maintenance",
    "request_reason": "Property Maintenance",
    "date_created": "2023-08-12T14:28:25.000",
    "date_modified": "2023-08-12T14:28:25.000",
    "request_status": "Pending",
    "responsible_agency": "Department of Code Enforcement",
    "final_address": "1440 Henriette Delille St",
    "address_councildis": "C",
    "status": "Pending",
    "rowid": "1025754",
    "final_x": "3682855.74997",
    "final_y": "535846.919687",
    "longitude": "-90.06363795936943",
    "latitude": "29.967351996512807",
    "geocoded_column": {
      "latitude": "29.967351996512807",
      "longitude": "-90.06363795936943"
    }
  },
  {
    "service_request": "2023-1025753",
    "request_type": "Property Maintenance",
    "request_reason": "Property Maintenance",
    "date_created": "2023-08-12T14:24:21.000",
    "date_modified": "2023-08-12T14:24:21.000",
    "request_status": "Pending",
    "responsible_agency": "Department of Code Enforcement",
    "final_address": "1440 Henriette Delille St",
    "address_councildis": "C",
    "status": "Pending",
    "rowid": "1025753",
    "final_x": "3682855.74997",
    "final_y": "535846.919687",
    "longitude": "-90.06363795936943",
    "latitude": "29.967351996512807",
    "geocoded_column": {
      "latitude": "29.967351996512807",
      "longitude": "-90.06363795936943"
    }
  },
  {
    "service_request": "2023-1025752",
    "request_type": "Trash/Recycling",
    "request_reason": "Missed Trash Pick-Up",
    "date_created": "2023-08-12T14:19:02.000",
    "date_modified": "2023-08-12T14:19:02.000",
    "request_status": "Pending",
    "responsible_agency": "Department of Sanitation",
    "final_address": "936 Mazant St",
    "address_councildis": "C",
    "status": "Assigned to Contractor",
    "contractor": "IV Waste",
    "rowid": "1025752",
    "final_x": "3691957.16502",
    "final_y": "534737.252934",
    "longitude": "-90.03493537463662",
    "latitude": "29.964020356462267",
    "geocoded_column": {
      "latitude": "29.964020356462267",
      "longitude": "-90.03493537463662"
    }
  },
  {
    "service_request": "2023-1025751",
    "request_type": "Trash/Recycling",
    "request_reason": "Start Trash Service",
    "date_created": "2023-08-12T14:18:33.000",
    "date_modified": "2023-08-12T14:18:33.000",
    "request_status": "Pending",
    "responsible_agency": "Department of Sanitation",
    "final_address": "7900 Read Blvd",
    "address_councildis": "E",
    "status": "Assigned to Contractor",
    "contractor": "Waste Pro",
    "rowid": "1025751",
    "final_x": "3707993.62731",
    "final_y": "565308.665954",
    "longitude": "-89.98315656095038",
    "latitude": "30.047570650072476",
    "geocoded_column": {
      "latitude": "30.047570650072476",
      "longitude": "-89.98315656095038"
    }
  },
  {
    "service_request": "2023-1025750",
    "request_type": "Roads/Drainage",
    "request_reason": "Catch Basin - Clogged",
    "date_created": "2023-08-12T14:07:13.000",
    "date_modified": "2023-08-12T14:07:13.000",
    "request_status": "Pending",
    "responsible_agency": "Department of Public Works",
    "final_address": "1400 Carondelet St",
    "address_councildis": "B",
    "status": "Pending",
    "rowid": "1025750",
    "final_x": "3678989.39291",
    "final_y": "525994.712061",
    "longitude": "-90.07618933140863",
    "latitude": "29.940378976412973",
    "geocoded_column": {
      "latitude": "29.940378976412973",
      "longitude": "-90.07618933140863"
    }
  },
  {
    "service_request": "2023-1025749",
    "request_type": "Roads/Drainage",
    "request_reason": "Catch Basin - Clogged",
    "date_created": "2023-08-12T14:01:21.000",
    "date_modified": "2023-08-12T14:01:21.000",
    "request_status": "Pending",
    "responsible_agency": "Department of Public Works",
    "final_address": "1333 Carondelet St",
    "address_councildis": "B",
    "status": "Pending",
    "rowid": "1025749",
    "final_x": "3678952.23259",
    "final_y": "526101.99347",
    "longitude": "-90.07630293683584",
    "latitude": "29.940675085730355",
    "geocoded_column": {
      "latitude": "29.940675085730355",
      "longitude": "-90.07630293683584"
    }
  },
  {
    "service_request": "2023-1025747",
    "request_type": "Trash/Recycling",
    "request_reason": "Missed Trash Pick-Up",
    "date_created": "2023-08-12T13:57:12.000",
    "date_modified": "2023-08-12T13:57:12.000",
    "request_status": "Pending",
    "responsible_agency": "Department of Sanitation",
    "final_address": "VICKSBURG ST & WALKER ST",
    "address_councildis": "A",
    "status": "Assigned to Contractor",
    "contractor": "IV Waste",
    "rowid": "1025747",
    "final_x": "3669483.4",
    "final_y": "553951.78",
    "longitude": "-90.10525537375072",
    "latitude": "30.0175347956451",
    "geocoded_column": {
      "latitude": "30.0175347956451",
      "longitude": "-90.10525537375072"
    }
  },
  {
    "service_request": "2023-1025746",
    "request_type": "Health Related Request",
    "request_reason": "Noise Ordinance Complaint",
    "date_created": "2023-08-12T13:51:40.000",
    "date_modified": "2023-08-12T13:51:40.000",
    "request_status": "Pending",
    "responsible_agency": "Health Department",
    "final_address": "711 Bourbon St, New Orleans, Louisiana, 70116",
    "address_councildis": "C",
    "status": "Pending",
    "rowid": "1025746",
    "final_x": "3682299.38447",
    "final_y": "532765.705988",
    "longitude": "-90.06550263299877",
    "latitude": "29.95889665479323",
    "geocoded_column": {
      "latitude": "29.95889665479323",
      "longitude": "-90.06550263299877"
    }
  },
  {
    "service_request": "2023-1025745",
    "request_type": "Trash/Recycling",
    "request_reason": "Dead Animal Pick Up",
    "date_created": "2023-08-12T13:37:34.000",
    "date_modified": "2023-08-12T13:37:34.000",
    "request_status": "Pending",
    "responsible_agency": "Department of Sanitation",
    "final_address": "2749 Abundance St",
    "address_councildis": "D",
    "status": "Assigned to Contractor",
    "contractor": "IV Waste",
    "rowid": "1025745",
    "final_x": "3688559.09289",
    "final_y": "544031.652942",
    "longitude": "-90.04533622628152",
    "latitude": "29.989682109056417",
    "geocoded_column": {
      "latitude": "29.989682109056417",
      "longitude": "-90.04533622628152"
    }
  },
  {
    "service_request": "2023-1025744",
    "request_type": "Health Related Request",
    "request_reason": "Noise Ordinance Complaint",
    "date_created": "2023-08-12T13:37:16.000",
    "date_modified": "2023-08-12T13:37:16.000",
    "request_status": "Pending",
    "responsible_agency": "Health Department",
    "final_address": "711 Bourbon St, New Orleans, Louisiana, 70116",
    "address_councildis": "C",
    "status": "Pending",
    "rowid": "1025744",
    "final_x": "3682299.38447",
    "final_y": "532765.705988",
    "longitude": "-90.06550263299877",
    "latitude": "29.95889665479323",
    "geocoded_column": {
      "latitude": "29.95889665479323",
      "longitude": "-90.06550263299877"
    }
  },
  {
    "service_request": "2023-1025743",
    "request_type": "Trash/Recycling",
    "request_reason": "Order Trash Cart",
    "date_created": "2023-08-12T13:35:54.000",
    "date_modified": "2023-08-12T13:35:54.000",
    "request_status": "Pending",
    "responsible_agency": "Department of Sanitation",
    "final_address": "1757 Marques Rd",
    "address_councildis": "E",
    "status": "Assigned to Contractor",
    "contractor": "Waste Pro",
    "rowid": "1025743",
    "final_x": "3765330.61559",
    "final_y": "573360.034154",
    "longitude": "-89.80160481112684",
    "latitude": "30.067725861945178",
    "geocoded_column": {
      "latitude": "30.067725861945178",
      "longitude": "-89.80160481112684"
    }
  },
  {
    "service_request": "2023-1025742",
    "request_type": "Roads/Drainage",
    "request_reason": "Catch Basin - Clogged",
    "date_created": "2023-08-12T13:30:22.000",
    "date_modified": "2023-08-12T13:30:22.000",
    "request_status": "Pending",
    "responsible_agency": "Department of Public Works",
    "final_address": "600 S Broad St",
    "address_councildis": "B",
    "status": "Pending",
    "rowid": "1025742",
    "final_x": "3673999.181",
    "final_y": "533067.881988",
    "longitude": "-90.09170228144515",
    "latitude": "29.959977452928662",
    "geocoded_column": {
      "latitude": "29.959977452928662",
      "longitude": "-90.09170228144515"
    }
  },
  {
    "service_request": "2023-1025741",
    "request_type": "Trash/Recycling",
    "request_reason": "Missed Trash Pick-Up",
    "date_created": "2023-08-12T13:26:06.000",
    "date_modified": "2023-08-12T13:26:07.000",
    "request_status": "Pending",
    "responsible_agency": "Department of Sanitation",
    "final_address": "7100 Ransom St",
    "address_councildis": "E",
    "status": "Assigned to Contractor",
    "contractor": "Waste Pro",
    "rowid": "1025741",
    "final_x": "3701527.25508",
    "final_y": "553284.961367",
    "longitude": "-90.00403460966352",
    "latitude": "30.01471804665311",
    "geocoded_column": {
      "latitude": "30.01471804665311",
      "longitude": "-90.00403460966352"
    }
  },
  {
    "service_request": "2023-1025740",
    "request_type": "Traffic Signals/Signs/Striping/Streetlights",
    "request_reason": "Street Light Outage/Malfunction",
    "date_created": "2023-08-12T13:19:29.000",
    "date_modified": "2023-08-12T13:19:29.000",
    "request_status": "Pending",
    "responsible_agency": "Department of Public Works",
    "final_address": "4700 BLK Grape St",
    "address_councildis": "B",
    "status": "Assigned to Contractor",
    "contractor": "Legacy Professional Services",
    "rowid": "1025740",
    "final_x": "3668605.65061",
    "final_y": "531157.883338",
    "longitude": "-90.10879838305578",
    "latitude": "29.954885185216483",
    "geocoded_column": {
      "latitude": "29.954885185216483",
      "longitude": "-90.10879838305578"
    }
  },
  {
    "service_request": "2023-1025739",
    "request_type": "Trash/Recycling",
    "request_reason": "Request a Large Item Pick Up",
    "date_created": "2023-08-12T13:15:42.000",
    "date_modified": "2023-08-12T13:15:43.000",
    "request_status": "Pending",
    "responsible_agency": "Department of Sanitation",
    "final_address": "4201 Vincennes Pl",
    "address_councildis": "B",
    "status": "Assigned to Contractor",
    "contractor": "Richards Disposal",
    "rowid": "1025739",
    "final_x": "3668764.19681",
    "final_y": "531147.413762",
    "longitude": "-90.10829810618874",
    "latitude": "29.954851737474172",
    "geocoded_column": {
      "latitude": "29.954851737474172",
      "longitude": "-90.10829810618874"
    }
  },
  {
    "service_request": "2023-1025738",
    "request_type": "Health Related Request",
    "request_reason": "Noise Ordinance Complaint",
    "date_created": "2023-08-12T13:13:40.000",
    "date_modified": "2023-08-12T13:13:40.000",
    "request_status": "Pending",
    "responsible_agency": "Health Department",
    "final_address": "711 Bourbon St, New Orleans, Louisiana, 70116",
    "address_councildis": "C",
    "status": "Pending",
    "rowid": "1025738",
    "final_x": "3682299.38447",
    "final_y": "532765.705988",
    "longitude": "-90.06550263299877",
    "latitude": "29.95889665479323",
    "geocoded_column": {
      "latitude": "29.95889665479323",
      "longitude": "-90.06550263299877"
    }
  },
  {
    "service_request": "2023-1025737",
    "request_type": "Property Maintenance",
    "request_reason": "Property Maintenance",
    "date_created": "2023-08-12T13:05:10.000",
    "date_modified": "2023-08-12T13:05:10.000",
    "request_status": "Pending",
    "responsible_agency": "Department of Code Enforcement",
    "final_address": "512 S Salcedo St",
    "address_councildis": "B",
    "status": "Pending",
    "rowid": "1025737",
    "final_x": "3673058.67028",
    "final_y": "534664.720966",
    "longitude": "-90.09461770261194",
    "latitude": "29.964396214975647",
    "geocoded_column": {
      "latitude": "29.964396214975647",
      "longitude": "-90.09461770261194"
    }
  },
  {
    "service_request": "2023-1025736",
    "request_type": "Roads/Drainage",
    "request_reason": "Catch Basin - Clogged",
    "date_created": "2023-08-12T13:03:35.000",
    "date_modified": "2023-08-12T13:03:35.000",
    "request_status": "Pending",
    "responsible_agency": "Department of Public Works",
    "final_address": "2139 N Broad St",
    "address_councildis": "D",
    "status": "Pending",
    "rowid": "1025736",
    "final_x": "3680679.66011",
    "final_y": "542350.952141",
    "longitude": "-90.07028367207504",
    "latitude": "29.98530195476595",
    "geocoded_column": {
      "latitude": "29.98530195476595",
      "longitude": "-90.07028367207504"
    }
  },
  {
    "service_request": "2023-1025735",
    "request_type": "Roads/Drainage",
    "request_reason": "Catch Basin - Clogged",
    "date_created": "2023-08-12T12:56:39.000",
    "date_modified": "2023-08-12T12:56:39.000",
    "request_status": "Pending",
    "responsible_agency": "Department of Public Works",
    "final_address": "2585 Leon C Simon Dr",
    "address_councildis": "D",
    "status": "Pending",
    "rowid": "1025735",
    "final_x": "3686025.63145",
    "final_y": "557474.041435",
    "longitude": "-90.0528642136236",
    "latitude": "30.026721840382862",
    "geocoded_column": {
      "latitude": "30.026721840382862",
      "longitude": "-90.0528642136236"
    }
  },
  {
    "service_request": "2023-1025734",
    "request_type": "Roads/Drainage",
    "request_reason": "Catch Basin - Clogged",
    "date_created": "2023-08-12T12:50:59.000",
    "date_modified": "2023-08-12T12:50:59.000",
    "request_status": "Pending",
    "responsible_agency": "Department of Public Works",
    "final_address": "2800 Grand-Route St John St",
    "address_councildis": "A",
    "status": "Pending",
    "rowid": "1025734",
    "final_x": "3678261.45352",
    "final_y": "540178.259403",
    "longitude": "-90.0779969654509",
    "latitude": "29.979400875829455",
    "geocoded_column": {
      "latitude": "29.979400875829455",
      "longitude": "-90.0779969654509"
    }
  },
  {
    "service_request": "2023-1025733",
    "request_type": "Roads/Drainage",
    "request_reason": "Catch Basin - Clogged",
    "date_created": "2023-08-12T12:46:10.000",
    "date_modified": "2023-08-12T12:46:10.000",
    "request_status": "Pending",
    "responsible_agency": "Department of Public Works",
    "final_address": "3400 Franklin Ave",
    "address_councildis": "D",
    "status": "Pending",
    "rowid": "1025733",
    "final_x": "3687146.58089",
    "final_y": "545512.110672",
    "longitude": "-90.04974556292784",
    "latitude": "29.99379641935035",
    "geocoded_column": {
      "latitude": "29.99379641935035",
      "longitude": "-90.04974556292784"
    }
  },
  {
    "service_request": "2023-1025732",
    "request_type": "Health Related Request",
    "request_reason": "Noise Ordinance Complaint",
    "date_created": "2023-08-12T12:44:58.000",
    "date_modified": "2023-08-12T12:44:58.000",
    "request_status": "Pending",
    "responsible_agency": "Health Department",
    "final_address": "711 Bourbon St, New Orleans, Louisiana, 70116",
    "address_councildis": "C",
    "status": "Pending",
    "rowid": "1025732",
    "final_x": "3682299.38447",
    "final_y": "532765.705988",
    "longitude": "-90.06550263299877",
    "latitude": "29.95889665479323",
    "geocoded_column": {
      "latitude": "29.95889665479323",
      "longitude": "-90.06550263299877"
    }
  },
  {
    "service_request": "2023-1025731",
    "request_type": "Trash/Recycling",
    "request_reason": "Order Trash Cart",
    "date_created": "2023-08-12T12:37:21.000",
    "date_modified": "2023-08-12T12:37:22.000",
    "request_status": "Pending",
    "responsible_agency": "Department of Sanitation",
    "final_address": "1713 Bartholomew St",
    "address_councildis": "D",
    "status": "Assigned to Contractor",
    "contractor": "IV Waste",
    "rowid": "1025731",
    "final_x": "3692433.39491",
    "final_y": "537671.446856",
    "longitude": "-90.03332636397218",
    "latitude": "29.9720735065875",
    "geocoded_column": {
      "latitude": "29.9720735065875",
      "longitude": "-90.03332636397218"
    }
  },
  {
    "service_request": "2023-1025730",
    "request_type": "Trash/Recycling",
    "request_reason": "Order Trash Cart",
    "date_created": "2023-08-12T12:30:22.000",
    "date_modified": "2023-08-12T12:30:23.000",
    "request_status": "Pending",
    "responsible_agency": "Department of Sanitation",
    "final_address": "1713 Bartholomew St",
    "address_councildis": "D",
    "status": "Assigned to Contractor",
    "contractor": "IV Waste",
    "rowid": "1025730",
    "final_x": "3692433.39491",
    "final_y": "537671.446856",
    "longitude": "-90.03332636397218",
    "latitude": "29.9720735065875",
    "geocoded_column": {
      "latitude": "29.9720735065875",
      "longitude": "-90.03332636397218"
    }
  },
  {
    "service_request": "2023-1025729",
    "request_type": "Trash/Recycling",
    "request_reason": "Order Recycling Cart",
    "date_created": "2023-08-12T12:29:31.000",
    "date_modified": "2023-08-12T12:29:31.000",
    "request_status": "Pending",
    "responsible_agency": "Department of Sanitation",
    "final_address": "1713 Bartholomew St",
    "address_councildis": "D",
    "status": "Pending",
    "rowid": "1025729",
    "final_x": "3692433.39491",
    "final_y": "537671.446856",
    "longitude": "-90.03332636397218",
    "latitude": "29.9720735065875",
    "geocoded_column": {
      "latitude": "29.9720735065875",
      "longitude": "-90.03332636397218"
    }
  },
  {
    "service_request": "2023-1025728",
    "request_type": "Abandoned Vehicles",
    "request_reason": "Abandoned/Junk Vehicles",
    "date_created": "2023-08-12T12:06:56.000",
    "date_modified": "2023-08-12T12:06:56.000",
    "request_status": "Pending",
    "responsible_agency": "Department of Public Works",
    "status": "Pending",
    "rowid": "1025728",
    "longitude": "0.0",
    "latitude": "0.0",
    "geocoded_column": {
      "latitude": "0.0",
      "longitude": "0.0"
    }
  },
  {
    "service_request": "2023-1025727",
    "request_type": "Trash/Recycling",
    "request_reason": "Illegal Dumping",
    "date_created": "2023-08-12T12:03:48.000",
    "date_modified": "2023-08-12T12:06:31.000",
    "request_status": "Pending",
    "responsible_agency": "Department of Sanitation",
    "final_address": "NORMAN C FRANCIS OVERPASS & PERDIDO ST",
    "address_councildis": "B",
    "status": "Pending",
    "rowid": "1025727",
    "final_x": "3671292.31",
    "final_y": "534163.6",
    "longitude": "-90.10021277347082",
    "latitude": "29.96307068703632",
    "geocoded_column": {
      "latitude": "29.96307068703632",
      "longitude": "-90.10021277347082"
    }
  },
  {
    "service_request": "2023-1025726",
    "request_type": "Trash/Recycling",
    "request_reason": "Order Recycling Cart",
    "date_created": "2023-08-12T11:56:37.000",
    "date_modified": "2023-08-12T11:56:37.000",
    "request_status": "Pending",
    "responsible_agency": "Department of Sanitation",
    "final_address": "2602 Cleveland Ave",
    "address_councildis": "B",
    "status": "Pending",
    "rowid": "1025726",
    "final_x": "3675466.87208",
    "final_y": "534390.471621",
    "longitude": "-90.08702220164393",
    "latitude": "29.96357031747418",
    "geocoded_column": {
      "latitude": "29.96357031747418",
      "longitude": "-90.08702220164393"
    }
  },
  {
    "service_request": "2023-1025725",
    "request_type": "Trash/Recycling",
    "request_reason": "Repair Trash Cart",
    "date_created": "2023-08-12T11:45:26.000",
    "date_modified": "2023-08-12T11:45:27.000",
    "request_status": "Pending",
    "responsible_agency": "Department of Sanitation",
    "final_address": "1717 Coliseum St",
    "address_councildis": "B",
    "status": "Assigned to Contractor",
    "contractor": "Richards Disposal",
    "rowid": "1025725",
    "final_x": "3679604.17634",
    "final_y": "524371.404924",
    "longitude": "-90.0743046739928",
    "latitude": "29.93589685817687",
    "geocoded_column": {
      "latitude": "29.93589685817687",
      "longitude": "-90.0743046739928"
    }
  },
  {
    "service_request": "2023-1025724",
    "request_type": "Traffic Signals/Signs/Striping/Streetlights",
    "request_reason": "Traffic Sign Missing/Damaged",
    "date_created": "2023-08-12T11:44:44.000",
    "date_modified": "2023-08-12T11:50:44.000",
    "request_status": "Pending",
    "responsible_agency": "Department of Public Works",
    "final_address": "Opposite 216 N Alexander street in midcity",
    "address_councildis": "A",
    "rowid": "1025724",
    "final_x": "3670361.96436",
    "final_y": "539657.203938",
    "longitude": "-90.10296442146007",
    "latitude": "29.978203750240496",
    "geocoded_column": {
      "latitude": "29.978203750240496",
      "longitude": "-90.10296442146007"
    }
  },
  {
    "service_request": "2023-1025723",
    "request_type": "Trash/Recycling",
    "request_reason": "MIssed Recycling Pick-Up",
    "date_created": "2023-08-12T11:44:36.000",
    "date_modified": "2023-08-12T11:44:36.000",
    "request_status": "Pending",
    "responsible_agency": "Department of Sanitation",
    "final_address": "1116 Leonidas St",
    "address_councildis": "A",
    "status": "Assigned to Contractor",
    "contractor": "Richards Disposal",
    "rowid": "1025723",
    "final_x": "3660455.45197",
    "final_y": "529429.668673",
    "longitude": "-90.13459085097638",
    "latitude": "29.950370127166547",
    "geocoded_column": {
      "latitude": "29.950370127166547",
      "longitude": "-90.13459085097638"
    }
  },
  {
    "service_request": "2023-1025722",
    "request_type": "Traffic Signals/Signs/Striping/Streetlights",
    "request_reason": "Street Light Outage/Malfunction",
    "date_created": "2023-08-12T11:25:22.000",
    "date_modified": "2023-08-12T11:25:23.000",
    "request_status": "Pending",
    "responsible_agency": "Department of Public Works",
    "final_address": "1029 Port St",
    "address_councildis": "C",
    "status": "Assigned to Contractor",
    "contractor": "Legacy Professional Services",
    "rowid": "1025722",
    "final_x": "3687396.0767",
    "final_y": "536185.994503",
    "longitude": "-90.04928757534358",
    "latitude": "29.968145215056435",
    "geocoded_column": {
      "latitude": "29.968145215056435",
      "longitude": "-90.04928757534358"
    }
  },
  {
    "service_request": "2023-1025721",
    "request_type": "Roads/Drainage",
    "request_reason": "Street Subsidence (Sinking)",
    "date_created": "2023-08-12T11:24:55.000",
    "date_modified": "2023-08-12T11:24:55.000",
    "request_status": "Pending",
    "responsible_agency": "Department of Public Works",
    "final_address": "S LOPEZ ST & FONTAINEBLEAU DR",
    "address_councildis": "A",
    "status": "Pending",
    "rowid": "1025721",
    "final_x": "3669257.0",
    "final_y": "529475.18",
    "longitude": "-90.10679853798263",
    "latitude": "29.950239146714456",
    "geocoded_column": {
      "latitude": "29.950239146714456",
      "longitude": "-90.10679853798263"
    }
  },
  {
    "service_request": "2023-1025720",
    "request_type": "Trash/Recycling",
    "request_reason": "Order Recycling Cart",
    "date_created": "2023-08-12T11:23:15.000",
    "date_modified": "2023-08-12T11:23:15.000",
    "request_status": "Pending",
    "responsible_agency": "Department of Sanitation",
    "final_address": "235 S Alexander St",
    "address_councildis": "A",
    "status": "Pending",
    "rowid": "1025720",
    "final_x": "3669522.7497",
    "final_y": "538635.064521",
    "longitude": "-90.1056495586699",
    "latitude": "29.975417962995575",
    "geocoded_column": {
      "latitude": "29.975417962995575",
      "longitude": "-90.1056495586699"
    }
  },
  {
    "service_request": "2023-1025719",
    "request_type": "Trash/Recycling",
    "request_reason": "Replace Trash Cart",
    "date_created": "2023-08-12T11:21:06.000",
    "date_modified": "2023-08-12T11:21:06.000",
    "request_status": "Pending",
    "responsible_agency": "Department of Sanitation",
    "final_address": "4201 Monroe St",
    "address_councildis": "A",
    "status": "Assigned to Contractor",
    "contractor": "Richards Disposal",
    "rowid": "1025719",
    "final_x": "3667648.90215",
    "final_y": "537663.670856",
    "longitude": "-90.11160040758145",
    "latitude": "29.972802027356284",
    "geocoded_column": {
      "latitude": "29.972802027356284",
      "longitude": "-90.11160040758145"
    }
  },
  {
    "service_request": "2023-1025717",
    "request_type": "Trash/Recycling",
    "request_reason": "Repair Recycling Cart",
    "date_created": "2023-08-12T11:03:07.000",
    "date_modified": "2023-08-12T11:03:07.000",
    "request_status": "Pending",
    "responsible_agency": "Department of Sanitation",
    "final_address": "2701 Gallinghouse St",
    "address_councildis": "C",
    "status": "Pending",
    "rowid": "1025717",
    "final_x": "3700027.93514",
    "final_y": "521031.347257",
    "longitude": "-90.00994865817064",
    "latitude": "29.926079993804144",
    "geocoded_column": {
      "latitude": "29.926079993804144",
      "longitude": "-90.00994865817064"
    }
  },
  {
    "service_request": "2023-1025715",
    "request_type": "Property Maintenance",
    "request_reason": "Property Maintenance",
    "date_created": "2023-08-12T11:00:20.000",
    "date_modified": "2023-08-12T11:00:20.000",
    "request_status": "Pending",
    "responsible_agency": "Department of Code Enforcement",
    "final_address": "2524 Philip St",
    "address_councildis": "B",
    "status": "Pending",
    "rowid": "1025715",
    "final_x": "3675180.21089",
    "final_y": "526252.715966",
    "longitude": "-90.0882066980209",
    "latitude": "29.941202766816215",
    "geocoded_column": {
      "latitude": "29.941202766816215",
      "longitude": "-90.0882066980209"
    }
  },
  {
    "service_request": "2023-1025713",
    "request_type": "Property Maintenance",
    "request_reason": "Property Maintenance",
    "date_created": "2023-08-12T10:56:59.000",
    "date_modified": "2023-08-12T10:56:59.000",
    "request_status": "Pending",
    "responsible_agency": "Department of Code Enforcement",
    "final_address": "2522 Philip St",
    "address_councildis": "B",
    "status": "Pending",
    "rowid": "1025713",
    "final_x": "3675189.45665",
    "final_y": "526237.944062",
    "longitude": "-90.08817801418546",
    "latitude": "29.941161872672268",
    "geocoded_column": {
      "latitude": "29.941161872672268",
      "longitude": "-90.08817801418546"
    }
  },
  {
    "service_request": "2023-1025712",
    "request_type": "Trash/Recycling",
    "request_reason": "Order Recycling Cart",
    "date_created": "2023-08-12T10:55:11.000",
    "date_modified": "2023-08-12T10:55:11.000",
    "request_status": "Pending",
    "responsible_agency": "Department of Sanitation",
    "final_address": "407 Abalon Ct",
    "address_councildis": "C",
    "status": "Pending",
    "rowid": "1025712",
    "final_x": "3689328.30812",
    "final_y": "530174.783361",
    "longitude": "-90.04339923852532",
    "latitude": "29.951556793139034",
    "geocoded_column": {
      "latitude": "29.951556793139034",
      "longitude": "-90.04339923852532"
    }
  },
  {
    "service_request": "2023-1025711",
    "request_type": "Property Maintenance",
    "request_reason": "Property Maintenance",
    "date_created": "2023-08-12T10:52:47.000",
    "date_modified": "2023-08-12T10:52:47.000",
    "request_status": "Pending",
    "responsible_agency": "Department of Code Enforcement",
    "final_address": "12345 N Interstate 10 Service Rd",
    "address_councildis": "E",
    "status": "Pending",
    "rowid": "1025711",
    "final_x": "3716593.31205",
    "final_y": "566491.532899",
    "longitude": "-89.95593215830806",
    "latitude": "30.050541620166843",
    "geocoded_column": {
      "latitude": "30.050541620166843",
      "longitude": "-89.95593215830806"
    }
  },
  {
    "service_request": "2023-1025710",
    "request_type": "Roads/Drainage",
    "request_reason": "Road Shoulder Repair",
    "date_created": "2023-08-12T10:44:13.000",
    "date_modified": "2023-08-12T10:44:13.000",
    "request_status": "Pending",
    "responsible_agency": "Department of Public Works",
    "final_address": "1721 Pace Blvd",
    "address_councildis": "C",
    "status": "Pending",
    "rowid": "1025710",
    "final_x": "3694227.08509",
    "final_y": "524268.823164",
    "longitude": "-90.0281437614496",
    "latitude": "29.935164893960966",
    "geocoded_column": {
      "latitude": "29.935164893960966",
      "longitude": "-90.0281437614496"
    }
  },
  {
    "service_request": "2023-1025709",
    "request_type": "Utility Poles",
    "request_reason": "Utility Pole Leaning",
    "date_created": "2023-08-12T10:37:29.000",
    "date_modified": "2023-08-12T10:37:35.000",
    "request_status": "Pending",
    "responsible_agency": "Utility Company Collective",
    "final_address": "100 Chalfant Pl",
    "address_councildis": "D",
    "status": "Pending",
    "rowid": "1025709",
    "final_x": "3677656.99438",
    "final_y": "544272.496655",
    "longitude": "-90.07976461814134",
    "latitude": "29.9906768001481",
    "geocoded_column": {
      "latitude": "29.9906768001481",
      "longitude": "-90.07976461814134"
    }
  },
  {
    "service_request": "2023-1025708",
    "request_type": "Trash/Recycling",
    "request_reason": "Request a Large Item Pick Up",
    "date_created": "2023-08-12T10:35:51.000",
    "date_modified": "2023-08-12T10:35:51.000",
    "request_status": "Pending",
    "responsible_agency": "Department of Sanitation",
    "final_address": "2128 Cadiz St",
    "address_councildis": "B",
    "status": "Assigned to Contractor",
    "contractor": "Richards Disposal",
    "rowid": "1025708",
    "final_x": "3669865.15342",
    "final_y": "522810.596603",
    "longitude": "-90.10510386754657",
    "latitude": "29.931895788224992",
    "geocoded_column": {
      "latitude": "29.931895788224992",
      "longitude": "-90.10510386754657"
    }
  },
  {
    "service_request": "2023-1025707",
    "request_type": "Trash/Recycling",
    "request_reason": "Missed Trash Pick-Up",
    "date_created": "2023-08-12T10:25:10.000",
    "date_modified": "2023-08-12T10:25:11.000",
    "request_status": "Pending",
    "responsible_agency": "Department of Sanitation",
    "final_address": "2100 Magnolia St",
    "address_councildis": "B",
    "status": "Assigned to Contractor",
    "contractor": "Richards Disposal",
    "rowid": "1025707",
    "final_x": "3675504.27067",
    "final_y": "527023.80083",
    "longitude": "-90.08715710297872",
    "latitude": "29.94331330978243",
    "geocoded_column": {
      "latitude": "29.94331330978243",
      "longitude": "-90.08715710297872"
    }
  },
  {
    "service_request": "2023-1025706",
    "request_type": "Trash/Recycling",
    "request_reason": "Missed Trash Pick-Up",
    "date_created": "2023-08-12T10:13:44.000",
    "date_modified": "2023-08-12T10:13:44.000",
    "request_status": "Pending",
    "responsible_agency": "Department of Sanitation",
    "final_address": "8240 Forshey St",
    "address_councildis": "A",
    "status": "Assigned to Contractor",
    "contractor": "Richards Disposal",
    "rowid": "1025706",
    "final_x": "3666472.8066",
    "final_y": "534345.032453",
    "longitude": "-90.1154261529109",
    "latitude": "29.96371130066002",
    "geocoded_column": {
      "latitude": "29.96371130066002",
      "longitude": "-90.1154261529109"
    }
  },
  {
    "service_request": "2023-1025705",
    "request_type": "Trash/Recycling",
    "request_reason": "Request a Large Item Pick Up",
    "date_created": "2023-08-12T10:00:23.000",
    "date_modified": "2023-08-12T10:00:23.000",
    "request_status": "Pending",
    "responsible_agency": "Department of Sanitation",
    "final_address": "1809 Cadiz St",
    "address_councildis": "B",
    "status": "Assigned to Contractor",
    "contractor": "Richards Disposal",
    "rowid": "1025705",
    "final_x": "3670050.11322",
    "final_y": "521620.525881",
    "longitude": "-90.10456025603699",
    "latitude": "29.92861802207435",
    "geocoded_column": {
      "latitude": "29.92861802207435",
      "longitude": "-90.10456025603699"
    }
  },
  {
    "service_request": "2023-1025704",
    "request_type": "Abandoned Vehicles",
    "request_reason": "Abandoned/Junk Vehicles",
    "date_created": "2023-08-12T09:49:55.000",
    "date_modified": "2023-08-12T09:49:56.000",
    "request_status": "Pending",
    "responsible_agency": "Department of Public Works",
    "final_address": "2015 Sere St",
    "address_councildis": "D",
    "status": "Pending",
    "rowid": "1025704",
    "final_x": "3682951.36936",
    "final_y": "545807.813392",
    "longitude": "-90.06298724544106",
    "latitude": "29.99473805025331",
    "geocoded_column": {
      "latitude": "29.99473805025331",
      "longitude": "-90.06298724544106"
    }
  },
  {
    "service_request": "2023-1025703",
    "request_type": "Trash/Recycling",
    "request_reason": "Missed Trash Pick-Up",
    "date_created": "2023-08-12T09:29:58.000",
    "date_modified": "2023-08-12T09:29:59.000",
    "request_status": "Pending",
    "responsible_agency": "Department of Sanitation",
    "final_address": "1625 Nashville Ave",
    "address_councildis": "A",
    "status": "Assigned to Contractor",
    "contractor": "Richards Disposal",
    "rowid": "1025703",
    "final_x": "3666376.67354",
    "final_y": "522384.303866",
    "longitude": "-90.11613096431026",
    "latitude": "29.930825976550093",
    "geocoded_column": {
      "latitude": "29.930825976550093",
      "longitude": "-90.11613096431026"
    }
  },
  {
    "service_request": "2023-1025702",
    "request_type": "Trash/Recycling",
    "request_reason": "Request a Large Item Pick Up",
    "date_created": "2023-08-12T09:27:31.000",
    "date_modified": "2023-08-12T09:27:32.000",
    "request_status": "Pending",
    "responsible_agency": "Department of Sanitation",
    "final_address": "617 David St",
    "address_councildis": "A",
    "status": "Assigned to Contractor",
    "contractor": "Richards Disposal",
    "rowid": "1025702",
    "final_x": "3672047.77876",
    "final_y": "540096.798859",
    "longitude": "-90.09762503075697",
    "latitude": "29.97936260530238",
    "geocoded_column": {
      "latitude": "29.97936260530238",
      "longitude": "-90.09762503075697"
    }
  },
  {
    "service_request": "2023-1025701",
    "request_type": "Trash/Recycling",
    "request_reason": "Request a Large Item Pick Up",
    "date_created": "2023-08-12T09:22:11.000",
    "date_modified": "2023-08-12T09:22:12.000",
    "request_status": "Pending",
    "responsible_agency": "Department of Sanitation",
    "final_address": "4524 Urquhart St",
    "address_councildis": "D",
    "status": "Assigned to Contractor",
    "contractor": "IV Waste",
    "rowid": "1025701",
    "final_x": "3693708.77667",
    "final_y": "535561.493766",
    "longitude": "-90.02937434749109",
    "latitude": "29.966232035635908",
    "geocoded_column": {
      "latitude": "29.966232035635908",
      "longitude": "-90.02937434749109"
    }
  },
  {
    "service_request": "2023-1025700",
    "request_type": "Roads/Drainage",
    "request_reason": "Pothole",
    "date_created": "2023-08-12T09:21:59.000",
    "date_modified": "2023-08-12T09:22:00.000",
    "request_status": "Pending",
    "responsible_agency": "Department of Public Works",
    "final_address": "5400 BLK Royal St",
    "address_councildis": "E",
    "status": "Pending",
    "rowid": "1025700",
    "final_x": "3697027.44154",
    "final_y": "532417.675438",
    "longitude": "-90.01900800830484",
    "latitude": "29.957483389282366",
    "geocoded_column": {
      "latitude": "29.957483389282366",
      "longitude": "-90.01900800830484"
    }
  },
  {
    "service_request": "2023-1025699",
    "request_type": "Abandoned Vehicles",
    "request_reason": "Abandoned/Junk Vehicles",
    "date_created": "2023-08-12T09:05:28.000",
    "date_modified": "2023-08-12T09:05:29.000",
    "request_status": "Pending",
    "responsible_agency": "Department of Public Works",
    "final_address": "1743 N Broad St",
    "address_councildis": "D",
    "status": "Pending",
    "rowid": "1025699",
    "final_x": "3679739.10927",
    "final_y": "541099.214796",
    "longitude": "-90.07329795722731",
    "latitude": "29.981888587344525",
    "geocoded_column": {
      "latitude": "29.981888587344525",
      "longitude": "-90.07329795722731"
    }
  },
  {
    "service_request": "2023-1025698",
    "request_type": "Trash/Recycling",
    "request_reason": "Replace Recycling Cart",
    "date_created": "2023-08-12T08:40:47.000",
    "date_modified": "2023-08-12T08:40:47.000",
    "request_status": "Pending",
    "responsible_agency": "Department of Sanitation",
    "final_address": "11409 S St Andrews Cir",
    "address_councildis": "E",
    "status": "Pending",
    "rowid": "1025698",
    "final_x": "3719394.09842",
    "final_y": "559463.820829",
    "longitude": "-89.94734863775516",
    "latitude": "30.03112540886941",
    "geocoded_column": {
      "latitude": "30.03112540886941",
      "longitude": "-89.94734863775516"
    }
  },
  {
    "service_request": "2023-1025697",
    "request_type": "Trash/Recycling",
    "request_reason": "Request a Large Item Pick Up",
    "date_created": "2023-08-12T08:39:41.000",
    "date_modified": "2023-08-12T08:39:42.000",
    "request_status": "Pending",
    "responsible_agency": "Department of Sanitation",
    "final_address": "11409 N St Andrews Cir",
    "address_councildis": "E",
    "status": "Assigned to Contractor",
    "contractor": "Waste Pro",
    "rowid": "1025697",
    "final_x": "3718883.83289",
    "final_y": "560214.226973",
    "longitude": "-89.94893242422799",
    "latitude": "30.033205683763143",
    "geocoded_column": {
      "latitude": "30.033205683763143",
      "longitude": "-89.94893242422799"
    }
  },
  {
    "service_request": "2023-1025696",
    "request_type": "Trash/Recycling",
    "request_reason": "Request a Large Item Pick Up",
    "date_created": "2023-08-12T08:36:55.000",
    "date_modified": "2023-08-12T09:28:05.000",
    "request_status": "Pending",
    "responsible_agency": "Department of Sanitation",
    "final_address": "617 David St",
    "address_councildis": "A",
    "status": "Assigned to Contractor",
    "rowid": "1025696",
    "final_x": "3672047.77876",
    "final_y": "540096.798859",
    "longitude": "-90.09762503075697",
    "latitude": "29.97936260530238",
    "geocoded_column": {
      "latitude": "29.97936260530238",
      "longitude": "-90.09762503075697"
    }
  },
  {
    "service_request": "2023-1025695",
    "request_type": "Trash/Recycling",
    "request_reason": "Missed Trash Pick-Up",
    "date_created": "2023-08-12T08:33:01.000",
    "date_modified": "2023-08-12T08:34:16.000",
    "request_status": "Pending",
    "responsible_agency": "Department of Sanitation",
    "final_address": "6001 Kingston Ct",
    "address_councildis": "C",
    "status": "Assigned to Contractor",
    "contractor": "Richards Disposal",
    "rowid": "1025695",
    "final_x": "3706062.12171",
    "final_y": "517695.892982",
    "longitude": "-89.99102398775347",
    "latitude": "29.916715646196458",
    "geocoded_column": {
      "latitude": "29.916715646196458",
      "longitude": "-89.99102398775347"
    }
  },
  {
    "service_request": "2023-1025694",
    "request_type": "Trash/Recycling",
    "request_reason": "Repair Trash Cart",
    "date_created": "2023-08-12T08:22:49.000",
    "date_modified": "2023-08-12T08:22:50.000",
    "request_status": "Pending",
    "responsible_agency": "Department of Sanitation",
    "final_address": "4201 Monroe St",
    "address_councildis": "A",
    "status": "Assigned to Contractor",
    "contractor": "Richards Disposal",
    "rowid": "1025694",
    "final_x": "3667648.90215",
    "final_y": "537663.670856",
    "longitude": "-90.11160040758145",
    "latitude": "29.972802027356284",
    "geocoded_column": {
      "latitude": "29.972802027356284",
      "longitude": "-90.11160040758145"
    }
  },
  {
    "service_request": "2023-1025693",
    "request_type": "Trash/Recycling",
    "request_reason": "Request a Large Item Pick Up",
    "date_created": "2023-08-12T08:13:47.000",
    "date_modified": "2023-08-12T08:13:47.000",
    "request_status": "Pending",
    "responsible_agency": "Department of Sanitation",
    "final_address": "6422 Kuebel Dr",
    "address_councildis": "E",
    "status": "Assigned to Contractor",
    "contractor": "Waste Pro",
    "rowid": "1025693",
    "final_x": "3696511.54538",
    "final_y": "560169.059357",
    "longitude": "-90.01963236683345",
    "latitude": "30.033805739200485",
    "geocoded_column": {
      "latitude": "30.033805739200485",
      "longitude": "-90.01963236683345"
    }
  },
  {
    "service_request": "2023-1025692",
    "request_type": "Traffic Signals/Signs/Striping/Streetlights",
    "request_reason": "Traffic Signal Malfunctioning/Damaged",
    "date_created": "2023-08-12T08:13:27.000",
    "date_modified": "2023-08-12T08:13:27.000",
    "request_status": "Pending",
    "responsible_agency": "Department of Public Works",
    "final_address": "6003 Bullard Ave",
    "address_councildis": "E",
    "status": "Pending",
    "rowid": "1025692",
    "final_x": "3716107.82546",
    "final_y": "563950.871393",
    "longitude": "-89.95756300834744",
    "latitude": "30.043571875272146",
    "geocoded_column": {
      "latitude": "30.043571875272146",
      "longitude": "-89.95756300834744"
    }
  },
  {
    "service_request": "2023-1025691",
    "request_type": "Trash/Recycling",
    "request_reason": "Missed Trash Pick-Up",
    "date_created": "2023-08-12T08:12:18.000",
    "date_modified": "2023-08-12T08:12:19.000",
    "request_status": "Pending",
    "responsible_agency": "Department of Sanitation",
    "final_address": "6422 Kuebel Dr",
    "address_councildis": "E",
    "status": "Assigned to Contractor",
    "contractor": "Waste Pro",
    "rowid": "1025691",
    "final_x": "3696511.54538",
    "final_y": "560169.059357",
    "longitude": "-90.01963236683345",
    "latitude": "30.033805739200485",
    "geocoded_column": {
      "latitude": "30.033805739200485",
      "longitude": "-90.01963236683345"
    }
  },
  {
    "service_request": "2023-1025690",
    "request_type": "Trash/Recycling",
    "request_reason": "Replace Recycling Cart",
    "date_created": "2023-08-12T08:10:54.000",
    "date_modified": "2023-08-12T08:10:54.000",
    "request_status": "Pending",
    "responsible_agency": "Department of Sanitation",
    "final_address": "11409 S St Andrews Cir",
    "address_councildis": "E",
    "status": "Pending",
    "rowid": "1025690",
    "final_x": "3719394.09842",
    "final_y": "559463.820829",
    "longitude": "-89.94734863775516",
    "latitude": "30.03112540886941",
    "geocoded_column": {
      "latitude": "30.03112540886941",
      "longitude": "-89.94734863775516"
    }
  },
  {
    "service_request": "2023-1025689",
    "request_type": "Trash/Recycling",
    "request_reason": "Request a Large Item Pick Up",
    "date_created": "2023-08-12T07:58:35.000",
    "date_modified": "2023-08-12T09:48:55.000",
    "case_close_date": "2023-08-12T04:48:55.000",
    "request_status": "Closed",
    "responsible_agency": "Department of Sanitation",
    "final_address": "11409 S St Andrews Cir",
    "address_councildis": "E",
    "status": "Duplicate Request",
    "contractor": "Waste Pro",
    "contractor_action": "duplicate",
    "rowid": "1025689",
    "final_x": "3719394.09842",
    "final_y": "559463.820829",
    "longitude": "-89.94734863775516",
    "latitude": "30.03112540886941",
    "geocoded_column": {
      "latitude": "30.03112540886941",
      "longitude": "-89.94734863775516"
    }
  },
  {
    "service_request": "2023-1025688",
    "request_type": "Trash/Recycling",
    "request_reason": "MIssed Recycling Pick-Up",
    "date_created": "2023-08-12T07:57:06.000",
    "date_modified": "2023-08-12T07:57:06.000",
    "request_status": "Pending",
    "responsible_agency": "Department of Sanitation",
    "final_address": "1739 Jourdan Ave",
    "address_councildis": "E",
    "status": "Assigned to Contractor",
    "contractor": "Waste Pro",
    "rowid": "1025688",
    "final_x": "3695796.68086",
    "final_y": "537035.32884",
    "longitude": "-90.02272758638351",
    "latitude": "29.970219059564368",
    "geocoded_column": {
      "latitude": "29.970219059564368",
      "longitude": "-90.02272758638351"
    }
  },
  {
    "service_request": "2023-1025687",
    "request_type": "Trash/Recycling",
    "request_reason": "MIssed Recycling Pick-Up",
    "date_created": "2023-08-12T07:52:09.000",
    "date_modified": "2023-08-12T08:50:42.000",
    "request_status": "Pending",
    "responsible_agency": "Department of Sanitation",
    "final_address": "New Orleans,LA",
    "address_councildis": "E",
    "status": "Assigned to Contractor",
    "contractor": "Waste Pro",
    "rowid": "1025687",
    "final_x": "3695796.68086",
    "final_y": "537035.32884",
    "longitude": "-90.02272758638351",
    "latitude": "29.970219059564368",
    "geocoded_column": {
      "latitude": "29.970219059564368",
      "longitude": "-90.02272758638351"
    }
  },
  {
    "service_request": "2023-1025686",
    "request_type": "Property Maintenance",
    "request_reason": "Property Maintenance",
    "date_created": "2023-08-12T07:49:56.000",
    "date_modified": "2023-08-12T07:49:57.000",
    "request_status": "Pending",
    "responsible_agency": "Department of Code Enforcement",
    "final_address": "1032 Michael St",
    "address_councildis": "C",
    "status": "Pending",
    "rowid": "1025686",
    "final_x": "3697298.53687",
    "final_y": "527432.718527",
    "longitude": "-90.01833262281956",
    "latitude": "29.943767953003267",
    "geocoded_column": {
      "latitude": "29.943767953003267",
      "longitude": "-90.01833262281956"
    }
  },
  {
    "service_request": "2023-1025685",
    "request_type": "Roads/Drainage",
    "request_reason": "Street Flooding / Drainage",
    "date_created": "2023-08-12T07:49:37.000",
    "date_modified": "2023-08-12T07:49:37.000",
    "request_status": "Pending",
    "responsible_agency": "Department of Public Works",
    "final_address": "7100 General Diaz St",
    "address_councildis": "A",
    "status": "Pending",
    "rowid": "1025685",
    "final_x": "3670068.35514",
    "final_y": "554267.537304",
    "longitude": "-90.10339643311849",
    "latitude": "30.018385764567693",
    "geocoded_column": {
      "latitude": "30.018385764567693",
      "longitude": "-90.10339643311849"
    }
  },
  {
    "service_request": "2023-1025684",
    "request_type": "Trash/Recycling",
    "request_reason": "Missed Trash Pick-Up",
    "date_created": "2023-08-12T07:48:57.000",
    "date_modified": "2023-08-12T07:48:57.000",
    "request_status": "Pending",
    "responsible_agency": "Department of Sanitation",
    "final_address": "7 Everett Pl",
    "address_councildis": "A",
    "status": "Assigned to Contractor",
    "contractor": "Richards Disposal",
    "rowid": "1025684",
    "final_x": "3666449.69236",
    "final_y": "523220.685435",
    "longitude": "-90.1158723995157",
    "latitude": "29.933123626913464",
    "geocoded_column": {
      "latitude": "29.933123626913464",
      "longitude": "-90.1158723995157"
    }
  },
  {
    "service_request": "2023-1025683",
    "request_type": "Trash/Recycling",
    "request_reason": "Order Recycling Cart",
    "date_created": "2023-08-12T07:46:42.000",
    "date_modified": "2023-08-12T07:46:42.000",
    "request_status": "Pending",
    "responsible_agency": "Department of Sanitation",
    "final_address": "2012 Pauger St",
    "address_councildis": "C",
    "status": "Pending",
    "rowid": "1025683",
    "final_x": "3683776.70204",
    "final_y": "537073.283592",
    "longitude": "-90.06068656817261",
    "latitude": "29.97069598027497",
    "geocoded_column": {
      "latitude": "29.97069598027497",
      "longitude": "-90.06068656817261"
    }
  },
  {
    "service_request": "2023-1025682",
    "request_type": "Trash/Recycling",
    "request_reason": "Order Trash Cart",
    "date_created": "2023-08-12T07:45:21.000",
    "date_modified": "2023-08-12T07:45:22.000",
    "request_status": "Pending",
    "responsible_agency": "Department of Sanitation",
    "final_address": "2012 Pauger St",
    "address_councildis": "C",
    "status": "Assigned to Contractor",
    "contractor": "IV Waste",
    "rowid": "1025682",
    "final_x": "3683776.70204",
    "final_y": "537073.283592",
    "longitude": "-90.06068656817261",
    "latitude": "29.97069598027497",
    "geocoded_column": {
      "latitude": "29.97069598027497",
      "longitude": "-90.06068656817261"
    }
  },
  {
    "service_request": "2023-1025681",
    "request_type": "Roads/Drainage",
    "request_reason": "Pothole",
    "date_created": "2023-08-12T07:32:12.000",
    "date_modified": "2023-08-12T07:32:12.000",
    "request_status": "Pending",
    "responsible_agency": "Department of Public Works",
    "final_address": "7100 General Diaz St",
    "address_councildis": "A",
    "status": "Pending",
    "rowid": "1025681",
    "final_x": "3670068.35514",
    "final_y": "554267.537304",
    "longitude": "-90.10339643311849",
    "latitude": "30.018385764567693",
    "geocoded_column": {
      "latitude": "30.018385764567693",
      "longitude": "-90.10339643311849"
    }
  },
  {
    "service_request": "2023-1025680",
    "request_type": "Trash/Recycling",
    "request_reason": "Missed Trash Pick-Up",
    "date_created": "2023-08-12T07:16:47.000",
    "date_modified": "2023-08-12T09:39:43.000",
    "case_close_date": "2023-08-12T04:39:43.000",
    "request_status": "Closed",
    "responsible_agency": "Department of Sanitation",
    "final_address": "3925 N Robertson St",
    "address_councildis": "D",
    "status": "Resolved",
    "contractor": "IV Waste",
    "contractor_action": "Completed",
    "rowid": "1025680",
    "final_x": "3692072.93385",
    "final_y": "536859.147656",
    "longitude": "-90.03449383394297",
    "latitude": "29.969851211436826",
    "geocoded_column": {
      "latitude": "29.969851211436826",
      "longitude": "-90.03449383394297"
    }
  },
  {
    "service_request": "2023-1025679",
    "request_type": "Trash/Recycling",
    "request_reason": "Illegal Dumping",
    "date_created": "2023-08-12T07:14:28.000",
    "date_modified": "2023-08-12T07:14:28.000",
    "request_status": "Pending",
    "responsible_agency": "Department of Sanitation",
    "final_address": "2508 Cambronne St",
    "address_councildis": "A",
    "status": "Pending",
    "rowid": "1025679",
    "final_x": "3664358.27303",
    "final_y": "532662.895492",
    "longitude": "-90.12215981675588",
    "latitude": "29.959147604624253",
    "geocoded_column": {
      "latitude": "29.959147604624253",
      "longitude": "-90.12215981675588"
    }
  },
  {
    "service_request": "2023-1025678",
    "request_type": "Roads/Drainage",
    "request_reason": "Pothole",
    "date_created": "2023-08-12T07:02:32.000",
    "date_modified": "2023-08-12T07:02:32.000",
    "request_status": "Pending",
    "responsible_agency": "Department of Public Works",
    "final_address": "2336 Esplanade Ave",
    "address_councildis": "D",
    "status": "Pending",
    "rowid": "1025678",
    "final_x": "3679018.56155",
    "final_y": "538228.078793",
    "longitude": "-90.07567332324639",
    "latitude": "29.974015723686342",
    "geocoded_column": {
      "latitude": "29.974015723686342",
      "longitude": "-90.07567332324639"
    }
  },
  {
    "service_request": "2023-1025677",
    "request_type": "Trash/Recycling",
    "request_reason": "Return Trash Cart",
    "date_created": "2023-08-12T06:57:19.000",
    "date_modified": "2023-08-12T06:57:19.000",
    "request_status": "Pending",
    "responsible_agency": "Department of Sanitation",
    "final_address": "1733 St Philip St",
    "address_councildis": "D",
    "status": "Assigned to Contractor",
    "contractor": "Richards Disposal",
    "rowid": "1025677",
    "final_x": "3680201.50581",
    "final_y": "535735.497223",
    "longitude": "-90.07202397329586",
    "latitude": "29.96712622734516",
    "geocoded_column": {
      "latitude": "29.96712622734516",
      "longitude": "-90.07202397329586"
    }
  },
  {
    "service_request": "2023-1025676",
    "request_type": "Traffic Signals/Signs/Striping/Streetlights",
    "request_reason": "Traffic Sign Missing/Damaged",
    "date_created": "2023-08-12T06:38:20.000",
    "date_modified": "2023-08-12T06:38:20.000",
    "request_status": "Pending",
    "responsible_agency": "Department of Public Works",
    "final_address": "MAJESTIC OAKS DR & DREUX AVE",
    "address_councildis": "D",
    "status": "Pending",
    "rowid": "1025676",
    "final_x": "3697769.1",
    "final_y": "553994.08",
    "longitude": "-90.01588272806416",
    "latitude": "30.016787200002423",
    "geocoded_column": {
      "latitude": "30.016787200002423",
      "longitude": "-90.01588272806416"
    }
  },
  {
    "service_request": "2023-1025675",
    "request_type": "Traffic Signals/Signs/Striping/Streetlights",
    "request_reason": "Traffic Sign Missing/Damaged",
    "date_created": "2023-08-12T06:31:13.000",
    "date_modified": "2023-08-12T06:31:13.000",
    "request_status": "Pending",
    "responsible_agency": "Department of Public Works",
    "final_address": "MAJESTIC OAKS DR & DREUX AVE",
    "address_councildis": "D",
    "status": "Pending",
    "rowid": "1025675",
    "final_x": "3697769.1",
    "final_y": "553994.08",
    "longitude": "-90.01588272806416",
    "latitude": "30.016787200002423",
    "geocoded_column": {
      "latitude": "30.016787200002423",
      "longitude": "-90.01588272806416"
    }
  },
  {
    "service_request": "2023-1025674",
    "request_type": "Trash/Recycling",
    "request_reason": "MIssed Recycling Pick-Up",
    "date_created": "2023-08-12T06:26:39.000",
    "date_modified": "2023-08-12T06:26:39.000",
    "request_status": "Pending",
    "responsible_agency": "Department of Sanitation",
    "final_address": "1728 S Rendon St",
    "address_councildis": "B",
    "status": "Assigned to Contractor",
    "contractor": "Richards Disposal",
    "rowid": "1025674",
    "final_x": "3669580.17735",
    "final_y": "530560.783554",
    "longitude": "-90.10574138784025",
    "latitude": "29.953214684543667",
    "geocoded_column": {
      "latitude": "29.953214684543667",
      "longitude": "-90.10574138784025"
    }
  },
  {
    "service_request": "2023-1025673",
    "request_type": "Mosquito, Termite & Rodent Control",
    "request_reason": "Rodent Complaint (Rats)",
    "date_created": "2023-08-12T04:52:45.000",
    "date_modified": "2023-08-12T04:52:45.000",
    "request_status": "Pending",
    "responsible_agency": "Mosquito, Termite & Rodent Control Board",
    "final_address": "7818 Duke Ct",
    "address_councildis": "E",
    "status": "Pending",
    "rowid": "1025673",
    "final_x": "3699966.716",
    "final_y": "561204.250398",
    "longitude": "-90.00867586632708",
    "latitude": "30.036542738229226",
    "geocoded_column": {
      "latitude": "30.036542738229226",
      "longitude": "-90.00867586632708"
    }
  },
  {
    "service_request": "2023-1025672",
    "request_type": "Roads/Drainage",
    "request_reason": "Pothole",
    "date_created": "2023-08-12T01:34:26.000",
    "date_modified": "2023-08-12T01:34:26.000",
    "request_status": "Pending",
    "responsible_agency": "Department of Public Works",
    "final_address": "1421 Constantinople St",
    "address_councildis": "B",
    "status": "Pending",
    "rowid": "1025672",
    "final_x": "3672433.24257",
    "final_y": "520667.657465",
    "longitude": "-90.09706965638372",
    "latitude": "29.925927453713577",
    "geocoded_column": {
      "latitude": "29.925927453713577",
      "longitude": "-90.09706965638372"
    }
  },
  {
    "service_request": "2023-1025671",
    "request_type": "Roads/Drainage",
    "request_reason": "Pothole",
    "date_created": "2023-08-12T00:28:16.000",
    "date_modified": "2023-08-12T00:28:16.000",
    "request_status": "Pending",
    "responsible_agency": "Department of Public Works",
    "final_address": "1427 General Pershing St",
    "address_councildis": "B",
    "status": "Pending",
    "rowid": "1025671",
    "final_x": "3671330.17102",
    "final_y": "520583.22316",
    "longitude": "-90.10055460321166",
    "latitude": "29.92572796471359",
    "geocoded_column": {
      "latitude": "29.92572796471359",
      "longitude": "-90.10055460321166"
    }
  },
  {
    "service_request": "2023-1025670",
    "request_type": "Roads/Drainage",
    "request_reason": "Leaking Hydrant",
    "date_created": "2023-08-12T00:09:08.000",
    "date_modified": "2023-08-12T00:09:08.000",
    "request_status": "Pending",
    "responsible_agency": "Department of Public Works",
    "final_address": "3600 St Charles Ave",
    "address_councildis": "B",
    "status": "Pending",
    "rowid": "1025670",
    "final_x": "3673485.80808",
    "final_y": "521134.826873",
    "longitude": "-90.09373105838957",
    "latitude": "29.927180751250134",
    "geocoded_column": {
      "latitude": "29.927180751250134",
      "longitude": "-90.09373105838957"
    }
  },
  {
    "service_request": "2023-1025669",
    "request_type": "Trash/Recycling",
    "request_reason": "Illegal Dumping",
    "date_created": "2023-08-11T23:55:36.000",
    "date_modified": "2023-08-11T23:55:36.000",
    "request_status": "Pending",
    "responsible_agency": "Department of Sanitation",
    "final_address": "4822 Wilson Ave",
    "address_councildis": "E",
    "status": "Pending",
    "rowid": "1025669",
    "final_x": "3702890.37329",
    "final_y": "555335.995609",
    "longitude": "-89.99965242342226",
    "latitude": "30.020314053417515",
    "geocoded_column": {
      "latitude": "30.020314053417515",
      "longitude": "-89.99965242342226"
    }
  },
  {
    "service_request": "2023-1025668",
    "request_type": "Property Maintenance",
    "request_reason": "Property Maintenance",
    "date_created": "2023-08-11T23:50:12.000",
    "date_modified": "2023-08-11T23:50:12.000",
    "request_status": "Pending",
    "responsible_agency": "Department of Code Enforcement",
    "final_address": "4883 Wilson Ave",
    "address_councildis": "E",
    "status": "Pending",
    "rowid": "1025668",
    "final_x": "3703022.9747",
    "final_y": "555812.258265",
    "longitude": "-89.99921592584936",
    "latitude": "30.021619348181943",
    "geocoded_column": {
      "latitude": "30.021619348181943",
      "longitude": "-89.99921592584936"
    }
  },
  {
    "service_request": "2023-1025667",
    "request_type": "Roads/Drainage",
    "request_reason": "Pothole",
    "date_created": "2023-08-11T23:39:42.000",
    "date_modified": "2023-08-11T23:39:42.000",
    "request_status": "Pending",
    "responsible_agency": "Department of Public Works",
    "final_address": "1315 Peniston St",
    "address_councildis": "B",
    "status": "Pending",
    "rowid": "1025667",
    "final_x": "3673101.31451",
    "final_y": "520423.11276",
    "longitude": "-90.09496908964098",
    "latitude": "29.925235197927364",
    "geocoded_column": {
      "latitude": "29.925235197927364",
      "longitude": "-90.09496908964098"
    }
  },
  {
    "service_request": "2023-1025666",
    "request_type": "Roads/Drainage",
    "request_reason": "Pothole",
    "date_created": "2023-08-11T23:29:00.000",
    "date_modified": "2023-08-11T23:29:00.000",
    "request_status": "Pending",
    "responsible_agency": "Department of Public Works",
    "final_address": "1312 Milan St",
    "address_councildis": "B",
    "status": "Pending",
    "rowid": "1025666",
    "final_x": "3671625.82823",
    "final_y": "520286.919608",
    "longitude": "-90.09963137110304",
    "latitude": "29.92490447494246",
    "geocoded_column": {
      "latitude": "29.92490447494246",
      "longitude": "-90.09963137110304"
    }
  },
  {
    "service_request": "2023-1025665",
    "request_type": "Trash/Recycling",
    "request_reason": "Request a Large Item Pick Up",
    "date_created": "2023-08-11T23:19:40.000",
    "date_modified": "2023-08-12T10:12:47.000",
    "case_close_date": "2023-08-12T05:12:47.000",
    "request_status": "Closed",
    "responsible_agency": "Department of Sanitation",
    "final_address": "7721 Downman Rd",
    "address_councildis": "D",
    "status": "Assigned to Contractor",
    "contractor": "Waste Pro",
    "contractor_action": "Completed",
    "rowid": "1025665",
    "final_x": "3694620.02275",
    "final_y": "558852.036828",
    "longitude": "-90.02565727393257",
    "latitude": "30.030243923770996",
    "geocoded_column": {
      "latitude": "30.030243923770996",
      "longitude": "-90.02565727393257"
    }
  },
  {
    "service_request": "2023-1025664",
    "request_type": "Mosquito, Termite & Rodent Control",
    "request_reason": "Rodent Complaint (Rats)",
    "date_created": "2023-08-11T22:41:35.000",
    "date_modified": "2023-08-11T22:41:35.000",
    "request_status": "Pending",
    "responsible_agency": "Mosquito, Termite & Rodent Control Board",
    "final_address": "1718 Delery St",
    "address_councildis": "E",
    "status": "Pending",
    "rowid": "1025664",
    "final_x": "3701307.92157",
    "final_y": "535206.43847",
    "longitude": "-90.00538956182747",
    "latitude": "29.965015789392837",
    "geocoded_column": {
      "latitude": "29.965015789392837",
      "longitude": "-90.00538956182747"
    }
  },
  {
    "service_request": "2023-1025663",
    "request_type": "Traffic Signals/Signs/Striping/Streetlights",
    "request_reason": "Street Light Outage/Malfunction",
    "date_created": "2023-08-11T22:34:29.000",
    "date_modified": "2023-08-11T22:34:30.000",
    "request_status": "Pending",
    "responsible_agency": "Department of Public Works",
    "status": "Assigned to Contractor",
    "contractor": "Legacy Professional Services",
    "rowid": "1025663",
    "longitude": "0.0",
    "latitude": "0.0",
    "geocoded_column": {
      "latitude": "0.0",
      "longitude": "0.0"
    }
  },
  {
    "service_request": "2023-1025661",
    "request_type": "Parks & Parkways",
    "request_reason": "Request Tree Service (Right of Way/Public Property)",
    "date_created": "2023-08-11T21:32:36.000",
    "date_modified": "2023-08-11T21:32:36.000",
    "request_status": "Pending",
    "responsible_agency": "Department of Parks & Parkway",
    "final_address": "2200 BLK Upperline St",
    "address_councildis": "B",
    "status": "Pending",
    "rowid": "1025661",
    "final_x": "3669135.49568",
    "final_y": "523020.49607",
    "longitude": "-90.10740023666168",
    "latitude": "29.93249443019217",
    "geocoded_column": {
      "latitude": "29.93249443019217",
      "longitude": "-90.10740023666168"
    }
  },
  {
    "service_request": "2023-1025660",
    "request_type": "Traffic Signals/Signs/Striping/Streetlights",
    "request_reason": "Street Light Outage/Malfunction",
    "date_created": "2023-08-11T21:20:09.000",
    "date_modified": "2023-08-11T21:20:10.000",
    "request_status": "Pending",
    "responsible_agency": "Department of Public Works",
    "final_address": "Interstate 610 & Orleans Avenue",
    "address_councildis": "A",
    "status": "Assigned to Contractor",
    "contractor": "Legacy Professional Services",
    "rowid": "1025660",
    "final_x": "3670761.8626",
    "final_y": "545732.125456",
    "longitude": "-90.10149512819247",
    "latitude": "29.99489589055346",
    "geocoded_column": {
      "latitude": "29.99489589055346",
      "longitude": "-90.10149512819247"
    }
  },
  {
    "service_request": "2023-1025659",
    "request_type": "Traffic Signals/Signs/Striping/Streetlights",
    "request_reason": "Street Light Outage/Malfunction",
    "date_created": "2023-08-11T20:59:31.000",
    "date_modified": "2023-08-11T20:59:31.000",
    "request_status": "Pending",
    "responsible_agency": "Department of Public Works",
    "final_address": "2782 Marengo St",
    "address_councildis": "B",
    "status": "Assigned to Contractor",
    "contractor": "Legacy Professional Services",
    "rowid": "1025659",
    "final_x": "3671491.67617",
    "final_y": "525157.228093",
    "longitude": "-90.09988935242586",
    "latitude": "29.938300226411275",
    "geocoded_column": {
      "latitude": "29.938300226411275",
      "longitude": "-90.09988935242586"
    }
  },
  {
    "service_request": "2023-1025658",
    "request_type": "Trash/Recycling",
    "request_reason": "Request a Large Item Pick Up",
    "date_created": "2023-08-11T20:38:17.000",
    "date_modified": "2023-08-11T20:38:18.000",
    "request_status": "Pending",
    "responsible_agency": "Department of Sanitation",
    "final_address": "5000 BLK Perrier St",
    "address_councildis": "B",
    "status": "Assigned to Contractor",
    "contractor": "Richards Disposal",
    "rowid": "1025658",
    "final_x": "3668533.44964",
    "final_y": "519893.863215",
    "longitude": "-90.10940628097809",
    "latitude": "29.923914882660526",
    "geocoded_column": {
      "latitude": "29.923914882660526",
      "longitude": "-90.10940628097809"
    }
  },
  {
    "service_request": "2023-1025654",
    "request_type": "Traffic Signals/Signs/Striping/Streetlights",
    "request_reason": "Traffic Signal Malfunctioning/Damaged",
    "date_created": "2023-08-11T20:20:06.000",
    "date_modified": "2023-08-11T20:20:06.000",
    "request_status": "Pending",
    "responsible_agency": "Department of Public Works",
    "final_address": "OLIVIER ST & ELIZA ST",
    "address_councildis": "C",
    "status": "Pending",
    "rowid": "1025654",
    "final_x": "3687262.4",
    "final_y": "529919.48",
    "longitude": "-90.04993138792888",
    "latitude": "29.950918583582993",
    "geocoded_column": {
      "latitude": "29.950918583582993",
      "longitude": "-90.04993138792888"
    }
  },
  {
    "service_request": "2023-1025653",
    "request_type": "Trash/Recycling",
    "request_reason": "Illegal Dumping",
    "date_created": "2023-08-11T20:10:53.000",
    "date_modified": "2023-08-11T20:10:53.000",
    "request_status": "Pending",
    "responsible_agency": "Department of Sanitation",
    "final_address": "BERKLEY DR & KABEL DR",
    "address_councildis": "C",
    "status": "Pending",
    "rowid": "1025653",
    "final_x": "3700629.6",
    "final_y": "518288.78",
    "longitude": "-90.00814951473168",
    "latitude": "29.918519754196833",
    "geocoded_column": {
      "latitude": "29.918519754196833",
      "longitude": "-90.00814951473168"
    }
  },
  {
    "service_request": "2023-1025652",
    "request_type": "Trash/Recycling",
    "request_reason": "Missed Trash Pick-Up",
    "date_created": "2023-08-11T19:58:35.000",
    "date_modified": "2023-08-12T09:40:27.000",
    "case_close_date": "2023-08-12T04:40:27.000",
    "request_status": "Closed",
    "responsible_agency": "Department of Sanitation",
    "final_address": "1312 Frenchmen St",
    "address_councildis": "C",
    "status": "Resolved",
    "contractor": "IV Waste",
    "contractor_action": "Completed",
    "rowid": "1025652",
    "final_x": "3684493.90626",
    "final_y": "537134.566792",
    "longitude": "-90.058419400755",
    "latitude": "29.970842565222124",
    "geocoded_column": {
      "latitude": "29.970842565222124",
      "longitude": "-90.058419400755"
    }
  },
  {
    "service_request": "2023-1025651",
    "request_type": "Abandoned Vehicles",
    "request_reason": "Abandoned/Junk Vehicles",
    "date_created": "2023-08-11T19:14:04.000",
    "date_modified": "2023-08-11T19:14:04.000",
    "request_status": "Pending",
    "responsible_agency": "Department of Public Works",
    "final_address": "3024 Ursulines Ave",
    "address_councildis": "A",
    "status": "Pending",
    "rowid": "1025651",
    "final_x": "3676300.8644",
    "final_y": "539082.899082",
    "longitude": "-90.08422700234851",
    "latitude": "29.97644792659096",
    "geocoded_column": {
      "latitude": "29.97644792659096",
      "longitude": "-90.08422700234851"
    }
  },
  {
    "service_request": "2023-1025650",
    "request_type": "Trash/Recycling",
    "request_reason": "Missed Trash Pick-Up",
    "date_created": "2023-08-11T19:13:36.000",
    "date_modified": "2023-08-12T09:41:15.000",
    "case_close_date": "2023-08-12T04:41:15.000",
    "request_status": "Closed",
    "responsible_agency": "Department of Sanitation",
    "final_address": "2614 Painters St",
    "address_councildis": "D",
    "status": "Resolved",
    "contractor": "IV Waste",
    "contractor_action": "Completed",
    "rowid": "1025650",
    "final_x": "3687066.76476",
    "final_y": "542164.471565",
    "longitude": "-90.05011611475177",
    "latitude": "29.984594065737426",
    "geocoded_column": {
      "latitude": "29.984594065737426",
      "longitude": "-90.05011611475177"
    }
  },
  {
    "service_request": "2023-1025649",
    "request_type": "Property Maintenance",
    "request_reason": "Property Maintenance",
    "date_created": "2023-08-11T18:41:17.000",
    "date_modified": "2023-08-11T18:41:17.000",
    "request_status": "Pending",
    "responsible_agency": "Department of Code Enforcement",
    "final_address": "3530 Rue Delphine",
    "address_councildis": "C",
    "status": "Pending",
    "rowid": "1025649",
    "final_x": "3703099.76298",
    "final_y": "517646.425398",
    "longitude": "-90.00037616316847",
    "latitude": "29.916674716567393",
    "geocoded_column": {
      "latitude": "29.916674716567393",
      "longitude": "-90.00037616316847"
    }
  },
  {
    "service_request": "2023-1025648",
    "request_type": "Abandoned Vehicles",
    "request_reason": "Abandoned/Junk Vehicles",
    "date_created": "2023-08-11T18:38:32.000",
    "date_modified": "2023-08-11T18:38:33.000",
    "request_status": "Pending",
    "responsible_agency": "Department of Public Works",
    "final_address": "7301 Dwyer Rd",
    "address_councildis": "E",
    "status": "Pending",
    "rowid": "1025648",
    "final_x": "3701788.68253",
    "final_y": "556387.274714",
    "longitude": "-90.00309483990792",
    "latitude": "30.023239879821052",
    "geocoded_column": {
      "latitude": "30.023239879821052",
      "longitude": "-90.00309483990792"
    }
  },
  {
    "service_request": "2023-1025647",
    "request_type": "Trash/Recycling",
    "request_reason": "Missed Trash Pick-Up",
    "date_created": "2023-08-11T18:26:33.000",
    "date_modified": "2023-08-11T18:26:33.000",
    "request_status": "Pending",
    "responsible_agency": "Department of Sanitation",
    "final_address": "7101 Ransom St",
    "address_councildis": "E",
    "status": "Assigned to Contractor",
    "contractor": "Waste Pro",
    "rowid": "1025647",
    "final_x": "3701385.72113",
    "final_y": "553437.792023",
    "longitude": "-90.00447618524782",
    "latitude": "30.015142786807836",
    "geocoded_column": {
      "latitude": "30.015142786807836",
      "longitude": "-90.00447618524782"
    }
  },