[
  {
    "service_request": "2025-1194878",
    "request_type": "Health Related Request",
    "request_reason": "Noise Ordinance Complaint",
    "date_created": "2025-05-24T23:28:57.000",
    "date_modified": "2025-05-24T23:28:59.000",
    "request_status": "Pending",
    "responsible_agency": "Health Department",
    "final_address": "600 N Broad St",
    "address_councildis": "D",
    "status": "Pending",
    "rowid": "1194878",
    "final_x": "3676514.68328",
    "final_y": "536431.051079",
    "longitude": "-90.0836430411453",
    "latitude": "29.969149839828454",
    "geocoded_column": {
      "latitude": "29.969149839828454",
      "longitude": "-90.0836430411453"
    }
  },
  {
    "service_request": "2025-1194877",
    "request_type": "Drainage",
    "request_reason": "Catch Basin Clogged",
    "date_created": "2025-05-24T23:27:22.000",
    "date_modified": "2025-05-24T23:27:24.000",
    "request_status": "Pending",
    "responsible_agency": "Sewerage & Water Board",
    "final_address": "3411 Coliseum St",
    "address_councildis": "B",
    "status": "Pending",
    "rowid": "1194877",
    "final_x": "3674419.98766",
    "final_y": "520548.178488",
    "longitude": "-90.09080216983864",
    "latitude": "29.925539835465116",
    "geocoded_column": {
      "latitude": "29.925539835465116",
      "longitude": "-90.09080216983864"
    }
  },
  {
    "service_request": "2025-1194876",
    "request_type": "Drainage",
    "request_reason": "Catch Basin Clogged",
    "date_created": "2025-05-24T23:26:20.000",
    "date_modified": "2025-05-24T23:26:23.000",
    "request_status": "Pending",
    "responsible_agency": "Sewerage & Water Board",
    "final_address": "3411 Coliseum St",
    "address_councildis": "B",
    "status": "Pending",
    "rowid": "1194876",
    "final_x": "3674419.98766",
    "final_y": "520548.178488",
    "longitude": "-90.09080216983864",
    "latitude": "29.925539835465116",
    "geocoded_column": {
      "latitude": "29.925539835465116",
      "longitude": "-90.09080216983864"
    }
  },
  {
    "service_request": "2025-1194875",
    "request_type": "Drainage",
    "request_reason": "Catch Basin Clogged",
    "date_created": "2025-05-24T23:25:10.000",
    "date_modified": "2025-05-24T23:25:12.000",
    "request_status": "Pending",
    "responsible_agency": "Sewerage & Water Board",
    "final_address": "3411 Coliseum St",
    "address_councildis": "B",
    "status": "Pending",
    "rowid": "1194875",
    "final_x": "3674419.98766",
    "final_y": "520548.178488",
    "longitude": "-90.09080216983864",
    "latitude": "29.925539835465116",
    "geocoded_column": {
      "latitude": "29.925539835465116",
      "longitude": "-90.09080216983864"
    }
  },
  {
    "service_request": "2025-1194874",
    "request_type": "Trash/Recycling",
    "request_reason": "Replace Trash Cart",
    "date_created": "2025-05-24T23:22:37.000",
    "date_modified": "2025-05-24T23:22:39.000",
    "request_status": "Pending",
    "responsible_agency": "Department of Sanitation",
    "final_address": "3409 Coliseum St",
    "address_councildis": "B",
    "status": "Assigned to Contractor",
    "contractor": "IV Waste",
    "rowid": "1194874",
    "final_x": "3674438.80449",
    "final_y": "520553.753848",
    "longitude": "-90.09074257995266",
    "latitude": "29.92555460483354",
    "geocoded_column": {
      "latitude": "29.92555460483354",
      "longitude": "-90.09074257995266"
    }
  },
  {
    "service_request": "2025-1194873",
    "request_type": "Road Striping",
    "request_reason": "Lane Striping or other Pavement Markings",
    "date_created": "2025-05-24T22:11:28.000",
    "date_modified": "2025-05-24T22:11:30.000",
    "request_status": "Pending",
    "responsible_agency": "Department of Public Works",
    "final_address": "Short Street & South Claiborne Avenue",
    "address_councildis": "A",
    "status": "Pending",
    "rowid": "1194873",
    "final_x": "3665211.08423",
    "final_y": "531270.521346",
    "longitude": "-90.11951341263841",
    "latitude": "29.95529421613313",
    "geocoded_column": {
      "latitude": "29.95529421613313",
      "longitude": "-90.11951341263841"
    }
  },
  {
    "service_request": "2025-1194872",
    "request_type": "Streetlights",
    "request_reason": "Streetlight Outage/Malfunction",
    "date_created": "2025-05-24T21:43:07.000",
    "date_modified": "2025-05-24T21:43:09.000",
    "request_status": "Pending",
    "responsible_agency": "Department of Public Works",
    "final_address": "2621 Fourth St",
    "address_councildis": "B",
    "status": "Pending",
    "contractor": "Legacy Professional Services",
    "rowid": "1194872",
    "final_x": "3674109.76308",
    "final_y": "525900.507517",
    "longitude": "-90.09159835838663",
    "latitude": "29.940266249676128",
    "geocoded_column": {
      "latitude": "29.940266249676128",
      "longitude": "-90.09159835838663"
    }
  },
  {
    "service_request": "2025-1194871",
    "request_type": "Parks & Parkways",
    "request_reason": "Request Tree Service (Right of Way/Public Property)",
    "date_created": "2025-05-24T21:26:32.000",
    "date_modified": "2025-05-24T21:26:34.000",
    "request_status": "Pending",
    "responsible_agency": "Department of Parks & Parkway",
    "final_address": "14211 Chef Menteur Hwy",
    "address_councildis": "E",
    "status": "Pending",
    "rowid": "1194871",
    "final_x": "3729815.82195",
    "final_y": "561325.235294",
    "longitude": "-89.91434332333519",
    "latitude": "30.035892795204653",
    "geocoded_column": {
      "latitude": "30.035892795204653",
      "longitude": "-89.91434332333519"
    }
  },
  {
    "service_request": "2025-1194870",
    "request_type": "Mosquito, Termite & Rodent Control",
    "request_reason": "Mosquito Complaint",
    "date_created": "2025-05-24T21:15:07.000",
    "date_modified": "2025-05-24T21:15:09.000",
    "request_status": "Pending",
    "responsible_agency": "Mosquito, Termite & Rodent Control Board",
    "final_address": "14211 Chef Menteur Hwy",
    "address_councildis": "E",
    "status": "Pending",
    "rowid": "1194870",
    "final_x": "3729815.82195",
    "final_y": "561325.235294",
    "longitude": "-89.91434332333519",
    "latitude": "30.035892795204653",
    "geocoded_column": {
      "latitude": "30.035892795204653",
      "longitude": "-89.91434332333519"
    }
  },
  {
    "service_request": "2025-1194869",
    "request_type": "Streetlights",
    "request_reason": "Streetlight Outage/Malfunction",
    "date_created": "2025-05-24T21:11:52.000",
    "date_modified": "2025-05-24T21:11:53.000",
    "request_status": "Pending",
    "responsible_agency": "Department of Public Works",
    "final_address": "14211 Chef Menteur Hwy",
    "address_councildis": "E",
    "status": "Pending",
    "contractor": "Legacy Professional Services",
    "rowid": "1194869",
    "final_x": "3729815.82195",
    "final_y": "561325.235294",
    "longitude": "-89.91434332333519",
    "latitude": "30.035892795204653",
    "geocoded_column": {
      "latitude": "30.035892795204653",
      "longitude": "-89.91434332333519"
    }
  },
  {
    "service_request": "2025-1194868",
    "request_type": "Streetlights",
    "request_reason": "Streetlight Outage/Malfunction",
    "date_created": "2025-05-24T21:11:11.000",
    "date_modified": "2025-05-24T21:11:14.000",
    "request_status": "Pending",
    "responsible_agency": "Department of Public Works",
    "final_address": "406 18Th St",
    "address_councildis": "A",
    "status": "Pending",
    "contractor": "Legacy Professional Services",
    "rowid": "1194868",
    "final_x": "3664752.15143",
    "final_y": "548662.080595",
    "longitude": "-90.12038123356905",
    "latitude": "30.00312854183508",
    "geocoded_column": {
      "latitude": "30.00312854183508",
      "longitude": "-90.12038123356905"
    }
  },
  {
    "service_request": "2025-1194867",
    "request_type": "Streetlights",
    "request_reason": "Streetlight Outage/Malfunction",
    "date_created": "2025-05-24T21:06:27.000",
    "date_modified": "2025-05-24T21:06:29.000",
    "request_status": "Pending",
    "responsible_agency": "Department of Public Works",
    "final_address": "345 18Th St",
    "address_councildis": "A",
    "status": "Pending",
    "contractor": "Legacy Professional Services",
    "rowid": "1194867",
    "final_x": "3664814.8576",
    "final_y": "548796.653011",
    "longitude": "-90.12017863356347",
    "latitude": "30.003496744260314",
    "geocoded_column": {
      "latitude": "30.003496744260314",
      "longitude": "-90.12017863356347"
    }
  },
  {
    "service_request": "2025-1194866",
    "request_type": "Trash/Recycling",
    "request_reason": "Replace Recycling Cart",
    "date_created": "2025-05-24T21:05:22.000",
    "date_modified": "2025-05-24T21:05:24.000",
    "request_status": "Pending",
    "responsible_agency": "Department of Sanitation",
    "final_address": "1659 Burbank Dr",
    "address_councildis": "D",
    "status": "Pending",
    "rowid": "1194866",
    "final_x": "3679518.85749",
    "final_y": "554480.650392",
    "longitude": "-90.07352893140455",
    "latitude": "30.01868943619863",
    "geocoded_column": {
      "latitude": "30.01868943619863",
      "longitude": "-90.07352893140455"
    }
  },
  {
    "service_request": "2025-1194865",
    "request_type": "Trash/Recycling",
    "request_reason": "Order Recycling Cart",
    "date_created": "2025-05-24T21:01:07.000",
    "date_modified": "2025-05-24T21:01:08.000",
    "request_status": "Pending",
    "responsible_agency": "Department of Sanitation",
    "final_address": "2645 Bristol Pl",
    "address_councildis": "C",
    "status": "Pending",
    "rowid": "1194865",
    "final_x": "3702555.69706",
    "final_y": "521191.725433",
    "longitude": "-90.00196342388394",
    "latitude": "29.92644046161899",
    "geocoded_column": {
      "latitude": "29.92644046161899",
      "longitude": "-90.00196342388394"
    }
  },
  {
    "service_request": "2025-1194864",
    "request_type": "General Services",
    "request_reason": "General Service Request",
    "date_created": "2025-05-24T20:39:41.000",
    "date_modified": "2025-05-24T20:39:42.000",
    "request_status": "Pending",
    "responsible_agency": "Orleans Parish Communication District",
    "final_address": "1403 S Galvez St, New Orleans, Louisiana, 70125",
    "address_councildis": "B",
    "status": "Pending",
    "rowid": "1194864",
    "final_x": "3673635.99297",
    "final_y": "529311.830785",
    "longitude": "-90.09297754331126",
    "latitude": "29.94966037660196",
    "geocoded_column": {
      "latitude": "29.94966037660196",
      "longitude": "-90.09297754331126"
    }
  },
  {
    "service_request": "2025-1194863",
    "request_type": "General Services",
    "request_reason": "General Service Request",
    "date_created": "2025-05-24T20:38:30.000",
    "date_modified": "2025-05-24T20:38:32.000",
    "request_status": "Pending",
    "responsible_agency": "Orleans Parish Communication District",
    "final_address": "1136 S Galvez St, New Orleans, Louisiana, 70125",
    "address_councildis": "B",
    "status": "Pending",
    "rowid": "1194863",
    "final_x": "3674361.48558",
    "final_y": "529770.339777",
    "longitude": "-90.09067112898232",
    "latitude": "29.95089951044395",
    "geocoded_column": {
      "latitude": "29.95089951044395",
      "longitude": "-90.09067112898232"
    }
  },
  {
    "service_request": "2025-1194862",
    "request_type": "Trash/Recycling",
    "request_reason": "Replace Trash Cart",
    "date_created": "2025-05-24T20:37:13.000",
    "date_modified": "2025-05-24T20:37:14.000",
    "request_status": "Pending",
    "responsible_agency": "Department of Sanitation",
    "final_address": "3952 Pauger St",
    "address_councildis": "D",
    "status": "Assigned to Contractor",
    "contractor": "IV Waste",
    "rowid": "1194862",
    "final_x": "3683081.39093",
    "final_y": "545506.98888",
    "longitude": "-90.06258706167682",
    "latitude": "29.993906925671883",
    "geocoded_column": {
      "latitude": "29.993906925671883",
      "longitude": "-90.06258706167682"
    }
  },
  {
    "service_request": "2025-1194861",
    "request_type": "Trash/Recycling",
    "request_reason": "Replace Trash Cart",
    "date_created": "2025-05-24T20:14:46.000",
    "date_modified": "2025-05-24T20:14:48.000",
    "request_status": "Pending",
    "responsible_agency": "Department of Sanitation",
    "final_address": "9540 Stroelitz St",
    "address_councildis": "A",
    "status": "Assigned to Contractor",
    "contractor": "IV Waste",
    "rowid": "1194861",
    "final_x": "3664034.31316",
    "final_y": "538466.751881",
    "longitude": "-90.12298921846669",
    "latitude": "29.97511571017116",
    "geocoded_column": {
      "latitude": "29.97511571017116",
      "longitude": "-90.12298921846669"
    }
  },
  {
    "service_request": "2025-1194859",
    "request_type": "Trash/Recycling",
    "request_reason": "Request a Large Item Pick Up",
    "date_created": "2025-05-24T19:58:47.000",
    "date_modified": "2025-05-24T19:58:50.000",
    "request_status": "Pending",
    "responsible_agency": "Department of Sanitation",
    "final_address": "5211 Kim Dr",
    "address_councildis": "E",
    "status": "Assigned to Contractor",
    "contractor": "Waste Pro",
    "rowid": "1194859",
    "final_x": "3727720.14515",
    "final_y": "564274.958241",
    "longitude": "-89.92085104000682",
    "latitude": "30.0440745007233",
    "geocoded_column": {
      "latitude": "30.0440745007233",
      "longitude": "-89.92085104000682"
    }
  },
  {
    "service_request": "2025-1194860",
    "request_type": "Trash/Recycling",
    "request_reason": "Request a Large Item Pick Up",
    "date_created": "2025-05-24T19:58:47.000",
    "date_modified": "2025-05-24T19:58:50.000",
    "request_status": "Pending",
    "responsible_agency": "Department of Sanitation",
    "final_address": "5211 Kim Dr",
    "address_councildis": "E",
    "status": "Assigned to Contractor",
    "contractor": "Waste Pro",
    "rowid": "1194860",
    "final_x": "3727720.14515",
    "final_y": "564274.958241",
    "longitude": "-89.92085104000682",
    "latitude": "30.0440745007233",
    "geocoded_column": {
      "latitude": "30.0440745007233",
      "longitude": "-89.92085104000682"
    }
  },
  {
    "service_request": "2025-1194858",
    "request_type": "Trash/Recycling",
    "request_reason": "Request a Large Item Pick Up",
    "date_created": "2025-05-24T19:54:42.000",
    "date_modified": "2025-05-24T19:54:44.000",
    "request_status": "Pending",
    "responsible_agency": "Department of Sanitation",
    "final_address": "6041 Elysian Fields Ave",
    "address_councildis": "D",
    "status": "Assigned to Contractor",
    "contractor": "IV Waste",
    "rowid": "1194858",
    "final_x": "3683605.85641",
    "final_y": "555292.760537",
    "longitude": "-90.0605869989406",
    "latitude": "30.020798253110033",
    "geocoded_column": {
      "latitude": "30.020798253110033",
      "longitude": "-90.0605869989406"
    }
  },
  {
    "service_request": "2025-1194857",
    "request_type": "Abandoned Vehicles",
    "request_reason": "Abandoned/Junk Vehicles",
    "date_created": "2025-05-24T19:51:46.000",
    "date_modified": "2025-05-24T19:51:48.000",
    "request_status": "Pending",
    "responsible_agency": "Department of Public Works",
    "final_address": "926 Mazant St",
    "address_councildis": "C",
    "status": "Pending",
    "rowid": "1194857",
    "final_x": "3691930.39881",
    "final_y": "534662.46599",
    "longitude": "-90.03502257553771",
    "latitude": "29.963815552570033",
    "geocoded_column": {
      "latitude": "29.963815552570033",
      "longitude": "-90.03502257553771"
    }
  },
  {
    "service_request": "2025-1194856",
    "request_type": "Health Related Request",
    "request_reason": "Homeless Encampment Complaint",
    "date_created": "2025-05-24T19:46:22.000",
    "date_modified": "2025-05-24T19:46:24.000",
    "request_status": "Pending",
    "responsible_agency": "Health Department",
    "final_address": "1100 BLK N Miro St",
    "address_councildis": "D",
    "status": "Pending",
    "rowid": "1194856",
    "final_x": "3679094.32156",
    "final_y": "537233.253077",
    "longitude": "-90.07546854654606",
    "latitude": "29.971278008313902",
    "geocoded_column": {
      "latitude": "29.971278008313902",
      "longitude": "-90.07546854654606"
    }
  },
  {
    "service_request": "2025-1194855",
    "request_type": "Property Maintenance",
    "request_reason": "Property Maintenance",
    "date_created": "2025-05-24T19:45:28.000",
    "date_modified": "2025-05-24T19:45:32.000",
    "request_status": "Pending",
    "responsible_agency": "Department of Code Enforcement",
    "final_address": "2362 N Villere St",
    "address_councildis": "C",
    "status": "Pending",
    "rowid": "1194855",
    "final_x": "3686236.839",
    "final_y": "537478.66228",
    "longitude": "-90.05290286873696",
    "latitude": "29.97173526941767",
    "geocoded_column": {
      "latitude": "29.97173526941767",
      "longitude": "-90.05290286873696"
    }
  },
  {
    "service_request": "2025-1194854",
    "request_type": "Trash/Recycling",
    "request_reason": "Repair Trash Cart",
    "date_created": "2025-05-24T19:31:42.000",
    "date_modified": "2025-05-24T19:31:45.000",
    "request_status": "Pending",
    "responsible_agency": "Department of Sanitation",
    "final_address": "1662 Abundance St",
    "address_councildis": "D",
    "status": "Assigned to Contractor",
    "contractor": "IV Waste",
    "rowid": "1194854",
    "final_x": "3680434.6525",
    "final_y": "543303.392334",
    "longitude": "-90.07102440727711",
    "latitude": "29.987928255139828",
    "geocoded_column": {
      "latitude": "29.987928255139828",
      "longitude": "-90.07102440727711"
    }
  },
  {
    "service_request": "2025-1194853",
    "request_type": "Trash/Recycling",
    "request_reason": "Request a Large Item Pick Up",
    "date_created": "2025-05-24T19:22:15.000",
    "date_modified": "2025-05-24T19:22:17.000",
    "request_status": "Pending",
    "responsible_agency": "Department of Sanitation",
    "final_address": "1664 Abundance St",
    "address_councildis": "D",
    "status": "Assigned to Contractor",
    "contractor": "IV Waste",
    "rowid": "1194853",
    "final_x": "3680452.56143",
    "final_y": "543303.32603",
    "longitude": "-90.07096784126963",
    "latitude": "29.987927530328985",
    "geocoded_column": {
      "latitude": "29.987927530328985",
      "longitude": "-90.07096784126963"
    }
  },
  {
    "service_request": "2025-1194852",
    "request_type": "Trash/Recycling",
    "request_reason": "Replace Trash Cart",
    "date_created": "2025-05-24T19:06:55.000",
    "date_modified": "2025-05-24T19:06:57.000",
    "request_status": "Pending",
    "responsible_agency": "Department of Sanitation",
    "final_address": "2037 Annette St",
    "address_councildis": "D",
    "status": "Assigned to Contractor",
    "contractor": "IV Waste",
    "rowid": "1194852",
    "final_x": "3682889.64796",
    "final_y": "539798.121546",
    "longitude": "-90.06339261537788",
    "latitude": "29.97821539767991",
    "geocoded_column": {
      "latitude": "29.97821539767991",
      "longitude": "-90.06339261537788"
    }
  },
  {
    "service_request": "2025-1194851",
    "request_type": "Streetlights",
    "request_reason": "Streetlight Outage/Malfunction",
    "date_created": "2025-05-24T19:05:13.000",
    "date_modified": "2025-05-24T19:05:15.000",
    "request_status": "Pending",
    "responsible_agency": "Department of Public Works",
    "final_address": "1020 Arabella St",
    "address_councildis": "A",
    "status": "Pending",
    "contractor": "Legacy Professional Services",
    "rowid": "1194851",
    "final_x": "3665967.98631",
    "final_y": "519758.070008",
    "longitude": "-90.11750910782675",
    "latitude": "29.9236165940433",
    "geocoded_column": {
      "latitude": "29.9236165940433",
      "longitude": "-90.11750910782675"
    }
  },
  {
    "service_request": "2025-1194850",
    "request_type": "Street and Traffic Signs",
    "request_reason": "Traffic or Parking Sign Damaged or Missing",
    "date_created": "2025-05-24T18:22:04.000",
    "date_modified": "2025-05-24T18:22:06.000",
    "request_status": "Pending",
    "responsible_agency": "Department of Public Works",
    "final_address": "7908 Breakwater Dr",
    "address_councildis": "A",
    "status": "Pending",
    "rowid": "1194850",
    "final_x": "3665072.45434",
    "final_y": "557789.225371",
    "longitude": "-90.11906378515177",
    "latitude": "30.028215666653644",
    "geocoded_column": {
      "latitude": "30.028215666653644",
      "longitude": "-90.11906378515177"
    }
  },
  {
    "service_request": "2025-1194849",
    "request_type": "Trash/Recycling",
    "request_reason": "Request a Large Item Pick Up",
    "date_created": "2025-05-24T17:25:56.000",
    "date_modified": "2025-05-24T17:25:58.000",
    "request_status": "Pending",
    "responsible_agency": "Department of Sanitation",
    "final_address": "2423 Soniat St",
    "address_councildis": "B",
    "status": "Assigned to Contractor",
    "contractor": "IV Waste",
    "rowid": "1194849",
    "final_x": "3668575.73524",
    "final_y": "524505.454908",
    "longitude": "-90.10911727145074",
    "latitude": "29.93659404648265",
    "geocoded_column": {
      "latitude": "29.93659404648265",
      "longitude": "-90.10911727145074"
    }
  },
  {
    "service_request": "2025-1194848",
    "request_type": "Trash/Recycling",
    "request_reason": "Request a Large Item Pick Up",
    "date_created": "2025-05-24T17:19:41.000",
    "date_modified": "2025-05-24T17:19:44.000",
    "request_status": "Pending",
    "responsible_agency": "Department of Sanitation",
    "final_address": "7333 Jeannette St",
    "address_councildis": "A",
    "status": "Assigned to Contractor",
    "contractor": "IV Waste",
    "rowid": "1194848",
    "final_x": "3664361.18893",
    "final_y": "527684.628351",
    "longitude": "-90.1223167524818",
    "latitude": "29.94545889737424",
    "geocoded_column": {
      "latitude": "29.94545889737424",
      "longitude": "-90.1223167524818"
    }
  },
  {
    "service_request": "2025-1194847",
    "request_type": "Trash/Recycling",
    "request_reason": "Order Second Trash Cart",
    "date_created": "2025-05-24T16:57:21.000",
    "date_modified": "2025-05-24T16:57:24.000",
    "request_status": "Pending",
    "responsible_agency": "Department of Sanitation",
    "final_address": "1504 Touro St",
    "address_councildis": "C",
    "status": "Assigned to Contractor",
    "contractor": "IV Waste",
    "rowid": "1194847",
    "final_x": "3684078.4925",
    "final_y": "537774.97204",
    "longitude": "-90.05970884736347",
    "latitude": "29.972616159653395",
    "geocoded_column": {
      "latitude": "29.972616159653395",
      "longitude": "-90.05970884736347"
    }
  },
  {
    "service_request": "2025-1194846",
    "request_type": "Property Maintenance",
    "request_reason": "Property Maintenance",
    "date_created": "2025-05-24T16:29:29.000",
    "date_modified": "2025-05-24T16:29:33.000",
    "request_status": "Pending",
    "responsible_agency": "Department of Code Enforcement",
    "final_address": "4819 Dauphine St",
    "address_councildis": "E",
    "status": "Pending",
    "rowid": "1194846",
    "final_x": "3694898.29603",
    "final_y": "533356.936132",
    "longitude": "-90.02569733752084",
    "latitude": "29.960133006605208",
    "geocoded_column": {
      "latitude": "29.960133006605208",
      "longitude": "-90.02569733752084"
    }
  },
  {
    "service_request": "2025-1194845",
    "request_type": "Trash/Recycling",
    "request_reason": "Order Recycling Cart",
    "date_created": "2025-05-24T16:29:21.000",
    "date_modified": "2025-05-24T16:29:23.000",
    "request_status": "Pending",
    "responsible_agency": "Department of Sanitation",
    "final_address": "2257 Athis St",
    "address_councildis": "D",
    "status": "Pending",
    "rowid": "1194845",
    "final_x": "3684173.82191",
    "final_y": "554379.512984",
    "longitude": "-90.05882449301814",
    "latitude": "30.01826979920098",
    "geocoded_column": {
      "latitude": "30.01826979920098",
      "longitude": "-90.05882449301814"
    }
  },
  {
    "service_request": "2025-1194844",
    "request_type": "Drainage",
    "request_reason": "Ditch and Culvert Maintenance",
    "date_created": "2025-05-24T16:21:53.000",
    "date_modified": "2025-05-24T16:21:56.000",
    "request_status": "Pending",
    "responsible_agency": "Department of Public Works",
    "final_address": "100 BLK Royal St",
    "address_councildis": "C",
    "status": "Pending",
    "rowid": "1194844",
    "final_x": "3681331.2705",
    "final_y": "530858.701522",
    "longitude": "-90.06862615581144",
    "latitude": "29.953682457848835",
    "geocoded_column": {
      "latitude": "29.953682457848835",
      "longitude": "-90.06862615581144"
    }
  },
  {
    "service_request": "2025-1194843",
    "request_type": "Trash/Recycling",
    "request_reason": "Request a Large Item Pick Up",
    "date_created": "2025-05-24T15:45:30.000",
    "date_modified": "2025-05-24T15:45:33.000",
    "request_status": "Pending",
    "responsible_agency": "Department of Sanitation",
    "final_address": "7525 Sandy Cove Dr",
    "address_councildis": "E",
    "status": "Assigned to Contractor",
    "contractor": "Waste Pro",
    "rowid": "1194843",
    "final_x": "3716007.59192",
    "final_y": "568955.403686",
    "longitude": "-89.95768990110459",
    "latitude": "30.057335598660284",
    "geocoded_column": {
      "latitude": "30.057335598660284",
      "longitude": "-89.95768990110459"
    }
  },
  {
    "service_request": "2025-1194842",
    "request_type": "Traffic Signals",
    "request_reason": "Traffic Signal Malfunctioning or Damaged",
    "date_created": "2025-05-24T15:36:23.000",
    "date_modified": "2025-05-24T15:36:25.000",
    "request_status": "Pending",
    "responsible_agency": "Department of Public Works",
    "final_address": "8701 Aberdeen Rd",
    "address_councildis": "E",
    "status": "Pending",
    "rowid": "1194842",
    "final_x": "3704581.75108",
    "final_y": "562309.915871",
    "longitude": "-89.9940506785556",
    "latitude": "30.039435376576918",
    "geocoded_column": {
      "latitude": "30.039435376576918",
      "longitude": "-89.9940506785556"
    }
  },
  {
    "service_request": "2025-1194841",
    "request_type": "Traffic Signals",
    "request_reason": "Traffic Signal Malfunctioning or Damaged",
    "date_created": "2025-05-24T15:30:08.000",
    "date_modified": "2025-05-24T15:30:10.000",
    "request_status": "Pending",
    "responsible_agency": "Department of Public Works",
    "final_address": "8701 Aberdeen Rd",
    "address_councildis": "E",
    "status": "Pending",
    "rowid": "1194841",
    "final_x": "3704581.75108",
    "final_y": "562309.915871",
    "longitude": "-89.9940506785556",
    "latitude": "30.039435376576918",
    "geocoded_column": {
      "latitude": "30.039435376576918",
      "longitude": "-89.9940506785556"
    }
  },
  {
    "service_request": "2025-1194840",
    "request_type": "Trash/Recycling",
    "request_reason": "Request a Large Item Pick Up",
    "date_created": "2025-05-24T15:08:05.000",
    "date_modified": "2025-05-24T15:08:07.000",
    "request_status": "Pending",
    "responsible_agency": "Department of Sanitation",
    "final_address": "5863 Marcia Ave",
    "address_councildis": "A",
    "status": "Assigned to Contractor",
    "contractor": "IV Waste",
    "rowid": "1194840",
    "final_x": "3664879.04589",
    "final_y": "546819.179089",
    "longitude": "-90.12004200074693",
    "latitude": "29.99805750177402",
    "geocoded_column": {
      "latitude": "29.99805750177402",
      "longitude": "-90.12004200074693"
    }
  },
  {
    "service_request": "2025-1194839",
    "request_type": "Trash/Recycling",
    "request_reason": "Illegal Dumping",
    "date_created": "2025-05-24T15:06:31.000",
    "date_modified": "2025-05-24T15:06:33.000",
    "request_status": "Pending",
    "responsible_agency": "Department of Sanitation",
    "final_address": "4121 Clara St",
    "address_councildis": "B",
    "status": "Pending",
    "rowid": "1194839",
    "final_x": "3671412.16519",
    "final_y": "525284.140605",
    "longitude": "-90.10013606458126",
    "latitude": "29.93865154785612",
    "geocoded_column": {
      "latitude": "29.93865154785612",
      "longitude": "-90.10013606458126"
    }
  },
  {
    "service_request": "2025-1194838",
    "request_type": "Drainage",
    "request_reason": "Catch Basin Clogged",
    "date_created": "2025-05-24T14:57:51.000",
    "date_modified": "2025-05-24T14:57:53.000",
    "request_status": "Pending",
    "responsible_agency": "Sewerage & Water Board",
    "final_address": "3429 Piedmont Dr",
    "address_councildis": "D",
    "status": "Pending",
    "rowid": "1194838",
    "final_x": "3686421.67503",
    "final_y": "545533.976208",
    "longitude": "-90.05203465603184",
    "latitude": "29.99387885032727",
    "geocoded_column": {
      "latitude": "29.99387885032727",
      "longitude": "-90.05203465603184"
    }
  },
  {
    "service_request": "2025-1194837",
    "request_type": "Drainage",
    "request_reason": "Catch Basin Clogged",
    "date_created": "2025-05-24T14:54:41.000",
    "date_modified": "2025-05-24T14:54:43.000",
    "request_status": "Pending",
    "responsible_agency": "Sewerage & Water Board",
    "final_address": "3429 Piedmont Dr",
    "address_councildis": "D",
    "status": "Pending",
    "rowid": "1194837",
    "final_x": "3686421.67503",
    "final_y": "545533.976208",
    "longitude": "-90.05203465603184",
    "latitude": "29.99387885032727",
    "geocoded_column": {
      "latitude": "29.99387885032727",
      "longitude": "-90.05203465603184"
    }
  },
  {
    "service_request": "2025-1194836",
    "request_type": "Trash/Recycling",
    "request_reason": "Missed Trash Pick-Up",
    "date_created": "2025-05-24T14:30:37.000",
    "date_modified": "2025-05-24T14:30:39.000",
    "request_status": "Pending",
    "responsible_agency": "Department of Sanitation",
    "final_address": "4701 Viola St",
    "address_councildis": "E",
    "status": "Assigned to Contractor",
    "contractor": "Waste Pro",
    "rowid": "1194836",
    "final_x": "3704051.17246",
    "final_y": "554937.395864",
    "longitude": "-89.99599938313024",
    "latitude": "30.019180856422736",
    "geocoded_column": {
      "latitude": "30.019180856422736",
      "longitude": "-89.99599938313024"
    }
  },
  {
    "service_request": "2025-1194835",
    "request_type": "Trash/Recycling",
    "request_reason": "Damaged Caused By Contractor",
    "date_created": "2025-05-24T14:15:36.000",
    "date_modified": "2025-05-24T14:15:39.000",
    "request_status": "Pending",
    "responsible_agency": "Department of Sanitation",
    "final_address": "4818 Hauck Dr",
    "address_councildis": "E",
    "status": "Assigned to Contractor",
    "contractor": "Waste Pro",
    "rowid": "1194835",
    "final_x": "3714459.44005",
    "final_y": "557050.514458",
    "longitude": "-89.9630333557261",
    "latitude": "30.024652974166457",
    "geocoded_column": {
      "latitude": "30.024652974166457",
      "longitude": "-89.9630333557261"
    }
  },
  {
    "service_request": "2025-1194834",
    "request_type": "Trash/Recycling",
    "request_reason": "Replace Trash Cart",
    "date_created": "2025-05-24T14:12:55.000",
    "date_modified": "2025-05-24T14:12:57.000",
    "request_status": "Pending",
    "responsible_agency": "Department of Sanitation",
    "final_address": "1910 Constantinople St",
    "address_councildis": "B",
    "status": "Assigned to Contractor",
    "contractor": "IV Waste",
    "rowid": "1194834",
    "final_x": "3672112.71131",
    "final_y": "522185.217978",
    "longitude": "-90.09802983585794",
    "latitude": "29.93010976301257",
    "geocoded_column": {
      "latitude": "29.93010976301257",
      "longitude": "-90.09802983585794"
    }
  },
  {
    "service_request": "2025-1194833",
    "request_type": "Trash/Recycling",
    "request_reason": "Request a Large Item Pick Up",
    "date_created": "2025-05-24T13:59:16.000",
    "date_modified": "2025-05-24T13:59:18.000",
    "request_status": "Pending",
    "responsible_agency": "Department of Sanitation",
    "final_address": "814 Olga St",
    "address_councildis": "A",
    "status": "Assigned to Contractor",
    "contractor": "IV Waste",
    "rowid": "1194833",
    "final_x": "3673341.54107",
    "final_y": "539874.669706",
    "longitude": "-90.09354640174031",
    "latitude": "29.978713398513673",
    "geocoded_column": {
      "latitude": "29.978713398513673",
      "longitude": "-90.09354640174031"
    }
  },
  {
    "service_request": "2025-1194832",
    "request_type": "Trash/Recycling",
    "request_reason": "Request a Large Item Pick Up",
    "date_created": "2025-05-24T13:57:01.000",
    "date_modified": "2025-05-24T13:57:03.000",
    "request_status": "Pending",
    "responsible_agency": "Department of Sanitation",
    "final_address": "814 Olga St",
    "address_councildis": "A",
    "status": "Assigned to Contractor",
    "contractor": "IV Waste",
    "rowid": "1194832",
    "final_x": "3673341.54107",
    "final_y": "539874.669706",
    "longitude": "-90.09354640174031",
    "latitude": "29.978713398513673",
    "geocoded_column": {
      "latitude": "29.978713398513673",
      "longitude": "-90.09354640174031"
    }
  },
  {
    "service_request": "2025-1194831",
    "request_type": "Trash/Recycling",
    "request_reason": "Request a Large Item Pick Up",
    "date_created": "2025-05-24T13:39:02.000",
    "date_modified": "2025-05-24T13:39:04.000",
    "request_status": "Pending",
    "responsible_agency": "Department of Sanitation",
    "final_address": "2530 Burgundy St",
    "address_councildis": "C",
    "status": "Assigned to Contractor",
    "contractor": "IV Waste",
    "rowid": "1194831",
    "final_x": "3686816.98095",
    "final_y": "535686.901319",
    "longitude": "-90.05113401597889",
    "latitude": "29.966790713589614",
    "geocoded_column": {
      "latitude": "29.966790713589614",
      "longitude": "-90.05113401597889"
    }
  },
  {
    "service_request": "2025-1194830",
    "request_type": "Trash/Recycling",
    "request_reason": "Request a Large Item Pick Up",
    "date_created": "2025-05-24T12:38:40.000",
    "date_modified": "2025-05-24T12:38:42.000",
    "request_status": "Pending",
    "responsible_agency": "Department of Sanitation",
    "final_address": "1918 Lombard St",
    "address_councildis": "D",
    "status": "Assigned to Contractor",
    "contractor": "IV Waste",
    "rowid": "1194830",
    "final_x": "3681914.56872",
    "final_y": "548928.296851",
    "longitude": "-90.06615336290676",
    "latitude": "30.0033498312763",
    "geocoded_column": {
      "latitude": "30.0033498312763",
      "longitude": "-90.06615336290676"
    }
  },
  {
    "service_request": "2025-1194829",
    "request_type": "General Services",
    "request_reason": "General Service Request",
    "date_created": "2025-05-24T12:29:47.000",
    "date_modified": "2025-05-24T12:29:49.000",
    "request_status": "Pending",
    "responsible_agency": "Orleans Parish Communication District",
    "final_address": "3701 Conti St",
    "address_councildis": "B",
    "status": "Pending",
    "rowid": "1194829",
    "final_x": "3672828.40609",
    "final_y": "538530.188233",
    "longitude": "-90.09521296099214",
    "latitude": "29.975031788261802",
    "geocoded_column": {
      "latitude": "29.975031788261802",
      "longitude": "-90.09521296099214"
    }
  },
  {
    "service_request": "2025-1194828",
    "request_type": "Trash/Recycling",
    "request_reason": "Replace Trash Cart",
    "date_created": "2025-05-24T12:29:30.000",
    "date_modified": "2025-05-24T12:29:33.000",
    "request_status": "Pending",
    "responsible_agency": "Department of Sanitation",
    "final_address": "3648 Camp St",
    "address_councildis": "B",
    "status": "Assigned to Contractor",
    "contractor": "IV Waste",
    "rowid": "1194828",
    "final_x": "3673640.36776",
    "final_y": "519452.465143",
    "longitude": "-90.09330062573787",
    "latitude": "29.9225501983627",
    "geocoded_column": {
      "latitude": "29.9225501983627",
      "longitude": "-90.09330062573787"
    }
  },
  {
    "service_request": "2025-1194827",
    "request_type": "Trash/Recycling",
    "request_reason": "Request a Large Item Pick Up",
    "date_created": "2025-05-24T12:24:14.000",
    "date_modified": "2025-05-24T12:24:16.000",
    "request_status": "Pending",
    "responsible_agency": "Department of Sanitation",
    "final_address": "2216 Wirth Pl",
    "address_councildis": "A",
    "status": "Assigned to Contractor",
    "contractor": "IV Waste",
    "rowid": "1194827",
    "final_x": "3667026.72327",
    "final_y": "524340.441276",
    "longitude": "-90.11401312858841",
    "latitude": "29.93618572702672",
    "geocoded_column": {
      "latitude": "29.93618572702672",
      "longitude": "-90.11401312858841"
    }
  },
  {
    "service_request": "2025-1194826",
    "request_type": "Trash/Recycling",
    "request_reason": "Request a Large Item Pick Up",
    "date_created": "2025-05-24T12:17:18.000",
    "date_modified": "2025-05-24T12:17:20.000",
    "request_status": "Pending",
    "responsible_agency": "Department of Sanitation",
    "final_address": "1904 Broadway St",
    "address_councildis": "A",
    "status": "Assigned to Contractor",
    "contractor": "IV Waste",
    "rowid": "1194826",
    "final_x": "3665542.91476",
    "final_y": "528637.769792",
    "longitude": "-90.11855374357985",
    "latitude": "29.948045334061227",
    "geocoded_column": {
      "latitude": "29.948045334061227",
      "longitude": "-90.11855374357985"
    }
  },
  {
    "service_request": "2025-1194825",
    "request_type": "Trash/Recycling",
    "request_reason": "Order Recycling Cart",
    "date_created": "2025-05-24T12:11:46.000",
    "date_modified": "2025-05-24T12:11:48.000",
    "request_status": "Pending",
    "responsible_agency": "Department of Sanitation",
    "final_address": "1514 Pace Blvd",
    "address_councildis": "C",
    "status": "Pending",
    "rowid": "1194825",
    "final_x": "3694464.67811",
    "final_y": "525581.042429",
    "longitude": "-90.02734646801285",
    "latitude": "29.9387656029778",
    "geocoded_column": {
      "latitude": "29.9387656029778",
      "longitude": "-90.02734646801285"
    }
  },
  {
    "service_request": "2025-1194824",
    "request_type": "Property Maintenance",
    "request_reason": "Property Maintenance",
    "date_created": "2025-05-24T12:10:02.000",
    "date_modified": "2025-05-24T12:10:06.000",
    "request_status": "Pending",
    "responsible_agency": "Department of Code Enforcement",
    "final_address": "2503 General Taylor St",
    "address_councildis": "B",
    "status": "Pending",
    "rowid": "1194824",
    "final_x": "3671927.74612",
    "final_y": "524219.042236",
    "longitude": "-90.09854455348362",
    "latitude": "29.935707605079337",
    "geocoded_column": {
      "latitude": "29.935707605079337",
      "longitude": "-90.09854455348362"
    }
  },
  {
    "service_request": "2025-1194823",
    "request_type": "Drainage",
    "request_reason": "Ditch and Culvert Maintenance",
    "date_created": "2025-05-24T12:05:27.000",
    "date_modified": "2025-05-24T12:05:29.000",
    "request_status": "Pending",
    "responsible_agency": "Department of Public Works",
    "final_address": "503 Homer St",
    "address_councildis": "C",
    "status": "Pending",
    "rowid": "1194823",
    "final_x": "3687005.50383",
    "final_y": "528279.444608",
    "longitude": "-90.05080049593118",
    "latitude": "29.946416955014897",
    "geocoded_column": {
      "latitude": "29.946416955014897",
      "longitude": "-90.05080049593118"
    }
  },
  {
    "service_request": "2025-1194822",
    "request_type": "Roads and Streets",
    "request_reason": "Pothole",
    "date_created": "2025-05-24T11:55:14.000",
    "date_modified": "2025-05-24T11:55:15.000",
    "request_status": "Pending",
    "responsible_agency": "Department of Public Works",
    "final_address": "1124 Toledano St",
    "address_councildis": "B",
    "status": "Pending",
    "rowid": "1194822",
    "final_x": "3675270.32757",
    "final_y": "519965.796984",
    "longitude": "-90.08813788322742",
    "latitude": "29.923913092150222",
    "geocoded_column": {
      "latitude": "29.923913092150222",
      "longitude": "-90.08813788322742"
    }
  },
  {
    "service_request": "2025-1194821",
    "request_type": "Trash/Recycling",
    "request_reason": "Order Second Trash Cart",
    "date_created": "2025-05-24T11:55:05.000",
    "date_modified": "2025-05-24T11:55:09.000",
    "request_status": "Pending",
    "responsible_agency": "Department of Sanitation",
    "final_address": "1518 Kerlerec St",
    "address_councildis": "C",
    "status": "Assigned to Contractor",
    "contractor": "IV Waste",
    "rowid": "1194821",
    "final_x": "3681653.97576",
    "final_y": "536727.351687",
    "longitude": "-90.06740245943207",
    "latitude": "29.96980944315269",
    "geocoded_column": {
      "latitude": "29.96980944315269",
      "longitude": "-90.06740245943207"
    }
  },
  {
    "service_request": "2025-1194820",
    "request_type": "Safety & Permits",
    "request_reason": "Licenses & Permits",
    "date_created": "2025-05-24T11:53:53.000",
    "date_modified": "2025-05-24T11:53:55.000",
    "request_status": "Pending",
    "responsible_agency": "Safety and Permits",
    "final_address": "500 BLK Olivier St",
    "address_councildis": "C",
    "status": "Pending",
    "rowid": "1194820",
    "final_x": "3687270.43677",
    "final_y": "529705.67955",
    "longitude": "-90.04991357321285",
    "latitude": "29.95033045796765",
    "geocoded_column": {
      "latitude": "29.95033045796765",
      "longitude": "-90.04991357321285"
    }
  },
  {
    "service_request": "2025-1194819",
    "request_type": "Traffic Signals",
    "request_reason": "Traffic Signal Malfunctioning or Damaged",
    "date_created": "2025-05-24T11:31:45.000",
    "date_modified": "2025-05-24T11:31:47.000",
    "request_status": "Pending",
    "responsible_agency": "Department of Public Works",
    "final_address": "200 St Charles Ave",
    "address_councildis": "B",
    "status": "Pending",
    "rowid": "1194819",
    "final_x": "3680987.65128",
    "final_y": "530260.582785",
    "longitude": "-90.06973198833285",
    "latitude": "29.952048257324865",
    "geocoded_column": {
      "latitude": "29.952048257324865",
      "longitude": "-90.06973198833285"
    }
  },
  {
    "service_request": "2025-1194818",
    "request_type": "Property Maintenance",
    "request_reason": "Property Maintenance",
    "date_created": "2025-05-24T11:21:25.000",
    "date_modified": "2025-05-24T11:21:27.000",
    "request_status": "Pending",
    "responsible_agency": "Department of Code Enforcement",
    "final_address": "5200 Dauphine St",
    "address_councildis": "E",
    "status": "Pending",
    "rowid": "1194818",
    "final_x": "3696242.25335",
    "final_y": "532962.570948",
    "longitude": "-90.0214676869727",
    "latitude": "29.959006400971404",
    "geocoded_column": {
      "latitude": "29.959006400971404",
      "longitude": "-90.0214676869727"
    }
  },
  {
    "service_request": "2025-1194817",
    "request_type": "Trash/Recycling",
    "request_reason": "Request a Large Item Pick Up",
    "date_created": "2025-05-24T11:18:07.000",
    "date_modified": "2025-05-24T11:18:11.000",
    "request_status": "Pending",
    "responsible_agency": "Department of Sanitation",
    "final_address": "390 Audubon St Apt B",
    "address_councildis": "A",
    "status": "Assigned to Contractor",
    "contractor": "IV Waste",
    "rowid": "1194817",
    "final_x": "3662006.93696",
    "final_y": "522827.367035",
    "longitude": "-90.12991098925016",
    "latitude": "29.93217117443006",
    "geocoded_column": {
      "latitude": "29.93217117443006",
      "longitude": "-90.12991098925016"
    }
  },
  {
    "service_request": "2025-1194816",
    "request_type": "Parks & Parkways",
    "request_reason": "Request Tree Service (Right of Way/Public Property)",
    "date_created": "2025-05-24T10:29:51.000",
    "date_modified": "2025-05-24T10:29:52.000",
    "request_status": "Pending",
    "responsible_agency": "Department of Parks & Parkway",
    "final_address": "1200 BLK Jena St",
    "address_councildis": "B",
    "status": "Pending",
    "rowid": "1194816",
    "final_x": "3670540.83014",
    "final_y": "519905.224741",
    "longitude": "-90.10306929996226",
    "latitude": "29.923887012615133",
    "geocoded_column": {
      "latitude": "29.923887012615133",
      "longitude": "-90.10306929996226"
    }
  },
  {
    "service_request": "2025-1194815",
    "request_type": "Trash/Recycling",
    "request_reason": "Request a Large Item Pick Up",
    "date_created": "2025-05-24T10:28:55.000",
    "date_modified": "2025-05-24T10:28:57.000",
    "request_status": "Pending",
    "responsible_agency": "Department of Sanitation",
    "final_address": "4321 Joycelyn Dr",
    "address_councildis": "C",
    "status": "Assigned to Contractor",
    "contractor": "Richards Disposal",
    "rowid": "1194815",
    "final_x": "3708080.07908",
    "final_y": "514725.515059",
    "longitude": "-89.98476488285293",
    "latitude": "29.90848298040513",
    "geocoded_column": {
      "latitude": "29.90848298040513",
      "longitude": "-89.98476488285293"
    }
  },
  {
    "service_request": "2025-1194814",
    "request_type": "Abandoned Vehicles",
    "request_reason": "Abandoned/Junk Vehicles",
    "date_created": "2025-05-24T10:14:44.000",
    "date_modified": "2025-05-24T10:14:46.000",
    "request_status": "Pending",
    "responsible_agency": "Department of Public Works",
    "final_address": "2600 Napoleon Ave",
    "address_councildis": "B",
    "status": "Pending",
    "rowid": "1194814",
    "final_x": "3670409.95713",
    "final_y": "524409.482684",
    "longitude": "-90.10332979319975",
    "latitude": "29.936276141540908",
    "geocoded_column": {
      "latitude": "29.936276141540908",
      "longitude": "-90.10332979319975"
    }
  },
  {
    "service_request": "2025-1194813",
    "request_type": "Trash/Recycling",
    "request_reason": "Request a Large Item Pick Up",
    "date_created": "2025-05-24T10:07:29.000",
    "date_modified": "2025-05-24T10:07:31.000",
    "request_status": "Pending",
    "responsible_agency": "Department of Sanitation",
    "final_address": "2600 BLK Saint Philip St",
    "address_councildis": "D",
    "status": "Assigned to Contractor",
    "contractor": "IV Waste",
    "rowid": "1194813",
    "final_x": "3677622.50528",
    "final_y": "537677.125877",
    "longitude": "-90.08010141773156",
    "latitude": "29.972542850988503",
    "geocoded_column": {
      "latitude": "29.972542850988503",
      "longitude": "-90.08010141773156"
    }
  },
  {
    "service_request": "2025-1194812",
    "request_type": "Trash/Recycling",
    "request_reason": "Request a Large Item Pick Up",
    "date_created": "2025-05-24T09:37:13.000",
    "date_modified": "2025-05-24T09:37:15.000",
    "request_status": "Pending",
    "responsible_agency": "Department of Sanitation",
    "final_address": "7022 Jeannette St",
    "address_councildis": "A",
    "status": "Assigned to Contractor",
    "contractor": "IV Waste",
    "rowid": "1194812",
    "final_x": "3665076.27725",
    "final_y": "527116.287103",
    "longitude": "-90.1200779787961",
    "latitude": "29.94387534131055",
    "geocoded_column": {
      "latitude": "29.94387534131055",
      "longitude": "-90.1200779787961"
    }
  },
  {
    "service_request": "2025-1194811",
    "request_type": "Roads and Streets",
    "request_reason": "Pothole",
    "date_created": "2025-05-24T09:13:47.000",
    "date_modified": "2025-05-24T09:13:49.000",
    "request_status": "Pending",
    "responsible_agency": "Department of Public Works",
    "final_address": "5434 Laurel St",
    "address_councildis": "A",
    "status": "Pending",
    "rowid": "1194811",
    "final_x": "3666256.30791",
    "final_y": "517840.915382",
    "longitude": "-90.11666323771226",
    "latitude": "29.91833660524558",
    "geocoded_column": {
      "latitude": "29.91833660524558",
      "longitude": "-90.11666323771226"
    }
  },
  {
    "service_request": "2025-1194810",
    "request_type": "Trash/Recycling",
    "request_reason": "Replace Trash Cart",
    "date_created": "2025-05-24T09:12:47.000",
    "date_modified": "2025-05-24T09:12:49.000",
    "request_status": "Pending",
    "responsible_agency": "Department of Sanitation",
    "final_address": "3201 Iberville St",
    "address_councildis": "B",
    "status": "Assigned to Contractor",
    "contractor": "IV Waste",
    "rowid": "1194810",
    "final_x": "3674140.13012",
    "final_y": "536668.122055",
    "longitude": "-90.09113394591772",
    "latitude": "29.969872700782755",
    "geocoded_column": {
      "latitude": "29.969872700782755",
      "longitude": "-90.09113394591772"
    }
  },
  {
    "service_request": "2025-1194809",
    "request_type": "Roads and Streets",
    "request_reason": "Pothole",
    "date_created": "2025-05-24T09:07:18.000",
    "date_modified": "2025-05-24T09:07:21.000",
    "request_status": "Pending",
    "responsible_agency": "Department of Public Works",
    "final_address": "5434 Laurel St",
    "address_councildis": "A",
    "status": "Pending",
    "rowid": "1194809",
    "final_x": "3666256.30791",
    "final_y": "517840.915382",
    "longitude": "-90.11666323771226",
    "latitude": "29.91833660524558",
    "geocoded_column": {
      "latitude": "29.91833660524558",
      "longitude": "-90.11666323771226"
    }
  },
  {
    "service_request": "2025-1194808",
    "request_type": "Trash/Recycling",
    "request_reason": "Order Recycling Cart",
    "date_created": "2025-05-24T09:03:41.000",
    "date_modified": "2025-05-24T09:03:44.000",
    "request_status": "Pending",
    "responsible_agency": "Department of Sanitation",
    "final_address": "1825 Gordon St",
    "address_councildis": "E",
    "status": "Pending",
    "rowid": "1194808",
    "final_x": "3700287.1882",
    "final_y": "536124.832455",
    "longitude": "-90.00857942588374",
    "latitude": "29.9675735304615",
    "geocoded_column": {
      "latitude": "29.9675735304615",
      "longitude": "-90.00857942588374"
    }
  },
  {
    "service_request": "2025-1194807",
    "request_type": "Trash/Recycling",
    "request_reason": "Order Recycling Cart",
    "date_created": "2025-05-24T08:52:34.000",
    "date_modified": "2025-05-24T08:52:36.000",
    "request_status": "Pending",
    "responsible_agency": "Department of Sanitation",
    "final_address": "427 S Genois St",
    "address_councildis": "B",
    "status": "Pending",
    "rowid": "1194807",
    "final_x": "3671643.79483",
    "final_y": "536000.620743",
    "longitude": "-90.09904033511609",
    "latitude": "29.9681114734695",
    "geocoded_column": {
      "latitude": "29.9681114734695",
      "longitude": "-90.09904033511609"
    }
  },
  {
    "service_request": "2025-1194806",
    "request_type": "Trash/Recycling",
    "request_reason": "Order Recycling Cart",
    "date_created": "2025-05-24T08:50:53.000",
    "date_modified": "2025-05-24T08:50:55.000",
    "request_status": "Pending",
    "responsible_agency": "Department of Sanitation",
    "final_address": "625 Louisa St",
    "address_councildis": "C",
    "status": "Pending",
    "rowid": "1194806",
    "final_x": "3689186.67939",
    "final_y": "534210.354437",
    "longitude": "-90.04370301818128",
    "latitude": "29.962657599761425",
    "geocoded_column": {
      "latitude": "29.962657599761425",
      "longitude": "-90.04370301818128"
    }
  },
  {
    "service_request": "2025-1194805",
    "request_type": "Trash/Recycling",
    "request_reason": "Request a Large Item Pick Up",
    "date_created": "2025-05-24T08:35:50.000",
    "date_modified": "2025-05-24T08:35:53.000",
    "request_status": "Pending",
    "responsible_agency": "Department of Sanitation",
    "final_address": "4525 S Saratoga St",
    "address_councildis": "B",
    "status": "Assigned to Contractor",
    "contractor": "IV Waste",
    "rowid": "1194805",
    "final_x": "3670041.38663",
    "final_y": "522623.668538",
    "longitude": "-90.10455384483727",
    "latitude": "29.931376600555343",
    "geocoded_column": {
      "latitude": "29.931376600555343",
      "longitude": "-90.10455384483727"
    }
  },
  {
    "service_request": "2025-1194804",
    "request_type": "Trash/Recycling",
    "request_reason": "Request a Large Item Pick Up",
    "date_created": "2025-05-24T08:30:17.000",
    "date_modified": "2025-05-24T08:30:20.000",
    "request_status": "Pending",
    "responsible_agency": "Department of Sanitation",
    "final_address": "1001 Poland Ave B",
    "address_councildis": "C",
    "status": "Assigned to Contractor",
    "contractor": "IV Waste",
    "rowid": "1194804",
    "final_x": "3692997.54902",
    "final_y": "534581.262789",
    "longitude": "-90.0316555458794",
    "latitude": "29.96355898174734",
    "geocoded_column": {
      "latitude": "29.96355898174734",
      "longitude": "-90.0316555458794"
    }
  },
  {
    "service_request": "2025-1194803",
    "request_type": "Streetlights",
    "request_reason": "Streetlight Outage/Malfunction",
    "date_created": "2025-05-24T08:23:15.000",
    "date_modified": "2025-05-24T08:23:17.000",
    "request_status": "Pending",
    "responsible_agency": "Department of Public Works",
    "final_address": "6501 Peony St",
    "address_councildis": "C",
    "status": "Pending",
    "contractor": "Legacy Professional Services",
    "rowid": "1194803",
    "final_x": "3707858.54328",
    "final_y": "516387.512629",
    "longitude": "-89.98540237101216",
    "latitude": "29.913060066814687",
    "geocoded_column": {
      "latitude": "29.913060066814687",
      "longitude": "-89.98540237101216"
    }
  },
  {
    "service_request": "2025-1194802",
    "request_type": "Abandoned Vehicles",
    "request_reason": "Abandoned/Junk Vehicles",
    "date_created": "2025-05-24T08:16:53.000",
    "date_modified": "2025-05-24T08:16:55.000",
    "request_status": "Pending",
    "responsible_agency": "Department of Public Works",
    "final_address": "2128 S Gayoso St",
    "address_councildis": "B",
    "status": "Pending",
    "rowid": "1194802",
    "final_x": "3669670.02836",
    "final_y": "528895.104896",
    "longitude": "-90.10551403425507",
    "latitude": "29.948631966710003",
    "geocoded_column": {
      "latitude": "29.948631966710003",
      "longitude": "-90.10551403425507"
    }
  },
  {
    "service_request": "2025-1194801",
    "request_type": "Roads and Streets",
    "request_reason": "Push-up/Pavement Expansion",
    "date_created": "2025-05-24T07:25:06.000",
    "date_modified": "2025-05-24T07:25:09.000",
    "request_status": "Pending",
    "responsible_agency": "Department of Public Works",
    "final_address": "6361 Eastover Dr",
    "address_councildis": "E",
    "status": "Pending",
    "rowid": "1194801",
    "final_x": "3718182.27589",
    "final_y": "563643.677153",
    "longitude": "-89.95101864809278",
    "latitude": "30.042658568078288",
    "geocoded_column": {
      "latitude": "30.042658568078288",
      "longitude": "-89.95101864809278"
    }
  },
  {
    "service_request": "2025-1194800",
    "request_type": "Street and Traffic Signs",
    "request_reason": "Stop Sign Missing or Damaged",
    "date_created": "2025-05-23T23:39:09.000",
    "date_modified": "2025-05-23T23:39:14.000",
    "request_status": "Pending",
    "responsible_agency": "Department of Public Works",
    "final_address": "3101 S Liberty St",
    "address_councildis": "B",
    "status": "Pending",
    "rowid": "1194800",
    "final_x": "3673779.15809",
    "final_y": "524140.262844",
    "longitude": "-90.09270230343402",
    "latitude": "29.935435997951522",
    "geocoded_column": {
      "latitude": "29.935435997951522",
      "longitude": "-90.09270230343402"
    }
  },
  {
    "service_request": "2025-1194799",
    "request_type": "Trash/Recycling",
    "request_reason": "Request a Large Item Pick Up",
    "date_created": "2025-05-23T22:34:46.000",
    "date_modified": "2025-05-23T22:34:48.000",
    "request_status": "Pending",
    "responsible_agency": "Department of Sanitation",
    "final_address": "304 S Murat St",
    "address_councildis": "A",
    "status": "Assigned to Contractor",
    "contractor": "IV Waste",
    "rowid": "1194799",
    "final_x": "3669217.2818",
    "final_y": "538690.464905",
    "longitude": "-90.10661243857403",
    "latitude": "29.975579291112652",
    "geocoded_column": {
      "latitude": "29.975579291112652",
      "longitude": "-90.10661243857403"
    }
  },
  {
    "service_request": "2025-1194798",
    "request_type": "Street and Traffic Signs",
    "request_reason": "Stop Sign Missing or Damaged",
    "date_created": "2025-05-23T21:48:51.000",
    "date_modified": "2025-05-23T21:48:54.000",
    "request_status": "Pending",
    "responsible_agency": "Department of Public Works",
    "final_address": "2627 St Thomas St",
    "address_councildis": "B",
    "status": "Pending",
    "rowid": "1194798",
    "final_x": "3678347.10933",
    "final_y": "519524.043575",
    "longitude": "-90.07844085720814",
    "latitude": "29.92260611785074",
    "geocoded_column": {
      "latitude": "29.92260611785074",
      "longitude": "-90.07844085720814"
    }
  },
  {
    "service_request": "2025-1194797",
    "request_type": "Roads and Streets",
    "request_reason": "Sidewalk Damaged or Missing",
    "date_created": "2025-05-23T21:48:47.000",
    "date_modified": "2025-05-24T13:34:59.000",
    "case_close_date": "2025-05-24T08:34:57.000",
    "request_status": "Closed",
    "responsible_agency": "Department of Public Works",
    "final_address": "0 BLK Chatham Dr",
    "address_councildis": "D",
    "status": "Resolved",
    "rowid": "1194797",
    "final_x": "3679840.64258",
    "final_y": "551512.611001",
    "longitude": "-90.07261538765654",
    "latitude": "30.010518669910642",
    "geocoded_column": {
      "latitude": "30.010518669910642",
      "longitude": "-90.07261538765654"
    }
  },
  {
    "service_request": "2025-1194796",
    "request_type": "Trash/Recycling",
    "request_reason": "Request a Large Item Pick Up",
    "date_created": "2025-05-23T21:27:39.000",
    "date_modified": "2025-05-23T21:27:42.000",
    "request_status": "Pending",
    "responsible_agency": "Department of Sanitation",
    "final_address": "1719 N Robertson St",
    "address_councildis": "C",
    "status": "Assigned to Contractor",
    "contractor": "IV Waste",
    "rowid": "1194796",
    "final_x": "3683189.66952",
    "final_y": "537664.657544",
    "longitude": "-90.06251977234949",
    "latitude": "29.972339968210367",
    "geocoded_column": {
      "latitude": "29.972339968210367",
      "longitude": "-90.06251977234949"
    }
  },
  {
    "service_request": "2025-1194795",
    "request_type": "Trash/Recycling",
    "request_reason": "Change Size of Trash Cart",
    "date_created": "2025-05-23T20:51:47.000",
    "date_modified": "2025-05-23T20:51:49.000",
    "request_status": "Pending",
    "responsible_agency": "Department of Sanitation",
    "final_address": "1443 Constance St",
    "address_councildis": "B",
    "status": "Assigned to Contractor",
    "contractor": "IV Waste",
    "rowid": "1194795",
    "final_x": "3680606.34216",
    "final_y": "524080.034172",
    "longitude": "-90.07115095050648",
    "latitude": "29.935065368650445",
    "geocoded_column": {
      "latitude": "29.935065368650445",
      "longitude": "-90.07115095050648"
    }
  },
  {
    "service_request": "2025-1194794",
    "request_type": "Trash/Recycling",
    "request_reason": "Return Recycling Cart",
    "date_created": "2025-05-23T20:50:05.000",
    "date_modified": "2025-05-23T20:50:08.000",
    "request_status": "Pending",
    "responsible_agency": "Department of Sanitation",
    "final_address": "1443 Constance St",
    "address_councildis": "B",
    "status": "Pending",
    "rowid": "1194794",
    "final_x": "3680606.34216",
    "final_y": "524080.034172",
    "longitude": "-90.07115095050648",
    "latitude": "29.935065368650445",
    "geocoded_column": {
      "latitude": "29.935065368650445",
      "longitude": "-90.07115095050648"
    }
  },
  {
    "service_request": "2025-1194793",
    "request_type": "Trash/Recycling",
    "request_reason": "Replace Trash Cart",
    "date_created": "2025-05-23T20:11:29.000",
    "date_modified": "2025-05-23T20:11:31.000",
    "request_status": "Pending",
    "responsible_agency": "Department of Sanitation",
    "final_address": "2520 Laurel St",
    "address_councildis": "B",
    "status": "Assigned to Contractor",
    "contractor": "IV Waste",
    "rowid": "1194793",
    "final_x": "3678091.60571",
    "final_y": "520586.962232",
    "longitude": "-90.07921065732775",
    "latitude": "29.925536490796155",
    "geocoded_column": {
      "latitude": "29.925536490796155",
      "longitude": "-90.07921065732775"
    }
  },
  {
    "service_request": "2025-1194792",
    "request_type": "Property Maintenance",
    "request_reason": "Property Maintenance",
    "date_created": "2025-05-23T20:10:58.000",
    "date_modified": "2025-05-23T20:11:00.000",
    "request_status": "Pending",
    "responsible_agency": "Department of Code Enforcement",
    "final_address": "4600 Mandeville St",
    "address_councildis": "D",
    "status": "Pending",
    "rowid": "1194792",
    "final_x": "3684682.32194",
    "final_y": "549529.936915",
    "longitude": "-90.05738845182309",
    "latitude": "30.004919671339156",
    "geocoded_column": {
      "latitude": "30.004919671339156",
      "longitude": "-90.05738845182309"
    }
  },
  {
    "service_request": "2025-1194791",
    "request_type": "Trash/Recycling",
    "request_reason": "Order Recycling Cart",
    "date_created": "2025-05-23T19:57:16.000",
    "date_modified": "2025-05-23T19:57:18.000",
    "request_status": "Pending",
    "responsible_agency": "Department of Sanitation",
    "final_address": "7040 Queensway Dr",
    "address_councildis": "E",
    "status": "Pending",
    "rowid": "1194791",
    "final_x": "3719143.7742",
    "final_y": "569435.856358",
    "longitude": "-89.94775861293397",
    "latitude": "30.05855274367395",
    "geocoded_column": {
      "latitude": "30.05855274367395",
      "longitude": "-89.94775861293397"
    }
  },
  {
    "service_request": "2025-1194790",
    "request_type": "Trash/Recycling",
    "request_reason": "Request a Large Item Pick Up",
    "date_created": "2025-05-23T19:55:20.000",
    "date_modified": "2025-05-23T19:55:22.000",
    "request_status": "Pending",
    "responsible_agency": "Department of Sanitation",
    "final_address": "2528 Marengo St",
    "address_councildis": "B",
    "status": "Assigned to Contractor",
    "contractor": "IV Waste",
    "rowid": "1194790",
    "final_x": "3671565.93742",
    "final_y": "524387.417468",
    "longitude": "-90.09968106819686",
    "latitude": "29.936181298362843",
    "geocoded_column": {
      "latitude": "29.936181298362843",
      "longitude": "-90.09968106819686"
    }
  },
  {
    "service_request": "2025-1194788",
    "request_type": "Mosquito, Termite & Rodent Control",
    "request_reason": "Termite Complaint",
    "date_created": "2025-05-23T19:43:59.000",
    "date_modified": "2025-05-23T19:44:01.000",
    "request_status": "Pending",
    "responsible_agency": "Mosquito, Termite & Rodent Control Board",
    "final_address": "2301 Beck St",
    "address_councildis": "C",
    "status": "Pending",
    "rowid": "1194788",
    "final_x": "3700392.60618",
    "final_y": "522343.561146",
    "longitude": "-90.0087496208938",
    "latitude": "29.929676543332526",
    "geocoded_column": {
      "latitude": "29.929676543332526",
      "longitude": "-90.0087496208938"
    }
  },
  {
    "service_request": "2025-1194787",
    "request_type": "Trash/Recycling",
    "request_reason": "Order Recycling Cart",
    "date_created": "2025-05-23T19:42:39.000",
    "date_modified": "2025-05-23T19:42:41.000",
    "request_status": "Pending",
    "responsible_agency": "Department of Sanitation",
    "final_address": "2301 Beck St",
    "address_councildis": "C",
    "status": "Pending",
    "rowid": "1194787",
    "final_x": "3700392.60618",
    "final_y": "522343.561146",
    "longitude": "-90.0087496208938",
    "latitude": "29.929676543332526",
    "geocoded_column": {
      "latitude": "29.929676543332526",
      "longitude": "-90.0087496208938"
    }
  },
  {
    "service_request": "2025-1194786",
    "request_type": "Trash/Recycling",
    "request_reason": "Replace Trash Cart",
    "date_created": "2025-05-23T19:39:20.000",
    "date_modified": "2025-05-23T19:39:22.000",
    "request_status": "Pending",
    "responsible_agency": "Department of Sanitation",
    "final_address": "2800 State St",
    "address_councildis": "A",
    "status": "Assigned to Contractor",
    "contractor": "IV Waste",
    "rowid": "1194786",
    "final_x": "3667077.92481",
    "final_y": "526758.954238",
    "longitude": "-90.11377021749138",
    "latitude": "29.94283436254778",
    "geocoded_column": {
      "latitude": "29.94283436254778",
      "longitude": "-90.11377021749138"
    }
  },
  {
    "service_request": "2025-1194785",
    "request_type": "Streetlights",
    "request_reason": "Streetlight Outage/Malfunction",
    "date_created": "2025-05-23T19:18:55.000",
    "date_modified": "2025-05-23T19:18:57.000",
    "request_status": "Pending",
    "responsible_agency": "Department of Public Works",
    "final_address": "1020 Arabella St",
    "address_councildis": "A",
    "status": "Pending",
    "contractor": "Legacy Professional Services",
    "rowid": "1194785",
    "final_x": "3665967.98631",
    "final_y": "519758.070008",
    "longitude": "-90.11750910782675",
    "latitude": "29.9236165940433",
    "geocoded_column": {
      "latitude": "29.9236165940433",
      "longitude": "-90.11750910782675"
    }
  },
  {
    "service_request": "2025-1194784",
    "request_type": "Drainage",
    "request_reason": "Catch Basin Clogged",
    "date_created": "2025-05-23T19:17:35.000",
    "date_modified": "2025-05-23T19:17:37.000",
    "request_status": "Pending",
    "responsible_agency": "Sewerage & Water Board",
    "final_address": "6060 Cartier Ave",
    "address_councildis": "D",
    "status": "Pending",
    "rowid": "1194784",
    "final_x": "3677461.75611",
    "final_y": "554713.32508",
    "longitude": "-90.08002059484349",
    "latitude": "30.019391235486463",
    "geocoded_column": {
      "latitude": "30.019391235486463",
      "longitude": "-90.08002059484349"
    }
  },
  {
    "service_request": "2025-1194783",
    "request_type": "Trash/Recycling",
    "request_reason": "Order Recycling Cart",
    "date_created": "2025-05-23T19:06:15.000",
    "date_modified": "2025-05-23T19:06:20.000",
    "request_status": "Pending",
    "responsible_agency": "Department of Sanitation",
    "final_address": "727 Alvar St",
    "address_councildis": "C",
    "status": "Pending",
    "rowid": "1194783",
    "final_x": "3691215.31651",
    "final_y": "534099.500613",
    "longitude": "-90.03730083600615",
    "latitude": "29.962289854231212",
    "geocoded_column": {
      "latitude": "29.962289854231212",
      "longitude": "-90.03730083600615"
    }
  },
  {
    "service_request": "2025-1194782",
    "request_type": "Parks & Parkways",
    "request_reason": "Request Tree Service (Right of Way/Public Property)",
    "date_created": "2025-05-23T18:56:40.000",
    "date_modified": "2025-05-23T18:56:42.000",
    "request_status": "Pending",
    "responsible_agency": "Department of Parks & Parkway",
    "final_address": "415 Bouny St",
    "address_councildis": "C",
    "status": "Pending",
    "rowid": "1194782",
    "final_x": "3685948.17084",
    "final_y": "529913.918081",
    "longitude": "-90.05408124756813",
    "latitude": "29.95094369996993",
    "geocoded_column": {
      "latitude": "29.95094369996993",
      "longitude": "-90.05408124756813"
    }
  },
  {
    "service_request": "2025-1194780",
    "request_type": "Trash/Recycling",
    "request_reason": "Repair Recycling Cart",
    "date_created": "2025-05-23T18:52:24.000",
    "date_modified": "2025-05-23T18:52:26.000",
    "request_status": "Pending",
    "responsible_agency": "Department of Sanitation",
    "final_address": "3202 Castiglione St",
    "address_councildis": "A",
    "status": "Pending",
    "rowid": "1194780",
    "final_x": "3678213.06798",
    "final_y": "542746.048269",
    "longitude": "-90.07806093981567",
    "latitude": "29.986462861222783",
    "geocoded_column": {
      "latitude": "29.986462861222783",
      "longitude": "-90.07806093981567"
    }
  },
  {
    "service_request": "2025-1194781",
    "request_type": "Trash/Recycling",
    "request_reason": "Repair Recycling Cart",
    "date_created": "2025-05-23T18:52:24.000",
    "date_modified": "2025-05-23T18:52:26.000",
    "request_status": "Pending",
    "responsible_agency": "Department of Sanitation",
    "final_address": "3202 Castiglione St",
    "address_councildis": "A",
    "status": "Pending",
    "rowid": "1194781",
    "final_x": "3678213.06798",
    "final_y": "542746.048269",
    "longitude": "-90.07806093981567",
    "latitude": "29.986462861222783",
    "geocoded_column": {
      "latitude": "29.986462861222783",
      "longitude": "-90.07806093981567"
    }
  },
  {
    "service_request": "2025-1194779",
    "request_type": "Health Related Request",
    "request_reason": "Homeless Encampment Complaint",
    "date_created": "2025-05-23T18:47:05.000",
    "date_modified": "2025-05-23T18:47:07.000",
    "request_status": "Pending",
    "responsible_agency": "Health Department",
    "final_address": "0 BLK Agriculture Pl",
    "address_councildis": "D",
    "status": "Pending",
    "rowid": "1194779",
    "final_x": "3689891.40135",
    "final_y": "543419.290574",
    "longitude": "-90.04114966127275",
    "latitude": "29.987957086684915",
    "geocoded_column": {
      "latitude": "29.987957086684915",
      "longitude": "-90.04114966127275"
    }
  },
  {
    "service_request": "2025-1194778",
    "request_type": "Trash/Recycling",
    "request_reason": "Replace Recycling Cart",
    "date_created": "2025-05-23T18:40:46.000",
    "date_modified": "2025-05-23T18:40:48.000",
    "request_status": "Pending",
    "responsible_agency": "Department of Sanitation",
    "final_address": "4915 Meadowbank Dr",
    "address_councildis": "E",
    "status": "Pending",
    "rowid": "1194778",
    "final_x": "3719021.48844",
    "final_y": "558039.463451",
    "longitude": "-89.94858047809389",
    "latitude": "30.027221386721397",
    "geocoded_column": {
      "latitude": "30.027221386721397",
      "longitude": "-89.94858047809389"
    }
  },
  {
    "service_request": "2025-1194777",
    "request_type": "Trash/Recycling",
    "request_reason": "Replace Recycling Cart",
    "date_created": "2025-05-23T18:38:51.000",
    "date_modified": "2025-05-23T18:38:53.000",
    "request_status": "Pending",
    "responsible_agency": "Department of Sanitation",
    "final_address": "3326 State Street Dr",
    "address_councildis": "A",
    "status": "Pending",
    "rowid": "1194777",
    "final_x": "3667683.80161",
    "final_y": "528576.985024",
    "longitude": "-90.111796121272",
    "latitude": "29.947815613019646",
    "geocoded_column": {
      "latitude": "29.947815613019646",
      "longitude": "-90.111796121272"
    }
  },
  {
    "service_request": "2025-1194776",
    "request_type": "Trash/Recycling",
    "request_reason": "Order Recycling Cart",
    "date_created": "2025-05-23T18:36:52.000",
    "date_modified": "2025-05-23T18:36:54.000",
    "request_status": "Pending",
    "responsible_agency": "Department of Sanitation",
    "final_address": "4915 Meadowbank Dr",
    "address_councildis": "E",
    "status": "Pending",
    "rowid": "1194776",
    "final_x": "3719021.48844",
    "final_y": "558039.463451",
    "longitude": "-89.94858047809389",
    "latitude": "30.027221386721397",
    "geocoded_column": {
      "latitude": "30.027221386721397",
      "longitude": "-89.94858047809389"
    }
  },
  {
    "service_request": "2025-1194775",
    "request_type": "Drainage",
    "request_reason": "Catch Basin Clogged",
    "date_created": "2025-05-23T18:32:05.000",
    "date_modified": "2025-05-23T18:32:08.000",
    "request_status": "Pending",
    "responsible_agency": "Sewerage & Water Board",
    "final_address": "4334 Canal St",
    "address_councildis": "A",
    "status": "Pending",
    "rowid": "1194775",
    "final_x": "3669995.23066",
    "final_y": "539039.98369",
    "longitude": "-90.10414361323797",
    "latitude": "29.976517425993556",
    "geocoded_column": {
      "latitude": "29.976517425993556",
      "longitude": "-90.10414361323797"
    }
  },
  {
    "service_request": "2025-1194774",
    "request_type": "Parks & Parkways",
    "request_reason": "Request Tree Service (Right of Way/Public Property)",
    "date_created": "2025-05-23T18:30:43.000",
    "date_modified": "2025-05-23T18:30:44.000",
    "request_status": "Pending",
    "responsible_agency": "Department of Parks & Parkway",
    "final_address": "4037 S Inwood Ave",
    "address_councildis": "C",
    "status": "Pending",
    "rowid": "1194774",
    "final_x": "3705120.37905",
    "final_y": "513175.709234",
    "longitude": "-89.99416324074414",
    "latitude": "29.904316992684567",
    "geocoded_column": {
      "latitude": "29.904316992684567",
      "longitude": "-89.99416324074414"
    }
  },
  {
    "service_request": "2025-1194773",
    "request_type": "Property Maintenance",
    "request_reason": "Property Maintenance",
    "date_created": "2025-05-23T18:18:08.000",
    "date_modified": "2025-05-23T18:18:09.000",
    "request_status": "Pending",
    "responsible_agency": "Department of Code Enforcement",
    "final_address": "1610 N Johnson St",
    "address_councildis": "D",
    "status": "Pending",
    "rowid": "1194773",
    "final_x": "3681153.59976",
    "final_y": "538711.235081",
    "longitude": "-90.06891355575539",
    "latitude": "29.9752796282647",
    "geocoded_column": {
      "latitude": "29.9752796282647",
      "longitude": "-90.06891355575539"
    }
  },
  {
    "service_request": "2025-1194772",
    "request_type": "Trash/Recycling",
    "request_reason": "Repair Trash Cart",
    "date_created": "2025-05-23T18:17:48.000",
    "date_modified": "2025-05-23T18:17:50.000",
    "request_status": "Pending",
    "responsible_agency": "Department of Sanitation",
    "final_address": "417 S Rendon St",
    "address_councildis": "B",
    "status": "Assigned to Contractor",
    "contractor": "IV Waste",
    "rowid": "1194772",
    "final_x": "3672708.14395",
    "final_y": "535366.557254",
    "longitude": "-90.09570070047269",
    "latitude": "29.966336444064666",
    "geocoded_column": {
      "latitude": "29.966336444064666",
      "longitude": "-90.09570070047269"
    }
  },
  {
    "service_request": "2025-1194771",
    "request_type": "Street and Traffic Signs",
    "request_reason": "Stop Sign Missing or Damaged",
    "date_created": "2025-05-23T18:11:34.000",
    "date_modified": "2025-05-23T18:11:36.000",
    "request_status": "Pending",
    "responsible_agency": "Department of Public Works",
    "final_address": "4301 Marais St",
    "address_councildis": "D",
    "status": "Pending",
    "rowid": "1194771",
    "final_x": "3692859.85808",
    "final_y": "535445.491206",
    "longitude": "-90.03205936411804",
    "latitude": "29.965939605638695",
    "geocoded_column": {
      "latitude": "29.965939605638695",
      "longitude": "-90.03205936411804"
    }
  },
  {
    "service_request": "2025-1194770",
    "request_type": "Trash/Recycling",
    "request_reason": "Request a Large Item Pick Up",
    "date_created": "2025-05-23T17:42:28.000",
    "date_modified": "2025-05-23T17:42:30.000",
    "request_status": "Pending",
    "responsible_agency": "Department of Sanitation",
    "final_address": "4012 Annunciation St",
    "address_councildis": "B",
    "status": "Assigned to Contractor",
    "contractor": "IV Waste",
    "rowid": "1194770",
    "final_x": "3672500.16174",
    "final_y": "517847.353526",
    "longitude": "-90.09695447521612",
    "latitude": "29.91817053295148",
    "geocoded_column": {
      "latitude": "29.91817053295148",
      "longitude": "-90.09695447521612"
    }
  },
  {
    "service_request": "2025-1194769",
    "request_type": "Trash/Recycling",
    "request_reason": "Request a Large Item Pick Up",
    "date_created": "2025-05-23T17:39:43.000",
    "date_modified": "2025-05-23T17:39:45.000",
    "request_status": "Pending",
    "responsible_agency": "Department of Sanitation",
    "final_address": "4012 Annunciation St",
    "address_councildis": "B",
    "status": "Assigned to Contractor",
    "contractor": "IV Waste",
    "rowid": "1194769",
    "final_x": "3672500.16174",
    "final_y": "517847.353526",
    "longitude": "-90.09695447521612",
    "latitude": "29.91817053295148",
    "geocoded_column": {
      "latitude": "29.91817053295148",
      "longitude": "-90.09695447521612"
    }
  },
  {
    "service_request": "2025-1194768",
    "request_type": "Abandoned Vehicles",
    "request_reason": "Abandoned/Junk Vehicles",
    "date_created": "2025-05-23T17:39:31.000",
    "date_modified": "2025-05-23T17:39:32.000",
    "request_status": "Pending",
    "responsible_agency": "Department of Public Works",
    "final_address": "6226 York St",
    "address_councildis": "A",
    "status": "Pending",
    "rowid": "1194768",
    "final_x": "3667665.18682",
    "final_y": "529014.302848",
    "longitude": "-90.1118401762317",
    "latitude": "29.949018640546555",
    "geocoded_column": {
      "latitude": "29.949018640546555",
      "longitude": "-90.1118401762317"
    }
  },
  {
    "service_request": "2025-1194767",
    "request_type": "Trash/Recycling",
    "request_reason": "Request a Large Item Pick Up",
    "date_created": "2025-05-23T17:34:57.000",
    "date_modified": "2025-05-23T17:34:59.000",
    "request_status": "Pending",
    "responsible_agency": "Department of Sanitation",
    "final_address": "4012 Annunciation St",
    "address_councildis": "B",
    "status": "Assigned to Contractor",
    "contractor": "IV Waste",
    "rowid": "1194767",
    "final_x": "3672500.16174",
    "final_y": "517847.353526",
    "longitude": "-90.09695447521612",
    "latitude": "29.91817053295148",
    "geocoded_column": {
      "latitude": "29.91817053295148",
      "longitude": "-90.09695447521612"
    }
  },
  {
    "service_request": "2025-1194766",
    "request_type": "Trash/Recycling",
    "request_reason": "Missed Trash Pick-Up",
    "date_created": "2025-05-23T16:54:14.000",
    "date_modified": "2025-05-23T16:54:17.000",
    "request_status": "Pending",
    "responsible_agency": "Department of Sanitation",
    "final_address": "4585 Francisco Verrett Dr",
    "address_councildis": "E",
    "status": "Assigned to Contractor",
    "contractor": "Waste Pro",
    "rowid": "1194766",
    "final_x": "3704366.91921",
    "final_y": "554170.190488",
    "longitude": "-89.99503005243992",
    "latitude": "30.017061200015604",
    "geocoded_column": {
      "latitude": "30.017061200015604",
      "longitude": "-89.99503005243992"
    }
  },
  {
    "service_request": "2025-1194765",
    "request_type": "Street and Traffic Signs",
    "request_reason": "Street Name Sign Damaged or Missing",
    "date_created": "2025-05-23T16:46:30.000",
    "date_modified": "2025-05-23T16:46:32.000",
    "request_status": "Pending",
    "responsible_agency": "Department of Public Works",
    "final_address": "5018 Mendez St",
    "address_councildis": "D",
    "status": "Pending",
    "rowid": "1194765",
    "final_x": "3691929.00777",
    "final_y": "554500.231256",
    "longitude": "-90.03431676690388",
    "latitude": "30.018362265028106",
    "geocoded_column": {
      "latitude": "30.018362265028106",
      "longitude": "-90.03431676690388"
    }
  },
  {
    "service_request": "2025-1194764",
    "request_type": "Property Maintenance",
    "request_reason": "Property Maintenance",
    "date_created": "2025-05-23T16:46:19.000",
    "date_modified": "2025-05-23T16:46:21.000",
    "request_status": "Pending",
    "responsible_agency": "Department of Code Enforcement",
    "final_address": "3131 Mansfield Ave",
    "address_councildis": "C",
    "status": "Pending",
    "rowid": "1194764",
    "final_x": "3709061.38737",
    "final_y": "518702.694583",
    "longitude": "-89.98151966312746",
    "latitude": "29.919387048023438",
    "geocoded_column": {
      "latitude": "29.919387048023438",
      "longitude": "-89.98151966312746"
    }
  },
  {
    "service_request": "2025-1194763",
    "request_type": "Trash/Recycling",
    "request_reason": "Request a Large Item Pick Up",
    "date_created": "2025-05-23T16:43:30.000",
    "date_modified": "2025-05-23T16:43:33.000",
    "request_status": "Pending",
    "responsible_agency": "Department of Sanitation",
    "final_address": "3800 S Post Oak Ave",
    "address_councildis": "C",
    "status": "Assigned to Contractor",
    "contractor": "Richards Disposal",
    "rowid": "1194763",
    "final_x": "3704555.9859",
    "final_y": "514220.676019",
    "longitude": "-89.99590597001348",
    "latitude": "29.907208420436685",
    "geocoded_column": {
      "latitude": "29.907208420436685",
      "longitude": "-89.99590597001348"
    }
  },
  {
    "service_request": "2025-1194762",
    "request_type": "Property Maintenance",
    "request_reason": "Property Maintenance",
    "date_created": "2025-05-23T16:38:33.000",
    "date_modified": "2025-05-23T16:38:36.000",
    "request_status": "Pending",
    "responsible_agency": "Department of Code Enforcement",
    "final_address": "5635 Pauline Dr",
    "address_councildis": "D",
    "status": "Pending",
    "rowid": "1194762",
    "final_x": "3691992.35817",
    "final_y": "554843.211608",
    "longitude": "-90.03410431626192",
    "latitude": "30.019303357825144",
    "geocoded_column": {
      "latitude": "30.019303357825144",
      "longitude": "-90.03410431626192"
    }
  },
  {
    "service_request": "2025-1194761",
    "request_type": "Abandoned Vehicles",
    "request_reason": "Abandoned/Junk Vehicles",
    "date_created": "2025-05-23T16:24:20.000",
    "date_modified": "2025-05-23T16:26:01.000",
    "request_status": "Pending",
    "responsible_agency": "Department of Public Works",
    "final_address": "3313 Delachaise St",
    "address_councildis": "B",
    "status": "Pending",
    "rowid": "1194761",
    "final_x": "3671579.47764",
    "final_y": "527209.299519",
    "longitude": "-90.0995423954946",
    "latitude": "29.94394015583657",
    "geocoded_column": {
      "latitude": "29.94394015583657",
      "longitude": "-90.0995423954946"
    }
  },
  {
    "service_request": "2025-1194760",
    "request_type": "Trash/Recycling",
    "request_reason": "Dead Animal Pick Up",
    "date_created": "2025-05-23T16:20:56.000",
    "date_modified": "2025-05-24T07:27:29.000",
    "case_close_date": "2025-05-24T02:27:27.000",
    "request_status": "Closed",
    "responsible_agency": "Department of Sanitation",
    "final_address": "740 Jefferson Ave",
    "address_councildis": "A",
    "status": "Assigned to Contractor",
    "contractor": "IV Waste",
    "contractor_action": "Completed",
    "rowid": "1194760",
    "final_x": "3666524.64666",
    "final_y": "518216.78431",
    "longitude": "-90.11580362629178",
    "latitude": "29.91936228975323",
    "geocoded_column": {
      "latitude": "29.91936228975323",
      "longitude": "-90.11580362629178"
    }
  },
  {
    "service_request": "2025-1194759",
    "request_type": "Trash/Recycling",
    "request_reason": "Order Trash Cart",
    "date_created": "2025-05-23T16:17:39.000",
    "date_modified": "2025-05-23T16:17:42.000",
    "request_status": "Pending",
    "responsible_agency": "Department of Sanitation",
    "final_address": "1421 Bourbon St",
    "address_councildis": "C",
    "status": "Assigned to Contractor",
    "contractor": "IV Waste",
    "rowid": "1194759",
    "final_x": "3683910.18069",
    "final_y": "534784.993094",
    "longitude": "-90.06034531306426",
    "latitude": "29.9643998956153",
    "geocoded_column": {
      "latitude": "29.9643998956153",
      "longitude": "-90.06034531306426"
    }
  },
  {
    "service_request": "2025-1194758",
    "request_type": "Roads and Streets",
    "request_reason": "Pothole",
    "date_created": "2025-05-23T16:15:45.000",
    "date_modified": "2025-05-24T13:36:37.000",
    "request_status": "Pending",
    "responsible_agency": "Department of Public Works",
    "final_address": "4637 Palmyra St",
    "address_councildis": "A",
    "status": "Pending",
    "rowid": "1194758",
    "final_x": "3668700.38791",
    "final_y": "539224.987018",
    "longitude": "-90.10822688747504",
    "latitude": "29.977064252863165",
    "geocoded_column": {
      "latitude": "29.977064252863165",
      "longitude": "-90.10822688747504"
    }
  },
  {
    "service_request": "2025-1194757",
    "request_type": "Trash/Recycling",
    "request_reason": "Request a Large Item Pick Up",
    "date_created": "2025-05-23T16:10:46.000",
    "date_modified": "2025-05-23T16:10:48.000",
    "request_status": "Pending",
    "responsible_agency": "Department of Sanitation",
    "final_address": "7600 Forum Blvd",
    "address_councildis": "E",
    "status": "Assigned to Contractor",
    "contractor": "Waste Pro",
    "rowid": "1194757",
    "final_x": "3720290.97119",
    "final_y": "572993.773673",
    "longitude": "-89.94399612020014",
    "latitude": "30.06829733106004",
    "geocoded_column": {
      "latitude": "30.06829733106004",
      "longitude": "-89.94399612020014"
    }
  },
  {
    "service_request": "2025-1194755",
    "request_type": "Property Maintenance",
    "request_reason": "Property Maintenance",
    "date_created": "2025-05-23T16:04:15.000",
    "date_modified": "2025-05-23T16:04:17.000",
    "request_status": "Pending",
    "responsible_agency": "Department of Code Enforcement",
    "final_address": "7460 Horizon Dr",
    "address_councildis": "E",
    "status": "Pending",
    "rowid": "1194755",
    "final_x": "3725488.30457",
    "final_y": "569443.82135",
    "longitude": "-89.92770414946104",
    "latitude": "30.058362169258892",
    "geocoded_column": {
      "latitude": "30.058362169258892",
      "longitude": "-89.92770414946104"
    }
  },
  {
    "service_request": "2025-1194756",
    "request_type": "Property Maintenance",
    "request_reason": "Property Maintenance",
    "date_created": "2025-05-23T16:04:15.000",
    "date_modified": "2025-05-23T16:04:18.000",
    "request_status": "Pending",
    "responsible_agency": "Department of Code Enforcement",
    "final_address": "7460 Horizon Dr",
    "address_councildis": "E",
    "status": "Pending",
    "rowid": "1194756",
    "final_x": "3725488.30457",
    "final_y": "569443.82135",
    "longitude": "-89.92770414946104",
    "latitude": "30.058362169258892",
    "geocoded_column": {
      "latitude": "30.058362169258892",
      "longitude": "-89.92770414946104"
    }
  },
  {
    "service_request": "2025-1194754",
    "request_type": "Trash/Recycling",
    "request_reason": "Order Trash Cart",
    "date_created": "2025-05-23T16:01:05.000",
    "date_modified": "2025-05-23T16:01:09.000",
    "request_status": "Pending",
    "responsible_agency": "Department of Sanitation",
    "final_address": "5101 St Roch Ave",
    "address_councildis": "D",
    "status": "Assigned to Contractor",
    "contractor": "IV Waste",
    "rowid": "1194754",
    "final_x": "3685297.93423",
    "final_y": "551543.637333",
    "longitude": "-90.05537265815883",
    "latitude": "30.010437752185116",
    "geocoded_column": {
      "latitude": "30.010437752185116",
      "longitude": "-90.05537265815883"
    }
  },
  {
    "service_request": "2025-1194753",
    "request_type": "Property Maintenance",
    "request_reason": "Property Maintenance",
    "date_created": "2025-05-23T15:59:39.000",
    "date_modified": "2025-05-23T15:59:41.000",
    "request_status": "Pending",
    "responsible_agency": "Department of Code Enforcement",
    "final_address": "917 Verret St",
    "address_councildis": "C",
    "status": "Pending",
    "rowid": "1194753",
    "final_x": "3687143.58633",
    "final_y": "528174.768",
    "longitude": "-90.05036822236157",
    "latitude": "29.94612487950329",
    "geocoded_column": {
      "latitude": "29.94612487950329",
      "longitude": "-90.05036822236157"
    }
  },
  {
    "service_request": "2025-1194752",
    "request_type": "Trash/Recycling",
    "request_reason": "Repair Trash Cart",
    "date_created": "2025-05-23T15:59:13.000",
    "date_modified": "2025-05-23T15:59:17.000",
    "request_status": "Pending",
    "responsible_agency": "Department of Sanitation",
    "final_address": "7324 Beryl St",
    "address_councildis": "D",
    "status": "Assigned to Contractor",
    "contractor": "IV Waste",
    "rowid": "1194752",
    "final_x": "3668575.11489",
    "final_y": "555641.412505",
    "longitude": "-90.1080681179992",
    "latitude": "30.022207421204918",
    "geocoded_column": {
      "latitude": "30.022207421204918",
      "longitude": "-90.1080681179992"
    }
  },
  {
    "service_request": "2025-1194751",
    "request_type": "Trash/Recycling",
    "request_reason": "Request a Large Item Pick Up",
    "date_created": "2025-05-23T15:57:22.000",
    "date_modified": "2025-05-23T15:57:24.000",
    "request_status": "Pending",
    "responsible_agency": "Department of Sanitation",
    "final_address": "5101 St Roch Ave",
    "address_councildis": "D",
    "status": "Assigned to Contractor",
    "contractor": "IV Waste",
    "rowid": "1194751",
    "final_x": "3685297.93423",
    "final_y": "551543.637333",
    "longitude": "-90.05537265815883",
    "latitude": "30.010437752185116",
    "geocoded_column": {
      "latitude": "30.010437752185116",
      "longitude": "-90.05537265815883"
    }
  },
  {
    "service_request": "2025-1194750",
    "request_type": "Trash/Recycling",
    "request_reason": "Repair Trash Cart",
    "date_created": "2025-05-23T15:56:33.000",
    "date_modified": "2025-05-23T15:56:35.000",
    "request_status": "Pending",
    "responsible_agency": "Department of Sanitation",
    "final_address": "12901 Curran Rd",
    "address_councildis": "E",
    "status": "Assigned to Contractor",
    "contractor": "Waste Pro",
    "rowid": "1194750",
    "final_x": "3715078.6588",
    "final_y": "569461.678118",
    "longitude": "-89.96060692917631",
    "latitude": "30.058758276548097",
    "geocoded_column": {
      "latitude": "30.058758276548097",
      "longitude": "-89.96060692917631"
    }
  },
  {
    "service_request": "2025-1194749",
    "request_type": "Abandoned Vehicles",
    "request_reason": "Abandoned/Junk Vehicles",
    "date_created": "2025-05-23T15:39:27.000",
    "date_modified": "2025-05-23T15:39:29.000",
    "request_status": "Pending",
    "responsible_agency": "Department of Public Works",
    "final_address": "1458 Magazine St",
    "address_councildis": "B",
    "status": "Pending",
    "rowid": "1194749",
    "final_x": "3680278.61807",
    "final_y": "524011.136636",
    "longitude": "-90.07218796699186",
    "latitude": "29.934885845409156",
    "geocoded_column": {
      "latitude": "29.934885845409156",
      "longitude": "-90.07218796699186"
    }
  },
  {
    "service_request": "2025-1194748",
    "request_type": "Trash/Recycling",
    "request_reason": "Request a Large Item Pick Up",
    "date_created": "2025-05-23T15:38:13.000",
    "date_modified": "2025-05-23T15:38:16.000",
    "request_status": "Pending",
    "responsible_agency": "Department of Sanitation",
    "final_address": "4617 Palmyra St",
    "address_councildis": "A",
    "status": "Assigned to Contractor",
    "contractor": "IV Waste",
    "rowid": "1194748",
    "final_x": "3668830.28692",
    "final_y": "539121.90881",
    "longitude": "-90.10782010514752",
    "latitude": "29.976777003030886",
    "geocoded_column": {
      "latitude": "29.976777003030886",
      "longitude": "-90.10782010514752"
    }
  },
  {
    "service_request": "2025-1194747",
    "request_type": "Trash/Recycling",
    "request_reason": "Request a Large Item Pick Up",
    "date_created": "2025-05-23T15:35:53.000",
    "date_modified": "2025-05-23T15:35:56.000",
    "request_status": "Pending",
    "responsible_agency": "Department of Sanitation",
    "final_address": "8021 Branch Dr",
    "address_councildis": "E",
    "status": "Assigned to Contractor",
    "contractor": "Waste Pro",
    "rowid": "1194747",
    "final_x": "3713922.89579",
    "final_y": "569855.012262",
    "longitude": "-89.96424529741597",
    "latitude": "30.059877804306744",
    "geocoded_column": {
      "latitude": "30.059877804306744",
      "longitude": "-89.96424529741597"
    }
  },
  {
    "service_request": "2025-1194746",
    "request_type": "Trash/Recycling",
    "request_reason": "Repair Trash Cart",
    "date_created": "2025-05-23T15:32:37.000",
    "date_modified": "2025-05-23T15:32:40.000",
    "request_status": "Pending",
    "responsible_agency": "Department of Sanitation",
    "final_address": "9528 Palm St",
    "address_councildis": "A",
    "status": "Assigned to Contractor",
    "contractor": "IV Waste",
    "rowid": "1194746",
    "final_x": "3663817.51751",
    "final_y": "538139.127561",
    "longitude": "-90.1236848422531",
    "latitude": "29.974221147034196",
    "geocoded_column": {
      "latitude": "29.974221147034196",
      "longitude": "-90.1236848422531"
    }
  },
  {
    "service_request": "2025-1194745",
    "request_type": "Trash/Recycling",
    "request_reason": "Request a Large Item Pick Up",
    "date_created": "2025-05-23T15:30:56.000",
    "date_modified": "2025-05-23T15:30:59.000",
    "request_status": "Pending",
    "responsible_agency": "Department of Sanitation",
    "final_address": "8404 Edinburgh St",
    "address_councildis": "A",
    "status": "Assigned to Contractor",
    "contractor": "IV Waste",
    "rowid": "1194745",
    "final_x": "3666622.84692",
    "final_y": "535162.935174",
    "longitude": "-90.11492487448024",
    "latitude": "29.965955876912734",
    "geocoded_column": {
      "latitude": "29.965955876912734",
      "longitude": "-90.11492487448024"
    }
  },
  {
    "service_request": "2025-1194744",
    "request_type": "Trash/Recycling",
    "request_reason": "Request a Large Item Pick Up",
    "date_created": "2025-05-23T15:28:01.000",
    "date_modified": "2025-05-23T15:28:03.000",
    "request_status": "Pending",
    "responsible_agency": "Department of Sanitation",
    "final_address": "7315 Freret St",
    "address_councildis": "A",
    "status": "Assigned to Contractor",
    "contractor": "IV Waste",
    "rowid": "1194744",
    "final_x": "3663430.62848",
    "final_y": "526174.774014",
    "longitude": "-90.125305103828",
    "latitude": "29.94133429067064",
    "geocoded_column": {
      "latitude": "29.94133429067064",
      "longitude": "-90.125305103828"
    }
  },
  {
    "service_request": "2025-1194743",
    "request_type": "Abandoned Vehicles",
    "request_reason": "Abandoned/Junk Vehicles",
    "date_created": "2025-05-23T15:25:33.000",
    "date_modified": "2025-05-23T15:25:35.000",
    "request_status": "Pending",
    "responsible_agency": "Department of Public Works",
    "final_address": "4767 Gabriel Dr",
    "address_councildis": "E",
    "status": "Pending",
    "rowid": "1194743",
    "final_x": "3708926.85272",
    "final_y": "555964.273625",
    "longitude": "-89.98055574798957",
    "latitude": "30.021847001252468",
    "geocoded_column": {
      "latitude": "30.021847001252468",
      "longitude": "-89.98055574798957"
    }
  },
  {
    "service_request": "2025-1194742",
    "request_type": "Drainage",
    "request_reason": "Catch Basin Damaged",
    "date_created": "2025-05-23T15:24:24.000",
    "date_modified": "2025-05-23T15:24:25.000",
    "request_status": "Pending",
    "responsible_agency": "Sewerage & Water Board",
    "final_address": "940 Florida Blvd",
    "address_councildis": "A",
    "status": "Pending",
    "rowid": "1194742",
    "final_x": "3670106.12615",
    "final_y": "545122.135247",
    "longitude": "-90.10358721113941",
    "latitude": "29.99323799535953",
    "geocoded_column": {
      "latitude": "29.99323799535953",
      "longitude": "-90.10358721113941"
    }
  },
  {
    "service_request": "2025-1194741",
    "request_type": "Trash/Recycling",
    "request_reason": "Order Trash Cart",
    "date_created": "2025-05-23T15:22:56.000",
    "date_modified": "2025-05-23T15:22:58.000",
    "request_status": "Pending",
    "responsible_agency": "Department of Sanitation",
    "final_address": "2127 Robert St",
    "address_councildis": "B",
    "status": "Assigned to Contractor",
    "contractor": "IV Waste",
    "rowid": "1194741",
    "final_x": "3668847.43124",
    "final_y": "523416.263419",
    "longitude": "-90.10829627605551",
    "latitude": "29.93359113499303",
    "geocoded_column": {
      "latitude": "29.93359113499303",
      "longitude": "-90.10829627605551"
    }
  },
  {
    "service_request": "2025-1194740",
    "request_type": "Trash/Recycling",
    "request_reason": "Repair Recycling Cart",
    "date_created": "2025-05-23T15:22:35.000",
    "date_modified": "2025-05-23T15:22:36.000",
    "request_status": "Pending",
    "responsible_agency": "Department of Sanitation",
    "final_address": "1301 Tricou St",
    "address_councildis": "E",
    "status": "Pending",
    "rowid": "1194740",
    "final_x": "3700462.81815",
    "final_y": "533759.153861",
    "longitude": "-90.00811119040415",
    "latitude": "29.9610631785728",
    "geocoded_column": {
      "latitude": "29.9610631785728",
      "longitude": "-90.00811119040415"
    }
  },
  {
    "service_request": "2025-1194739",
    "request_type": "Traffic Signals",
    "request_reason": "Traffic Signal Malfunctioning or Damaged",
    "date_created": "2025-05-23T15:20:50.000",
    "date_modified": "2025-05-23T15:20:51.000",
    "request_status": "Pending",
    "responsible_agency": "Department of Public Works",
    "final_address": "NAPOLEON AVE & S CLAIBORNE AVE",
    "address_councildis": "B",
    "status": "Pending",
    "rowid": "1194739",
    "final_x": "3670320.5",
    "final_y": "525786.88",
    "longitude": "-90.10356554298984",
    "latitude": "29.940066178929065",
    "geocoded_column": {
      "latitude": "29.940066178929065",
      "longitude": "-90.10356554298984"
    }
  },