[
  {
    "service_request": "2023-1019863",
    "request_type": "Traffic Signals/Signs/Striping/Streetlights",
    "request_reason": "Street Name Sign Damaged or Missing",
    "date_created": "2023-07-24T00:49:52.000",
    "date_modified": "2023-07-24T00:49:52.000",
    "request_status": "Pending",
    "responsible_agency": "Department of Public Works",
    "final_address": "1131 General Pershing St",
    "address_councildis": "B",
    "status": "Pending",
    "rowid": "1019863",
    "final_x": "3671416.3778",
    "final_y": "519794.4046",
    "longitude": "-90.10030926903697",
    "latitude": "29.923556415029356",
    "geocoded_column": {
      "latitude": "29.923556415029356",
      "longitude": "-90.10030926903697"
    }
  },
  {
    "service_request": "2023-1019862",
    "request_type": "Roads/Drainage",
    "request_reason": "Pothole",
    "date_created": "2023-07-24T00:37:01.000",
    "date_modified": "2023-07-24T00:37:01.000",
    "request_status": "Pending",
    "responsible_agency": "Department of Public Works",
    "final_address": "1315 Milan St",
    "address_councildis": "B",
    "status": "Pending",
    "rowid": "1019862",
    "final_x": "3671703.18324",
    "final_y": "520260.436728",
    "longitude": "-90.09938808639757",
    "latitude": "29.924829365152263",
    "geocoded_column": {
      "latitude": "29.924829365152263",
      "longitude": "-90.09938808639757"
    }
  },
  {
    "service_request": "2023-1019861",
    "request_type": "Roads/Drainage",
    "request_reason": "Pothole",
    "date_created": "2023-07-24T00:27:14.000",
    "date_modified": "2023-07-24T00:27:14.000",
    "request_status": "Pending",
    "responsible_agency": "Department of Public Works",
    "final_address": "3629 Prytania St",
    "address_councildis": "B",
    "status": "Pending",
    "rowid": "1019861",
    "final_x": "3673410.74836",
    "final_y": "520712.326393",
    "longitude": "-90.09398242884356",
    "latitude": "29.926021243402264",
    "geocoded_column": {
      "latitude": "29.926021243402264",
      "longitude": "-90.09398242884356"
    }
  },
  {
    "service_request": "2023-1019860",
    "request_type": "Traffic Signals/Signs/Striping/Streetlights",
    "request_reason": "Traffic Signal Malfunctioning/Damaged",
    "date_created": "2023-07-24T00:24:57.000",
    "date_modified": "2023-07-24T00:24:58.000",
    "request_status": "Pending",
    "responsible_agency": "Department of Public Works",
    "final_address": "A P TUREAUD AVE & N BROAD ST",
    "address_councildis": "D",
    "status": "Pending",
    "rowid": "1019860",
    "final_x": "3681399.4",
    "final_y": "543108.88",
    "longitude": "-90.06798387855488",
    "latitude": "29.987364155847995",
    "geocoded_column": {
      "latitude": "29.987364155847995",
      "longitude": "-90.06798387855488"
    }
  },
  {
    "service_request": "2023-1019859",
    "request_type": "Roads/Drainage",
    "request_reason": "Pothole",
    "date_created": "2023-07-24T00:11:23.000",
    "date_modified": "2023-07-24T00:11:23.000",
    "request_status": "Pending",
    "responsible_agency": "Department of Public Works",
    "final_address": "901 General Pershing St",
    "address_councildis": "B",
    "status": "Pending",
    "rowid": "1019859",
    "final_x": "3671478.03118",
    "final_y": "518891.384311",
    "longitude": "-90.1001453296682",
    "latitude": "29.92107157249303",
    "geocoded_column": {
      "latitude": "29.92107157249303",
      "longitude": "-90.1001453296682"
    }
  },
  {
    "service_request": "2023-1019858",
    "request_type": "Roads/Drainage",
    "request_reason": "Pothole",
    "date_created": "2023-07-24T00:05:56.000",
    "date_modified": "2023-07-24T00:05:56.000",
    "request_status": "Pending",
    "responsible_agency": "Department of Public Works",
    "final_address": "1420 General Pershing St",
    "address_councildis": "B",
    "status": "Pending",
    "rowid": "1019858",
    "final_x": "3671242.41179",
    "final_y": "520513.52268",
    "longitude": "-90.10083399992165",
    "latitude": "29.925538906557254",
    "geocoded_column": {
      "latitude": "29.925538906557254",
      "longitude": "-90.10083399992165"
    }
  },
  {
    "service_request": "2023-1019856",
    "request_type": "Trash/Recycling",
    "request_reason": "Request a Large Item Pick Up",
    "date_created": "2023-07-23T23:21:50.000",
    "date_modified": "2023-07-23T23:24:18.000",
    "request_status": "Pending",
    "responsible_agency": "Department of Sanitation",
    "final_address": "1601 Tropic Dr",
    "address_councildis": "C",
    "contractor": "Richards Disposal",
    "rowid": "1019856",
    "final_x": "3699440.2136",
    "final_y": "524916.904188",
    "longitude": "-90.01166243553725",
    "latitude": "29.936782584402895",
    "geocoded_column": {
      "latitude": "29.936782584402895",
      "longitude": "-90.01166243553725"
    }
  },
  {
    "service_request": "2023-1019855",
    "request_type": "Traffic Signals/Signs/Striping/Streetlights",
    "request_reason": "Street Light Outage/Malfunction",
    "date_created": "2023-07-23T23:20:22.000",
    "date_modified": "2023-07-23T23:20:22.000",
    "request_status": "Pending",
    "responsible_agency": "Department of Public Works",
    "final_address": "100 BLK Veterans Blvd",
    "address_councildis": "A",
    "status": "Assigned to Contractor",
    "contractor": "Legacy Professional Services",
    "rowid": "1019855",
    "final_x": "3665423.14878",
    "final_y": "547399.28327",
    "longitude": "-90.1183037476594",
    "latitude": "29.999636736296644",
    "geocoded_column": {
      "latitude": "29.999636736296644",
      "longitude": "-90.1183037476594"
    }
  },
  {
    "service_request": "2023-1019854",
    "request_type": "Traffic Signals/Signs/Striping/Streetlights",
    "request_reason": "Traffic Signal Malfunctioning/Damaged",
    "date_created": "2023-07-23T23:14:09.000",
    "date_modified": "2023-07-23T23:14:09.000",
    "request_status": "Pending",
    "responsible_agency": "Department of Public Works",
    "final_address": "FLEUR DE LIS DR & VETERANS BLVD & VETERANS HWY",
    "address_councildis": "A",
    "status": "Pending",
    "rowid": "1019854",
    "final_x": "3665115.5",
    "final_y": "547476.48",
    "longitude": "-90.11927304180386",
    "latitude": "29.99985796726132",
    "geocoded_column": {
      "latitude": "29.99985796726132",
      "longitude": "-90.11927304180386"
    }
  },
  {
    "service_request": "2023-1019852",
    "request_type": "Roads/Drainage",
    "request_reason": "Damaged Sidewalk",
    "date_created": "2023-07-23T23:06:21.000",
    "date_modified": "2023-07-23T23:06:21.000",
    "request_status": "Pending",
    "responsible_agency": "Department of Public Works",
    "final_address": "2800 BLK Maurepas St",
    "address_councildis": "A",
    "status": "Pending",
    "rowid": "1019852",
    "final_x": "3678348.53401",
    "final_y": "540688.84984",
    "longitude": "-90.07770425903928",
    "latitude": "29.98080219928863",
    "geocoded_column": {
      "latitude": "29.98080219928863",
      "longitude": "-90.07770425903928"
    }
  },
  {
    "service_request": "2023-1019851",
    "request_type": "Trash/Recycling",
    "request_reason": "Missed Trash Pick-Up",
    "date_created": "2023-07-23T22:39:22.000",
    "date_modified": "2023-07-23T22:39:22.000",
    "request_status": "Pending",
    "responsible_agency": "Department of Sanitation",
    "final_address": "3609 Nashville Ave",
    "address_councildis": "A",
    "status": "Assigned to Contractor",
    "contractor": "Richards Disposal",
    "rowid": "1019851",
    "final_x": "3668340.89306",
    "final_y": "528826.355776",
    "longitude": "-90.10971300793435",
    "latitude": "29.948482023631545",
    "geocoded_column": {
      "latitude": "29.948482023631545",
      "longitude": "-90.10971300793435"
    }
  },
  {
    "service_request": "2023-1019849",
    "request_type": "Parks & Parkways",
    "request_reason": "Request Tree Service (Right of Way/Public Property)",
    "date_created": "2023-07-23T22:38:51.000",
    "date_modified": "2023-07-23T22:38:51.000",
    "request_status": "Pending",
    "responsible_agency": "Department of Parks & Parkway",
    "final_address": "4410 Camelot Dr",
    "address_councildis": "E",
    "status": "Pending",
    "rowid": "1019849",
    "final_x": "3708480.23371",
    "final_y": "553802.919639",
    "longitude": "-89.98204747298533",
    "latitude": "30.01591860794759",
    "geocoded_column": {
      "latitude": "30.01591860794759",
      "longitude": "-89.98204747298533"
    }
  },
  {
    "service_request": "2023-1019848",
    "request_type": "Roads/Drainage",
    "request_reason": "Road Shoulder Repair",
    "date_created": "2023-07-23T22:08:55.000",
    "date_modified": "2023-07-23T22:08:55.000",
    "request_status": "Pending",
    "responsible_agency": "Department of Public Works",
    "final_address": "4501 Werner Dr",
    "address_councildis": "E",
    "status": "Pending",
    "rowid": "1019848",
    "final_x": "3705025.09175",
    "final_y": "553741.580375",
    "longitude": "-89.99296635576016",
    "latitude": "30.015861533439818",
    "geocoded_column": {
      "latitude": "30.015861533439818",
      "longitude": "-89.99296635576016"
    }
  },
  {
    "service_request": "2023-1019847",
    "request_type": "Trash/Recycling",
    "request_reason": "Illegal Dumping",
    "date_created": "2023-07-23T21:58:52.000",
    "date_modified": "2023-07-23T21:58:52.000",
    "request_status": "Pending",
    "responsible_agency": "Department of Sanitation",
    "final_address": "2319 Danneel St",
    "address_councildis": "B",
    "status": "Pending",
    "rowid": "1019847",
    "final_x": "3676180.1387",
    "final_y": "524465.057532",
    "longitude": "-90.08511121799897",
    "latitude": "29.936257378121596",
    "geocoded_column": {
      "latitude": "29.936257378121596",
      "longitude": "-90.08511121799897"
    }
  },
  {
    "service_request": "2023-1019846",
    "request_type": "Abandoned Vehicles",
    "request_reason": "Abandoned/Junk Vehicles",
    "date_created": "2023-07-23T21:57:47.000",
    "date_modified": "2023-07-23T21:57:47.000",
    "request_status": "Pending",
    "responsible_agency": "Department of Public Works",
    "final_address": "4517 N Rampart St",
    "address_councildis": "C",
    "status": "Pending",
    "rowid": "1019846",
    "final_x": "3693397.61865",
    "final_y": "534486.457285",
    "longitude": "-90.03039557781406",
    "latitude": "29.96328579730219",
    "geocoded_column": {
      "latitude": "29.96328579730219",
      "longitude": "-90.03039557781406"
    }
  },
  {
    "service_request": "2023-1019845",
    "request_type": "Trash/Recycling",
    "request_reason": "Illegal Dumping",
    "date_created": "2023-07-23T21:56:21.000",
    "date_modified": "2023-07-23T21:56:21.000",
    "request_status": "Pending",
    "responsible_agency": "Department of Sanitation",
    "final_address": "2037 First St",
    "address_councildis": "B",
    "status": "Pending",
    "rowid": "1019845",
    "final_x": "3676020.40193",
    "final_y": "524683.305148",
    "longitude": "-90.08560800966494",
    "latitude": "29.93686227132431",
    "geocoded_column": {
      "latitude": "29.93686227132431",
      "longitude": "-90.08560800966494"
    }
  },
  {
    "service_request": "2023-1019844",
    "request_type": "Property Maintenance",
    "request_reason": "Property Maintenance",
    "date_created": "2023-07-23T21:54:22.000",
    "date_modified": "2023-07-23T21:54:22.000",
    "request_status": "Pending",
    "responsible_agency": "Department of Code Enforcement",
    "final_address": "1910 First St",
    "address_councildis": "B",
    "status": "Pending",
    "rowid": "1019844",
    "final_x": "3676263.78318",
    "final_y": "524182.305532",
    "longitude": "-90.08485687567186",
    "latitude": "29.935477396971123",
    "geocoded_column": {
      "latitude": "29.935477396971123",
      "longitude": "-90.08485687567186"
    }
  },
  {
    "service_request": "2023-1019843",
    "request_type": "Trash/Recycling",
    "request_reason": "Repair Recycling Cart",
    "date_created": "2023-07-23T21:18:30.000",
    "date_modified": "2023-07-23T21:18:30.000",
    "request_status": "Pending",
    "responsible_agency": "Department of Sanitation",
    "final_address": "4401 Iberville St",
    "address_councildis": "A",
    "status": "Pending",
    "rowid": "1019843",
    "final_x": "3670253.74394",
    "final_y": "539580.905802",
    "longitude": "-90.10330880808237",
    "latitude": "29.977997150968946",
    "geocoded_column": {
      "latitude": "29.977997150968946",
      "longitude": "-90.10330880808237"
    }
  },
  {
    "service_request": "2023-1019842",
    "request_type": "Traffic Signals/Signs/Striping/Streetlights",
    "request_reason": "Street Light Outage/Malfunction",
    "date_created": "2023-07-23T21:02:22.000",
    "date_modified": "2023-07-23T21:02:23.000",
    "request_status": "Pending",
    "responsible_agency": "Department of Public Works",
    "final_address": "119 Fremont St",
    "address_councildis": "A",
    "status": "Assigned to Contractor",
    "contractor": "Legacy Professional Services",
    "rowid": "1019842",
    "final_x": "3666785.477",
    "final_y": "549994.261332",
    "longitude": "-90.11391284570519",
    "latitude": "30.006732236076335",
    "geocoded_column": {
      "latitude": "30.006732236076335",
      "longitude": "-90.11391284570519"
    }
  },
  {
    "service_request": "2023-1019841",
    "request_type": "Property Maintenance",
    "request_reason": "Property Maintenance",
    "date_created": "2023-07-23T20:59:38.000",
    "date_modified": "2023-07-23T20:59:38.000",
    "request_status": "Pending",
    "responsible_agency": "Department of Code Enforcement",
    "final_address": "1943 Stephen Girard St",
    "address_councildis": "D",
    "status": "Pending",
    "rowid": "1019841",
    "final_x": "3682094.3268",
    "final_y": "548708.474067",
    "longitude": "-90.0655931631372",
    "latitude": "30.002739930141367",
    "geocoded_column": {
      "latitude": "30.002739930141367",
      "longitude": "-90.0655931631372"
    }
  },
  {
    "service_request": "2023-1019840",
    "request_type": "Property Maintenance",
    "request_reason": "Property Maintenance",
    "date_created": "2023-07-23T20:58:59.000",
    "date_modified": "2023-07-23T20:58:59.000",
    "request_status": "Pending",
    "responsible_agency": "Department of Code Enforcement",
    "final_address": "4412 Annette St",
    "address_councildis": "D",
    "status": "Pending",
    "rowid": "1019840",
    "final_x": "3682094.67592",
    "final_y": "548817.533907",
    "longitude": "-90.06558824832715",
    "latitude": "30.003039794962085",
    "geocoded_column": {
      "latitude": "30.003039794962085",
      "longitude": "-90.06558824832715"
    }
  },
  {
    "service_request": "2023-1019839",
    "request_type": "Property Maintenance",
    "request_reason": "Property Maintenance",
    "date_created": "2023-07-23T20:58:34.000",
    "date_modified": "2023-07-23T20:58:34.000",
    "request_status": "Pending",
    "responsible_agency": "Department of Code Enforcement",
    "final_address": "4418 Annette St",
    "address_councildis": "D",
    "status": "Pending",
    "rowid": "1019839",
    "final_x": "3682075.79535",
    "final_y": "548856.000403",
    "longitude": "-90.06564655029767",
    "latitude": "30.00314613839222",
    "geocoded_column": {
      "latitude": "30.00314613839222",
      "longitude": "-90.06564655029767"
    }
  },
  {
    "service_request": "2023-1019838",
    "request_type": "Property Maintenance",
    "request_reason": "Property Maintenance",
    "date_created": "2023-07-23T20:57:40.000",
    "date_modified": "2023-07-23T20:57:40.000",
    "request_status": "Pending",
    "responsible_agency": "Department of Code Enforcement",
    "final_address": "1944 Mirabeau Ave",
    "address_councildis": "D",
    "status": "Pending",
    "rowid": "1019838",
    "final_x": "3682039.89224",
    "final_y": "550476.963796",
    "longitude": "-90.06570332194198",
    "latitude": "30.007604296802285",
    "geocoded_column": {
      "latitude": "30.007604296802285",
      "longitude": "-90.06570332194198"
    }
  },
  {
    "service_request": "2023-1019837",
    "request_type": "Property Maintenance",
    "request_reason": "Property Maintenance",
    "date_created": "2023-07-23T20:56:47.000",
    "date_modified": "2023-07-23T20:56:47.000",
    "request_status": "Pending",
    "responsible_agency": "Department of Code Enforcement",
    "final_address": "1916 Stephen Girard St",
    "address_councildis": "D",
    "status": "Pending",
    "rowid": "1019837",
    "final_x": "3681990.52572",
    "final_y": "548621.380691",
    "longitude": "-90.06592412784231",
    "latitude": "30.00250361196857",
    "geocoded_column": {
      "latitude": "30.00250361196857",
      "longitude": "-90.06592412784231"
    }
  },
  {
    "service_request": "2023-1019836",
    "request_type": "Property Maintenance",
    "request_reason": "Property Maintenance",
    "date_created": "2023-07-23T20:55:50.000",
    "date_modified": "2023-07-23T20:55:50.000",
    "request_status": "Pending",
    "responsible_agency": "Department of Code Enforcement",
    "final_address": "4500 Annette St",
    "address_councildis": "D",
    "status": "Pending",
    "rowid": "1019836",
    "final_x": "3682061.91189",
    "final_y": "549086.365331",
    "longitude": "-90.06568235894706",
    "latitude": "30.003779981597706",
    "geocoded_column": {
      "latitude": "30.003779981597706",
      "longitude": "-90.06568235894706"
    }
  },
  {
    "service_request": "2023-1019835",
    "request_type": "Property Maintenance",
    "request_reason": "Property Maintenance",
    "date_created": "2023-07-23T20:53:57.000",
    "date_modified": "2023-07-23T20:53:57.000",
    "request_status": "Pending",
    "responsible_agency": "Department of Code Enforcement",
    "final_address": "1944 Mirabeau Ave",
    "address_councildis": "D",
    "status": "Pending",
    "rowid": "1019835",
    "final_x": "3682039.89224",
    "final_y": "550476.963796",
    "longitude": "-90.06570332194198",
    "latitude": "30.007604296802285",
    "geocoded_column": {
      "latitude": "30.007604296802285",
      "longitude": "-90.06570332194198"
    }
  },
  {
    "service_request": "2023-1019834",
    "request_type": "Property Maintenance",
    "request_reason": "Property Maintenance",
    "date_created": "2023-07-23T20:51:47.000",
    "date_modified": "2023-07-23T20:51:47.000",
    "request_status": "Pending",
    "responsible_agency": "Department of Code Enforcement",
    "final_address": "1943 Stephen Girard St",
    "address_councildis": "D",
    "status": "Pending",
    "rowid": "1019834",
    "final_x": "3682094.3268",
    "final_y": "548708.474067",
    "longitude": "-90.0655931631372",
    "latitude": "30.002739930141367",
    "geocoded_column": {
      "latitude": "30.002739930141367",
      "longitude": "-90.0655931631372"
    }
  },
  {
    "service_request": "2023-1019833",
    "request_type": "Property Maintenance",
    "request_reason": "Property Maintenance",
    "date_created": "2023-07-23T20:48:50.000",
    "date_modified": "2023-07-23T20:48:50.000",
    "request_status": "Pending",
    "responsible_agency": "Department of Code Enforcement",
    "final_address": "1916 Stephen Girard St",
    "address_councildis": "D",
    "status": "Pending",
    "rowid": "1019833",
    "final_x": "3681990.52572",
    "final_y": "548621.380691",
    "longitude": "-90.06592412784231",
    "latitude": "30.00250361196857",
    "geocoded_column": {
      "latitude": "30.00250361196857",
      "longitude": "-90.06592412784231"
    }
  },
  {
    "service_request": "2023-1019832",
    "request_type": "Property Maintenance",
    "request_reason": "Property Maintenance",
    "date_created": "2023-07-23T20:46:44.000",
    "date_modified": "2023-07-23T20:46:44.000",
    "request_status": "Pending",
    "responsible_agency": "Department of Code Enforcement",
    "final_address": "4412 Annette St",
    "address_councildis": "D",
    "status": "Pending",
    "rowid": "1019832",
    "final_x": "3682094.67592",
    "final_y": "548817.533907",
    "longitude": "-90.06558824832715",
    "latitude": "30.003039794962085",
    "geocoded_column": {
      "latitude": "30.003039794962085",
      "longitude": "-90.06558824832715"
    }
  },
  {
    "service_request": "2023-1019831",
    "request_type": "Property Maintenance",
    "request_reason": "Property Maintenance",
    "date_created": "2023-07-23T20:46:10.000",
    "date_modified": "2023-07-23T20:46:10.000",
    "request_status": "Pending",
    "responsible_agency": "Department of Code Enforcement",
    "final_address": "4418 Annette St",
    "address_councildis": "D",
    "status": "Pending",
    "rowid": "1019831",
    "final_x": "3682075.79535",
    "final_y": "548856.000403",
    "longitude": "-90.06564655029767",
    "latitude": "30.00314613839222",
    "geocoded_column": {
      "latitude": "30.00314613839222",
      "longitude": "-90.06564655029767"
    }
  },
  {
    "service_request": "2023-1019830",
    "request_type": "Property Maintenance",
    "request_reason": "Property Maintenance",
    "date_created": "2023-07-23T20:45:37.000",
    "date_modified": "2023-07-23T20:45:37.000",
    "request_status": "Pending",
    "responsible_agency": "Department of Code Enforcement",
    "final_address": "4500 Annette St",
    "address_councildis": "D",
    "status": "Pending",
    "rowid": "1019830",
    "final_x": "3682061.91189",
    "final_y": "549086.365331",
    "longitude": "-90.06568235894706",
    "latitude": "30.003779981597706",
    "geocoded_column": {
      "latitude": "30.003779981597706",
      "longitude": "-90.06568235894706"
    }
  },
  {
    "service_request": "2023-1019829",
    "request_type": "Traffic Signals/Signs/Striping/Streetlights",
    "request_reason": "Traffic Signal Malfunctioning/Damaged",
    "date_created": "2023-07-23T20:39:40.000",
    "date_modified": "2023-07-23T20:39:41.000",
    "request_status": "Pending",
    "responsible_agency": "Department of Public Works",
    "final_address": "ELYSIAN FIELDS AVE & ELYSIAN FIELDS EXIT & HUMANITY ST",
    "address_councildis": "D",
    "status": "Pending",
    "rowid": "1019829",
    "final_x": "3684387.1",
    "final_y": "544775.08",
    "longitude": "-90.05848824447503",
    "latitude": "29.991854556469715",
    "geocoded_column": {
      "latitude": "29.991854556469715",
      "longitude": "-90.05848824447503"
    }
  },
  {
    "service_request": "2023-1019827",
    "request_type": "Parks & Parkways",
    "request_reason": "Request Tree Service (Right of Way/Public Property)",
    "date_created": "2023-07-23T20:01:24.000",
    "date_modified": "2023-07-23T20:01:24.000",
    "request_status": "Pending",
    "responsible_agency": "Department of Parks & Parkway",
    "final_address": "1631 N Dorgenois St",
    "address_councildis": "D",
    "status": "Pending",
    "rowid": "1019827",
    "final_x": "3679691.83611",
    "final_y": "540027.770891",
    "longitude": "-90.0734844767272",
    "latitude": "29.978943918113835",
    "geocoded_column": {
      "latitude": "29.978943918113835",
      "longitude": "-90.0734844767272"
    }
  },
  {
    "service_request": "2023-1019826",
    "request_type": "Traffic Signals/Signs/Striping/Streetlights",
    "request_reason": "Traffic Signal Malfunctioning/Damaged",
    "date_created": "2023-07-23T19:49:28.000",
    "date_modified": "2023-07-23T19:49:28.000",
    "request_status": "Pending",
    "responsible_agency": "Department of Public Works",
    "final_address": "LOUISIANA AVE & TOLEDANO ST & CLARA ST",
    "address_councildis": "B",
    "status": "Pending",
    "rowid": "1019826",
    "final_x": "3672597.0",
    "final_y": "525570.68",
    "longitude": "-90.09638564121856",
    "latitude": "29.939404321912978",
    "geocoded_column": {
      "latitude": "29.939404321912978",
      "longitude": "-90.09638564121856"
    }
  },
  {
    "service_request": "2023-1019825",
    "request_type": "Property Maintenance",
    "request_reason": "Property Maintenance",
    "date_created": "2023-07-23T19:31:06.000",
    "date_modified": "2023-07-23T19:31:06.000",
    "request_status": "Pending",
    "responsible_agency": "Department of Code Enforcement",
    "final_address": "3050 St Peter St",
    "address_councildis": "A",
    "status": "Pending",
    "rowid": "1019825",
    "final_x": "3675210.50638",
    "final_y": "537809.0626",
    "longitude": "-90.08771442246127",
    "latitude": "29.972977949139203",
    "geocoded_column": {
      "latitude": "29.972977949139203",
      "longitude": "-90.08771442246127"
    }
  },
  {
    "service_request": "2023-1019824",
    "request_type": "Trash/Recycling",
    "request_reason": "Replace Trash Cart",
    "date_created": "2023-07-23T19:03:19.000",
    "date_modified": "2023-07-23T19:03:20.000",
    "request_status": "Pending",
    "responsible_agency": "Department of Sanitation",
    "final_address": "89 Versailles Blvd",
    "address_councildis": "B",
    "status": "Assigned to Contractor",
    "contractor": "Richards Disposal",
    "rowid": "1019824",
    "final_x": "3668039.72404",
    "final_y": "530877.827714",
    "longitude": "-90.11059480696665",
    "latitude": "29.95413174167317",
    "geocoded_column": {
      "latitude": "29.95413174167317",
      "longitude": "-90.11059480696665"
    }
  },
  {
    "service_request": "2023-1019823",
    "request_type": "Trash/Recycling",
    "request_reason": "Replace Recycling Cart",
    "date_created": "2023-07-23T19:01:50.000",
    "date_modified": "2023-07-23T19:01:50.000",
    "request_status": "Pending",
    "responsible_agency": "Department of Sanitation",
    "final_address": "6522 Marshal Foch St",
    "address_councildis": "A",
    "status": "Pending",
    "rowid": "1019823",
    "final_x": "3670063.49377",
    "final_y": "550793.702805",
    "longitude": "-90.10352959662768",
    "latitude": "30.008834090597144",
    "geocoded_column": {
      "latitude": "30.008834090597144",
      "longitude": "-90.10352959662768"
    }
  },
  {
    "service_request": "2023-1019822",
    "request_type": "Trash/Recycling",
    "request_reason": "MIssed Recycling Pick-Up",
    "date_created": "2023-07-23T18:56:29.000",
    "date_modified": "2023-07-23T18:56:29.000",
    "request_status": "Pending",
    "responsible_agency": "Department of Sanitation",
    "final_address": "3705 Mistletoe St",
    "address_councildis": "A",
    "status": "Assigned to Contractor",
    "contractor": "Richards Disposal",
    "rowid": "1019822",
    "final_x": "3665187.60564",
    "final_y": "537594.175816",
    "longitude": "-90.11937600134017",
    "latitude": "29.972682869286956",
    "geocoded_column": {
      "latitude": "29.972682869286956",
      "longitude": "-90.11937600134017"
    }
  },
  {
    "service_request": "2023-1019821",
    "request_type": "Trash/Recycling",
    "request_reason": "Request a Large Item Pick Up",
    "date_created": "2023-07-23T18:50:01.000",
    "date_modified": "2023-07-23T18:50:02.000",
    "request_status": "Pending",
    "responsible_agency": "Department of Sanitation",
    "final_address": "4211 St Charles Ave",
    "address_councildis": "B",
    "status": "Assigned to Contractor",
    "contractor": "Richards Disposal",
    "rowid": "1019821",
    "final_x": "3671479.18484",
    "final_y": "521031.231161",
    "longitude": "-90.10006898917122",
    "latitude": "29.926955434238756",
    "geocoded_column": {
      "latitude": "29.926955434238756",
      "longitude": "-90.10006898917122"
    }
  },
  {
    "service_request": "2023-1019820",
    "request_type": "Abandoned Vehicles",
    "request_reason": "Abandoned/Junk Vehicles",
    "date_created": "2023-07-23T18:47:51.000",
    "date_modified": "2023-07-23T18:47:52.000",
    "request_status": "Pending",
    "responsible_agency": "Department of Public Works",
    "final_address": "9311 Palm St",
    "address_councildis": "A",
    "status": "Pending",
    "rowid": "1019820",
    "final_x": "3664572.92282",
    "final_y": "537665.023368",
    "longitude": "-90.12131492438881",
    "latitude": "29.972895568662175",
    "geocoded_column": {
      "latitude": "29.972895568662175",
      "longitude": "-90.12131492438881"
    }
  },
  {
    "service_request": "2023-1019819",
    "request_type": "Trash/Recycling",
    "request_reason": "Request a Large Item Pick Up",
    "date_created": "2023-07-23T18:44:27.000",
    "date_modified": "2023-07-23T18:44:27.000",
    "request_status": "Pending",
    "responsible_agency": "Department of Sanitation",
    "final_address": "3815 Dumaine St",
    "address_councildis": "A",
    "status": "Assigned to Contractor",
    "contractor": "Richards Disposal",
    "rowid": "1019819",
    "final_x": "3673692.82702",
    "final_y": "540210.435787",
    "longitude": "-90.0924254226367",
    "latitude": "29.979626184658006",
    "geocoded_column": {
      "latitude": "29.979626184658006",
      "longitude": "-90.0924254226367"
    }
  },
  {
    "service_request": "2023-1019818",
    "request_type": "Trash/Recycling",
    "request_reason": "Request a Large Item Pick Up",
    "date_created": "2023-07-23T18:40:39.000",
    "date_modified": "2023-07-23T18:40:39.000",
    "request_status": "Pending",
    "responsible_agency": "Department of Sanitation",
    "final_address": "7832 Colapissa St",
    "address_councildis": "B",
    "status": "Assigned to Contractor",
    "contractor": "Richards Disposal",
    "rowid": "1019818",
    "final_x": "3667120.74823",
    "final_y": "532817.542916",
    "longitude": "-90.11343136516815",
    "latitude": "29.95949225526354",
    "geocoded_column": {
      "latitude": "29.95949225526354",
      "longitude": "-90.11343136516815"
    }
  },
  {
    "service_request": "2023-1019817",
    "request_type": "Abandoned Vehicles",
    "request_reason": "Abandoned/Junk Vehicles",
    "date_created": "2023-07-23T18:37:30.000",
    "date_modified": "2023-07-23T18:37:30.000",
    "request_status": "Pending",
    "responsible_agency": "Department of Public Works",
    "final_address": "4205 DHemecourt St",
    "address_councildis": "A",
    "status": "Pending",
    "rowid": "1019817",
    "final_x": "3669357.86855",
    "final_y": "537219.947592",
    "longitude": "-90.10621816282531",
    "latitude": "29.9715317235215",
    "geocoded_column": {
      "latitude": "29.9715317235215",
      "longitude": "-90.10621816282531"
    }
  },
  {
    "service_request": "2023-1019816",
    "request_type": "Trash/Recycling",
    "request_reason": "Order Recycling Cart",
    "date_created": "2023-07-23T18:30:59.000",
    "date_modified": "2023-07-23T18:30:59.000",
    "request_status": "Pending",
    "responsible_agency": "Department of Sanitation",
    "final_address": "3255 Derby Pl",
    "address_councildis": "A",
    "status": "Pending",
    "rowid": "1019816",
    "final_x": "3677474.32168",
    "final_y": "542954.603277",
    "longitude": "-90.08038715669011",
    "latitude": "29.987058547113584",
    "geocoded_column": {
      "latitude": "29.987058547113584",
      "longitude": "-90.08038715669011"
    }
  },
  {
    "service_request": "2023-1019815",
    "request_type": "Property Maintenance",
    "request_reason": "Property Maintenance",
    "date_created": "2023-07-23T18:10:40.000",
    "date_modified": "2023-07-23T18:10:40.000",
    "request_status": "Pending",
    "responsible_agency": "Department of Code Enforcement",
    "final_address": "1483 Harrison Ave",
    "address_councildis": "D",
    "status": "Pending",
    "rowid": "1019815",
    "final_x": "3678676.55822",
    "final_y": "547707.502354",
    "longitude": "-90.07642504610469",
    "latitude": "30.00009114483491",
    "geocoded_column": {
      "latitude": "30.00009114483491",
      "longitude": "-90.07642504610469"
    }
  },
  {
    "service_request": "2023-1019813",
    "request_type": "Roads/Drainage",
    "request_reason": "Pothole",
    "date_created": "2023-07-23T18:05:01.000",
    "date_modified": "2023-07-23T18:05:01.000",
    "request_status": "Pending",
    "responsible_agency": "Department of Public Works",
    "final_address": "1301 Constantinople St",
    "address_councildis": "B",
    "status": "Pending",
    "rowid": "1019813",
    "final_x": "3672430.66305",
    "final_y": "520250.7726",
    "longitude": "-90.09709199725775",
    "latitude": "29.924781230435865",
    "geocoded_column": {
      "latitude": "29.924781230435865",
      "longitude": "-90.09709199725775"
    }
  },
  {
    "service_request": "2023-1019812",
    "request_type": "Trash/Recycling",
    "request_reason": "Order Trash Cart",
    "date_created": "2023-07-23T18:03:40.000",
    "date_modified": "2023-07-23T18:03:41.000",
    "request_status": "Pending",
    "responsible_agency": "Department of Sanitation",
    "final_address": "864 Roosevelt Pl",
    "address_councildis": "A",
    "status": "Assigned to Contractor",
    "contractor": "Richards Disposal",
    "rowid": "1019812",
    "final_x": "3673639.15873",
    "final_y": "540116.414603",
    "longitude": "-90.09259814454103",
    "latitude": "29.979369256575872",
    "geocoded_column": {
      "latitude": "29.979369256575872",
      "longitude": "-90.09259814454103"
    }
  },
  {
    "service_request": "2023-1019810",
    "request_type": "Trash/Recycling",
    "request_reason": "Request a Large Item Pick Up",
    "date_created": "2023-07-23T17:54:42.000",
    "date_modified": "2023-07-23T17:54:43.000",
    "request_status": "Pending",
    "responsible_agency": "Department of Sanitation",
    "status": "Assigned to Contractor",
    "rowid": "1019810",
    "longitude": "0.0",
    "latitude": "0.0",
    "geocoded_column": {
      "latitude": "0.0",
      "longitude": "0.0"
    }
  },
  {
    "service_request": "2023-1019809",
    "request_type": "Trash/Recycling",
    "request_reason": "Request a Large Item Pick Up",
    "date_created": "2023-07-23T17:53:08.000",
    "date_modified": "2023-07-23T17:53:09.000",
    "request_status": "Pending",
    "responsible_agency": "Department of Sanitation",
    "final_address": "8008 S Claiborne Ave",
    "address_councildis": "A",
    "status": "Assigned to Contractor",
    "contractor": "Richards Disposal",
    "rowid": "1019809",
    "final_x": "3665059.14272",
    "final_y": "531210.442306",
    "longitude": "-90.11999519909085",
    "latitude": "29.95513344320135",
    "geocoded_column": {
      "latitude": "29.95513344320135",
      "longitude": "-90.11999519909085"
    }
  },
  {
    "service_request": "2023-1019808",
    "request_type": "Trash/Recycling",
    "request_reason": "Request a Large Item Pick Up",
    "date_created": "2023-07-23T17:51:56.000",
    "date_modified": "2023-07-23T17:51:56.000",
    "request_status": "Pending",
    "responsible_agency": "Department of Sanitation",
    "final_address": "800 Weiblen Pl",
    "address_councildis": "A",
    "status": "Assigned to Contractor",
    "contractor": "IV Waste",
    "rowid": "1019808",
    "final_x": "3668426.98906",
    "final_y": "542529.110541",
    "longitude": "-90.10897886649977",
    "latitude": "29.986157508466217",
    "geocoded_column": {
      "latitude": "29.986157508466217",
      "longitude": "-90.10897886649977"
    }
  },
  {
    "service_request": "2023-1019807",
    "request_type": "Roads/Drainage",
    "request_reason": "Debris in Roadway",
    "date_created": "2023-07-23T17:43:06.000",
    "date_modified": "2023-07-23T17:43:06.000",
    "request_status": "Pending",
    "responsible_agency": "Department of Public Works",
    "final_address": "2532 Ap Tureaud Ave",
    "address_councildis": "D",
    "status": "Pending",
    "rowid": "1019807",
    "final_x": "3681494.74389",
    "final_y": "541489.203084",
    "longitude": "-90.06773922761406",
    "latitude": "29.98290771712376",
    "geocoded_column": {
      "latitude": "29.98290771712376",
      "longitude": "-90.06773922761406"
    }
  },
  {
    "service_request": "2023-1019806",
    "request_type": "Parks & Parkways",
    "request_reason": "Request Tree Service (Right of Way/Public Property)",
    "date_created": "2023-07-23T17:33:04.000",
    "date_modified": "2023-07-23T18:03:40.000",
    "request_status": "Pending",
    "responsible_agency": "Department of Parks & Parkway",
    "final_address": "1438 N Roman St",
    "address_councildis": "D",
    "status": "Pending",
    "rowid": "1019806",
    "final_x": "3680932.84117",
    "final_y": "537269.700296",
    "longitude": "-90.06966097903648",
    "latitude": "29.971322602178123",
    "geocoded_column": {
      "latitude": "29.971322602178123",
      "longitude": "-90.06966097903648"
    }
  },
  {
    "service_request": "2023-1019804",
    "request_type": "Safety & Permits",
    "request_reason": "Licenses & Permits",
    "date_created": "2023-07-23T16:47:46.000",
    "date_modified": "2023-07-23T16:47:46.000",
    "request_status": "Pending",
    "responsible_agency": "Safety and Permits",
    "final_address": "2153 N Rocheblave St",
    "address_councildis": "D",
    "status": "Pending",
    "rowid": "1019804",
    "final_x": "3684014.68348",
    "final_y": "541080.45806",
    "longitude": "-90.05979434020998",
    "latitude": "29.981707040327663",
    "geocoded_column": {
      "latitude": "29.981707040327663",
      "longitude": "-90.05979434020998"
    }
  },
  {
    "service_request": "2023-1019803",
    "request_type": "Trash/Recycling",
    "request_reason": "Missed Trash Pick-Up",
    "date_created": "2023-07-23T16:42:05.000",
    "date_modified": "2023-07-23T16:42:05.000",
    "request_status": "Pending",
    "responsible_agency": "Department of Sanitation",
    "final_address": "240 Audubon St",
    "address_councildis": "A",
    "status": "Assigned to Contractor",
    "contractor": "Richards Disposal",
    "rowid": "1019803",
    "final_x": "3661135.71661",
    "final_y": "521531.274553",
    "longitude": "-90.132704234141",
    "latitude": "29.928632456792197",
    "geocoded_column": {
      "latitude": "29.928632456792197",
      "longitude": "-90.132704234141"
    }
  },
  {
    "service_request": "2023-1019802",
    "request_type": "Trash/Recycling",
    "request_reason": "Missed Trash Pick-Up",
    "date_created": "2023-07-23T16:32:02.000",
    "date_modified": "2023-07-23T16:32:03.000",
    "request_status": "Pending",
    "responsible_agency": "Department of Sanitation",
    "final_address": "1026 St Louis St",
    "address_councildis": "C",
    "status": "Assigned to Contractor",
    "contractor": "Empire Services",
    "rowid": "1019802",
    "final_x": "3681030.18811",
    "final_y": "532628.770756",
    "longitude": "-90.06951520171688",
    "latitude": "29.958558682445734",
    "geocoded_column": {
      "latitude": "29.958558682445734",
      "longitude": "-90.06951520171688"
    }
  },
  {
    "service_request": "2023-1019800",
    "request_type": "Roads/Drainage",
    "request_reason": "Catch Basin - Broken/Damage",
    "date_created": "2023-07-23T16:18:08.000",
    "date_modified": "2023-07-23T16:18:08.000",
    "request_status": "Pending",
    "responsible_agency": "Department of Public Works",
    "final_address": "5518 Clara St",
    "address_councildis": "A",
    "status": "Pending",
    "rowid": "1019800",
    "final_x": "3667639.51175",
    "final_y": "525030.577469",
    "longitude": "-90.11205530865364",
    "latitude": "29.938065435740015",
    "geocoded_column": {
      "latitude": "29.938065435740015",
      "longitude": "-90.11205530865364"
    }
  },
  {
    "service_request": "2023-1019799",
    "request_type": "Trash/Recycling",
    "request_reason": "Request a Large Item Pick Up",
    "date_created": "2023-07-23T16:12:18.000",
    "date_modified": "2023-07-23T16:12:19.000",
    "request_status": "Pending",
    "responsible_agency": "Department of Sanitation",
    "final_address": "1108 Crete St",
    "address_councildis": "A",
    "status": "Assigned to Contractor",
    "contractor": "Richards Disposal",
    "rowid": "1019799",
    "final_x": "3677687.78427",
    "final_y": "538800.915017",
    "longitude": "-90.07985642966172",
    "latitude": "29.975630922129216",
    "geocoded_column": {
      "latitude": "29.975630922129216",
      "longitude": "-90.07985642966172"
    }
  },
  {
    "service_request": "2023-1019798",
    "request_type": "Abandoned Vehicles",
    "request_reason": "Abandoned/Junk Vehicles",
    "date_created": "2023-07-23T16:07:54.000",
    "date_modified": "2023-07-23T16:07:55.000",
    "request_status": "Pending",
    "responsible_agency": "Department of Public Works",
    "final_address": "1829 First St",
    "address_councildis": "B",
    "status": "Pending",
    "rowid": "1019798",
    "final_x": "3676435.13621",
    "final_y": "524049.29766",
    "longitude": "-90.08432048972433",
    "latitude": "29.935106534065035",
    "geocoded_column": {
      "latitude": "29.935106534065035",
      "longitude": "-90.08432048972433"
    }
  },
  {
    "service_request": "2023-1019797",
    "request_type": "Parks & Parkways",
    "request_reason": "Request Tree Service (Right of Way/Public Property)",
    "date_created": "2023-07-23T16:00:48.000",
    "date_modified": "2023-07-23T16:00:49.000",
    "request_status": "Pending",
    "responsible_agency": "Department of Parks & Parkway",
    "final_address": "2232 St Nick Dr",
    "address_councildis": "C",
    "status": "Pending",
    "rowid": "1019797",
    "final_x": "3699803.17674",
    "final_y": "522732.02873",
    "longitude": "-90.01059617709042",
    "latitude": "29.930763417459477",
    "geocoded_column": {
      "latitude": "29.930763417459477",
      "longitude": "-90.01059617709042"
    }
  },
  {
    "service_request": "2023-1019796",
    "request_type": "Trash/Recycling",
    "request_reason": "Request a Large Item Pick Up",
    "date_created": "2023-07-23T15:58:49.000",
    "date_modified": "2023-07-23T15:58:49.000",
    "request_status": "Pending",
    "responsible_agency": "Department of Sanitation",
    "final_address": "4610 Magnolia St",
    "address_councildis": "B",
    "status": "Assigned to Contractor",
    "contractor": "Richards Disposal",
    "rowid": "1019796",
    "final_x": "3669609.55316",
    "final_y": "524619.631164",
    "longitude": "-90.10584959412456",
    "latitude": "29.93687758291845",
    "geocoded_column": {
      "latitude": "29.93687758291845",
      "longitude": "-90.10584959412456"
    }
  },
  {
    "service_request": "2023-1019795",
    "request_type": "Traffic Signals/Signs/Striping/Streetlights",
    "request_reason": "Road Surface Marking Maintenance-Bike Lane",
    "date_created": "2023-07-23T15:57:41.000",
    "date_modified": "2023-07-23T15:57:41.000",
    "request_status": "Pending",
    "responsible_agency": "Department of Public Works",
    "final_address": "3411 Coliseum St",
    "address_councildis": "B",
    "status": "Pending",
    "rowid": "1019795",
    "final_x": "3674419.98766",
    "final_y": "520548.178488",
    "longitude": "-90.09080216983864",
    "latitude": "29.925539835465116",
    "geocoded_column": {
      "latitude": "29.925539835465116",
      "longitude": "-90.09080216983864"
    }
  },
  {
    "service_request": "2023-1019794",
    "request_type": "Trash/Recycling",
    "request_reason": "Request a Large Item Pick Up",
    "date_created": "2023-07-23T15:49:44.000",
    "date_modified": "2023-07-23T15:49:44.000",
    "request_status": "Pending",
    "responsible_agency": "Department of Sanitation",
    "final_address": "222 N Solomon St",
    "address_councildis": "A",
    "status": "Assigned to Contractor",
    "contractor": "Richards Disposal",
    "rowid": "1019794",
    "final_x": "3670994.21409",
    "final_y": "539204.616778",
    "longitude": "-90.100982918736",
    "latitude": "29.97694060669777",
    "geocoded_column": {
      "latitude": "29.97694060669777",
      "longitude": "-90.100982918736"
    }
  },
  {
    "service_request": "2023-1019793",
    "request_type": "Trash/Recycling",
    "request_reason": "Request a Large Item Pick Up",
    "date_created": "2023-07-23T15:40:33.000",
    "date_modified": "2023-07-23T15:40:34.000",
    "request_status": "Pending",
    "responsible_agency": "Department of Sanitation",
    "final_address": "1700 BLK Napoleon Ave",
    "address_councildis": "B",
    "status": "Assigned to Contractor",
    "contractor": "Richards Disposal",
    "rowid": "1019793",
    "final_x": "3670832.48868",
    "final_y": "521423.880496",
    "longitude": "-90.10209712538426",
    "latitude": "29.92805421722528",
    "geocoded_column": {
      "latitude": "29.92805421722528",
      "longitude": "-90.10209712538426"
    }
  },
  {
    "service_request": "2023-1019791",
    "request_type": "Parks & Parkways",
    "request_reason": "Request Tree Service (Right of Way/Public Property)",
    "date_created": "2023-07-23T15:29:59.000",
    "date_modified": "2023-07-23T15:31:30.000",
    "request_status": "Pending",
    "responsible_agency": "Department of Parks & Parkway",
    "final_address": "3661 Rue Michelle",
    "address_councildis": "C",
    "status": "Pending",
    "rowid": "1019791",
    "final_x": "3703526.2385",
    "final_y": "517000.922613",
    "longitude": "-89.99905376628935",
    "latitude": "29.914886157070235",
    "geocoded_column": {
      "latitude": "29.914886157070235",
      "longitude": "-89.99905376628935"
    }
  },
  {
    "service_request": "2023-1019790",
    "request_type": "Trash/Recycling",
    "request_reason": "Request a Large Item Pick Up",
    "date_created": "2023-07-23T15:28:19.000",
    "date_modified": "2023-07-23T15:28:19.000",
    "request_status": "Pending",
    "responsible_agency": "Department of Sanitation",
    "final_address": "350 W Kenilworth St",
    "address_councildis": "A",
    "status": "Assigned to Contractor",
    "contractor": "IV Waste",
    "rowid": "1019790",
    "final_x": "3664621.98727",
    "final_y": "546272.622224",
    "longitude": "-90.12087231868955",
    "latitude": "29.9965621391047",
    "geocoded_column": {
      "latitude": "29.9965621391047",
      "longitude": "-90.12087231868955"
    }
  },
  {
    "service_request": "2023-1019789",
    "request_type": "Traffic Signals/Signs/Striping/Streetlights",
    "request_reason": "Street Light Outage/Malfunction",
    "date_created": "2023-07-23T15:26:28.000",
    "date_modified": "2023-07-23T15:26:29.000",
    "request_status": "Pending",
    "responsible_agency": "Department of Public Works",
    "final_address": "5552 Read Blvd",
    "address_councildis": "E",
    "status": "Assigned to Contractor",
    "contractor": "Legacy Professional Services",
    "rowid": "1019789",
    "final_x": "3711612.33822",
    "final_y": "558560.875996",
    "longitude": "-89.97197291933162",
    "latitude": "30.028899184723294",
    "geocoded_column": {
      "latitude": "30.028899184723294",
      "longitude": "-89.97197291933162"
    }
  },
  {
    "service_request": "2023-1019788",
    "request_type": "Roads/Drainage",
    "request_reason": "Pothole",
    "date_created": "2023-07-23T15:25:31.000",
    "date_modified": "2023-07-23T15:25:31.000",
    "request_status": "Pending",
    "responsible_agency": "Department of Public Works",
    "final_address": "1577 Henry Clay Ave",
    "address_councildis": "A",
    "status": "Pending",
    "rowid": "1019788",
    "final_x": "3665125.97453",
    "final_y": "522693.49369",
    "longitude": "-90.12006892685164",
    "latitude": "29.931712623369517",
    "geocoded_column": {
      "latitude": "29.931712623369517",
      "longitude": "-90.12006892685164"
    }
  },
  {
    "service_request": "2023-1019787",
    "request_type": "Property Maintenance",
    "request_reason": "Property Maintenance",
    "date_created": "2023-07-23T15:24:23.000",
    "date_modified": "2023-07-23T15:24:23.000",
    "request_status": "Pending",
    "responsible_agency": "Department of Code Enforcement",
    "final_address": "4800 BLK Marque Dr",
    "address_councildis": "E",
    "status": "Pending",
    "rowid": "1019787",
    "final_x": "3709971.66598",
    "final_y": "556620.092584",
    "longitude": "-89.97722991629561",
    "latitude": "30.023616288498843",
    "geocoded_column": {
      "latitude": "30.023616288498843",
      "longitude": "-89.97722991629561"
    }
  },
  {
    "service_request": "2023-1019786",
    "request_type": "Property Maintenance",
    "request_reason": "Property Maintenance",
    "date_created": "2023-07-23T15:22:27.000",
    "date_modified": "2023-07-23T15:22:27.000",
    "request_status": "Pending",
    "responsible_agency": "Department of Code Enforcement",
    "final_address": "7300 Read Blvd Ste D",
    "address_councildis": "E",
    "status": "Pending",
    "rowid": "1019786",
    "final_x": "3708940.00888",
    "final_y": "563181.115488",
    "longitude": "-89.98024490128206",
    "latitude": "30.041690041831053",
    "geocoded_column": {
      "latitude": "30.041690041831053",
      "longitude": "-89.98024490128206"
    }
  },
  {
    "service_request": "2023-1019785",
    "request_type": "Property Maintenance",
    "request_reason": "Property Maintenance",
    "date_created": "2023-07-23T15:19:51.000",
    "date_modified": "2023-07-23T15:19:51.000",
    "request_status": "Pending",
    "responsible_agency": "Department of Code Enforcement",
    "final_address": "5200 BLK Crowder Blvd",
    "address_councildis": "E",
    "status": "Pending",
    "rowid": "1019785",
    "final_x": "3705959.49421",
    "final_y": "557359.320436",
    "longitude": "-89.9898800711843",
    "latitude": "30.0257788309507",
    "geocoded_column": {
      "latitude": "30.0257788309507",
      "longitude": "-89.9898800711843"
    }
  },
  {
    "service_request": "2023-1019784",
    "request_type": "Roads/Drainage",
    "request_reason": "Pothole",
    "date_created": "2023-07-23T15:19:10.000",
    "date_modified": "2023-07-23T15:19:10.000",
    "request_status": "Pending",
    "responsible_agency": "Department of Public Works",
    "final_address": "1234 Henry Clay Ave",
    "address_councildis": "A",
    "status": "Pending",
    "rowid": "1019784",
    "final_x": "3664327.06445",
    "final_y": "521120.367609",
    "longitude": "-90.12264347982506",
    "latitude": "29.92741025864685",
    "geocoded_column": {
      "latitude": "29.92741025864685",
      "longitude": "-90.12264347982506"
    }
  },
  {
    "service_request": "2023-1019783",
    "request_type": "Traffic Signals/Signs/Striping/Streetlights",
    "request_reason": "Street Name Sign Damaged or Missing",
    "date_created": "2023-07-23T15:17:38.000",
    "date_modified": "2023-07-23T15:17:38.000",
    "request_status": "Pending",
    "responsible_agency": "Department of Public Works",
    "final_address": "9241 Dwyer Rd",
    "address_councildis": "E",
    "status": "Pending",
    "rowid": "1019783",
    "final_x": "3708928.86635",
    "final_y": "557159.797787",
    "longitude": "-89.98050478629922",
    "latitude": "30.025134160053984",
    "geocoded_column": {
      "latitude": "30.025134160053984",
      "longitude": "-89.98050478629922"
    }
  },
  {
    "service_request": "2023-1019782",
    "request_type": "Roads/Drainage",
    "request_reason": "Pothole",
    "date_created": "2023-07-23T15:17:00.000",
    "date_modified": "2023-07-23T15:17:00.000",
    "request_status": "Pending",
    "responsible_agency": "Department of Public Works",
    "final_address": "1400 BLK Tchoupitoulas St",
    "address_councildis": "B",
    "status": "Pending",
    "rowid": "1019782",
    "final_x": "3682131.76595",
    "final_y": "524227.330926",
    "longitude": "-90.06633005978753",
    "latitude": "29.93542409480048",
    "geocoded_column": {
      "latitude": "29.93542409480048",
      "longitude": "-90.06633005978753"
    }
  },
  {
    "service_request": "2023-1019781",
    "request_type": "Traffic Signals/Signs/Striping/Streetlights",
    "request_reason": "Street Name Sign Damaged or Missing",
    "date_created": "2023-07-23T15:15:35.000",
    "date_modified": "2023-07-23T15:15:35.000",
    "request_status": "Pending",
    "responsible_agency": "Department of Public Works",
    "final_address": "4800 BLK Bundy Rd",
    "address_councildis": "E",
    "status": "Pending",
    "rowid": "1019781",
    "final_x": "3709256.71104",
    "final_y": "556505.23389",
    "longitude": "-89.97949329537941",
    "latitude": "30.023323718597577",
    "geocoded_column": {
      "latitude": "30.023323718597577",
      "longitude": "-89.97949329537941"
    }
  },
  {
    "service_request": "2023-1019780",
    "request_type": "Roads/Drainage",
    "request_reason": "Man hole cover issue",
    "date_created": "2023-07-23T15:15:19.000",
    "date_modified": "2023-07-23T15:15:19.000",
    "request_status": "Pending",
    "responsible_agency": "Department of Public Works",
    "final_address": "1400 BLK Tchoupitoulas St",
    "address_councildis": "B",
    "status": "Pending",
    "rowid": "1019780",
    "final_x": "3682131.76595",
    "final_y": "524227.330926",
    "longitude": "-90.06633005978753",
    "latitude": "29.93542409480048",
    "geocoded_column": {
      "latitude": "29.93542409480048",
      "longitude": "-90.06633005978753"
    }
  },
  {
    "service_request": "2023-1019779",
    "request_type": "Roads/Drainage",
    "request_reason": "Street Subsidence (Sinking)",
    "date_created": "2023-07-23T15:13:40.000",
    "date_modified": "2023-07-23T15:13:40.000",
    "request_status": "Pending",
    "responsible_agency": "Department of Public Works",
    "final_address": "4800 BLK Bundy Rd",
    "address_councildis": "E",
    "status": "Pending",
    "rowid": "1019779",
    "final_x": "3709256.71104",
    "final_y": "556505.23389",
    "longitude": "-89.97949329537941",
    "latitude": "30.023323718597577",
    "geocoded_column": {
      "latitude": "30.023323718597577",
      "longitude": "-89.97949329537941"
    }
  },
  {
    "service_request": "2023-1019778",
    "request_type": "Traffic Signals/Signs/Striping/Streetlights",
    "request_reason": "Street Name Sign Damaged or Missing",
    "date_created": "2023-07-23T15:10:23.000",
    "date_modified": "2023-07-23T15:10:23.000",
    "request_status": "Pending",
    "responsible_agency": "Department of Public Works",
    "final_address": "4800 BLK Bundy Rd",
    "address_councildis": "E",
    "status": "Pending",
    "rowid": "1019778",
    "final_x": "3709323.46025",
    "final_y": "556524.298812",
    "longitude": "-89.97928167218254",
    "latitude": "30.02337397098909",
    "geocoded_column": {
      "latitude": "30.02337397098909",
      "longitude": "-89.97928167218254"
    }
  },
  {
    "service_request": "2023-1019777",
    "request_type": "Traffic Signals/Signs/Striping/Streetlights",
    "request_reason": "Street Light Outage/Malfunction",
    "date_created": "2023-07-23T15:09:18.000",
    "date_modified": "2023-07-23T15:09:18.000",
    "request_status": "Pending",
    "responsible_agency": "Department of Public Works",
    "final_address": "NAPOLEON AVE & MAGAZINE ST",
    "address_councildis": "B",
    "status": "Assigned to Contractor",
    "contractor": "Legacy Professional Services",
    "rowid": "1019777",
    "final_x": "3671097.2",
    "final_y": "518798.38",
    "longitude": "-90.10135060208529",
    "latitude": "29.920827104580972",
    "geocoded_column": {
      "latitude": "29.920827104580972",
      "longitude": "-90.10135060208529"
    }
  },
  {
    "service_request": "2023-1019776",
    "request_type": "Roads/Drainage",
    "request_reason": "Pothole",
    "date_created": "2023-07-23T15:07:32.000",
    "date_modified": "2023-07-23T15:07:33.000",
    "request_status": "Pending",
    "responsible_agency": "Department of Public Works",
    "final_address": "MORRISON RD & READ BLVD",
    "address_councildis": "E",
    "status": "Pending",
    "rowid": "1019776",
    "final_x": "3708986.9",
    "final_y": "563787.08",
    "longitude": "-89.9800740921111",
    "latitude": "30.043354679575092",
    "geocoded_column": {
      "latitude": "30.043354679575092",
      "longitude": "-89.9800740921111"
    }
  },
  {
    "service_request": "2023-1019775",
    "request_type": "Property Maintenance",
    "request_reason": "Property Maintenance",
    "date_created": "2023-07-23T15:07:00.000",
    "date_modified": "2023-07-23T15:07:00.000",
    "request_status": "Pending",
    "responsible_agency": "Department of Code Enforcement",
    "final_address": "416 S Broad St",
    "address_councildis": "B",
    "status": "Pending",
    "rowid": "1019775",
    "final_x": "3674590.79611",
    "final_y": "533911.850117",
    "longitude": "-90.08980516471337",
    "latitude": "29.962280441504564",
    "geocoded_column": {
      "latitude": "29.962280441504564",
      "longitude": "-90.08980516471337"
    }
  },
  {
    "service_request": "2023-1019774",
    "request_type": "Traffic Signals/Signs/Striping/Streetlights",
    "request_reason": "Street Light Outage/Malfunction",
    "date_created": "2023-07-23T15:06:54.000",
    "date_modified": "2023-07-23T15:06:54.000",
    "request_status": "Pending",
    "responsible_agency": "Department of Public Works",
    "final_address": "NAPOLEON AVE & MAGAZINE ST",
    "address_councildis": "B",
    "status": "Assigned to Contractor",
    "contractor": "Legacy Professional Services",
    "rowid": "1019774",
    "final_x": "3671097.2",
    "final_y": "518798.38",
    "longitude": "-90.10135060208529",
    "latitude": "29.920827104580972",
    "geocoded_column": {
      "latitude": "29.920827104580972",
      "longitude": "-90.10135060208529"
    }
  },
  {
    "service_request": "2023-1019773",
    "request_type": "Property Maintenance",
    "request_reason": "Property Maintenance",
    "date_created": "2023-07-23T15:06:09.000",
    "date_modified": "2023-07-23T15:06:09.000",
    "request_status": "Pending",
    "responsible_agency": "Department of Code Enforcement",
    "final_address": "416 S Broad St",
    "address_councildis": "B",
    "status": "Pending",
    "rowid": "1019773",
    "final_x": "3674590.79611",
    "final_y": "533911.850117",
    "longitude": "-90.08980516471337",
    "latitude": "29.962280441504564",
    "geocoded_column": {
      "latitude": "29.962280441504564",
      "longitude": "-90.08980516471337"
    }
  },
  {
    "service_request": "2023-1019772",
    "request_type": "Trash/Recycling",
    "request_reason": "Request a Large Item Pick Up",
    "date_created": "2023-07-23T14:56:46.000",
    "date_modified": "2023-07-23T14:56:47.000",
    "request_status": "Pending",
    "responsible_agency": "Department of Sanitation",
    "final_address": "7829 Briarwood Dr",
    "address_councildis": "E",
    "status": "Assigned to Contractor",
    "contractor": "Waste Pro",
    "rowid": "1019772",
    "final_x": "3716783.04396",
    "final_y": "571880.736232",
    "longitude": "-89.95512761417963",
    "latitude": "30.065353427526965",
    "geocoded_column": {
      "latitude": "30.065353427526965",
      "longitude": "-89.95512761417963"
    }
  },
  {
    "service_request": "2023-1019771",
    "request_type": "Property Maintenance",
    "request_reason": "Property Maintenance",
    "date_created": "2023-07-23T14:49:32.000",
    "date_modified": "2023-07-23T14:49:32.000",
    "request_status": "Pending",
    "responsible_agency": "Department of Code Enforcement",
    "final_address": "6223 Curie St",
    "address_councildis": "D",
    "status": "Pending",
    "rowid": "1019771",
    "final_x": "3682535.3622",
    "final_y": "555994.316569",
    "longitude": "-90.06394488686371",
    "latitude": "30.022759925814988",
    "geocoded_column": {
      "latitude": "30.022759925814988",
      "longitude": "-90.06394488686371"
    }
  },
  {
    "service_request": "2023-1019770",
    "request_type": "Roads/Drainage",
    "request_reason": "Catch Basin - Clogged",
    "date_created": "2023-07-23T14:43:15.000",
    "date_modified": "2023-07-23T14:43:15.000",
    "request_status": "Pending",
    "responsible_agency": "Department of Public Works",
    "final_address": "BROADWAY ST & FRERET ST",
    "address_councildis": "A",
    "status": "Pending",
    "rowid": "1019770",
    "final_x": "3663791.9",
    "final_y": "525884.78",
    "longitude": "-90.12417415672215",
    "latitude": "29.940526421809565",
    "geocoded_column": {
      "latitude": "29.940526421809565",
      "longitude": "-90.12417415672215"
    }
  },
  {
    "service_request": "2023-1019769",
    "request_type": "Property Maintenance",
    "request_reason": "Property Maintenance",
    "date_created": "2023-07-23T14:41:45.000",
    "date_modified": "2023-07-23T14:41:45.000",
    "request_status": "Pending",
    "responsible_agency": "Department of Code Enforcement",
    "final_address": "416 S Broad St",
    "address_councildis": "B",
    "status": "Pending",
    "rowid": "1019769",
    "final_x": "3674590.79611",
    "final_y": "533911.850117",
    "longitude": "-90.08980516471337",
    "latitude": "29.962280441504564",
    "geocoded_column": {
      "latitude": "29.962280441504564",
      "longitude": "-90.08980516471337"
    }
  },
  {
    "service_request": "2023-1019768",
    "request_type": "Parks & Parkways",
    "request_reason": "Request Tree Service (Right of Way/Public Property)",
    "date_created": "2023-07-23T14:37:48.000",
    "date_modified": "2023-07-23T15:32:36.000",
    "request_status": "Pending",
    "responsible_agency": "Department of Parks & Parkway",
    "final_address": "10855 Willow Dr",
    "address_councildis": "C",
    "status": "Pending",
    "rowid": "1019768",
    "final_x": "3724960.82169",
    "final_y": "515834.759348",
    "longitude": "-89.9314446203182",
    "latitude": "29.910975924232037",
    "geocoded_column": {
      "latitude": "29.910975924232037",
      "longitude": "-89.9314446203182"
    }
  },
  {
    "service_request": "2023-1019767",
    "request_type": "Trash/Recycling",
    "request_reason": "Missed Trash Pick-Up",
    "date_created": "2023-07-23T14:34:57.000",
    "date_modified": "2023-07-23T14:34:57.000",
    "request_status": "Pending",
    "responsible_agency": "Department of Sanitation",
    "final_address": "1105 Dublin St",
    "address_councildis": "A",
    "status": "Assigned to Contractor",
    "contractor": "Richards Disposal",
    "rowid": "1019767",
    "final_x": "3661537.27763",
    "final_y": "528372.97664",
    "longitude": "-90.13120999641265",
    "latitude": "29.94743339817827",
    "geocoded_column": {
      "latitude": "29.94743339817827",
      "longitude": "-90.13120999641265"
    }
  },
  {
    "service_request": "2023-1019765",
    "request_type": "Parks & Parkways",
    "request_reason": "Request Tree Service (Right of Way/Public Property)",
    "date_created": "2023-07-23T14:31:06.000",
    "date_modified": "2023-07-23T14:31:06.000",
    "request_status": "Pending",
    "responsible_agency": "Department of Parks & Parkway",
    "final_address": "3621 Mimosa Ct",
    "address_councildis": "C",
    "status": "Pending",
    "rowid": "1019765",
    "final_x": "3703217.31767",
    "final_y": "513257.301106",
    "longitude": "-90.00016630222206",
    "latitude": "29.904602362428342",
    "geocoded_column": {
      "latitude": "29.904602362428342",
      "longitude": "-90.00016630222206"
    }
  },
  {
    "service_request": "2023-1019764",
    "request_type": "Trash/Recycling",
    "request_reason": "Order Recycling Cart",
    "date_created": "2023-07-23T14:16:09.000",
    "date_modified": "2023-07-23T14:16:09.000",
    "request_status": "Pending",
    "responsible_agency": "Department of Sanitation",
    "final_address": "1027 Washington Ave Unit D",
    "address_councildis": "B",
    "status": "Pending",
    "rowid": "1019764",
    "final_x": "3677235.03906",
    "final_y": "520768.579513",
    "longitude": "-90.08190831485346",
    "latitude": "29.92606163012706",
    "geocoded_column": {
      "latitude": "29.92606163012706",
      "longitude": "-90.08190831485346"
    }
  },
  {
    "service_request": "2023-1019763",
    "request_type": "Trash/Recycling",
    "request_reason": "Request a Large Item Pick Up",
    "date_created": "2023-07-23T13:54:32.000",
    "date_modified": "2023-07-23T13:54:32.000",
    "request_status": "Pending",
    "responsible_agency": "Department of Sanitation",
    "final_address": "6331 Eastover Dr",
    "address_councildis": "E",
    "status": "Assigned to Contractor",
    "contractor": "Waste Pro",
    "rowid": "1019763",
    "final_x": "3718013.58815",
    "final_y": "563937.956385",
    "longitude": "-89.95154054679116",
    "latitude": "30.043473310349714",
    "geocoded_column": {
      "latitude": "30.043473310349714",
      "longitude": "-89.95154054679116"
    }
  },
  {
    "service_request": "2023-1019762",
    "request_type": "Trash/Recycling",
    "request_reason": "Request a Large Item Pick Up",
    "date_created": "2023-07-23T13:52:42.000",
    "date_modified": "2023-07-23T13:52:42.000",
    "request_status": "Pending",
    "responsible_agency": "Department of Sanitation",
    "final_address": "2023 Governor Nicholls St",
    "address_councildis": "D",
    "status": "Assigned to Contractor",
    "contractor": "Richards Disposal",
    "rowid": "1019762",
    "final_x": "3679882.43573",
    "final_y": "536900.872584",
    "longitude": "-90.07299111866854",
    "latitude": "29.9703402635922",
    "geocoded_column": {
      "latitude": "29.9703402635922",
      "longitude": "-90.07299111866854"
    }
  },
  {
    "service_request": "2023-1019761",
    "request_type": "Abandoned Vehicles",
    "request_reason": "Abandoned/Junk Vehicles",
    "date_created": "2023-07-23T13:32:53.000",
    "date_modified": "2023-07-23T13:32:53.000",
    "request_status": "Pending",
    "responsible_agency": "Department of Public Works",
    "final_address": "3515 Chestnut St",
    "address_councildis": "B",
    "status": "Pending",
    "rowid": "1019761",
    "final_x": "3674068.17409",
    "final_y": "520122.25292",
    "longitude": "-90.09192730528187",
    "latitude": "29.924379162488837",
    "geocoded_column": {
      "latitude": "29.924379162488837",
      "longitude": "-90.09192730528187"
    }
  },
  {
    "service_request": "2023-1019760",
    "request_type": "Traffic Signals/Signs/Striping/Streetlights",
    "request_reason": "Street Light Outage/Malfunction",
    "date_created": "2023-07-23T13:22:55.000",
    "date_modified": "2023-07-23T13:22:55.000",
    "request_status": "Pending",
    "responsible_agency": "Department of Public Works",
    "final_address": "PRYTANIA ST & LOUISIANA AVE",
    "address_councildis": "B",
    "status": "Assigned to Contractor",
    "contractor": "Legacy Professional Services",
    "rowid": "1019760",
    "final_x": "3674402.4",
    "final_y": "521036.18",
    "longitude": "-90.09084098464633",
    "latitude": "29.92688220672283",
    "geocoded_column": {
      "latitude": "29.92688220672283",
      "longitude": "-90.09084098464633"
    }
  },
  {
    "service_request": "2023-1019759",
    "request_type": "Trash/Recycling",
    "request_reason": "Request a Large Item Pick Up",
    "date_created": "2023-07-23T13:11:33.000",
    "date_modified": "2023-07-23T13:12:53.000",
    "request_status": "Pending",
    "responsible_agency": "Department of Sanitation",
    "final_address": "4967 Redwood St",
    "address_councildis": "E",
    "status": "Assigned to Contractor",
    "contractor": "Waste Pro",
    "rowid": "1019759",
    "final_x": "3712420.0437",
    "final_y": "557588.482523",
    "longitude": "-89.96945719977252",
    "latitude": "30.026199076699175",
    "geocoded_column": {
      "latitude": "30.026199076699175",
      "longitude": "-89.96945719977252"
    }
  },
  {
    "service_request": "2023-1019758",
    "request_type": "Trash/Recycling",
    "request_reason": "Dead Animal Pick Up",
    "date_created": "2023-07-23T13:08:05.000",
    "date_modified": "2023-07-23T13:08:05.000",
    "request_status": "Pending",
    "responsible_agency": "Department of Sanitation",
    "final_address": "1517 Flood St",
    "address_councildis": "E",
    "status": "Assigned to Contractor",
    "contractor": "Waste Pro",
    "rowid": "1019758",
    "final_x": "3698179.72087",
    "final_y": "535465.06855",
    "longitude": "-90.01525878246215",
    "latitude": "29.965826243554005",
    "geocoded_column": {
      "latitude": "29.965826243554005",
      "longitude": "-90.01525878246215"
    }
  },
  {
    "service_request": "2023-1019756",
    "request_type": "Roads/Drainage",
    "request_reason": "Man hole cover issue",
    "date_created": "2023-07-23T12:08:47.000",
    "date_modified": "2023-07-23T12:08:47.000",
    "request_status": "Pending",
    "responsible_agency": "Department of Public Works",
    "final_address": "1479 Granada Dr",
    "address_councildis": "D",
    "status": "Pending",
    "rowid": "1019756",
    "final_x": "3678321.8635",
    "final_y": "550696.647956",
    "longitude": "-90.07744204736514",
    "latitude": "30.00832092423707",
    "geocoded_column": {
      "latitude": "30.00832092423707",
      "longitude": "-90.07744204736514"
    }
  },
  {
    "service_request": "2023-1019755",
    "request_type": "Trash/Recycling",
    "request_reason": "Request a Large Item Pick Up",
    "date_created": "2023-07-23T11:55:40.000",
    "date_modified": "2023-07-23T11:55:41.000",
    "request_status": "Pending",
    "responsible_agency": "Department of Sanitation",
    "final_address": "342 20Th St",
    "address_councildis": "A",
    "status": "Assigned to Contractor",
    "contractor": "IV Waste",
    "rowid": "1019755",
    "final_x": "3664823.29754",
    "final_y": "549002.368019",
    "longitude": "-90.12014508948164",
    "latitude": "30.00406214387889",
    "geocoded_column": {
      "latitude": "30.00406214387889",
      "longitude": "-90.12014508948164"
    }
  },
  {
    "service_request": "2023-1019754",
    "request_type": "Trash/Recycling",
    "request_reason": "Missed Trash Pick-Up",
    "date_created": "2023-07-23T11:45:41.000",
    "date_modified": "2023-07-23T11:45:41.000",
    "request_status": "Pending",
    "responsible_agency": "Department of Sanitation",
    "final_address": "1638 Dublin St",
    "address_councildis": "A",
    "status": "Assigned to Contractor",
    "contractor": "Richards Disposal",
    "rowid": "1019754",
    "final_x": "3662822.54285",
    "final_y": "529906.001409",
    "longitude": "-90.12710094513704",
    "latitude": "29.95161158432469",
    "geocoded_column": {
      "latitude": "29.95161158432469",
      "longitude": "-90.12710094513704"
    }
  },
  {
    "service_request": "2023-1019753",
    "request_type": "Parks & Parkways",
    "request_reason": "Request Tree Service (Right of Way/Public Property)",
    "date_created": "2023-07-23T11:40:43.000",
    "date_modified": "2023-07-23T11:47:35.000",
    "request_status": "Pending",
    "responsible_agency": "Department of Parks & Parkway",
    "final_address": "2116 S Gayoso St",
    "address_councildis": "B",
    "status": "Pending",
    "rowid": "1019753",
    "final_x": "3669734.53646",
    "final_y": "528996.19968",
    "longitude": "-90.10530693339675",
    "latitude": "29.948908043506567",
    "geocoded_column": {
      "latitude": "29.948908043506567",
      "longitude": "-90.10530693339675"
    }
  },
  {
    "service_request": "2023-1019752",
    "request_type": "Mosquito, Termite & Rodent Control",
    "request_reason": "Non-Rodent Complaint (Mice, Possums, Snakes)",
    "date_created": "2023-07-23T11:40:41.000",
    "date_modified": "2023-07-23T11:40:41.000",
    "request_status": "Pending",
    "responsible_agency": "Mosquito, Termite & Rodent Control Board",
    "final_address": "2443 Oriole St",
    "address_councildis": "D",
    "status": "Pending",
    "rowid": "1019752",
    "final_x": "3684894.45493",
    "final_y": "558292.075676",
    "longitude": "-90.05640980054785",
    "latitude": "30.029005839426734",
    "geocoded_column": {
      "latitude": "30.029005839426734",
      "longitude": "-90.05640980054785"
    }
  },
  {
    "service_request": "2023-1019751",
    "request_type": "Abandoned Vehicles",
    "request_reason": "Abandoned/Junk Vehicles",
    "date_created": "2023-07-23T11:34:09.000",
    "date_modified": "2023-07-23T11:34:09.000",
    "request_status": "Pending",
    "responsible_agency": "Department of Public Works",
    "final_address": "1700 BLK Constantinople St",
    "address_councildis": "B",
    "status": "Pending",
    "rowid": "1019751",
    "final_x": "3672257.66365",
    "final_y": "521566.271616",
    "longitude": "-90.0975933161412",
    "latitude": "29.928403561912862",
    "geocoded_column": {
      "latitude": "29.928403561912862",
      "longitude": "-90.0975933161412"
    }
  },
  {
    "service_request": "2023-1019750",
    "request_type": "Roads/Drainage",
    "request_reason": "Catch Basin - Clogged",
    "date_created": "2023-07-23T11:17:45.000",
    "date_modified": "2023-07-23T11:17:45.000",
    "request_status": "Pending",
    "responsible_agency": "Department of Public Works",
    "final_address": "5720 St Bernard Ave",
    "address_councildis": "D",
    "status": "Pending",
    "rowid": "1019750",
    "final_x": "3676758.17115",
    "final_y": "553475.906711",
    "longitude": "-90.08228637592075",
    "latitude": "30.016009922989028",
    "geocoded_column": {
      "latitude": "30.016009922989028",
      "longitude": "-90.08228637592075"
    }
  },
  {
    "service_request": "2023-1019749",
    "request_type": "Trash/Recycling",
    "request_reason": "Request a Large Item Pick Up",
    "date_created": "2023-07-23T11:14:29.000",
    "date_modified": "2023-07-23T11:14:29.000",
    "request_status": "Pending",
    "responsible_agency": "Department of Sanitation",
    "final_address": "4726 Prentiss Ave",
    "address_councildis": "D",
    "status": "Assigned to Contractor",
    "contractor": "IV Waste",
    "rowid": "1019749",
    "final_x": "3691078.67235",
    "final_y": "554357.059352",
    "longitude": "-90.0370086204818",
    "latitude": "30.01799507496626",
    "geocoded_column": {
      "latitude": "30.01799507496626",
      "longitude": "-90.0370086204818"
    }
  },
  {
    "service_request": "2023-1019748",
    "request_type": "Roads/Drainage",
    "request_reason": "Catch Basin - Clogged",
    "date_created": "2023-07-23T11:07:05.000",
    "date_modified": "2023-07-23T11:07:05.000",
    "request_status": "Pending",
    "responsible_agency": "Department of Public Works",
    "final_address": "1336 New York St",
    "address_councildis": "D",
    "status": "Pending",
    "rowid": "1019748",
    "final_x": "3677545.23688",
    "final_y": "555497.418393",
    "longitude": "-90.07972971891266",
    "latitude": "30.021544696916845",
    "geocoded_column": {
      "latitude": "30.021544696916845",
      "longitude": "-90.07972971891266"
    }
  },
  {
    "service_request": "2023-1019747",
    "request_type": "Abandoned Vehicles",
    "request_reason": "Vehicle Blocking Your Driveway",
    "date_created": "2023-07-23T10:46:39.000",
    "date_modified": "2023-07-23T10:46:39.000",
    "request_status": "Pending",
    "responsible_agency": "Department of Public Works",
    "final_address": "1350 Bourbon St",
    "address_councildis": "C",
    "status": "Pending",
    "rowid": "1019747",
    "final_x": "3683700.26441",
    "final_y": "534514.026181",
    "longitude": "-90.06101771273805",
    "latitude": "29.963661240674625",
    "geocoded_column": {
      "latitude": "29.963661240674625",
      "longitude": "-90.06101771273805"
    }
  },
  {
    "service_request": "2023-1019746",
    "request_type": "Abandoned Vehicles",
    "request_reason": "Vehicle Blocking Your Driveway",
    "date_created": "2023-07-23T10:45:15.000",
    "date_modified": "2023-07-23T10:45:15.000",
    "request_status": "Pending",
    "responsible_agency": "Department of Public Works",
    "final_address": "1350 Bourbon St",
    "address_councildis": "C",
    "status": "Pending",
    "rowid": "1019746",
    "final_x": "3683700.26441",
    "final_y": "534514.026181",
    "longitude": "-90.06101771273805",
    "latitude": "29.963661240674625",
    "geocoded_column": {
      "latitude": "29.963661240674625",
      "longitude": "-90.06101771273805"
    }
  },
  {
    "service_request": "2023-1019745",
    "request_type": "Abandoned Vehicles",
    "request_reason": "Vehicle Blocking Your Driveway",
    "date_created": "2023-07-23T10:41:22.000",
    "date_modified": "2023-07-23T10:41:22.000",
    "request_status": "Pending",
    "responsible_agency": "Department of Public Works",
    "final_address": "1350 Bourbon St",
    "address_councildis": "C",
    "status": "Pending",
    "rowid": "1019745",
    "final_x": "3683700.26441",
    "final_y": "534514.026181",
    "longitude": "-90.06101771273805",
    "latitude": "29.963661240674625",
    "geocoded_column": {
      "latitude": "29.963661240674625",
      "longitude": "-90.06101771273805"
    }
  },
  {
    "service_request": "2023-1019744",
    "request_type": "Abandoned Vehicles",
    "request_reason": "Vehicle Blocking Your Driveway",
    "date_created": "2023-07-23T10:37:48.000",
    "date_modified": "2023-07-23T10:37:48.000",
    "request_status": "Pending",
    "responsible_agency": "Department of Public Works",
    "final_address": "1350 Bourbon St",
    "address_councildis": "C",
    "status": "Pending",
    "rowid": "1019744",
    "final_x": "3683700.26441",
    "final_y": "534514.026181",
    "longitude": "-90.06101771273805",
    "latitude": "29.963661240674625",
    "geocoded_column": {
      "latitude": "29.963661240674625",
      "longitude": "-90.06101771273805"
    }
  },
  {
    "service_request": "2023-1019743",
    "request_type": "Trash/Recycling",
    "request_reason": "Illegal Dumping",
    "date_created": "2023-07-23T10:28:30.000",
    "date_modified": "2023-07-23T10:28:30.000",
    "request_status": "Pending",
    "responsible_agency": "Department of Sanitation",
    "final_address": "2619 Banks St A",
    "address_councildis": "B",
    "status": "Pending",
    "rowid": "1019743",
    "final_x": "3674963.31176",
    "final_y": "533963.863429",
    "longitude": "-90.08862702873034",
    "latitude": "29.96241233919172",
    "geocoded_column": {
      "latitude": "29.96241233919172",
      "longitude": "-90.08862702873034"
    }
  },
  {
    "service_request": "2023-1019742",
    "request_type": "Abandoned Vehicles",
    "request_reason": "Abandoned/Junk Vehicles",
    "date_created": "2023-07-23T10:27:21.000",
    "date_modified": "2023-07-23T10:27:21.000",
    "request_status": "Pending",
    "responsible_agency": "Department of Public Works",
    "final_address": "2847 Grand-Route St John St",
    "address_councildis": "A",
    "status": "Pending",
    "rowid": "1019742",
    "final_x": "3677925.26914",
    "final_y": "540319.047115",
    "longitude": "-90.0790539019693",
    "latitude": "29.97979811634948",
    "geocoded_column": {
      "latitude": "29.97979811634948",
      "longitude": "-90.0790539019693"
    }
  },
  {
    "service_request": "2023-1019741",
    "request_type": "Trash/Recycling",
    "request_reason": "Request a Large Item Pick Up",
    "date_created": "2023-07-23T09:58:58.000",
    "date_modified": "2023-07-23T09:58:59.000",
    "request_status": "Pending",
    "responsible_agency": "Department of Sanitation",
    "final_address": "1005 Franklin Ave",
    "address_councildis": "C",
    "status": "Assigned to Contractor",
    "contractor": "IV Waste",
    "rowid": "1019741",
    "final_x": "3687063.27849",
    "final_y": "536077.976839",
    "longitude": "-90.0503423824888",
    "latitude": "29.96785845446925",
    "geocoded_column": {
      "latitude": "29.96785845446925",
      "longitude": "-90.0503423824888"
    }
  },
  {
    "service_request": "2023-1019740",
    "request_type": "Traffic Signals/Signs/Striping/Streetlights",
    "request_reason": "Street Light Outage/Malfunction",
    "date_created": "2023-07-23T09:37:44.000",
    "date_modified": "2023-07-23T09:37:45.000",
    "request_status": "Pending",
    "responsible_agency": "Department of Public Works",
    "final_address": "7320 Hurst St",
    "address_councildis": "A",
    "status": "Assigned to Contractor",
    "contractor": "Legacy Professional Services",
    "rowid": "1019740",
    "final_x": "3661819.1513",
    "final_y": "523847.623483",
    "longitude": "-90.13047000182155",
    "latitude": "29.934981980100186",
    "geocoded_column": {
      "latitude": "29.934981980100186",
      "longitude": "-90.13047000182155"
    }
  },
  {
    "service_request": "2023-1019739",
    "request_type": "Traffic Signals/Signs/Striping/Streetlights",
    "request_reason": "Street Light Outage/Malfunction",
    "date_created": "2023-07-23T09:35:12.000",
    "date_modified": "2023-07-23T09:35:12.000",
    "request_status": "Pending",
    "responsible_agency": "Department of Public Works",
    "final_address": "7307 Hurst St",
    "address_councildis": "A",
    "status": "Assigned to Contractor",
    "contractor": "Legacy Professional Services",
    "rowid": "1019739",
    "final_x": "3661949.88544",
    "final_y": "523878.008636",
    "longitude": "-90.13005626587413",
    "latitude": "29.935061755380357",
    "geocoded_column": {
      "latitude": "29.935061755380357",
      "longitude": "-90.13005626587413"
    }
  },
  {
    "service_request": "2023-1019738",
    "request_type": "Utility Poles",
    "request_reason": "Utility Pole Leaning",
    "date_created": "2023-07-23T09:14:27.000",
    "date_modified": "2023-07-23T09:14:31.000",
    "request_status": "Pending",
    "responsible_agency": "Utility Company Collective",
    "final_address": "927 Milan St",
    "address_councildis": "B",
    "status": "Pending",
    "rowid": "1019738",
    "final_x": "3671817.38779",
    "final_y": "519097.054455",
    "longitude": "-90.09906713774141",
    "latitude": "29.921627052992818",
    "geocoded_column": {
      "latitude": "29.921627052992818",
      "longitude": "-90.09906713774141"
    }
  },
  {
    "service_request": "2023-1019737",
    "request_type": "Trash/Recycling",
    "request_reason": "Request a Large Item Pick Up",
    "date_created": "2023-07-23T08:58:08.000",
    "date_modified": "2023-07-23T08:58:09.000",
    "request_status": "Pending",
    "responsible_agency": "Department of Sanitation",
    "status": "Assigned to Contractor",
    "rowid": "1019737",
    "longitude": "0.0",
    "latitude": "0.0",
    "geocoded_column": {
      "latitude": "0.0",
      "longitude": "0.0"
    }
  },
  {
    "service_request": "2023-1019736",
    "request_type": "Trash/Recycling",
    "request_reason": "Missed Trash Pick-Up",
    "date_created": "2023-07-23T08:55:23.000",
    "date_modified": "2023-07-23T08:55:23.000",
    "request_status": "Pending",
    "responsible_agency": "Department of Sanitation",
    "final_address": "310 N Bernadotte St",
    "address_councildis": "A",
    "status": "Assigned to Contractor",
    "contractor": "Richards Disposal",
    "rowid": "1019736",
    "final_x": "3669397.2082",
    "final_y": "540770.983115",
    "longitude": "-90.10597379647386",
    "latitude": "29.981294714931792",
    "geocoded_column": {
      "latitude": "29.981294714931792",
      "longitude": "-90.10597379647386"
    }
  },
  {
    "service_request": "2023-1019735",
    "request_type": "Parks & Parkways",
    "request_reason": "Request Tree Service (Right of Way/Public Property)",
    "date_created": "2023-07-23T08:53:57.000",
    "date_modified": "2023-07-23T08:56:04.000",
    "request_status": "Pending",
    "responsible_agency": "Department of Parks & Parkway",
    "final_address": "5000 BLK Danneel St",
    "address_councildis": "B",
    "status": "Pending",
    "rowid": "1019735",
    "final_x": "3668604.33795",
    "final_y": "522146.772751",
    "longitude": "-90.10910652995945",
    "latitude": "29.93010758546933",
    "geocoded_column": {
      "latitude": "29.93010758546933",
      "longitude": "-90.10910652995945"
    }
  },
  {
    "service_request": "2023-1019734",
    "request_type": "Trash/Recycling",
    "request_reason": "Replace Trash Cart",
    "date_created": "2023-07-23T08:49:17.000",
    "date_modified": "2023-07-23T08:49:17.000",
    "request_status": "Pending",
    "responsible_agency": "Department of Sanitation",
    "final_address": "1829 Marais St",
    "address_councildis": "C",
    "status": "Assigned to Contractor",
    "contractor": "IV Waste",
    "rowid": "1019734",
    "final_x": "3683735.76629",
    "final_y": "536600.654023",
    "longitude": "-90.06083242418292",
    "latitude": "29.969397662879082",
    "geocoded_column": {
      "latitude": "29.969397662879082",
      "longitude": "-90.06083242418292"
    }
  },
  {
    "service_request": "2023-1019733",
    "request_type": "Abandoned Vehicles",
    "request_reason": "Abandoned/Junk Vehicles",
    "date_created": "2023-07-23T08:48:48.000",
    "date_modified": "2023-07-23T08:50:13.000",
    "request_status": "Pending",
    "responsible_agency": "Department of Public Works",
    "final_address": "4500 BLK Mirabeau Ave",
    "address_councildis": "D",
    "status": "Pending",
    "rowid": "1019733",
    "final_x": "3690680.31677",
    "final_y": "551467.346",
    "longitude": "-90.03837045411356",
    "latitude": "30.010061820392444",
    "geocoded_column": {
      "latitude": "30.010061820392444",
      "longitude": "-90.03837045411356"
    }
  },
  {
    "service_request": "2023-1019732",
    "request_type": "Traffic Signals/Signs/Striping/Streetlights",
    "request_reason": "Street Light Knocked Down/Leaning",
    "date_created": "2023-07-23T08:45:25.000",
    "date_modified": "2023-07-23T08:45:26.000",
    "request_status": "Pending",
    "responsible_agency": "Department of Public Works",
    "final_address": "129 Camp St",
    "address_councildis": "B",
    "status": "Pending",
    "contractor": "Legacy Professional Services",
    "rowid": "1019732",
    "final_x": "3681309.74588",
    "final_y": "530199.431361",
    "longitude": "-90.06871709637957",
    "latitude": "29.951870340897",
    "geocoded_column": {
      "latitude": "29.951870340897",
      "longitude": "-90.06871709637957"
    }
  },
  {
    "service_request": "2023-1019731",
    "request_type": "Abandoned Vehicles",
    "request_reason": "Abandoned/Junk Vehicles",
    "date_created": "2023-07-23T08:01:13.000",
    "date_modified": "2023-07-23T08:01:13.000",
    "request_status": "Pending",
    "responsible_agency": "Department of Public Works",
    "final_address": "7300 BLK W Roadway St",
    "address_councildis": "A",
    "status": "Pending",
    "rowid": "1019731",
    "final_x": "3664919.87354",
    "final_y": "555894.053682",
    "longitude": "-90.1196093680645",
    "latitude": "30.023009061275733",
    "geocoded_column": {
      "latitude": "30.023009061275733",
      "longitude": "-90.1196093680645"
    }
  },
  {
    "service_request": "2023-1019730",
    "request_type": "Property Maintenance",
    "request_reason": "Property Maintenance",
    "date_created": "2023-07-23T07:44:31.000",
    "date_modified": "2023-07-23T07:44:31.000",
    "request_status": "Pending",
    "responsible_agency": "Department of Code Enforcement",
    "final_address": "221 N Roadway St",
    "address_councildis": "A",
    "status": "Pending",
    "rowid": "1019730",
    "final_x": "3665808.35412",
    "final_y": "556821.007258",
    "longitude": "-90.11677085838107",
    "latitude": "30.025531947721053",
    "geocoded_column": {
      "latitude": "30.025531947721053",
      "longitude": "-90.11677085838107"
    }
  },
  {
    "service_request": "2023-1019729",
    "request_type": "Trash/Recycling",
    "request_reason": "Start Trash Service",
    "date_created": "2023-07-23T07:41:19.000",
    "date_modified": "2023-07-23T07:41:20.000",
    "request_status": "Pending",
    "responsible_agency": "Department of Sanitation",
    "final_address": "223 22Nd St",
    "address_councildis": "A",
    "status": "Assigned to Contractor",
    "contractor": "IV Waste",
    "rowid": "1019729",
    "final_x": "3665669.57236",
    "final_y": "549351.194067",
    "longitude": "-90.11745985287853",
    "latitude": "30.004996630450364",
    "geocoded_column": {
      "latitude": "30.004996630450364",
      "longitude": "-90.11745985287853"
    }
  },
  {
    "service_request": "2023-1019728",
    "request_type": "Abandoned Vehicles",
    "request_reason": "Abandoned/Junk Vehicles",
    "date_created": "2023-07-23T07:31:59.000",
    "date_modified": "2023-07-23T07:31:59.000",
    "request_status": "Pending",
    "responsible_agency": "Department of Public Works",
    "final_address": "WEST ROADWAY & W ROADWAY ST & S ROADWAY ST & WEST END PARK",
    "address_councildis": "A",
    "status": "Pending",
    "rowid": "1019728",
    "final_x": "3664901.8",
    "final_y": "556144.08",
    "longitude": "-90.11965810868256",
    "latitude": "30.023697071675763",
    "geocoded_column": {
      "latitude": "30.023697071675763",
      "longitude": "-90.11965810868256"
    }
  },
  {
    "service_request": "2023-1019727",
    "request_type": "Property Maintenance",
    "request_reason": "Property Maintenance",
    "date_created": "2023-07-23T07:28:45.000",
    "date_modified": "2023-07-23T07:28:45.000",
    "request_status": "Pending",
    "responsible_agency": "Department of Code Enforcement",
    "final_address": "7300 BLK W Roadway St",
    "address_councildis": "A",
    "status": "Pending",
    "rowid": "1019727",
    "final_x": "3664919.87354",
    "final_y": "555894.053682",
    "longitude": "-90.1196093680645",
    "latitude": "30.023009061275733",
    "geocoded_column": {
      "latitude": "30.023009061275733",
      "longitude": "-90.1196093680645"
    }
  },
  {
    "service_request": "2023-1019726",
    "request_type": "Roads/Drainage",
    "request_reason": "Man hole cover issue",
    "date_created": "2023-07-23T07:25:28.000",
    "date_modified": "2023-07-23T07:25:29.000",
    "request_status": "Pending",
    "responsible_agency": "Department of Public Works",
    "final_address": "4100 St Claude Ave",
    "address_councildis": "C",
    "status": "Pending",
    "rowid": "1019726",
    "final_x": "3692131.76611",
    "final_y": "535186.519558",
    "longitude": "-90.03436791900413",
    "latitude": "29.965250240419504",
    "geocoded_column": {
      "latitude": "29.965250240419504",
      "longitude": "-90.03436791900413"
    }
  },
  {
    "service_request": "2023-1019725",
    "request_type": "Parks & Parkways",
    "request_reason": "Request Tree Service (Right of Way/Public Property)",
    "date_created": "2023-07-23T07:22:26.000",
    "date_modified": "2023-07-23T07:22:26.000",
    "request_status": "Pending",
    "responsible_agency": "Department of Parks & Parkway",
    "final_address": "10101 Chevy Chase Dr",
    "address_councildis": "E",
    "status": "Pending",
    "rowid": "1019725",
    "final_x": "3709685.81406",
    "final_y": "563079.348384",
    "longitude": "-89.97789170842614",
    "latitude": "30.041385986017048",
    "geocoded_column": {
      "latitude": "30.041385986017048",
      "longitude": "-89.97789170842614"
    }
  },
  {
    "service_request": "2023-1019724",
    "request_type": "Trash/Recycling",
    "request_reason": "Request a Large Item Pick Up",
    "date_created": "2023-07-23T07:21:32.000",
    "date_modified": "2023-07-23T07:21:33.000",
    "request_status": "Pending",
    "responsible_agency": "Department of Sanitation",
    "final_address": "2118 Freret St",
    "address_councildis": "B",
    "status": "Assigned to Contractor",
    "contractor": "Richards Disposal",
    "rowid": "1019724",
    "final_x": "3675801.34357",
    "final_y": "526418.156094",
    "longitude": "-90.08623997872645",
    "latitude": "29.941639099133855",
    "geocoded_column": {
      "latitude": "29.941639099133855",
      "longitude": "-90.08623997872645"
    }
  },
  {
    "service_request": "2023-1019723",
    "request_type": "Trash/Recycling",
    "request_reason": "Replace Trash Cart",
    "date_created": "2023-07-23T07:18:37.000",
    "date_modified": "2023-07-23T07:18:38.000",
    "request_status": "Pending",
    "responsible_agency": "Department of Sanitation",
    "final_address": "8140 Morrison Rd",
    "address_councildis": "E",
    "status": "Assigned to Contractor",
    "contractor": "Waste Pro",
    "rowid": "1019723",
    "final_x": "3702685.3027",
    "final_y": "560209.101917",
    "longitude": "-90.00012122534423",
    "latitude": "30.033719771937836",
    "geocoded_column": {
      "latitude": "30.033719771937836",
      "longitude": "-90.00012122534423"
    }
  },
  {
    "service_request": "2023-1019722",
    "request_type": "Roads/Drainage",
    "request_reason": "Catch Basin - Clogged",
    "date_created": "2023-07-23T07:13:39.000",
    "date_modified": "2023-07-23T07:13:39.000",
    "request_status": "Pending",
    "responsible_agency": "Department of Public Works",
    "final_address": "1900 BLK Cambronne St",
    "address_councildis": "A",
    "status": "Pending",
    "rowid": "1019722",
    "final_x": "3662939.93393",
    "final_y": "531047.545632",
    "longitude": "-90.12669232191656",
    "latitude": "29.954747063676496",
    "geocoded_column": {
      "latitude": "29.954747063676496",
      "longitude": "-90.12669232191656"
    }
  },
  {
    "service_request": "2023-1019721",
    "request_type": "Roads/Drainage",
    "request_reason": "Pothole",
    "date_created": "2023-07-23T06:50:35.000",
    "date_modified": "2023-07-23T06:50:35.000",
    "request_status": "Pending",
    "responsible_agency": "Department of Public Works",
    "final_address": "1900 BLK Danneel St",
    "address_councildis": "B",
    "status": "Pending",
    "rowid": "1019721",
    "final_x": "3677082.20059",
    "final_y": "525312.98033",
    "longitude": "-90.08223415030957",
    "latitude": "29.93856183639637",
    "geocoded_column": {
      "latitude": "29.93856183639637",
      "longitude": "-90.08223415030957"
    }
  },
  {
    "service_request": "2023-1019720",
    "request_type": "Trash/Recycling",
    "request_reason": "Replace Trash Cart",
    "date_created": "2023-07-23T06:34:01.000",
    "date_modified": "2023-07-23T06:34:01.000",
    "request_status": "Pending",
    "responsible_agency": "Department of Sanitation",
    "final_address": "7743 Shubert St",
    "address_councildis": "E",
    "status": "Assigned to Contractor",
    "contractor": "Waste Pro",
    "rowid": "1019720",
    "final_x": "3695645.57328",
    "final_y": "559291.320733",
    "longitude": "-90.02240066236045",
    "latitude": "30.03141956510274",
    "geocoded_column": {
      "latitude": "30.03141956510274",
      "longitude": "-90.02240066236045"
    }
  },
  {
    "service_request": "2023-1019719",
    "request_type": "Abandoned Vehicles",
    "request_reason": "Vehicle Blocking Your Driveway",
    "date_created": "2023-07-23T02:43:50.000",
    "date_modified": "2023-07-23T02:43:50.000",
    "request_status": "Pending",
    "responsible_agency": "Department of Public Works",
    "final_address": "139 Carondelet St",
    "address_councildis": "B",
    "status": "Pending",
    "rowid": "1019719",
    "final_x": "3680651.6916",
    "final_y": "530618.257218",
    "longitude": "-90.0707803468866",
    "latitude": "29.953041924263907",
    "geocoded_column": {
      "latitude": "29.953041924263907",
      "longitude": "-90.0707803468866"
    }
  },
  {
    "service_request": "2023-1019718",
    "request_type": "Traffic Signals/Signs/Striping/Streetlights",
    "request_reason": "Road Surface Marking Maintenance-Traffic Control",
    "date_created": "2023-07-23T02:30:27.000",
    "date_modified": "2023-07-23T02:30:27.000",
    "request_status": "Pending",
    "responsible_agency": "Department of Public Works",
    "final_address": "1207 Webster St",
    "address_councildis": "A",
    "status": "Pending",
    "rowid": "1019718",
    "final_x": "3664676.8978",
    "final_y": "520772.017017",
    "longitude": "-90.12155076752987",
    "latitude": "29.926442235813383",
    "geocoded_column": {
      "latitude": "29.926442235813383",
      "longitude": "-90.12155076752987"
    }
  },
  {
    "service_request": "2023-1019717",
    "request_type": "Roads/Drainage",
    "request_reason": "Pothole",
    "date_created": "2023-07-23T02:09:42.000",
    "date_modified": "2023-07-23T02:09:42.000",
    "request_status": "Pending",
    "responsible_agency": "Department of Public Works",
    "final_address": "4315 Pitt St",
    "address_councildis": "B",
    "status": "Pending",
    "rowid": "1019717",
    "final_x": "3671135.74062",
    "final_y": "520647.281017",
    "longitude": "-90.10116618834792",
    "latitude": "29.92590985375874",
    "geocoded_column": {
      "latitude": "29.92590985375874",
      "longitude": "-90.10116618834792"
    }
  },
  {
    "service_request": "2023-1019716",
    "request_type": "Trash/Recycling",
    "request_reason": "Missed Trash Pick-Up",
    "date_created": "2023-07-23T02:05:09.000",
    "date_modified": "2023-07-23T02:05:09.000",
    "request_status": "Pending",
    "responsible_agency": "Department of Sanitation",
    "final_address": "222 N Anthony St",
    "address_councildis": "A",
    "status": "Assigned to Contractor",
    "contractor": "Richards Disposal",
    "rowid": "1019716",
    "final_x": "3668950.8795",
    "final_y": "540771.444299",
    "longitude": "-90.10738349495881",
    "latitude": "29.981309121092004",
    "geocoded_column": {
      "latitude": "29.981309121092004",
      "longitude": "-90.10738349495881"
    }
  },
  {
    "service_request": "2023-1019715",
    "request_type": "Roads/Drainage",
    "request_reason": "Pothole",
    "date_created": "2023-07-23T01:05:47.000",
    "date_modified": "2023-07-23T01:05:47.000",
    "request_status": "Pending",
    "responsible_agency": "Department of Public Works",
    "final_address": "3531 Chestnut St",
    "address_councildis": "B",
    "status": "Pending",
    "rowid": "1019715",
    "final_x": "3673960.2859",
    "final_y": "520086.479544",
    "longitude": "-90.0922690947702",
    "latitude": "29.92428401075212",
    "geocoded_column": {
      "latitude": "29.92428401075212",
      "longitude": "-90.0922690947702"
    }
  },
  {
    "service_request": "2023-1019714",
    "request_type": "Roads/Drainage",
    "request_reason": "Catch Basin - Clogged",
    "date_created": "2023-07-23T00:05:28.000",
    "date_modified": "2023-07-23T00:05:28.000",
    "request_status": "Pending",
    "responsible_agency": "Department of Public Works",
    "final_address": "1401 Carondelet St",
    "address_councildis": "B",
    "status": "Pending",
    "rowid": "1019714",
    "final_x": "3678919.21838",
    "final_y": "526039.423678",
    "longitude": "-90.0764093352963",
    "latitude": "29.940504035361574",
    "geocoded_column": {
      "latitude": "29.940504035361574",
      "longitude": "-90.0764093352963"
    }
  },
  {
    "service_request": "2023-1019713",
    "request_type": "Roads/Drainage",
    "request_reason": "Catch Basin - Clogged",
    "date_created": "2023-07-23T00:04:57.000",
    "date_modified": "2023-07-23T00:04:57.000",
    "request_status": "Pending",
    "responsible_agency": "Department of Public Works",
    "final_address": "1401 Carondelet St",
    "address_councildis": "B",
    "status": "Pending",
    "rowid": "1019713",
    "final_x": "3678919.21838",
    "final_y": "526039.423678",
    "longitude": "-90.0764093352963",
    "latitude": "29.940504035361574",
    "geocoded_column": {
      "latitude": "29.940504035361574",
      "longitude": "-90.0764093352963"
    }
  },