[
  {
    "service_request": "2024-1150516",
    "request_type": "Abandoned Vehicles",
    "request_reason": "Abandoned/Junk Vehicles",
    "date_created": "2024-11-21T23:42:27.000",
    "date_modified": "2024-11-21T23:42:27.000",
    "request_status": "Pending",
    "responsible_agency": "Department of Public Works",
    "final_address": "3800 BLK Tullis Dr",
    "address_councildis": "C",
    "status": "Pending",
    "rowid": "1150516",
    "final_x": "3697816.96719",
    "final_y": "514123.088339",
    "longitude": "-90.01717848854001",
    "latitude": "29.907154651047563",
    "geocoded_column": {
      "latitude": "29.907154651047563",
      "longitude": "-90.01717848854001"
    }
  },
  {
    "service_request": "2024-1150515",
    "request_type": "Abandoned Vehicles",
    "request_reason": "Abandoned/Junk Vehicles",
    "date_created": "2024-11-21T23:41:13.000",
    "date_modified": "2024-11-21T23:41:13.000",
    "request_status": "Pending",
    "responsible_agency": "Department of Public Works",
    "final_address": "3800 Tullis Dr",
    "address_councildis": "C",
    "status": "Pending",
    "rowid": "1150515",
    "final_x": "3697553.86922",
    "final_y": "514260.111219",
    "longitude": "-90.01800388598224",
    "latitude": "29.907539725033367",
    "geocoded_column": {
      "latitude": "29.907539725033367",
      "longitude": "-90.01800388598224"
    }
  },
  {
    "service_request": "2024-1150514",
    "request_type": "Trash/Recycling",
    "request_reason": "Request a Large Item Pick Up",
    "date_created": "2024-11-21T22:28:22.000",
    "date_modified": "2024-11-21T22:28:23.000",
    "request_status": "Pending",
    "responsible_agency": "Department of Sanitation",
    "final_address": "12930 Mcraven Ct",
    "address_councildis": "E",
    "status": "Assigned to Contractor",
    "contractor": "Waste Pro",
    "rowid": "1150514",
    "final_x": "3716487.34981",
    "final_y": "568210.974437",
    "longitude": "-89.95620174883621",
    "latitude": "30.055272879584454",
    "geocoded_column": {
      "latitude": "30.055272879584454",
      "longitude": "-89.95620174883621"
    }
  },
  {
    "service_request": "2024-1150513",
    "request_type": "Abandoned Vehicles",
    "request_reason": "Abandoned/Junk Vehicles",
    "date_created": "2024-11-21T22:01:47.000",
    "date_modified": "2024-11-21T22:01:47.000",
    "request_status": "Pending",
    "responsible_agency": "Department of Public Works",
    "final_address": "2421 S Roman St",
    "address_councildis": "B",
    "status": "Pending",
    "rowid": "1150513",
    "final_x": "3673617.91099",
    "final_y": "527924.246527",
    "longitude": "-90.09308205872044",
    "latitude": "29.94584551544745",
    "geocoded_column": {
      "latitude": "29.94584551544745",
      "longitude": "-90.09308205872044"
    }
  },
  {
    "service_request": "2024-1150512",
    "request_type": "Trash/Recycling",
    "request_reason": "Order Recycling Cart",
    "date_created": "2024-11-21T21:24:41.000",
    "date_modified": "2024-11-21T21:24:41.000",
    "request_status": "Pending",
    "responsible_agency": "Department of Sanitation",
    "final_address": "4526 Camp St",
    "address_councildis": "B",
    "status": "Pending",
    "rowid": "1150512",
    "final_x": "3670408.06228",
    "final_y": "519045.776823",
    "longitude": "-90.10351751937314",
    "latitude": "29.921527722987637",
    "geocoded_column": {
      "latitude": "29.921527722987637",
      "longitude": "-90.10351751937314"
    }
  },
  {
    "service_request": "2024-1150511",
    "request_type": "Trash/Recycling",
    "request_reason": "Missed Trash Pick-Up",
    "date_created": "2024-11-21T21:19:06.000",
    "date_modified": "2024-11-21T21:19:07.000",
    "request_status": "Pending",
    "responsible_agency": "Department of Sanitation",
    "final_address": "4526 Camp St",
    "address_councildis": "B",
    "status": "Assigned to Contractor",
    "contractor": "IV Waste",
    "rowid": "1150511",
    "final_x": "3670408.06228",
    "final_y": "519045.776823",
    "longitude": "-90.10351751937314",
    "latitude": "29.921527722987637",
    "geocoded_column": {
      "latitude": "29.921527722987637",
      "longitude": "-90.10351751937314"
    }
  },
  {
    "service_request": "2024-1150510",
    "request_type": "Roads and Streets",
    "request_reason": "Pothole",
    "date_created": "2024-11-21T21:18:07.000",
    "date_modified": "2024-11-21T21:18:07.000",
    "request_status": "Pending",
    "responsible_agency": "Department of Public Works",
    "final_address": "7200 BLK Hurst St",
    "address_councildis": "A",
    "status": "Pending",
    "rowid": "1150510",
    "final_x": "3662102.01205",
    "final_y": "523694.198462",
    "longitude": "-90.12958209688924",
    "latitude": "29.934551941852558",
    "geocoded_column": {
      "latitude": "29.934551941852558",
      "longitude": "-90.12958209688924"
    }
  },
  {
    "service_request": "2024-1150509",
    "request_type": "Trash/Recycling",
    "request_reason": "Missed Trash Pick-Up",
    "date_created": "2024-11-21T21:16:53.000",
    "date_modified": "2024-11-21T21:16:54.000",
    "request_status": "Pending",
    "responsible_agency": "Department of Sanitation",
    "final_address": "4526 Camp St",
    "address_councildis": "B",
    "status": "Assigned to Contractor",
    "contractor": "IV Waste",
    "rowid": "1150509",
    "final_x": "3670408.06228",
    "final_y": "519045.776823",
    "longitude": "-90.10351751937314",
    "latitude": "29.921527722987637",
    "geocoded_column": {
      "latitude": "29.921527722987637",
      "longitude": "-90.10351751937314"
    }
  },
  {
    "service_request": "2024-1150508",
    "request_type": "Roads and Streets",
    "request_reason": "Pothole",
    "date_created": "2024-11-21T21:16:20.000",
    "date_modified": "2024-11-21T21:16:20.000",
    "request_status": "Pending",
    "responsible_agency": "Department of Public Works",
    "final_address": "7200 BLK Garfield St",
    "address_councildis": "A",
    "status": "Pending",
    "rowid": "1150508",
    "final_x": "3661912.23519",
    "final_y": "523410.767271",
    "longitude": "-90.13019061655251",
    "latitude": "29.93377807600435",
    "geocoded_column": {
      "latitude": "29.93377807600435",
      "longitude": "-90.13019061655251"
    }
  },
  {
    "service_request": "2024-1150507",
    "request_type": "Streetlights",
    "request_reason": "Streetlight Outage/Malfunction",
    "date_created": "2024-11-21T21:14:05.000",
    "date_modified": "2024-11-21T21:14:07.000",
    "request_status": "Pending",
    "responsible_agency": "Department of Public Works",
    "final_address": "1900 BLK Milan St",
    "address_councildis": "B",
    "status": "Pending",
    "contractor": "Legacy Professional Services",
    "rowid": "1150507",
    "final_x": "3671470.98248",
    "final_y": "522193.18506",
    "longitude": "-90.10005540308008",
    "latitude": "29.930150677474092",
    "geocoded_column": {
      "latitude": "29.930150677474092",
      "longitude": "-90.10005540308008"
    }
  },
  {
    "service_request": "2024-1150506",
    "request_type": "Trash/Recycling",
    "request_reason": "Request a Large Item Pick Up",
    "date_created": "2024-11-21T19:48:06.000",
    "date_modified": "2024-11-21T19:48:07.000",
    "request_status": "Pending",
    "responsible_agency": "Department of Sanitation",
    "final_address": "335 West Robert E Lee Blvd",
    "address_councildis": "A",
    "status": "Assigned to Contractor",
    "contractor": "IV Waste",
    "rowid": "1150506",
    "final_x": "3665222.01108",
    "final_y": "555018.574617",
    "longitude": "-90.11868400110575",
    "latitude": "30.020592999543876",
    "geocoded_column": {
      "latitude": "30.020592999543876",
      "longitude": "-90.11868400110575"
    }
  },
  {
    "service_request": "2024-1150505",
    "request_type": "Trash/Recycling",
    "request_reason": "Request a Large Item Pick Up",
    "date_created": "2024-11-21T19:29:12.000",
    "date_modified": "2024-11-21T19:29:13.000",
    "request_status": "Pending",
    "responsible_agency": "Department of Sanitation",
    "final_address": "7341 Ligustrum Dr",
    "address_councildis": "E",
    "status": "Assigned to Contractor",
    "contractor": "Waste Pro",
    "rowid": "1150505",
    "final_x": "3701860.04925",
    "final_y": "560426.141726",
    "longitude": "-90.002721139657",
    "latitude": "30.03434292303466",
    "geocoded_column": {
      "latitude": "30.03434292303466",
      "longitude": "-90.002721139657"
    }
  },
  {
    "service_request": "2024-1150504",
    "request_type": "Alley Ways",
    "request_reason": "Alley Way Regrading",
    "date_created": "2024-11-21T19:27:32.000",
    "date_modified": "2024-11-21T19:27:32.000",
    "request_status": "Pending",
    "responsible_agency": "Department of Public Works",
    "final_address": "7000 BLK Argonne Blvd",
    "address_councildis": "A",
    "status": "Pending",
    "rowid": "1150504",
    "final_x": "3670832.32004",
    "final_y": "554317.00303",
    "longitude": "-90.10098089888089",
    "latitude": "30.018499207584636",
    "geocoded_column": {
      "latitude": "30.018499207584636",
      "longitude": "-90.10098089888089"
    }
  },
  {
    "service_request": "2024-1150503",
    "request_type": "Drainage",
    "request_reason": "Street Flooding",
    "date_created": "2024-11-21T19:20:15.000",
    "date_modified": "2024-11-21T19:20:15.000",
    "request_status": "Pending",
    "responsible_agency": "Department of Public Works",
    "final_address": "2600 BLK Marais St",
    "address_councildis": "C",
    "status": "Pending",
    "rowid": "1150503",
    "final_x": "3687358.5675",
    "final_y": "536775.363245",
    "longitude": "-90.04938517476748",
    "latitude": "29.96976692897586",
    "geocoded_column": {
      "latitude": "29.96976692897586",
      "longitude": "-90.04938517476748"
    }
  },
  {
    "service_request": "2024-1150502",
    "request_type": "Streetlights",
    "request_reason": "Streetlight Outage/Malfunction",
    "date_created": "2024-11-21T19:19:00.000",
    "date_modified": "2024-11-21T19:19:01.000",
    "request_status": "Pending",
    "responsible_agency": "Department of Public Works",
    "final_address": "2103 General Pershing St",
    "address_councildis": "B",
    "status": "Pending",
    "contractor": "Legacy Professional Services",
    "rowid": "1150502",
    "final_x": "3671111.04276",
    "final_y": "522737.168186",
    "longitude": "-90.10117321092469",
    "latitude": "29.93165710377082",
    "geocoded_column": {
      "latitude": "29.93165710377082",
      "longitude": "-90.10117321092469"
    }
  },
  {
    "service_request": "2024-1150501",
    "request_type": "Trash/Recycling",
    "request_reason": "Request a Large Item Pick Up",
    "date_created": "2024-11-21T18:50:49.000",
    "date_modified": "2024-11-21T18:50:50.000",
    "request_status": "Pending",
    "responsible_agency": "Department of Sanitation",
    "final_address": "1921 General Taylor St Apt 2",
    "address_councildis": "B",
    "status": "Assigned to Contractor",
    "contractor": "IV Waste",
    "rowid": "1150501",
    "final_x": "3672409.43873",
    "final_y": "522287.54009",
    "longitude": "-90.0970896288977",
    "latitude": "29.930382316457155",
    "geocoded_column": {
      "latitude": "29.930382316457155",
      "longitude": "-90.0970896288977"
    }
  },
  {
    "service_request": "2024-1150500",
    "request_type": "Streetlights",
    "request_reason": "Streetlight Outage/Malfunction",
    "date_created": "2024-11-21T18:22:45.000",
    "date_modified": "2024-11-21T18:22:47.000",
    "request_status": "Pending",
    "responsible_agency": "Department of Public Works",
    "final_address": "2900 BLK Philip St",
    "address_councildis": "B",
    "status": "Pending",
    "contractor": "Legacy Professional Services",
    "rowid": "1150500",
    "final_x": "3674517.53151",
    "final_y": "527315.320157",
    "longitude": "-90.09026250898789",
    "latitude": "29.94414436306339",
    "geocoded_column": {
      "latitude": "29.94414436306339",
      "longitude": "-90.09026250898789"
    }
  },
  {
    "service_request": "2024-1150499",
    "request_type": "Streetlights",
    "request_reason": "Streetlight Outage/Malfunction",
    "date_created": "2024-11-21T18:21:18.000",
    "date_modified": "2024-11-21T18:21:19.000",
    "request_status": "Pending",
    "responsible_agency": "Department of Public Works",
    "final_address": "ST PHILIP ST & N GAYOSO ST",
    "address_councildis": "A",
    "status": "Pending",
    "contractor": "Legacy Professional Services",
    "rowid": "1150499",
    "final_x": "3676394.3",
    "final_y": "538637.08",
    "longitude": "-90.08394725687384",
    "latitude": "29.975219275916867",
    "geocoded_column": {
      "latitude": "29.975219275916867",
      "longitude": "-90.08394725687384"
    }
  },
  {
    "service_request": "2024-1150498",
    "request_type": "Street and Traffic Signs",
    "request_reason": "Traffic or Parking Sign Damaged or Missing",
    "date_created": "2024-11-21T18:21:17.000",
    "date_modified": "2024-11-21T18:21:17.000",
    "request_status": "Pending",
    "responsible_agency": "Department of Public Works",
    "final_address": "S RAMPART ST & JULIA ST",
    "address_councildis": "B",
    "status": "Pending",
    "rowid": "1150498",
    "final_x": "3679015.5",
    "final_y": "528373.38",
    "longitude": "-90.07602450307112",
    "latitude": "29.946918734653103",
    "geocoded_column": {
      "latitude": "29.946918734653103",
      "longitude": "-90.07602450307112"
    }
  },
  {
    "service_request": "2024-1150497",
    "request_type": "Streetlights",
    "request_reason": "Streetlight Outage/Malfunction",
    "date_created": "2024-11-21T18:15:01.000",
    "date_modified": "2024-11-21T18:15:02.000",
    "request_status": "Pending",
    "responsible_agency": "Department of Public Works",
    "final_address": "11 New Basin Way",
    "address_councildis": "A",
    "status": "Pending",
    "contractor": "Legacy Professional Services",
    "rowid": "1150497",
    "final_x": "3666688.3746",
    "final_y": "554712.42652",
    "longitude": "-90.11406100681539",
    "latitude": "30.019708378005763",
    "geocoded_column": {
      "latitude": "30.019708378005763",
      "longitude": "-90.11406100681539"
    }
  },
  {
    "service_request": "2024-1150496",
    "request_type": "Traffic Signals",
    "request_reason": "Traffic Signal Malfunctioning or Damaged",
    "date_created": "2024-11-21T17:34:06.000",
    "date_modified": "2024-11-21T17:34:06.000",
    "request_status": "Pending",
    "responsible_agency": "Department of Public Works",
    "final_address": "2585 Leon C Simon Dr",
    "address_councildis": "D",
    "status": "Pending",
    "rowid": "1150496",
    "final_x": "3686025.63145",
    "final_y": "557474.041435",
    "longitude": "-90.0528642136236",
    "latitude": "30.026721840382862",
    "geocoded_column": {
      "latitude": "30.026721840382862",
      "longitude": "-90.0528642136236"
    }
  },
  {
    "service_request": "2024-1150495",
    "request_type": "Trash/Recycling",
    "request_reason": "Request a Large Item Pick Up",
    "date_created": "2024-11-21T17:32:17.000",
    "date_modified": "2024-11-21T17:32:18.000",
    "request_status": "Pending",
    "responsible_agency": "Department of Sanitation",
    "final_address": "5722 Durbridge Dr",
    "address_councildis": "C",
    "status": "Assigned to Contractor",
    "contractor": "Richards Disposal",
    "rowid": "1150495",
    "final_x": "3704899.80574",
    "final_y": "521701.537401",
    "longitude": "-89.99454498329762",
    "latitude": "29.927767167186413",
    "geocoded_column": {
      "latitude": "29.927767167186413",
      "longitude": "-89.99454498329762"
    }
  },
  {
    "service_request": "2024-1150494",
    "request_type": "Roads and Streets",
    "request_reason": "Pothole",
    "date_created": "2024-11-21T17:18:37.000",
    "date_modified": "2024-11-21T17:18:37.000",
    "request_status": "Pending",
    "responsible_agency": "Department of Public Works",
    "final_address": "6322 Pritchard Pl",
    "address_councildis": "B",
    "status": "Pending",
    "rowid": "1150494",
    "final_x": "3668229.58951",
    "final_y": "530973.204418",
    "longitude": "-90.10999207110272",
    "latitude": "29.954388423960513",
    "geocoded_column": {
      "latitude": "29.954388423960513",
      "longitude": "-90.10999207110272"
    }
  },
  {
    "service_request": "2024-1150493",
    "request_type": "Abandoned Vehicles",
    "request_reason": "Abandoned/Junk Vehicles",
    "date_created": "2024-11-21T17:09:23.000",
    "date_modified": "2024-11-21T17:09:23.000",
    "request_status": "Pending",
    "responsible_agency": "Department of Public Works",
    "final_address": "938 Charbonnet St",
    "address_councildis": "E",
    "status": "Pending",
    "rowid": "1150493",
    "final_x": "3698447.70538",
    "final_y": "533148.133636",
    "longitude": "-90.0144967159125",
    "latitude": "29.959447019151604",
    "geocoded_column": {
      "latitude": "29.959447019151604",
      "longitude": "-90.0144967159125"
    }
  },
  {
    "service_request": "2024-1150492",
    "request_type": "Trash/Recycling",
    "request_reason": "Order Trash Cart",
    "date_created": "2024-11-21T17:05:09.000",
    "date_modified": "2024-11-21T17:05:10.000",
    "request_status": "Pending",
    "responsible_agency": "Department of Sanitation",
    "final_address": "7006 Dominican St",
    "address_councildis": "A",
    "status": "Assigned to Contractor",
    "contractor": "IV Waste",
    "rowid": "1150492",
    "final_x": "3662962.75783",
    "final_y": "523885.966332",
    "longitude": "-90.12685835443335",
    "latitude": "29.935054350918936",
    "geocoded_column": {
      "latitude": "29.935054350918936",
      "longitude": "-90.12685835443335"
    }
  },
  {
    "service_request": "2024-1150491",
    "request_type": "Abandoned Vehicles",
    "request_reason": "Abandoned/Junk Vehicles",
    "date_created": "2024-11-21T17:00:01.000",
    "date_modified": "2024-11-21T17:00:01.000",
    "request_status": "Pending",
    "responsible_agency": "Department of Public Works",
    "final_address": "7441 Weaver Ave",
    "address_councildis": "E",
    "status": "Pending",
    "rowid": "1150491",
    "final_x": "3707692.45841",
    "final_y": "563956.272929",
    "longitude": "-89.98415874154384",
    "latitude": "30.043861864173923",
    "geocoded_column": {
      "latitude": "30.043861864173923",
      "longitude": "-89.98415874154384"
    }
  },
  {
    "service_request": "2024-1150490",
    "request_type": "Trash/Recycling",
    "request_reason": "Request a Large Item Pick Up",
    "date_created": "2024-11-21T16:57:34.000",
    "date_modified": "2024-11-21T16:57:35.000",
    "request_status": "Pending",
    "responsible_agency": "Department of Sanitation",
    "final_address": "926 Charbonnet St",
    "address_councildis": "E",
    "status": "Assigned to Contractor",
    "contractor": "Waste Pro",
    "rowid": "1150490",
    "final_x": "3698424.26788",
    "final_y": "533039.192324",
    "longitude": "-90.01457468483525",
    "latitude": "29.959148210945834",
    "geocoded_column": {
      "latitude": "29.959148210945834",
      "longitude": "-90.01457468483525"
    }
  },
  {
    "service_request": "2024-1150489",
    "request_type": "Streetlights",
    "request_reason": "Streetlight Outage/Malfunction",
    "date_created": "2024-11-21T16:56:22.000",
    "date_modified": "2024-11-21T16:56:24.000",
    "request_status": "Pending",
    "responsible_agency": "Department of Public Works",
    "final_address": "1790 Rosiere St",
    "address_councildis": "D",
    "status": "Pending",
    "contractor": "Legacy Professional Services",
    "rowid": "1150489",
    "final_x": "3678857.63995",
    "final_y": "542091.663116",
    "longitude": "-90.07604766152807",
    "latitude": "29.984644098402477",
    "geocoded_column": {
      "latitude": "29.984644098402477",
      "longitude": "-90.07604766152807"
    }
  },
  {
    "service_request": "2024-1150488",
    "request_type": "Property Maintenance",
    "request_reason": "Property Maintenance",
    "date_created": "2024-11-21T16:51:00.000",
    "date_modified": "2024-11-21T16:51:00.000",
    "request_status": "Pending",
    "responsible_agency": "Department of Code Enforcement",
    "final_address": "7361 Poitevent Ave",
    "address_councildis": "E",
    "status": "Pending",
    "rowid": "1150488",
    "final_x": "3707427.34923",
    "final_y": "563400.00208",
    "longitude": "-89.98501728247237",
    "latitude": "30.042340921289092",
    "geocoded_column": {
      "latitude": "30.042340921289092",
      "longitude": "-89.98501728247237"
    }
  },
  {
    "service_request": "2024-1150487",
    "request_type": "Trash/Recycling",
    "request_reason": "Replace Trash Cart",
    "date_created": "2024-11-21T16:50:23.000",
    "date_modified": "2024-11-21T16:50:24.000",
    "request_status": "Pending",
    "responsible_agency": "Department of Sanitation",
    "final_address": "3418 Vespasian St",
    "address_councildis": "C",
    "status": "Assigned to Contractor",
    "contractor": "Richards Disposal",
    "rowid": "1150487",
    "final_x": "3695732.38723",
    "final_y": "522700.440058",
    "longitude": "-90.02344815408368",
    "latitude": "29.93080514530047",
    "geocoded_column": {
      "latitude": "29.93080514530047",
      "longitude": "-90.02344815408368"
    }
  },
  {
    "service_request": "2024-1150486",
    "request_type": "Trash/Recycling",
    "request_reason": "Replace Trash Cart",
    "date_created": "2024-11-21T16:49:30.000",
    "date_modified": "2024-11-21T16:49:31.000",
    "request_status": "Pending",
    "responsible_agency": "Department of Sanitation",
    "final_address": "3300 Chestnut St",
    "address_councildis": "B",
    "status": "Assigned to Contractor",
    "contractor": "IV Waste",
    "rowid": "1150486",
    "final_x": "3675090.84219",
    "final_y": "520428.677432",
    "longitude": "-90.08868858341386",
    "latitude": "29.925191226170174",
    "geocoded_column": {
      "latitude": "29.925191226170174",
      "longitude": "-90.08868858341386"
    }
  },
  {
    "service_request": "2024-1150485",
    "request_type": "Trash/Recycling",
    "request_reason": "Request a Large Item Pick Up",
    "date_created": "2024-11-21T16:47:06.000",
    "date_modified": "2024-11-21T16:47:07.000",
    "request_status": "Pending",
    "responsible_agency": "Department of Sanitation",
    "final_address": "950 Felicity St",
    "address_councildis": "B",
    "status": "Assigned to Contractor",
    "contractor": "IV Waste",
    "rowid": "1150485",
    "final_x": "3680205.53794",
    "final_y": "522775.031418",
    "longitude": "-90.07246162129708",
    "latitude": "29.931489175026222",
    "geocoded_column": {
      "latitude": "29.931489175026222",
      "longitude": "-90.07246162129708"
    }
  },
  {
    "service_request": "2024-1150484",
    "request_type": "Traffic Signals",
    "request_reason": "Traffic Signal Malfunctioning or Damaged",
    "date_created": "2024-11-21T16:45:16.000",
    "date_modified": "2024-11-21T16:45:16.000",
    "request_status": "Pending",
    "responsible_agency": "Department of Public Works",
    "final_address": "2585 Leon C Simon Dr",
    "address_councildis": "D",
    "status": "Pending",
    "rowid": "1150484",
    "final_x": "3686025.63145",
    "final_y": "557474.041435",
    "longitude": "-90.0528642136236",
    "latitude": "30.026721840382862",
    "geocoded_column": {
      "latitude": "30.026721840382862",
      "longitude": "-90.0528642136236"
    }
  },
  {
    "service_request": "2024-1150483",
    "request_type": "Trash/Recycling",
    "request_reason": "Request a Large Item Pick Up",
    "date_created": "2024-11-21T16:43:40.000",
    "date_modified": "2024-11-21T16:43:41.000",
    "request_status": "Pending",
    "responsible_agency": "Department of Sanitation",
    "final_address": "1305 St Andrew St",
    "address_councildis": "B",
    "status": "Assigned to Contractor",
    "contractor": "IV Waste",
    "rowid": "1150483",
    "final_x": "3679039.33743",
    "final_y": "523231.214459",
    "longitude": "-90.0761273762998",
    "latitude": "29.932778762971367",
    "geocoded_column": {
      "latitude": "29.932778762971367",
      "longitude": "-90.0761273762998"
    }
  },
  {
    "service_request": "2024-1150482",
    "request_type": "Trash/Recycling",
    "request_reason": "Repair Trash Cart",
    "date_created": "2024-11-21T16:41:56.000",
    "date_modified": "2024-11-21T16:41:57.000",
    "request_status": "Pending",
    "responsible_agency": "Department of Sanitation",
    "final_address": "1235 Terry St",
    "address_councildis": "C",
    "status": "Assigned to Contractor",
    "contractor": "Richards Disposal",
    "rowid": "1150482",
    "final_x": "3696917.29136",
    "final_y": "526668.167934",
    "longitude": "-90.01956398736033",
    "latitude": "29.941677729535314",
    "geocoded_column": {
      "latitude": "29.941677729535314",
      "longitude": "-90.01956398736033"
    }
  },
  {
    "service_request": "2024-1150481",
    "request_type": "Roads and Streets",
    "request_reason": "Street Subsidence (Sinking)",
    "date_created": "2024-11-21T16:41:52.000",
    "date_modified": "2024-11-21T16:41:52.000",
    "request_status": "Pending",
    "responsible_agency": "Department of Public Works",
    "final_address": "7314 Means Ave",
    "address_councildis": "E",
    "status": "Pending",
    "rowid": "1150481",
    "final_x": "3708574.5242",
    "final_y": "563731.023841",
    "longitude": "-89.98137945204844",
    "latitude": "30.04321393236711",
    "geocoded_column": {
      "latitude": "30.04321393236711",
      "longitude": "-89.98137945204844"
    }
  },
  {
    "service_request": "2024-1150480",
    "request_type": "Roads and Streets",
    "request_reason": "Pothole",
    "date_created": "2024-11-21T16:40:09.000",
    "date_modified": "2024-11-21T16:40:09.000",
    "request_status": "Pending",
    "responsible_agency": "Department of Public Works",
    "final_address": "4200 BLK S Carrollton Ave",
    "address_councildis": "A",
    "status": "Pending",
    "rowid": "1150480",
    "final_x": "3669761.48459",
    "final_y": "536778.815338",
    "longitude": "-90.1049584153925",
    "latitude": "29.97030686635561",
    "geocoded_column": {
      "latitude": "29.97030686635561",
      "longitude": "-90.1049584153925"
    }
  },
  {
    "service_request": "2024-1150479",
    "request_type": "Property Maintenance",
    "request_reason": "Property Maintenance",
    "date_created": "2024-11-21T16:32:57.000",
    "date_modified": "2024-11-21T16:32:57.000",
    "request_status": "Pending",
    "responsible_agency": "Department of Code Enforcement",
    "final_address": "7627 Burke Ave",
    "address_councildis": "E",
    "status": "Pending",
    "rowid": "1150479",
    "final_x": "3705462.76139",
    "final_y": "562975.265248",
    "longitude": "-89.99124181793228",
    "latitude": "30.04123648087744",
    "geocoded_column": {
      "latitude": "30.04123648087744",
      "longitude": "-89.99124181793228"
    }
  },
  {
    "service_request": "2024-1150478",
    "request_type": "Abandoned Vehicles",
    "request_reason": "Abandoned/Junk Vehicles",
    "date_created": "2024-11-21T16:28:13.000",
    "date_modified": "2024-11-21T16:36:38.000",
    "request_status": "Pending",
    "responsible_agency": "Department of Public Works",
    "final_address": "10825 Curran Rd",
    "address_councildis": "E",
    "status": "Pending",
    "rowid": "1150478",
    "final_x": "3709910.17086",
    "final_y": "565830.440099",
    "longitude": "-89.9770797571883",
    "latitude": "30.048943084385378",
    "geocoded_column": {
      "latitude": "30.048943084385378",
      "longitude": "-89.9770797571883"
    }
  },
  {
    "service_request": "2024-1150477",
    "request_type": "Trash/Recycling",
    "request_reason": "Request a Large Item Pick Up",
    "date_created": "2024-11-21T16:27:02.000",
    "date_modified": "2024-11-21T16:27:03.000",
    "request_status": "Pending",
    "responsible_agency": "Department of Sanitation",
    "final_address": "10825 Curran Rd",
    "address_councildis": "E",
    "status": "Assigned to Contractor",
    "contractor": "Waste Pro",
    "rowid": "1150477",
    "final_x": "3709910.17086",
    "final_y": "565830.440099",
    "longitude": "-89.9770797571883",
    "latitude": "30.048943084385378",
    "geocoded_column": {
      "latitude": "30.048943084385378",
      "longitude": "-89.9770797571883"
    }
  },
  {
    "service_request": "2024-1150476",
    "request_type": "Property Maintenance",
    "request_reason": "Property Maintenance",
    "date_created": "2024-11-21T16:25:03.000",
    "date_modified": "2024-11-21T16:25:03.000",
    "request_status": "Pending",
    "responsible_agency": "Department of Code Enforcement",
    "final_address": "7623 Burke Ave",
    "address_councildis": "E",
    "status": "Pending",
    "rowid": "1150476",
    "final_x": "3705518.32676",
    "final_y": "562894.005472",
    "longitude": "-89.9910692213948",
    "latitude": "30.041011259019683",
    "geocoded_column": {
      "latitude": "30.041011259019683",
      "longitude": "-89.9910692213948"
    }
  },
  {
    "service_request": "2024-1150475",
    "request_type": "Graffiti Removal",
    "request_reason": "Graffiti Removal",
    "date_created": "2024-11-21T16:22:42.000",
    "date_modified": "2024-11-21T16:22:42.000",
    "request_status": "Pending",
    "responsible_agency": "Department of Code Enforcement",
    "final_address": "Basin Street & North Claiborne Avenue",
    "address_councildis": "C",
    "status": "Pending",
    "rowid": "1150475",
    "final_x": "3679891.86197",
    "final_y": "534642.273542",
    "longitude": "-90.07303980335469",
    "latitude": "29.964129604243837",
    "geocoded_column": {
      "latitude": "29.964129604243837",
      "longitude": "-90.07303980335469"
    }
  },
  {
    "service_request": "2024-1150474",
    "request_type": "Trash/Recycling",
    "request_reason": "Request a Large Item Pick Up",
    "date_created": "2024-11-21T16:10:42.000",
    "date_modified": "2024-11-21T16:10:43.000",
    "request_status": "Pending",
    "responsible_agency": "Department of Sanitation",
    "final_address": "7137 Downman Rd",
    "address_councildis": "D",
    "status": "Assigned to Contractor",
    "contractor": "Waste Pro",
    "rowid": "1150474",
    "final_x": "3695313.10326",
    "final_y": "556783.49769",
    "longitude": "-90.02354186435348",
    "latitude": "30.02453446146008",
    "geocoded_column": {
      "latitude": "30.02453446146008",
      "longitude": "-90.02354186435348"
    }
  },
  {
    "service_request": "2024-1150473",
    "request_type": "Streetlights",
    "request_reason": "Streetlight Outage/Malfunction",
    "date_created": "2024-11-21T16:05:22.000",
    "date_modified": "2024-11-21T16:05:23.000",
    "request_status": "Pending",
    "responsible_agency": "Department of Public Works",
    "final_address": "1519 Feliciana St",
    "address_councildis": "D",
    "status": "Pending",
    "contractor": "Legacy Professional Services",
    "rowid": "1150473",
    "final_x": "3689181.69039",
    "final_y": "537709.930056",
    "longitude": "-90.04359438247091",
    "latitude": "29.97228036147022",
    "geocoded_column": {
      "latitude": "29.97228036147022",
      "longitude": "-90.04359438247091"
    }
  },
  {
    "service_request": "2024-1150472",
    "request_type": "Streetlights",
    "request_reason": "Streetlight Outage/Malfunction",
    "date_created": "2024-11-21T16:04:42.000",
    "date_modified": "2024-11-21T16:04:44.000",
    "request_status": "Pending",
    "responsible_agency": "Department of Public Works",
    "final_address": "1501 Feliciana St",
    "address_councildis": "D",
    "status": "Pending",
    "contractor": "Legacy Professional Services",
    "rowid": "1150472",
    "final_x": "3689154.87023",
    "final_y": "537603.121608",
    "longitude": "-90.04368288141237",
    "latitude": "29.971987505886496",
    "geocoded_column": {
      "latitude": "29.971987505886496",
      "longitude": "-90.04368288141237"
    }
  },
  {
    "service_request": "2024-1150471",
    "request_type": "Trash/Recycling",
    "request_reason": "Request a Large Item Pick Up",
    "date_created": "2024-11-21T16:04:28.000",
    "date_modified": "2024-11-21T16:04:29.000",
    "request_status": "Pending",
    "responsible_agency": "Department of Sanitation",
    "final_address": "4715 Annunciation St",
    "address_councildis": "B",
    "status": "Assigned to Contractor",
    "contractor": "IV Waste",
    "rowid": "1150471",
    "final_x": "3669853.73703",
    "final_y": "517656.46111",
    "longitude": "-90.10531428813903",
    "latitude": "29.917723891767142",
    "geocoded_column": {
      "latitude": "29.917723891767142",
      "longitude": "-90.10531428813903"
    }
  },
  {
    "service_request": "2024-1150470",
    "request_type": "Streetlights",
    "request_reason": "Streetlight Outage/Malfunction",
    "date_created": "2024-11-21T16:03:41.000",
    "date_modified": "2024-11-21T16:03:43.000",
    "request_status": "Pending",
    "responsible_agency": "Department of Public Works",
    "final_address": "4517 N Robertson St",
    "address_councildis": "D",
    "status": "Pending",
    "contractor": "Legacy Professional Services",
    "rowid": "1150470",
    "final_x": "3693858.79062",
    "final_y": "536416.332039",
    "longitude": "-90.02886987595382",
    "latitude": "29.96857784317346",
    "geocoded_column": {
      "latitude": "29.96857784317346",
      "longitude": "-90.02886987595382"
    }
  },
  {
    "service_request": "2024-1150469",
    "request_type": "Roads and Streets",
    "request_reason": "Pothole",
    "date_created": "2024-11-21T15:53:59.000",
    "date_modified": "2024-11-21T15:55:27.000",
    "request_status": "Pending",
    "responsible_agency": "Department of Public Works",
    "final_address": "7901 Pompano St",
    "address_councildis": "E",
    "status": "Pending",
    "rowid": "1150469",
    "final_x": "3700298.91882",
    "final_y": "561491.217119",
    "longitude": "-90.00761555137743",
    "latitude": "30.037321221032563",
    "geocoded_column": {
      "latitude": "30.037321221032563",
      "longitude": "-90.00761555137743"
    }
  },
  {
    "service_request": "2024-1150468",
    "request_type": "Trash/Recycling",
    "request_reason": "Request a Large Item Pick Up",
    "date_created": "2024-11-21T15:51:07.000",
    "date_modified": "2024-11-21T15:51:08.000",
    "request_status": "Pending",
    "responsible_agency": "Department of Sanitation",
    "final_address": "4783 Lancelot Dr",
    "address_councildis": "E",
    "status": "Assigned to Contractor",
    "contractor": "Waste Pro",
    "rowid": "1150468",
    "final_x": "3707491.54142",
    "final_y": "555797.698329",
    "longitude": "-89.98509711235381",
    "latitude": "30.02143549900781",
    "geocoded_column": {
      "latitude": "30.02143549900781",
      "longitude": "-89.98509711235381"
    }
  },
  {
    "service_request": "2024-1150467",
    "request_type": "Property Maintenance",
    "request_reason": "Property Maintenance",
    "date_created": "2024-11-21T15:50:58.000",
    "date_modified": "2024-11-21T15:50:58.000",
    "request_status": "Pending",
    "responsible_agency": "Department of Code Enforcement",
    "final_address": "825 Hillary St",
    "address_councildis": "A",
    "status": "Pending",
    "rowid": "1150467",
    "final_x": "3662525.11642",
    "final_y": "526266.603326",
    "longitude": "-90.12816094392056",
    "latitude": "29.941613010917926",
    "geocoded_column": {
      "latitude": "29.941613010917926",
      "longitude": "-90.12816094392056"
    }
  },
  {
    "service_request": "2024-1150466",
    "request_type": "Trash/Recycling",
    "request_reason": "Request a Large Item Pick Up",
    "date_created": "2024-11-21T15:50:32.000",
    "date_modified": "2024-11-21T15:50:33.000",
    "request_status": "Pending",
    "responsible_agency": "Department of Sanitation",
    "final_address": "1916 Benton St",
    "address_councildis": "E",
    "status": "Assigned to Contractor",
    "contractor": "Waste Pro",
    "rowid": "1150466",
    "final_x": "3699996.908",
    "final_y": "536591.601543",
    "longitude": "-90.00947910055771",
    "latitude": "29.968866202257185",
    "geocoded_column": {
      "latitude": "29.968866202257185",
      "longitude": "-90.00947910055771"
    }
  },
  {
    "service_request": "2024-1150465",
    "request_type": "Trash/Recycling",
    "request_reason": "Request a Large Item Pick Up",
    "date_created": "2024-11-21T15:47:20.000",
    "date_modified": "2024-11-21T15:47:21.000",
    "request_status": "Pending",
    "responsible_agency": "Department of Sanitation",
    "final_address": "1218 Clouet St",
    "address_councildis": "C",
    "status": "Assigned to Contractor",
    "contractor": "IV Waste",
    "rowid": "1150465",
    "final_x": "3689099.03484",
    "final_y": "536515.340615",
    "longitude": "-90.0438978770965",
    "latitude": "29.968998218190936",
    "geocoded_column": {
      "latitude": "29.968998218190936",
      "longitude": "-90.0438978770965"
    }
  },
  {
    "service_request": "2024-1150464",
    "request_type": "Trash/Recycling",
    "request_reason": "Request a Large Item Pick Up",
    "date_created": "2024-11-21T15:46:54.000",
    "date_modified": "2024-11-21T15:46:55.000",
    "request_status": "Pending",
    "responsible_agency": "Department of Sanitation",
    "final_address": "205 Norland Ave",
    "address_councildis": "C",
    "status": "Assigned to Contractor",
    "contractor": "Richards Disposal",
    "rowid": "1150464",
    "final_x": "3706292.04049",
    "final_y": "520327.67244",
    "longitude": "-89.9902009025948",
    "latitude": "29.923944717172876",
    "geocoded_column": {
      "latitude": "29.923944717172876",
      "longitude": "-89.9902009025948"
    }
  },
  {
    "service_request": "2024-1150463",
    "request_type": "Trash/Recycling",
    "request_reason": "Request a Large Item Pick Up",
    "date_created": "2024-11-21T15:46:06.000",
    "date_modified": "2024-11-21T15:46:07.000",
    "request_status": "Pending",
    "responsible_agency": "Department of Sanitation",
    "final_address": "7072 E Tamaron Blvd",
    "address_councildis": "E",
    "status": "Assigned to Contractor",
    "contractor": "Waste Pro",
    "rowid": "1150463",
    "final_x": "3718729.58245",
    "final_y": "568605.228069",
    "longitude": "-89.94909953457669",
    "latitude": "30.056282625632136",
    "geocoded_column": {
      "latitude": "30.056282625632136",
      "longitude": "-89.94909953457669"
    }
  },
  {
    "service_request": "2024-1150462",
    "request_type": "Trash/Recycling",
    "request_reason": "Request a Large Item Pick Up",
    "date_created": "2024-11-21T15:45:20.000",
    "date_modified": "2024-11-21T15:45:21.000",
    "request_status": "Pending",
    "responsible_agency": "Department of Sanitation",
    "final_address": "7533 Mayo Rd",
    "address_councildis": "E",
    "status": "Assigned to Contractor",
    "contractor": "Waste Pro",
    "rowid": "1150462",
    "final_x": "3700957.18609",
    "final_y": "560656.151134",
    "longitude": "-90.00556586869983",
    "latitude": "30.035004157111405",
    "geocoded_column": {
      "latitude": "30.035004157111405",
      "longitude": "-90.00556586869983"
    }
  },
  {
    "service_request": "2024-1150461",
    "request_type": "Trash/Recycling",
    "request_reason": "Repair Trash Cart",
    "date_created": "2024-11-21T15:43:42.000",
    "date_modified": "2024-11-21T15:43:44.000",
    "request_status": "Pending",
    "responsible_agency": "Department of Sanitation",
    "final_address": "6426 Maumus Ave",
    "address_councildis": "C",
    "status": "Assigned to Contractor",
    "contractor": "Richards Disposal",
    "rowid": "1150461",
    "final_x": "3707774.95172",
    "final_y": "516760.417461",
    "longitude": "-89.9856523652698",
    "latitude": "29.91408812952195",
    "geocoded_column": {
      "latitude": "29.91408812952195",
      "longitude": "-89.9856523652698"
    }
  },
  {
    "service_request": "2024-1150460",
    "request_type": "Trash/Recycling",
    "request_reason": "Order Trash Cart",
    "date_created": "2024-11-21T15:41:48.000",
    "date_modified": "2024-11-21T15:41:49.000",
    "request_status": "Pending",
    "responsible_agency": "Department of Sanitation",
    "final_address": "3400 Pleasure St",
    "address_councildis": "D",
    "status": "Assigned to Contractor",
    "contractor": "IV Waste",
    "rowid": "1150460",
    "final_x": "3692473.86352",
    "final_y": "544707.354255",
    "longitude": "-90.03294638256583",
    "latitude": "29.99141846522705",
    "geocoded_column": {
      "latitude": "29.99141846522705",
      "longitude": "-90.03294638256583"
    }
  },
  {
    "service_request": "2024-1150459",
    "request_type": "Roads and Streets",
    "request_reason": "Pothole",
    "date_created": "2024-11-21T15:39:49.000",
    "date_modified": "2024-11-21T15:39:50.000",
    "request_status": "Pending",
    "responsible_agency": "Department of Public Works",
    "final_address": "3525 Oliver St",
    "address_councildis": "C",
    "status": "Pending",
    "rowid": "1150459",
    "final_x": "3714231.53791",
    "final_y": "517536.985718",
    "longitude": "-89.9652442069486",
    "latitude": "29.916013031996602",
    "geocoded_column": {
      "latitude": "29.916013031996602",
      "longitude": "-89.9652442069486"
    }
  },
  {
    "service_request": "2024-1150458",
    "request_type": "Trash/Recycling",
    "request_reason": "MIssed Recycling Pick-Up",
    "date_created": "2024-11-21T15:38:16.000",
    "date_modified": "2024-11-21T16:09:03.000",
    "case_close_date": "2024-11-21T10:09:03.000",
    "request_status": "Closed",
    "responsible_agency": "Department of Sanitation",
    "final_address": "7922 St Charles Ave",
    "address_councildis": "A",
    "status": "Invalid Request",
    "contractor": "IV Waste",
    "contractor_action": "Invalid",
    "rowid": "1150458",
    "final_x": "3660932.97024",
    "final_y": "526408.25619",
    "longitude": "-90.13318301185231",
    "latitude": "29.94204846102653",
    "geocoded_column": {
      "latitude": "29.94204846102653",
      "longitude": "-90.13318301185231"
    }
  },
  {
    "service_request": "2024-1150457",
    "request_type": "Trash/Recycling",
    "request_reason": "Request a Large Item Pick Up",
    "date_created": "2024-11-21T15:37:35.000",
    "date_modified": "2024-11-21T15:37:36.000",
    "request_status": "Pending",
    "responsible_agency": "Department of Sanitation",
    "final_address": "7441 Scottsdale Dr",
    "address_councildis": "E",
    "status": "Assigned to Contractor",
    "contractor": "Waste Pro",
    "rowid": "1150457",
    "final_x": "3704242.54244",
    "final_y": "561849.205663",
    "longitude": "-89.9951396745282",
    "latitude": "30.038179501986388",
    "geocoded_column": {
      "latitude": "30.038179501986388",
      "longitude": "-89.9951396745282"
    }
  },
  {
    "service_request": "2024-1150456",
    "request_type": "Trash/Recycling",
    "request_reason": "Repair Trash Cart",
    "date_created": "2024-11-21T15:36:04.000",
    "date_modified": "2024-11-21T15:36:05.000",
    "request_status": "Pending",
    "responsible_agency": "Department of Sanitation",
    "final_address": "821 N Villere St",
    "address_councildis": "C",
    "status": "Assigned to Contractor",
    "contractor": "IV Waste",
    "rowid": "1150456",
    "final_x": "3680621.50664",
    "final_y": "534645.131078",
    "longitude": "-90.07073555043985",
    "latitude": "29.96411537459687",
    "geocoded_column": {
      "latitude": "29.96411537459687",
      "longitude": "-90.07073555043985"
    }
  },
  {
    "service_request": "2024-1150455",
    "request_type": "Property Maintenance",
    "request_reason": "Property Maintenance",
    "date_created": "2024-11-21T15:32:40.000",
    "date_modified": "2024-11-21T15:32:40.000",
    "request_status": "Pending",
    "responsible_agency": "Department of Code Enforcement",
    "final_address": "4450 Franklin Ave",
    "address_councildis": "D",
    "status": "Pending",
    "rowid": "1150455",
    "final_x": "3686839.5039",
    "final_y": "549344.500819",
    "longitude": "-90.05058004703302",
    "latitude": "30.004343563421003",
    "geocoded_column": {
      "latitude": "30.004343563421003",
      "longitude": "-90.05058004703302"
    }
  },
  {
    "service_request": "2024-1150454",
    "request_type": "Trash/Recycling",
    "request_reason": "Return Recycling Cart",
    "date_created": "2024-11-21T15:29:22.000",
    "date_modified": "2024-11-21T15:29:23.000",
    "request_status": "Pending",
    "responsible_agency": "Department of Sanitation",
    "final_address": "4501 General Early Dr",
    "address_councildis": "D",
    "status": "Pending",
    "rowid": "1150454",
    "final_x": "3691359.50268",
    "final_y": "550610.875092",
    "longitude": "-90.03625529482048",
    "latitude": "30.007685718448077",
    "geocoded_column": {
      "latitude": "30.007685718448077",
      "longitude": "-90.03625529482048"
    }
  },
  {
    "service_request": "2024-1150453",
    "request_type": "Trash/Recycling",
    "request_reason": "Request a Large Item Pick Up",
    "date_created": "2024-11-21T15:27:56.000",
    "date_modified": "2024-11-21T15:27:57.000",
    "request_status": "Pending",
    "responsible_agency": "Department of Sanitation",
    "final_address": "4500 Viola St",
    "address_councildis": "E",
    "status": "Assigned to Contractor",
    "contractor": "Waste Pro",
    "rowid": "1150453",
    "final_x": "3704083.297",
    "final_y": "553537.348119",
    "longitude": "-89.9959495127657",
    "latitude": "30.01533023151195",
    "geocoded_column": {
      "latitude": "30.01533023151195",
      "longitude": "-89.9959495127657"
    }
  },
  {
    "service_request": "2024-1150452",
    "request_type": "Drainage",
    "request_reason": "Catch Basin Clogged",
    "date_created": "2024-11-21T15:25:14.000",
    "date_modified": "2024-11-21T15:25:14.000",
    "request_status": "Pending",
    "responsible_agency": "Department of Public Works",
    "final_address": "517 Washington Ave",
    "address_councildis": "B",
    "status": "Pending",
    "rowid": "1150452",
    "final_x": "3678252.39061",
    "final_y": "519087.271863",
    "longitude": "-90.07875494187272",
    "latitude": "29.92140798915211",
    "geocoded_column": {
      "latitude": "29.92140798915211",
      "longitude": "-90.07875494187272"
    }
  },
  {
    "service_request": "2024-1150451",
    "request_type": "Mosquito, Termite & Rodent Control",
    "request_reason": "Non-Rodent Complaint (Mice, Possums, Snakes)",
    "date_created": "2024-11-21T15:25:03.000",
    "date_modified": "2024-11-21T15:25:03.000",
    "request_status": "Pending",
    "responsible_agency": "Mosquito, Termite & Rodent Control Board",
    "final_address": "1235 St Andrew St",
    "address_councildis": "B",
    "status": "Pending",
    "rowid": "1150451",
    "final_x": "3679127.03253",
    "final_y": "523106.986491",
    "longitude": "-90.07585483363995",
    "latitude": "29.932434530896714",
    "geocoded_column": {
      "latitude": "29.932434530896714",
      "longitude": "-90.07585483363995"
    }
  },
  {
    "service_request": "2024-1150450",
    "request_type": "Trash/Recycling",
    "request_reason": "Request a Large Item Pick Up",
    "date_created": "2024-11-21T15:24:45.000",
    "date_modified": "2024-11-21T15:24:46.000",
    "request_status": "Pending",
    "responsible_agency": "Department of Sanitation",
    "final_address": "6620 Dorian St",
    "address_councildis": "D",
    "status": "Assigned to Contractor",
    "contractor": "Waste Pro",
    "rowid": "1150450",
    "final_x": "3696463.91952",
    "final_y": "555506.251609",
    "longitude": "-90.01995176455156",
    "latitude": "30.020986298470397",
    "geocoded_column": {
      "latitude": "30.020986298470397",
      "longitude": "-90.01995176455156"
    }
  },
  {
    "service_request": "2024-1150449",
    "request_type": "Trash/Recycling",
    "request_reason": "Replace Recycling Cart",
    "date_created": "2024-11-21T15:13:45.000",
    "date_modified": "2024-11-21T15:13:45.000",
    "request_status": "Pending",
    "responsible_agency": "Department of Sanitation",
    "final_address": "5350 Prytania St",
    "address_councildis": "B",
    "status": "Pending",
    "rowid": "1150449",
    "final_x": "3667253.74503",
    "final_y": "520194.253304",
    "longitude": "-90.1134357682562",
    "latitude": "29.92477838421913",
    "geocoded_column": {
      "latitude": "29.92477838421913",
      "longitude": "-90.1134357682562"
    }
  },
  {
    "service_request": "2024-1150448",
    "request_type": "Trash/Recycling",
    "request_reason": "Request a Large Item Pick Up",
    "date_created": "2024-11-21T15:12:51.000",
    "date_modified": "2024-11-21T15:12:52.000",
    "request_status": "Pending",
    "responsible_agency": "Department of Sanitation",
    "final_address": "7732 Dogwood Dr",
    "address_councildis": "E",
    "status": "Assigned to Contractor",
    "contractor": "Waste Pro",
    "rowid": "1150448",
    "final_x": "3701051.59818",
    "final_y": "561416.43011",
    "longitude": "-90.00523966619801",
    "latitude": "30.03709161970757",
    "geocoded_column": {
      "latitude": "30.03709161970757",
      "longitude": "-90.00523966619801"
    }
  },
  {
    "service_request": "2024-1150447",
    "request_type": "Trash/Recycling",
    "request_reason": "Order Trash Cart",
    "date_created": "2024-11-21T15:06:52.000",
    "date_modified": "2024-11-21T15:06:54.000",
    "request_status": "Pending",
    "responsible_agency": "Department of Sanitation",
    "final_address": "1100 BLK Valmont St",
    "address_councildis": "B",
    "status": "Assigned to Contractor",
    "contractor": "IV Waste",
    "rowid": "1150447",
    "final_x": "3667605.23037",
    "final_y": "519527.865588",
    "longitude": "-90.11234865699006",
    "latitude": "29.922935734515896",
    "geocoded_column": {
      "latitude": "29.922935734515896",
      "longitude": "-90.11234865699006"
    }
  },
  {
    "service_request": "2024-1150446",
    "request_type": "Trash/Recycling",
    "request_reason": "Order Recycling Cart",
    "date_created": "2024-11-21T15:06:40.000",
    "date_modified": "2024-11-21T15:06:42.000",
    "request_status": "Pending",
    "responsible_agency": "Department of Sanitation",
    "final_address": "1100 BLK Valmont St",
    "address_councildis": "B",
    "status": "Pending",
    "rowid": "1150446",
    "final_x": "3667605.23037",
    "final_y": "519527.865588",
    "longitude": "-90.11234865699006",
    "latitude": "29.922935734515896",
    "geocoded_column": {
      "latitude": "29.922935734515896",
      "longitude": "-90.11234865699006"
    }
  },
  {
    "service_request": "2024-1150445",
    "request_type": "Trash/Recycling",
    "request_reason": "Request a Large Item Pick Up",
    "date_created": "2024-11-21T15:04:15.000",
    "date_modified": "2024-11-21T15:04:16.000",
    "request_status": "Pending",
    "responsible_agency": "Department of Sanitation",
    "final_address": "4809 Metropolitan Dr",
    "address_councildis": "D",
    "status": "Assigned to Contractor",
    "contractor": "IV Waste",
    "rowid": "1150445",
    "final_x": "3690720.5768",
    "final_y": "550944.946773",
    "longitude": "-90.03826191232706",
    "latitude": "30.008624164018592",
    "geocoded_column": {
      "latitude": "30.008624164018592",
      "longitude": "-90.03826191232706"
    }
  },
  {
    "service_request": "2024-1150444",
    "request_type": "Trash/Recycling",
    "request_reason": "Request a Large Item Pick Up",
    "date_created": "2024-11-21T14:57:57.000",
    "date_modified": "2024-11-21T14:57:58.000",
    "request_status": "Pending",
    "responsible_agency": "Department of Sanitation",
    "final_address": "8330 Curran Rd",
    "address_councildis": "E",
    "status": "Assigned to Contractor",
    "contractor": "Waste Pro",
    "rowid": "1150444",
    "final_x": "3703174.39582",
    "final_y": "562011.511327",
    "longitude": "-89.99850929324624",
    "latitude": "30.038660035961524",
    "geocoded_column": {
      "latitude": "30.038660035961524",
      "longitude": "-89.99850929324624"
    }
  },
  {
    "service_request": "2024-1150442",
    "request_type": "Trash/Recycling",
    "request_reason": "Replace Trash Cart",
    "date_created": "2024-11-21T14:57:37.000",
    "date_modified": "2024-11-21T14:57:38.000",
    "request_status": "Pending",
    "responsible_agency": "Department of Sanitation",
    "final_address": "5372 Annunciation St",
    "address_councildis": "B",
    "status": "Assigned to Contractor",
    "contractor": "IV Waste",
    "rowid": "1150442",
    "final_x": "3666718.25972",
    "final_y": "517529.244598",
    "longitude": "-90.1152155561005",
    "latitude": "29.917466112725627",
    "geocoded_column": {
      "latitude": "29.917466112725627",
      "longitude": "-90.1152155561005"
    }
  },
  {
    "service_request": "2024-1150443",
    "request_type": "Trash/Recycling",
    "request_reason": "Request a Large Item Pick Up",
    "date_created": "2024-11-21T14:57:37.000",
    "date_modified": "2024-11-21T14:57:38.000",
    "request_status": "Pending",
    "responsible_agency": "Department of Sanitation",
    "final_address": "4445 Skyview Dr",
    "address_councildis": "D",
    "status": "Assigned to Contractor",
    "contractor": "Waste Pro",
    "rowid": "1150443",
    "final_x": "3696881.10787",
    "final_y": "552810.048022",
    "longitude": "-90.01873131552532",
    "latitude": "30.013559601399653",
    "geocoded_column": {
      "latitude": "30.013559601399653",
      "longitude": "-90.01873131552532"
    }
  },
  {
    "service_request": "2024-1150441",
    "request_type": "Parks & Parkways",
    "request_reason": "Request Tree Service (Right of Way/Public Property)",
    "date_created": "2024-11-21T14:57:18.000",
    "date_modified": "2024-11-21T14:58:53.000",
    "request_status": "Pending",
    "responsible_agency": "Department of Parks & Parkway",
    "final_address": "1354 Mandolin St",
    "address_councildis": "D",
    "status": "Pending",
    "rowid": "1150441",
    "final_x": "3677667.24328",
    "final_y": "547937.641042",
    "longitude": "-90.0796055708162",
    "latitude": "30.00075434882864",
    "geocoded_column": {
      "latitude": "30.00075434882864",
      "longitude": "-90.0796055708162"
    }
  },
  {
    "service_request": "2024-1150440",
    "request_type": "Streetlights",
    "request_reason": "Streetlight Outage/Malfunction",
    "date_created": "2024-11-21T14:57:02.000",
    "date_modified": "2024-11-21T14:57:23.000",
    "request_status": "Pending",
    "responsible_agency": "Department of Public Works",
    "final_address": "3801 General Pershing St",
    "address_councildis": "B",
    "status": "Pending",
    "contractor": "Legacy Professional Services",
    "rowid": "1150440",
    "final_x": "3670528.98907",
    "final_y": "528569.777024",
    "longitude": "-90.10281295623676",
    "latitude": "29.947712085219635",
    "geocoded_column": {
      "latitude": "29.947712085219635",
      "longitude": "-90.10281295623676"
    }
  },
  {
    "service_request": "2024-1150439",
    "request_type": "Trash/Recycling",
    "request_reason": "Request a Large Item Pick Up",
    "date_created": "2024-11-21T14:57:01.000",
    "date_modified": "2024-11-21T14:57:02.000",
    "request_status": "Pending",
    "responsible_agency": "Department of Sanitation",
    "final_address": "4505 Skyview Dr",
    "address_councildis": "D",
    "status": "Assigned to Contractor",
    "contractor": "Waste Pro",
    "rowid": "1150439",
    "final_x": "3696870.42627",
    "final_y": "552936.552023",
    "longitude": "-90.01876047820042",
    "latitude": "30.013907776801062",
    "geocoded_column": {
      "latitude": "30.013907776801062",
      "longitude": "-90.01876047820042"
    }
  },
  {
    "service_request": "2024-1150438",
    "request_type": "Streetlights",
    "request_reason": "Streetlight Knocked Down/Leaning",
    "date_created": "2024-11-21T14:54:51.000",
    "date_modified": "2024-11-21T14:56:10.000",
    "request_status": "Pending",
    "responsible_agency": "Department of Public Works",
    "final_address": "1354 Mandolin St",
    "address_councildis": "D",
    "status": "Pending",
    "contractor": "Legacy Professional Services",
    "rowid": "1150438",
    "final_x": "3677667.24328",
    "final_y": "547937.641042",
    "longitude": "-90.0796055708162",
    "latitude": "30.00075434882864",
    "geocoded_column": {
      "latitude": "30.00075434882864",
      "longitude": "-90.0796055708162"
    }
  },
  {
    "service_request": "2024-1150437",
    "request_type": "Trash/Recycling",
    "request_reason": "Request a Large Item Pick Up",
    "date_created": "2024-11-21T14:54:44.000",
    "date_modified": "2024-11-21T14:54:46.000",
    "request_status": "Pending",
    "responsible_agency": "Department of Sanitation",
    "final_address": "5753 Wilton Dr",
    "address_councildis": "D",
    "status": "Assigned to Contractor",
    "contractor": "IV Waste",
    "rowid": "1150437",
    "final_x": "3681809.51439",
    "final_y": "554353.806936",
    "longitude": "-90.06629571606507",
    "latitude": "30.01827121495924",
    "geocoded_column": {
      "latitude": "30.01827121495924",
      "longitude": "-90.06629571606507"
    }
  },
  {
    "service_request": "2024-1150436",
    "request_type": "Trash/Recycling",
    "request_reason": "Request a Large Item Pick Up",
    "date_created": "2024-11-21T14:53:32.000",
    "date_modified": "2024-11-21T14:53:33.000",
    "request_status": "Pending",
    "responsible_agency": "Department of Sanitation",
    "final_address": "5020 Dauphine St",
    "address_councildis": "E",
    "status": "Assigned to Contractor",
    "contractor": "Waste Pro",
    "rowid": "1150436",
    "final_x": "3695850.03421",
    "final_y": "533049.634372",
    "longitude": "-90.02270306635545",
    "latitude": "29.959258136164213",
    "geocoded_column": {
      "latitude": "29.959258136164213",
      "longitude": "-90.02270306635545"
    }
  },
  {
    "service_request": "2024-1150435",
    "request_type": "Trash/Recycling",
    "request_reason": "Return Trash Cart",
    "date_created": "2024-11-21T14:47:10.000",
    "date_modified": "2024-11-21T14:47:11.000",
    "request_status": "Pending",
    "responsible_agency": "Department of Sanitation",
    "final_address": "ST PHILIP ST & N CLAIBORNE AVE",
    "address_councildis": "D",
    "status": "Assigned to Contractor",
    "contractor": "IV Waste",
    "rowid": "1150435",
    "final_x": "3680398.3",
    "final_y": "535535.58",
    "longitude": "-90.07140944890652",
    "latitude": "29.96657056553638",
    "geocoded_column": {
      "latitude": "29.96657056553638",
      "longitude": "-90.07140944890652"
    }
  },
  {
    "service_request": "2024-1150434",
    "request_type": "Abandoned Vehicles",
    "request_reason": "Vehicle Blocking Your Driveway",
    "date_created": "2024-11-21T14:45:20.000",
    "date_modified": "2024-11-21T14:45:20.000",
    "request_status": "Pending",
    "responsible_agency": "Department of Public Works",
    "final_address": "4300 BLK Thalia St",
    "address_councildis": "B",
    "status": "Pending",
    "rowid": "1150434",
    "final_x": "3670827.14289",
    "final_y": "531171.918743",
    "longitude": "-90.10178325936869",
    "latitude": "29.95485831224151",
    "geocoded_column": {
      "latitude": "29.95485831224151",
      "longitude": "-90.10178325936869"
    }
  },
  {
    "service_request": "2024-1150433",
    "request_type": "Trash/Recycling",
    "request_reason": "Order Trash Cart",
    "date_created": "2024-11-21T14:42:34.000",
    "date_modified": "2024-11-21T14:42:36.000",
    "request_status": "Pending",
    "responsible_agency": "Department of Sanitation",
    "final_address": "2412 Dubreuil St",
    "address_councildis": "E",
    "status": "Assigned to Contractor",
    "contractor": "Waste Pro",
    "rowid": "1150433",
    "final_x": "3702605.17501",
    "final_y": "537588.70292",
    "longitude": "-90.00120548064353",
    "latitude": "29.971524751251852",
    "geocoded_column": {
      "latitude": "29.971524751251852",
      "longitude": "-90.00120548064353"
    }
  },
  {
    "service_request": "2024-1150432",
    "request_type": "Streetlights",
    "request_reason": "Streetlight Outage/Malfunction",
    "date_created": "2024-11-21T14:42:12.000",
    "date_modified": "2024-11-21T14:42:13.000",
    "request_status": "Pending",
    "responsible_agency": "Department of Public Works",
    "final_address": "1786 Rosiere St",
    "address_councildis": "D",
    "status": "Pending",
    "contractor": "Legacy Professional Services",
    "rowid": "1150432",
    "final_x": "3678830.65224",
    "final_y": "542057.999308",
    "longitude": "-90.07613407053425",
    "latitude": "29.984552348872107",
    "geocoded_column": {
      "latitude": "29.984552348872107",
      "longitude": "-90.07613407053425"
    }
  },
  {
    "service_request": "2024-1150431",
    "request_type": "Trash/Recycling",
    "request_reason": "Request a Large Item Pick Up",
    "date_created": "2024-11-21T14:42:03.000",
    "date_modified": "2024-11-21T17:39:37.000",
    "case_close_date": "2024-11-21T11:39:37.000",
    "request_status": "Closed",
    "responsible_agency": "Department of Sanitation",
    "final_address": "2412 Dubreuil St",
    "address_councildis": "E",
    "status": "Duplicate Request",
    "contractor": "Waste Pro",
    "contractor_action": "Duplicate",
    "rowid": "1150431",
    "final_x": "3702605.17501",
    "final_y": "537588.70292",
    "longitude": "-90.00120548064353",
    "latitude": "29.971524751251852",
    "geocoded_column": {
      "latitude": "29.971524751251852",
      "longitude": "-90.00120548064353"
    }
  },
  {
    "service_request": "2024-1150430",
    "request_type": "Trash/Recycling",
    "request_reason": "Request a Large Item Pick Up",
    "date_created": "2024-11-21T14:41:29.000",
    "date_modified": "2024-11-21T14:41:30.000",
    "request_status": "Pending",
    "responsible_agency": "Department of Sanitation",
    "final_address": "2412 Dubreuil St",
    "address_councildis": "E",
    "status": "Assigned to Contractor",
    "contractor": "Waste Pro",
    "rowid": "1150430",
    "final_x": "3702605.17501",
    "final_y": "537588.70292",
    "longitude": "-90.00120548064353",
    "latitude": "29.971524751251852",
    "geocoded_column": {
      "latitude": "29.971524751251852",
      "longitude": "-90.00120548064353"
    }
  },
  {
    "service_request": "2024-1150429",
    "request_type": "Trash/Recycling",
    "request_reason": "Repair Trash Cart",
    "date_created": "2024-11-21T14:39:55.000",
    "date_modified": "2024-11-21T14:39:57.000",
    "request_status": "Pending",
    "responsible_agency": "Department of Sanitation",
    "final_address": "1929 Esplanade Ave",
    "address_councildis": "D",
    "status": "Assigned to Contractor",
    "contractor": "IV Waste",
    "rowid": "1150429",
    "final_x": "3680257.00079",
    "final_y": "537446.59604",
    "longitude": "-90.07178922667175",
    "latitude": "29.971829481547797",
    "geocoded_column": {
      "latitude": "29.971829481547797",
      "longitude": "-90.07178922667175"
    }
  },
  {
    "service_request": "2024-1150428",
    "request_type": "Trash/Recycling",
    "request_reason": "Request a Large Item Pick Up",
    "date_created": "2024-11-21T14:39:29.000",
    "date_modified": "2024-11-21T14:39:30.000",
    "request_status": "Pending",
    "responsible_agency": "Department of Sanitation",
    "final_address": "8012 Bass St",
    "address_councildis": "E",
    "status": "Assigned to Contractor",
    "contractor": "Waste Pro",
    "rowid": "1150428",
    "final_x": "3719322.12754",
    "final_y": "574419.127915",
    "longitude": "-89.94700428720613",
    "latitude": "30.07224871869533",
    "geocoded_column": {
      "latitude": "30.07224871869533",
      "longitude": "-89.94700428720613"
    }
  },
  {
    "service_request": "2024-1150427",
    "request_type": "General Services",
    "request_reason": "General Service Request",
    "date_created": "2024-11-21T14:36:57.000",
    "date_modified": "2024-11-21T14:42:10.000",
    "case_close_date": "2024-11-21T08:42:10.000",
    "request_status": "Closed",
    "responsible_agency": "Orleans Parish Communication District",
    "final_address": "7500 BLK Jonlee Dr",
    "address_councildis": "E",
    "status": "Duplicate Request",
    "rowid": "1150427",
    "final_x": "3717224.62752",
    "final_y": "570336.918169",
    "longitude": "-89.95379048771754",
    "latitude": "30.061093959481568",
    "geocoded_column": {
      "latitude": "30.061093959481568",
      "longitude": "-89.95379048771754"
    }
  },
  {
    "service_request": "2024-1150426",
    "request_type": "Trash/Recycling",
    "request_reason": "Request a Large Item Pick Up",
    "date_created": "2024-11-21T14:34:57.000",
    "date_modified": "2024-11-21T14:41:27.000",
    "request_status": "Pending",
    "responsible_agency": "Department of Sanitation",
    "final_address": "7500 Jonlee Dr",
    "address_councildis": "E",
    "status": "Assigned to Contractor",
    "contractor": "Waste Pro",
    "rowid": "1150426",
    "final_x": "3717487.51224",
    "final_y": "569870.57783",
    "longitude": "-89.95297728110366",
    "latitude": "30.059803012119666",
    "geocoded_column": {
      "latitude": "30.059803012119666",
      "longitude": "-89.95297728110366"
    }
  },
  {
    "service_request": "2024-1150425",
    "request_type": "Roads and Streets",
    "request_reason": "Curb Damage",
    "date_created": "2024-11-21T14:33:08.000",
    "date_modified": "2024-11-21T14:33:08.000",
    "request_status": "Pending",
    "responsible_agency": "Department of Public Works",
    "final_address": "6382 Marshal Foch St",
    "address_councildis": "A",
    "status": "Pending",
    "rowid": "1150425",
    "final_x": "3669988.11252",
    "final_y": "549889.824212",
    "longitude": "-90.10379839376348",
    "latitude": "30.00635096582553",
    "geocoded_column": {
      "latitude": "30.00635096582553",
      "longitude": "-90.10379839376348"
    }
  },
  {
    "service_request": "2024-1150424",
    "request_type": "Trash/Recycling",
    "request_reason": "Repair Trash Cart",
    "date_created": "2024-11-21T14:30:27.000",
    "date_modified": "2024-11-21T14:30:28.000",
    "request_status": "Pending",
    "responsible_agency": "Department of Sanitation",
    "final_address": "4740 Pontchartrain Blvd",
    "address_councildis": "A",
    "status": "Assigned to Contractor",
    "contractor": "IV Waste",
    "rowid": "1150424",
    "final_x": "3667471.54644",
    "final_y": "538561.125193",
    "longitude": "-90.11213032466156",
    "latitude": "29.97527492480157",
    "geocoded_column": {
      "latitude": "29.97527492480157",
      "longitude": "-90.11213032466156"
    }
  },
  {
    "service_request": "2024-1150423",
    "request_type": "Trash/Recycling",
    "request_reason": "Return Trash Cart",
    "date_created": "2024-11-21T14:30:26.000",
    "date_modified": "2024-11-21T14:30:28.000",
    "request_status": "Pending",
    "responsible_agency": "Department of Sanitation",
    "final_address": "821 N Villere St",
    "address_councildis": "C",
    "status": "Assigned to Contractor",
    "contractor": "IV Waste",
    "rowid": "1150423",
    "final_x": "3680621.50664",
    "final_y": "534645.131078",
    "longitude": "-90.07073555043985",
    "latitude": "29.96411537459687",
    "geocoded_column": {
      "latitude": "29.96411537459687",
      "longitude": "-90.07073555043985"
    }
  },
  {
    "service_request": "2024-1150422",
    "request_type": "Traffic Safety",
    "request_reason": "Request for Traffic Calming due to Speeding",
    "date_created": "2024-11-21T14:23:37.000",
    "date_modified": "2024-11-21T14:23:37.000",
    "request_status": "Pending",
    "responsible_agency": "Department of Public Works",
    "final_address": "3300 BLK Clematis St",
    "address_councildis": "D",
    "status": "Pending",
    "rowid": "1150422",
    "final_x": "3686806.16244",
    "final_y": "545302.558461",
    "longitude": "-90.05082830095738",
    "latitude": "29.993230707101226",
    "geocoded_column": {
      "latitude": "29.993230707101226",
      "longitude": "-90.05082830095738"
    }
  },
  {
    "service_request": "2024-1150421",
    "request_type": "Trash/Recycling",
    "request_reason": "Request a Large Item Pick Up",
    "date_created": "2024-11-21T14:19:28.000",
    "date_modified": "2024-11-21T14:19:29.000",
    "request_status": "Pending",
    "responsible_agency": "Department of Sanitation",
    "final_address": "8071 Driftwood Dr",
    "address_councildis": "E",
    "status": "Assigned to Contractor",
    "contractor": "Waste Pro",
    "rowid": "1150421",
    "final_x": "3702552.04919",
    "final_y": "561977.888543",
    "longitude": "-90.00047730049396",
    "latitude": "30.038587506287616",
    "geocoded_column": {
      "latitude": "30.038587506287616",
      "longitude": "-90.00047730049396"
    }
  },
  {
    "service_request": "2024-1150420",
    "request_type": "Roads and Streets",
    "request_reason": "Pothole",
    "date_created": "2024-11-21T14:17:11.000",
    "date_modified": "2024-11-21T14:17:12.000",
    "request_status": "Pending",
    "responsible_agency": "Department of Public Works",
    "final_address": "1600 BLK Industry St",
    "address_councildis": "D",
    "status": "Pending",
    "rowid": "1150420",
    "final_x": "3680509.20194",
    "final_y": "542614.94835",
    "longitude": "-90.07081289054318",
    "latitude": "29.9860330172308",
    "geocoded_column": {
      "latitude": "29.9860330172308",
      "longitude": "-90.07081289054318"
    }
  },
  {
    "service_request": "2024-1150419",
    "request_type": "Property Maintenance",
    "request_reason": "Property Maintenance",
    "date_created": "2024-11-21T14:17:08.000",
    "date_modified": "2024-11-21T14:31:16.000",
    "case_close_date": "2024-11-21T08:31:16.000",
    "request_status": "Closed",
    "responsible_agency": "Department of Code Enforcement",
    "final_address": "4951 Sandalwood St",
    "address_councildis": "E",
    "status": "Referred to Code Enforcement",
    "rowid": "1150419",
    "final_x": "3712175.28491",
    "final_y": "557446.399067",
    "longitude": "-89.97023594070633",
    "latitude": "30.025816411582348",
    "geocoded_column": {
      "latitude": "30.025816411582348",
      "longitude": "-89.97023594070633"
    }
  },
  {
    "service_request": "2024-1150418",
    "request_type": "Trash/Recycling",
    "request_reason": "Order Trash Cart",
    "date_created": "2024-11-21T14:12:00.000",
    "date_modified": "2024-11-21T14:12:01.000",
    "request_status": "Pending",
    "responsible_agency": "Department of Sanitation",
    "final_address": "3416 First St",
    "address_councildis": "B",
    "status": "Assigned to Contractor",
    "contractor": "IV Waste",
    "rowid": "1150418",
    "final_x": "3673325.97985",
    "final_y": "528637.708736",
    "longitude": "-90.09397941982209",
    "latitude": "29.94781598707492",
    "geocoded_column": {
      "latitude": "29.94781598707492",
      "longitude": "-90.09397941982209"
    }
  },
  {
    "service_request": "2024-1150417",
    "request_type": "Trash/Recycling",
    "request_reason": "Request a Large Item Pick Up",
    "date_created": "2024-11-21T14:09:04.000",
    "date_modified": "2024-11-21T14:09:05.000",
    "request_status": "Pending",
    "responsible_agency": "Department of Sanitation",
    "final_address": "2120 Bodenger Blvd",
    "address_councildis": "C",
    "status": "Assigned to Contractor",
    "contractor": "Richards Disposal",
    "rowid": "1150417",
    "final_x": "3688478.12188",
    "final_y": "524154.672252",
    "longitude": "-90.04629721597702",
    "latitude": "29.935029826292403",
    "geocoded_column": {
      "latitude": "29.935029826292403",
      "longitude": "-90.04629721597702"
    }
  },
  {
    "service_request": "2024-1150416",
    "request_type": "Trash/Recycling",
    "request_reason": "Order Recycling Cart",
    "date_created": "2024-11-21T14:08:17.000",
    "date_modified": "2024-11-21T14:08:17.000",
    "request_status": "Pending",
    "responsible_agency": "Department of Sanitation",
    "final_address": "4617 S Saratoga St",
    "address_councildis": "B",
    "status": "Pending",
    "rowid": "1150416",
    "final_x": "3669735.50196",
    "final_y": "522603.037562",
    "longitude": "-90.105520185717",
    "latitude": "29.93132888806797",
    "geocoded_column": {
      "latitude": "29.93132888806797",
      "longitude": "-90.105520185717"
    }
  },
  {
    "service_request": "2024-1150415",
    "request_type": "Trash/Recycling",
    "request_reason": "Request a Large Item Pick Up",
    "date_created": "2024-11-21T14:02:29.000",
    "date_modified": "2024-11-21T14:02:30.000",
    "request_status": "Pending",
    "responsible_agency": "Department of Sanitation",
    "final_address": "2020 N Rampart St",
    "address_councildis": "C",
    "status": "Assigned to Contractor",
    "contractor": "IV Waste",
    "rowid": "1150415",
    "final_x": "3684456.37756",
    "final_y": "535845.494727",
    "longitude": "-90.0585832114291",
    "latitude": "29.967299212248832",
    "geocoded_column": {
      "latitude": "29.967299212248832",
      "longitude": "-90.0585832114291"
    }
  },
  {
    "service_request": "2024-1150414",
    "request_type": "Trash/Recycling",
    "request_reason": "Missed Trash Pick-Up",
    "date_created": "2024-11-21T14:01:35.000",
    "date_modified": "2024-11-21T15:50:56.000",
    "case_close_date": "2024-11-21T09:50:56.000",
    "request_status": "Closed",
    "responsible_agency": "Department of Sanitation",
    "final_address": "2635 Soniat St",
    "address_councildis": "B",
    "status": "Invalid Request",
    "contractor": "IV Waste",
    "contractor_action": "Invalid",
    "rowid": "1150414",
    "final_x": "3668635.81249",
    "final_y": "525251.861245",
    "longitude": "-90.10890242384461",
    "latitude": "29.93864465867663",
    "geocoded_column": {
      "latitude": "29.93864465867663",
      "longitude": "-90.10890242384461"
    }
  },
  {
    "service_request": "2024-1150413",
    "request_type": "Trash/Recycling",
    "request_reason": "Order Recycling Cart",
    "date_created": "2024-11-21T14:00:44.000",
    "date_modified": "2024-11-21T14:00:45.000",
    "request_status": "Pending",
    "responsible_agency": "Department of Sanitation",
    "final_address": "2830 Chippewa St",
    "address_councildis": "B",
    "status": "Pending",
    "rowid": "1150413",
    "final_x": "3677679.28398",
    "final_y": "519393.528183",
    "longitude": "-90.08055341974953",
    "latitude": "29.922267336553897",
    "geocoded_column": {
      "latitude": "29.922267336553897",
      "longitude": "-90.08055341974953"
    }
  },
  {
    "service_request": "2024-1150412",
    "request_type": "Roads and Streets",
    "request_reason": "Pothole",
    "date_created": "2024-11-21T14:00:27.000",
    "date_modified": "2024-11-21T15:25:09.000",
    "request_status": "Pending",
    "responsible_agency": "Department of Public Works",
    "final_address": "FRANKLIN AVE & I 610 W ONRAMP & FRANKLIN EXIT & I 10 E ONRAMP",
    "address_councildis": "D",
    "status": "Inspected",
    "rowid": "1150412",
    "final_x": "3687219.79",
    "final_y": "545203.27",
    "longitude": "-90.04952523721728",
    "latitude": "29.99294496319761",
    "geocoded_column": {
      "latitude": "29.99294496319761",
      "longitude": "-90.04952523721728"
    }
  },
  {
    "service_request": "2024-1150411",
    "request_type": "Trash/Recycling",
    "request_reason": "MIssed Recycling Pick-Up",
    "date_created": "2024-11-21T13:54:46.000",
    "date_modified": "2024-11-21T13:54:46.000",
    "request_status": "Closed",
    "responsible_agency": "Department of Sanitation",
    "final_address": "7835 Michigan St",
    "address_councildis": "E",
    "status": "Invalid Request",
    "rowid": "1150411",
    "final_x": "3711270.26168",
    "final_y": "567329.280996",
    "longitude": "-89.97272484704715",
    "latitude": "30.053019954498765",
    "geocoded_column": {
      "latitude": "30.053019954498765",
      "longitude": "-89.97272484704715"
    }
  },
  {
    "service_request": "2024-1150410",
    "request_type": "Trash/Recycling",
    "request_reason": "Request a Large Item Pick Up",
    "date_created": "2024-11-21T13:50:36.000",
    "date_modified": "2024-11-21T13:50:37.000",
    "request_status": "Pending",
    "responsible_agency": "Department of Sanitation",
    "final_address": "3300 Chestnut St",
    "address_councildis": "B",
    "status": "Assigned to Contractor",
    "contractor": "IV Waste",
    "rowid": "1150410",
    "final_x": "3675090.84219",
    "final_y": "520428.677432",
    "longitude": "-90.08868858341386",
    "latitude": "29.925191226170174",
    "geocoded_column": {
      "latitude": "29.925191226170174",
      "longitude": "-90.08868858341386"
    }
  },
  {
    "service_request": "2024-1150409",
    "request_type": "Streetlights",
    "request_reason": "Streetlight Outage/Malfunction",
    "date_created": "2024-11-21T13:47:12.000",
    "date_modified": "2024-11-21T13:47:13.000",
    "request_status": "Pending",
    "responsible_agency": "Department of Public Works",
    "final_address": "1001 Filmore Ave",
    "address_councildis": "A",
    "status": "Pending",
    "contractor": "Legacy Professional Services",
    "rowid": "1150409",
    "final_x": "3672342.2258",
    "final_y": "552210.189846",
    "longitude": "-90.09628200497066",
    "latitude": "30.012661483469188",
    "geocoded_column": {
      "latitude": "30.012661483469188",
      "longitude": "-90.09628200497066"
    }
  },
  {
    "service_request": "2024-1150408",
    "request_type": "Trash/Recycling",
    "request_reason": "Missed Trash Pick-Up",
    "date_created": "2024-11-21T13:46:55.000",
    "date_modified": "2024-11-21T13:46:56.000",
    "request_status": "Pending",
    "responsible_agency": "Department of Sanitation",
    "final_address": "4818 Marais St",
    "address_councildis": "E",
    "status": "Assigned to Contractor",
    "contractor": "Waste Pro",
    "rowid": "1150408",
    "final_x": "3695285.89251",
    "final_y": "534755.517126",
    "longitude": "-90.02442294728269",
    "latitude": "29.963966442017295",
    "geocoded_column": {
      "latitude": "29.963966442017295",
      "longitude": "-90.02442294728269"
    }
  },
  {
    "service_request": "2024-1150407",
    "request_type": "Property Maintenance",
    "request_reason": "Property Maintenance",
    "date_created": "2024-11-21T13:45:26.000",
    "date_modified": "2024-11-21T14:44:21.000",
    "case_close_date": "2024-11-21T08:44:21.000",
    "request_status": "Closed",
    "responsible_agency": "Department of Code Enforcement",
    "final_address": "3525 Gentilly Blvd",
    "address_councildis": "D",
    "status": "Referred to Code Enforcement",
    "rowid": "1150407",
    "final_x": "3685683.04342",
    "final_y": "548884.383699",
    "longitude": "-90.05424974012617",
    "latitude": "30.00311395526073",
    "geocoded_column": {
      "latitude": "30.00311395526073",
      "longitude": "-90.05424974012617"
    }
  },
  {
    "service_request": "2024-1150406",
    "request_type": "Trash/Recycling",
    "request_reason": "Request a Large Item Pick Up",
    "date_created": "2024-11-21T13:43:42.000",
    "date_modified": "2024-11-21T13:43:43.000",
    "request_status": "Pending",
    "responsible_agency": "Department of Sanitation",
    "final_address": "5803 Tall Timbers Dr",
    "address_councildis": "C",
    "status": "Assigned to Contractor",
    "contractor": "Richards Disposal",
    "rowid": "1150406",
    "final_x": "3705241.10103",
    "final_y": "513951.84453",
    "longitude": "-89.9937536061482",
    "latitude": "29.906447219720548",
    "geocoded_column": {
      "latitude": "29.906447219720548",
      "longitude": "-89.9937536061482"
    }
  },
  {
    "service_request": "2024-1150405",
    "request_type": "Trash/Recycling",
    "request_reason": "Request a Large Item Pick Up",
    "date_created": "2024-11-21T13:41:39.000",
    "date_modified": "2024-11-21T13:41:40.000",
    "request_status": "Pending",
    "responsible_agency": "Department of Sanitation",
    "final_address": "7070 Queensway Dr",
    "address_councildis": "E",
    "status": "Assigned to Contractor",
    "contractor": "Waste Pro",
    "rowid": "1150405",
    "final_x": "3719056.67621",
    "final_y": "569556.520102",
    "longitude": "-89.94802930670895",
    "latitude": "30.0588874143819",
    "geocoded_column": {
      "latitude": "30.0588874143819",
      "longitude": "-89.94802930670895"
    }
  },
  {
    "service_request": "2024-1150404",
    "request_type": "Trash/Recycling",
    "request_reason": "Dead Animal Pick Up",
    "date_created": "2024-11-21T13:38:58.000",
    "date_modified": "2024-11-21T13:38:59.000",
    "request_status": "Pending",
    "responsible_agency": "Department of Sanitation",
    "final_address": "1319 Poland Ave",
    "address_councildis": "D",
    "status": "Assigned to Contractor",
    "contractor": "IV Waste",
    "rowid": "1150404",
    "final_x": "3693326.28016",
    "final_y": "535881.466375",
    "longitude": "-90.030570769949",
    "latitude": "29.967123810324132",
    "geocoded_column": {
      "latitude": "29.967123810324132",
      "longitude": "-90.030570769949"
    }
  },
  {
    "service_request": "2024-1150403",
    "request_type": "Trash/Recycling",
    "request_reason": "Request a Large Item Pick Up",
    "date_created": "2024-11-21T13:36:20.000",
    "date_modified": "2024-11-21T13:36:22.000",
    "request_status": "Pending",
    "responsible_agency": "Department of Sanitation",
    "final_address": "5641 Chartres St",
    "address_councildis": "E",
    "status": "Assigned to Contractor",
    "contractor": "Waste Pro",
    "rowid": "1150403",
    "final_x": "3697834.09847",
    "final_y": "531886.588419",
    "longitude": "-90.01648011315024",
    "latitude": "29.95599762136879",
    "geocoded_column": {
      "latitude": "29.95599762136879",
      "longitude": "-90.01648011315024"
    }
  },
  {
    "service_request": "2024-1150402",
    "request_type": "Property Maintenance",
    "request_reason": "Property Maintenance",
    "date_created": "2024-11-21T13:34:21.000",
    "date_modified": "2024-11-21T14:49:23.000",
    "case_close_date": "2024-11-21T08:49:23.000",
    "request_status": "Closed",
    "responsible_agency": "Department of Code Enforcement",
    "final_address": "2313 Agriculture St",
    "address_councildis": "D",
    "status": "Referred to Code Enforcement",
    "rowid": "1150402",
    "final_x": "3685321.86703",
    "final_y": "543414.551502",
    "longitude": "-90.0555834401714",
    "latitude": "29.988084957791244",
    "geocoded_column": {
      "latitude": "29.988084957791244",
      "longitude": "-90.0555834401714"
    }
  },
  {
    "service_request": "2024-1150401",
    "request_type": "Abandoned Vehicles",
    "request_reason": "Abandoned/Junk Vehicles",
    "date_created": "2024-11-21T13:33:29.000",
    "date_modified": "2024-11-21T14:28:30.000",
    "request_status": "Pending",
    "responsible_agency": "Department of Public Works",
    "final_address": "200 BLK N Tonti St",
    "address_councildis": "B",
    "status": "Inspected",
    "rowid": "1150401",
    "final_x": "3676782.45906",
    "final_y": "534772.929586",
    "longitude": "-90.0828545319661",
    "latitude": "29.964582535814607",
    "geocoded_column": {
      "latitude": "29.964582535814607",
      "longitude": "-90.0828545319661"
    }
  },
  {
    "service_request": "2024-1150400",
    "request_type": "Trash/Recycling",
    "request_reason": "Repair Trash Cart",
    "date_created": "2024-11-21T13:29:01.000",
    "date_modified": "2024-11-21T13:29:02.000",
    "request_status": "Pending",
    "responsible_agency": "Department of Sanitation",
    "final_address": "1310 Frankfort St",
    "address_councildis": "D",
    "status": "Assigned to Contractor",
    "contractor": "IV Waste",
    "rowid": "1150400",
    "final_x": "3677224.54446",
    "final_y": "555738.027353",
    "longitude": "-90.08073471041706",
    "latitude": "30.022215927533274",
    "geocoded_column": {
      "latitude": "30.022215927533274",
      "longitude": "-90.08073471041706"
    }
  },
  {
    "service_request": "2024-1150399",
    "request_type": "Trash/Recycling",
    "request_reason": "Repair Trash Cart",
    "date_created": "2024-11-21T13:27:46.000",
    "date_modified": "2024-11-21T13:27:47.000",
    "request_status": "Pending",
    "responsible_agency": "Department of Sanitation",
    "final_address": "4020 Baronne St",
    "address_councildis": "B",
    "status": "Assigned to Contractor",
    "contractor": "IV Waste",
    "rowid": "1150399",
    "final_x": "3672093.53108",
    "final_y": "521676.629305",
    "longitude": "-90.09810769262025",
    "latitude": "29.928711876278946",
    "geocoded_column": {
      "latitude": "29.928711876278946",
      "longitude": "-90.09810769262025"
    }
  },
  {
    "service_request": "2024-1150398",
    "request_type": "Trash/Recycling",
    "request_reason": "Request a Large Item Pick Up",
    "date_created": "2024-11-21T13:25:54.000",
    "date_modified": "2024-11-21T13:25:55.000",
    "request_status": "Pending",
    "responsible_agency": "Department of Sanitation",
    "final_address": "4500 Stephen Girard Ave",
    "address_councildis": "D",
    "status": "Assigned to Contractor",
    "contractor": "IV Waste",
    "rowid": "1150398",
    "final_x": "3690892.97065",
    "final_y": "550200.693012",
    "longitude": "-90.03774385291085",
    "latitude": "30.006572381488997",
    "geocoded_column": {
      "latitude": "30.006572381488997",
      "longitude": "-90.03774385291085"
    }
  },
  {
    "service_request": "2024-1150397",
    "request_type": "Trash/Recycling",
    "request_reason": "Request a Large Item Pick Up",
    "date_created": "2024-11-21T13:25:33.000",
    "date_modified": "2024-11-21T13:25:34.000",
    "request_status": "Pending",
    "responsible_agency": "Department of Sanitation",
    "final_address": "7994 Edgelake Ct",
    "address_councildis": "E",
    "status": "Assigned to Contractor",
    "contractor": "Waste Pro",
    "rowid": "1150397",
    "final_x": "3702475.71607",
    "final_y": "562084.565663",
    "longitude": "-90.00071461129033",
    "latitude": "30.03888326776987",
    "geocoded_column": {
      "latitude": "30.03888326776987",
      "longitude": "-90.00071461129033"
    }
  },
  {
    "service_request": "2024-1150396",
    "request_type": "Trash/Recycling",
    "request_reason": "Order Trash Cart",
    "date_created": "2024-11-21T13:23:44.000",
    "date_modified": "2024-11-21T13:23:45.000",
    "request_status": "Pending",
    "responsible_agency": "Department of Sanitation",
    "final_address": "1462 N Miro St",
    "address_councildis": "D",
    "status": "Assigned to Contractor",
    "contractor": "IV Waste",
    "rowid": "1150396",
    "final_x": "3679948.63528",
    "final_y": "538276.591945",
    "longitude": "-90.07273425526304",
    "latitude": "29.974121015829905",
    "geocoded_column": {
      "latitude": "29.974121015829905",
      "longitude": "-90.07273425526304"
    }
  },
  {
    "service_request": "2024-1150395",
    "request_type": "Trash/Recycling",
    "request_reason": "Illegal Dumping",
    "date_created": "2024-11-21T13:22:19.000",
    "date_modified": "2024-11-21T13:22:20.000",
    "request_status": "Pending",
    "responsible_agency": "Department of Sanitation",
    "final_address": "7662 Stonewood St",
    "address_councildis": "E",
    "status": "Pending",
    "rowid": "1150395",
    "final_x": "3719267.31935",
    "final_y": "572461.586473",
    "longitude": "-89.94725241133196",
    "latitude": "30.066868127898953",
    "geocoded_column": {
      "latitude": "30.066868127898953",
      "longitude": "-89.94725241133196"
    }
  },
  {
    "service_request": "2024-1150394",
    "request_type": "Streetlights",
    "request_reason": "Streetlight Outage/Malfunction",
    "date_created": "2024-11-21T13:21:42.000",
    "date_modified": "2024-11-21T13:21:43.000",
    "request_status": "Pending",
    "responsible_agency": "Department of Public Works",
    "final_address": "106 Westchester St",
    "address_councildis": "C",
    "status": "Pending",
    "contractor": "Legacy Professional Services",
    "rowid": "1150394",
    "final_x": "3706180.39204",
    "final_y": "521379.590457",
    "longitude": "-89.99051442038949",
    "latitude": "29.92684072246448",
    "geocoded_column": {
      "latitude": "29.92684072246448",
      "longitude": "-89.99051442038949"
    }
  },
  {
    "service_request": "2024-1150393",
    "request_type": "Drainage",
    "request_reason": "Catch Basin Clogged",
    "date_created": "2024-11-21T13:20:01.000",
    "date_modified": "2024-11-21T13:20:01.000",
    "request_status": "Pending",
    "responsible_agency": "Department of Public Works",
    "final_address": "2611 Lapeyrouse St",
    "address_councildis": "D",
    "status": "Pending",
    "rowid": "1150393",
    "final_x": "3679013.6715",
    "final_y": "540257.884427",
    "longitude": "-90.07561840228577",
    "latitude": "29.97959713573465",
    "geocoded_column": {
      "latitude": "29.97959713573465",
      "longitude": "-90.07561840228577"
    }
  },
  {
    "service_request": "2024-1150392",
    "request_type": "Trash/Recycling",
    "request_reason": "Replace Trash Cart",
    "date_created": "2024-11-21T13:19:56.000",
    "date_modified": "2024-11-21T13:19:57.000",
    "request_status": "Pending",
    "responsible_agency": "Department of Sanitation",
    "final_address": "5349 Prytania St",
    "address_councildis": "B",
    "status": "Assigned to Contractor",
    "contractor": "IV Waste",
    "rowid": "1150392",
    "final_x": "3667274.40282",
    "final_y": "520343.2622",
    "longitude": "-90.11336555021656",
    "latitude": "29.925187506831538",
    "geocoded_column": {
      "latitude": "29.925187506831538",
      "longitude": "-90.11336555021656"
    }
  },
  {
    "service_request": "2024-1150391",
    "request_type": "Trash/Recycling",
    "request_reason": "Illegal Dumping",
    "date_created": "2024-11-21T13:19:33.000",
    "date_modified": "2024-11-21T13:20:29.000",
    "request_status": "Pending",
    "responsible_agency": "Department of Sanitation",
    "final_address": "7711 Shubert St",
    "address_councildis": "E",
    "status": "Pending",
    "rowid": "1150391",
    "final_x": "3695720.15978",
    "final_y": "559110.561692",
    "longitude": "-90.02217150312694",
    "latitude": "30.030920200355226",
    "geocoded_column": {
      "latitude": "30.030920200355226",
      "longitude": "-90.02217150312694"
    }
  },
  {
    "service_request": "2024-1150390",
    "request_type": "Trash/Recycling",
    "request_reason": "Request a Large Item Pick Up",
    "date_created": "2024-11-21T13:18:55.000",
    "date_modified": "2024-11-21T13:18:56.000",
    "request_status": "Pending",
    "responsible_agency": "Department of Sanitation",
    "final_address": "BANKS ST & S GENOIS ST",
    "address_councildis": "B",
    "status": "Assigned to Contractor",
    "contractor": "IV Waste",
    "rowid": "1150390",
    "final_x": "3671851.9",
    "final_y": "536220.48",
    "longitude": "-90.09837564614311",
    "latitude": "29.968709846980264",
    "geocoded_column": {
      "latitude": "29.968709846980264",
      "longitude": "-90.09837564614311"
    }
  },
  {
    "service_request": "2024-1150389",
    "request_type": "Trash/Recycling",
    "request_reason": "Request a Large Item Pick Up",
    "date_created": "2024-11-21T13:18:50.000",
    "date_modified": "2024-11-21T13:18:52.000",
    "request_status": "Pending",
    "responsible_agency": "Department of Sanitation",
    "final_address": "5657 Tullis Dr",
    "address_councildis": "C",
    "status": "Assigned to Contractor",
    "contractor": "Richards Disposal",
    "rowid": "1150389",
    "final_x": "3705053.76791",
    "final_y": "512396.068145",
    "longitude": "-89.99440221719749",
    "latitude": "29.90217538558939",
    "geocoded_column": {
      "latitude": "29.90217538558939",
      "longitude": "-89.99440221719749"
    }
  },
  {
    "service_request": "2024-1150388",
    "request_type": "Trash/Recycling",
    "request_reason": "Order Trash Cart",
    "date_created": "2024-11-21T13:17:51.000",
    "date_modified": "2024-11-21T13:17:52.000",
    "request_status": "Pending",
    "responsible_agency": "Department of Sanitation",
    "final_address": "5657 Tullis Dr",
    "address_councildis": "C",
    "status": "Assigned to Contractor",
    "contractor": "Richards Disposal",
    "rowid": "1150388",
    "final_x": "3705053.76791",
    "final_y": "512396.068145",
    "longitude": "-89.99440221719749",
    "latitude": "29.90217538558939",
    "geocoded_column": {
      "latitude": "29.90217538558939",
      "longitude": "-89.99440221719749"
    }
  },
  {
    "service_request": "2024-1150387",
    "request_type": "Trash/Recycling",
    "request_reason": "Request a Large Item Pick Up",
    "date_created": "2024-11-21T13:15:58.000",
    "date_modified": "2024-11-21T13:15:59.000",
    "request_status": "Pending",
    "responsible_agency": "Department of Sanitation",
    "final_address": "1617 S Saratoga St",
    "address_councildis": "B",
    "status": "Assigned to Contractor",
    "contractor": "IV Waste",
    "rowid": "1150387",
    "final_x": "3677277.06427",
    "final_y": "526198.047358",
    "longitude": "-90.08158841993192",
    "latitude": "29.940989627214403",
    "geocoded_column": {
      "latitude": "29.940989627214403",
      "longitude": "-90.08158841993192"
    }
  },
  {
    "service_request": "2024-1150386",
    "request_type": "Trash/Recycling",
    "request_reason": "Request a Large Item Pick Up",
    "date_created": "2024-11-21T13:13:19.000",
    "date_modified": "2024-11-21T13:13:21.000",
    "request_status": "Pending",
    "responsible_agency": "Department of Sanitation",
    "final_address": "311 River Oaks Dr",
    "address_councildis": "C",
    "status": "Assigned to Contractor",
    "contractor": "Richards Disposal",
    "rowid": "1150386",
    "final_x": "3701464.55997",
    "final_y": "522521.825338",
    "longitude": "-90.00535915378222",
    "latitude": "29.930132591468183",
    "geocoded_column": {
      "latitude": "29.930132591468183",
      "longitude": "-90.00535915378222"
    }
  },
  {
    "service_request": "2024-1150385",
    "request_type": "Parks & Parkways",
    "request_reason": "Request Tree Service (Right of Way/Public Property)",
    "date_created": "2024-11-21T13:11:45.000",
    "date_modified": "2024-11-21T13:11:46.000",
    "request_status": "Pending",
    "responsible_agency": "Department of Parks & Parkway",
    "final_address": "8413 Edinburgh St",
    "address_councildis": "A",
    "status": "Pending",
    "rowid": "1150385",
    "final_x": "3666640.59623",
    "final_y": "535255.87463",
    "longitude": "-90.11486570143087",
    "latitude": "29.966210910688826",
    "geocoded_column": {
      "latitude": "29.966210910688826",
      "longitude": "-90.11486570143087"
    }
  },
  {
    "service_request": "2024-1150384",
    "request_type": "Property Maintenance",
    "request_reason": "Property Maintenance",
    "date_created": "2024-11-21T13:03:36.000",
    "date_modified": "2024-11-21T15:26:50.000",
    "case_close_date": "2024-11-21T09:26:50.000",
    "request_status": "Closed",
    "responsible_agency": "Department of Code Enforcement",
    "final_address": "6231 London Ave",
    "address_councildis": "D",
    "status": "Referred to Code Enforcement",
    "rowid": "1150384",
    "final_x": "3680615.83439",
    "final_y": "555791.069465",
    "longitude": "-90.07001723057476",
    "latitude": "30.022259401863025",
    "geocoded_column": {
      "latitude": "30.022259401863025",
      "longitude": "-90.07001723057476"
    }
  },
  {
    "service_request": "2024-1150383",
    "request_type": "Trash/Recycling",
    "request_reason": "Order Second Trash Cart",
    "date_created": "2024-11-21T13:02:34.000",
    "date_modified": "2024-11-21T13:02:35.000",
    "request_status": "Pending",
    "responsible_agency": "Department of Sanitation",
    "final_address": "4801 Sierra Madre Dr",
    "address_councildis": "E",
    "status": "Assigned to Contractor",
    "contractor": "Waste Pro",
    "rowid": "1150383",
    "final_x": "3713958.19519",
    "final_y": "556561.809754",
    "longitude": "-89.96463563225764",
    "latitude": "30.02332570222577",
    "geocoded_column": {
      "latitude": "30.02332570222577",
      "longitude": "-89.96463563225764"
    }
  },
  {
    "service_request": "2024-1150382",
    "request_type": "Trash/Recycling",
    "request_reason": "Request a Large Item Pick Up",
    "date_created": "2024-11-21T13:01:37.000",
    "date_modified": "2024-11-21T13:01:38.000",
    "request_status": "Pending",
    "responsible_agency": "Department of Sanitation",
    "final_address": "4801 Sierra Madre Dr",
    "address_councildis": "E",
    "status": "Assigned to Contractor",
    "contractor": "Waste Pro",
    "rowid": "1150382",
    "final_x": "3713958.19519",
    "final_y": "556561.809754",
    "longitude": "-89.96463563225764",
    "latitude": "30.02332570222577",
    "geocoded_column": {
      "latitude": "30.02332570222577",
      "longitude": "-89.96463563225764"
    }
  },
  {
    "service_request": "2024-1150381",
    "request_type": "Roads and Streets",
    "request_reason": "Abandoned Service Cut",
    "date_created": "2024-11-21T13:01:15.000",
    "date_modified": "2024-11-21T13:01:15.000",
    "request_status": "Pending",
    "responsible_agency": "Department of Public Works",
    "final_address": "1100 BLK Constantinople St",
    "address_councildis": "B",
    "status": "Pending",
    "rowid": "1150381",
    "final_x": "3672431.76698",
    "final_y": "519818.358445",
    "longitude": "-90.09710323917102",
    "latitude": "29.92359219713162",
    "geocoded_column": {
      "latitude": "29.92359219713162",
      "longitude": "-90.09710323917102"
    }
  },
  {
    "service_request": "2024-1150380",
    "request_type": "Roads and Streets",
    "request_reason": "Abandoned Service Cut",
    "date_created": "2024-11-21T13:01:03.000",
    "date_modified": "2024-11-21T13:01:03.000",
    "request_status": "Pending",
    "responsible_agency": "Department of Public Works",
    "final_address": "1200 BLK Marengo St",
    "address_councildis": "B",
    "status": "Pending",
    "rowid": "1150380",
    "final_x": "3672045.77267",
    "final_y": "520055.143076",
    "longitude": "-90.09831362715201",
    "latitude": "29.92425472439794",
    "geocoded_column": {
      "latitude": "29.92425472439794",
      "longitude": "-90.09831362715201"
    }
  },