[
  {
    "service_request": "2023-1029304",
    "request_type": "Traffic Signals/Signs/Striping/Streetlights",
    "request_reason": "Street Light Outage/Malfunction",
    "date_created": "2023-08-25T01:21:13.000",
    "date_modified": "2023-08-25T01:21:14.000",
    "request_status": "Pending",
    "responsible_agency": "Department of Public Works",
    "final_address": "2352 Camp St",
    "address_councildis": "B",
    "status": "Assigned to Contractor",
    "contractor": "Legacy Professional Services",
    "rowid": "1029304",
    "final_x": "3677985.64846",
    "final_y": "521852.447226",
    "longitude": "-90.07950141949946",
    "latitude": "29.92901935076882",
    "geocoded_column": {
      "latitude": "29.92901935076882",
      "longitude": "-90.07950141949946"
    }
  },
  {
    "service_request": "2023-1029303",
    "request_type": "Roads/Drainage",
    "request_reason": "Pothole",
    "date_created": "2023-08-24T23:50:15.000",
    "date_modified": "2023-08-24T23:50:15.000",
    "request_status": "Pending",
    "responsible_agency": "Department of Public Works",
    "final_address": "1576 Henry Clay Ave",
    "address_councildis": "A",
    "status": "Pending",
    "rowid": "1029303",
    "final_x": "3664947.16416",
    "final_y": "522750.836474",
    "longitude": "-90.12063149759432",
    "latitude": "29.931875502670692",
    "geocoded_column": {
      "latitude": "29.931875502670692",
      "longitude": "-90.12063149759432"
    }
  },
  {
    "service_request": "2023-1029302",
    "request_type": "Trash/Recycling",
    "request_reason": "Replace Trash Cart",
    "date_created": "2023-08-24T23:04:05.000",
    "date_modified": "2023-08-24T23:04:05.000",
    "request_status": "Pending",
    "responsible_agency": "Department of Sanitation",
    "final_address": "15 Cromwell Pl",
    "address_councildis": "A",
    "status": "Assigned to Contractor",
    "contractor": "Richards Disposal",
    "rowid": "1029302",
    "final_x": "3665514.25434",
    "final_y": "524077.880124",
    "longitude": "-90.11879684244583",
    "latitude": "29.93550793574733",
    "geocoded_column": {
      "latitude": "29.93550793574733",
      "longitude": "-90.11879684244583"
    }
  },
  {
    "service_request": "2023-1029301",
    "request_type": "Trash/Recycling",
    "request_reason": "Request a Large Item Pick Up",
    "date_created": "2023-08-24T23:03:14.000",
    "date_modified": "2023-08-24T23:03:15.000",
    "request_status": "Pending",
    "responsible_agency": "Department of Sanitation",
    "final_address": "936 St Maurice Ave",
    "address_councildis": "E",
    "status": "Assigned to Contractor",
    "contractor": "Waste Pro",
    "rowid": "1029301",
    "final_x": "3699595.99172",
    "final_y": "532707.766212",
    "longitude": "-90.01088676951927",
    "latitude": "29.958199774605337",
    "geocoded_column": {
      "latitude": "29.958199774605337",
      "longitude": "-90.01088676951927"
    }
  },
  {
    "service_request": "2023-1029300",
    "request_type": "Traffic Signals/Signs/Striping/Streetlights",
    "request_reason": "Street Light Outage/Malfunction",
    "date_created": "2023-08-24T22:38:07.000",
    "date_modified": "2023-08-24T22:38:08.000",
    "request_status": "Pending",
    "responsible_agency": "Department of Public Works",
    "final_address": "6349 Milne Blvd",
    "address_councildis": "A",
    "status": "Assigned to Contractor",
    "contractor": "Legacy Professional Services",
    "rowid": "1029300",
    "final_x": "3667393.5065",
    "final_y": "549956.024852",
    "longitude": "-90.1119932020746",
    "latitude": "30.00660929281324",
    "geocoded_column": {
      "latitude": "30.00660929281324",
      "longitude": "-90.1119932020746"
    }
  },
  {
    "service_request": "2023-1029299",
    "request_type": "Roads/Drainage",
    "request_reason": "Pothole",
    "date_created": "2023-08-24T22:26:06.000",
    "date_modified": "2023-08-24T22:26:06.000",
    "request_status": "Pending",
    "responsible_agency": "Department of Public Works",
    "final_address": "4200 BLK Perrier St",
    "address_councildis": "B",
    "status": "Pending",
    "rowid": "1029299",
    "final_x": "3671500.64253",
    "final_y": "520125.882108",
    "longitude": "-90.1000320136845",
    "latitude": "29.924465378806524",
    "geocoded_column": {
      "latitude": "29.924465378806524",
      "longitude": "-90.1000320136845"
    }
  },
  {
    "service_request": "2023-1029298",
    "request_type": "Trash/Recycling",
    "request_reason": "Illegal Dumping",
    "date_created": "2023-08-24T22:13:52.000",
    "date_modified": "2023-08-24T22:13:52.000",
    "request_status": "Pending",
    "responsible_agency": "Department of Sanitation",
    "final_address": "LAKE FOREST BLVD & PARC BRITTANY BLVD & RICKERT DR",
    "address_councildis": "E",
    "status": "Pending",
    "rowid": "1029298",
    "final_x": "3703033.4",
    "final_y": "556702.18",
    "longitude": "-89.9991502438828",
    "latitude": "30.02406595627854",
    "geocoded_column": {
      "latitude": "30.02406595627854",
      "longitude": "-89.9991502438828"
    }
  },
  {
    "service_request": "2023-1029297",
    "request_type": "Roads/Drainage",
    "request_reason": "Road Shoulder Repair",
    "date_created": "2023-08-24T22:13:28.000",
    "date_modified": "2023-08-24T22:13:28.000",
    "request_status": "Pending",
    "responsible_agency": "Department of Public Works",
    "final_address": "3600 BLK Coliseum St",
    "address_councildis": "B",
    "status": "Pending",
    "rowid": "1029297",
    "final_x": "3673679.77859",
    "final_y": "520234.645014",
    "longitude": "-90.09314949821882",
    "latitude": "29.924699769259288",
    "geocoded_column": {
      "latitude": "29.924699769259288",
      "longitude": "-90.09314949821882"
    }
  },
  {
    "service_request": "2023-1029296",
    "request_type": "Safety & Permits",
    "request_reason": "Safety & Permits Request (Cyber Incident Back Up)",
    "date_created": "2023-08-24T22:01:51.000",
    "date_modified": "2023-08-24T22:01:51.000",
    "request_status": "Pending",
    "responsible_agency": "Safety and Permits",
    "final_address": "1625 Milton St",
    "address_councildis": "D",
    "status": "Pending",
    "rowid": "1029296",
    "final_x": "3679877.70607",
    "final_y": "546312.946704",
    "longitude": "-90.07267902787703",
    "latitude": "29.99622032826536",
    "geocoded_column": {
      "latitude": "29.99622032826536",
      "longitude": "-90.07267902787703"
    }
  },
  {
    "service_request": "2023-1029295",
    "request_type": "Trash/Recycling",
    "request_reason": "Replace Trash Cart",
    "date_created": "2023-08-24T21:47:43.000",
    "date_modified": "2023-08-24T21:47:44.000",
    "request_status": "Pending",
    "responsible_agency": "Department of Sanitation",
    "final_address": "2316 Allen St",
    "address_councildis": "D",
    "status": "Assigned to Contractor",
    "contractor": "IV Waste",
    "rowid": "1029295",
    "final_x": "3682366.33212",
    "final_y": "540709.592011",
    "longitude": "-90.06501356844204",
    "latitude": "29.98073756056614",
    "geocoded_column": {
      "latitude": "29.98073756056614",
      "longitude": "-90.06501356844204"
    }
  },
  {
    "service_request": "2023-1029293",
    "request_type": "Trash/Recycling",
    "request_reason": "Request a Large Item Pick Up",
    "date_created": "2023-08-24T21:34:36.000",
    "date_modified": "2023-08-24T21:34:37.000",
    "request_status": "Pending",
    "responsible_agency": "Department of Sanitation",
    "final_address": "4521 Walmsley Ave",
    "address_councildis": "B",
    "status": "Assigned to Contractor",
    "contractor": "Richards Disposal",
    "rowid": "1029293",
    "final_x": "3669190.45799",
    "final_y": "530367.307266",
    "longitude": "-90.10697849521809",
    "latitude": "29.952694162979927",
    "geocoded_column": {
      "latitude": "29.952694162979927",
      "longitude": "-90.10697849521809"
    }
  },
  {
    "service_request": "2023-1029292",
    "request_type": "Trash/Recycling",
    "request_reason": "Replace Trash Cart",
    "date_created": "2023-08-24T21:14:42.000",
    "date_modified": "2023-08-24T21:14:42.000",
    "request_status": "Pending",
    "responsible_agency": "Department of Sanitation",
    "final_address": "920 Spain St",
    "address_councildis": "C",
    "status": "Assigned to Contractor",
    "contractor": "IV Waste",
    "rowid": "1029292",
    "final_x": "3686140.10678",
    "final_y": "535868.175687",
    "longitude": "-90.05326518303428",
    "latitude": "29.967309964323483",
    "geocoded_column": {
      "latitude": "29.967309964323483",
      "longitude": "-90.05326518303428"
    }
  },
  {
    "service_request": "2023-1029291",
    "request_type": "Traffic Signals/Signs/Striping/Streetlights",
    "request_reason": "Traffic Signal Malfunctioning/Damaged",
    "date_created": "2023-08-24T21:09:07.000",
    "date_modified": "2023-08-24T21:09:08.000",
    "request_status": "Pending",
    "responsible_agency": "Department of Public Works",
    "final_address": "1300 BLK Allen Toussaint Blvd",
    "address_councildis": "D",
    "status": "Pending",
    "rowid": "1029291",
    "final_x": "3677255.30753",
    "final_y": "555198.840833",
    "longitude": "-90.08065613214308",
    "latitude": "30.020732435426876",
    "geocoded_column": {
      "latitude": "30.020732435426876",
      "longitude": "-90.08065613214308"
    }
  },
  {
    "service_request": "2023-1029290",
    "request_type": "Trash/Recycling",
    "request_reason": "Request a Large Item Pick Up",
    "date_created": "2023-08-24T21:06:31.000",
    "date_modified": "2023-08-24T21:06:32.000",
    "request_status": "Pending",
    "responsible_agency": "Department of Sanitation",
    "final_address": "704 Pauline St",
    "address_councildis": "C",
    "status": "Assigned to Contractor",
    "contractor": "IV Waste",
    "rowid": "1029290",
    "final_x": "3690817.94806",
    "final_y": "534022.383557",
    "longitude": "-90.03855841520645",
    "latitude": "29.96209016174038",
    "geocoded_column": {
      "latitude": "29.96209016174038",
      "longitude": "-90.03855841520645"
    }
  },
  {
    "service_request": "2023-1029289",
    "request_type": "Trash/Recycling",
    "request_reason": "Missed Trash Pick-Up",
    "date_created": "2023-08-24T20:57:03.000",
    "date_modified": "2023-08-24T20:57:04.000",
    "request_status": "Pending",
    "responsible_agency": "Department of Sanitation",
    "final_address": "1800 BLK Camp St",
    "address_councildis": "B",
    "status": "Assigned to Contractor",
    "contractor": "Richards Disposal",
    "rowid": "1029289",
    "final_x": "3679565.52863",
    "final_y": "523255.730835",
    "longitude": "-90.07446538197823",
    "latitude": "29.932830289712047",
    "geocoded_column": {
      "latitude": "29.932830289712047",
      "longitude": "-90.07446538197823"
    }
  },
  {
    "service_request": "2023-1029288",
    "request_type": "Property Maintenance",
    "request_reason": "Property Maintenance",
    "date_created": "2023-08-24T20:49:36.000",
    "date_modified": "2023-08-24T20:49:36.000",
    "request_status": "Pending",
    "responsible_agency": "Department of Code Enforcement",
    "final_address": "8075 Edgelake Ct",
    "address_councildis": "E",
    "status": "Pending",
    "rowid": "1029288",
    "final_x": "3702190.6314",
    "final_y": "562733.23024",
    "longitude": "-90.00159172695909",
    "latitude": "30.04067595439996",
    "geocoded_column": {
      "latitude": "30.04067595439996",
      "longitude": "-90.00159172695909"
    }
  },
  {
    "service_request": "2023-1029287",
    "request_type": "Traffic Signals/Signs/Striping/Streetlights",
    "request_reason": "Street Light Outage/Malfunction",
    "date_created": "2023-08-24T20:24:53.000",
    "date_modified": "2023-08-24T20:24:54.000",
    "request_status": "Pending",
    "responsible_agency": "Department of Public Works",
    "final_address": "11267 Winrock Dr",
    "address_councildis": "E",
    "status": "Assigned to Contractor",
    "contractor": "Legacy Professional Services",
    "rowid": "1029287",
    "final_x": "3716457.86412",
    "final_y": "561591.575775",
    "longitude": "-89.95654634103076",
    "latitude": "30.037073207599136",
    "geocoded_column": {
      "latitude": "30.037073207599136",
      "longitude": "-89.95654634103076"
    }
  },
  {
    "service_request": "2023-1029286",
    "request_type": "Trash/Recycling",
    "request_reason": "MIssed Recycling Pick-Up",
    "date_created": "2023-08-24T20:15:33.000",
    "date_modified": "2023-08-24T20:15:34.000",
    "request_status": "Pending",
    "responsible_agency": "Department of Sanitation",
    "final_address": "1525 Dufossat St",
    "address_councildis": "B",
    "status": "Assigned to Contractor",
    "contractor": "Richards Disposal",
    "rowid": "1029286",
    "final_x": "3668161.69364",
    "final_y": "520678.110521",
    "longitude": "-90.11055336688219",
    "latitude": "29.926082227758133",
    "geocoded_column": {
      "latitude": "29.926082227758133",
      "longitude": "-90.11055336688219"
    }
  },
  {
    "service_request": "2023-1029285",
    "request_type": "Traffic Signals/Signs/Striping/Streetlights",
    "request_reason": "Street Light Outage/Malfunction",
    "date_created": "2023-08-24T20:01:33.000",
    "date_modified": "2023-08-24T20:01:34.000",
    "request_status": "Pending",
    "responsible_agency": "Department of Public Works",
    "final_address": "2422 Mercedes Blvd",
    "address_councildis": "C",
    "status": "Assigned to Contractor",
    "contractor": "Legacy Professional Services",
    "rowid": "1029285",
    "final_x": "3698135.54595",
    "final_y": "522168.368826",
    "longitude": "-90.0158810779673",
    "latitude": "29.929266374514686",
    "geocoded_column": {
      "latitude": "29.929266374514686",
      "longitude": "-90.0158810779673"
    }
  },
  {
    "service_request": "2023-1029284",
    "request_type": "Roads/Drainage",
    "request_reason": "Pothole",
    "date_created": "2023-08-24T19:56:42.000",
    "date_modified": "2023-08-24T19:56:43.000",
    "request_status": "Pending",
    "responsible_agency": "Department of Public Works",
    "final_address": "1500 BLK Poydras St",
    "address_councildis": "B",
    "status": "Pending",
    "rowid": "1029284",
    "final_x": "3677756.93612",
    "final_y": "530316.428",
    "longitude": "-90.07993114665211",
    "latitude": "29.95229938102927",
    "geocoded_column": {
      "latitude": "29.95229938102927",
      "longitude": "-90.07993114665211"
    }
  },
  {
    "service_request": "2023-1029283",
    "request_type": "Trash/Recycling",
    "request_reason": "Order Recycling Cart",
    "date_created": "2023-08-24T19:51:33.000",
    "date_modified": "2023-08-24T19:51:33.000",
    "request_status": "Pending",
    "responsible_agency": "Department of Sanitation",
    "final_address": "6217 Wales St",
    "address_councildis": "E",
    "status": "Pending",
    "rowid": "1029283",
    "final_x": "3695806.12643",
    "final_y": "559734.291869",
    "longitude": "-90.0218772886507",
    "latitude": "30.03263251438896",
    "geocoded_column": {
      "latitude": "30.03263251438896",
      "longitude": "-90.0218772886507"
    }
  },
  {
    "service_request": "2023-1029282",
    "request_type": "Trash/Recycling",
    "request_reason": "Order Recycling Cart",
    "date_created": "2023-08-24T19:51:10.000",
    "date_modified": "2023-08-24T19:51:11.000",
    "request_status": "Pending",
    "responsible_agency": "Department of Sanitation",
    "final_address": "6209 Wales St",
    "address_councildis": "E",
    "status": "Pending",
    "rowid": "1029282",
    "final_x": "3695771.02806",
    "final_y": "559708.391325",
    "longitude": "-90.02198913852409",
    "latitude": "30.032562402336307",
    "geocoded_column": {
      "latitude": "30.032562402336307",
      "longitude": "-90.02198913852409"
    }
  },
  {
    "service_request": "2023-1029281",
    "request_type": "Trash/Recycling",
    "request_reason": "Missed Trash Pick-Up",
    "date_created": "2023-08-24T19:50:30.000",
    "date_modified": "2023-08-24T19:50:31.000",
    "request_status": "Pending",
    "responsible_agency": "Department of Sanitation",
    "final_address": "719 Jourdan Ave",
    "address_councildis": "E",
    "status": "Assigned to Contractor",
    "contractor": "Waste Pro",
    "rowid": "1029281",
    "final_x": "3694713.78934",
    "final_y": "533179.614852",
    "longitude": "-90.02628635468632",
    "latitude": "29.959651223878378",
    "geocoded_column": {
      "latitude": "29.959651223878378",
      "longitude": "-90.02628635468632"
    }
  },
  {
    "service_request": "2023-1029280",
    "request_type": "Trash/Recycling",
    "request_reason": "Repair Trash Cart",
    "date_created": "2023-08-24T19:50:12.000",
    "date_modified": "2023-08-24T19:50:13.000",
    "request_status": "Pending",
    "responsible_agency": "Department of Sanitation",
    "final_address": "6209 Wales St",
    "address_councildis": "E",
    "status": "Assigned to Contractor",
    "contractor": "Waste Pro",
    "rowid": "1029280",
    "final_x": "3695771.02806",
    "final_y": "559708.391325",
    "longitude": "-90.02198913852409",
    "latitude": "30.032562402336307",
    "geocoded_column": {
      "latitude": "30.032562402336307",
      "longitude": "-90.02198913852409"
    }
  },
  {
    "service_request": "2023-1029279",
    "request_type": "Trash/Recycling",
    "request_reason": "Repair Trash Cart",
    "date_created": "2023-08-24T19:49:28.000",
    "date_modified": "2023-08-24T19:49:28.000",
    "request_status": "Pending",
    "responsible_agency": "Department of Sanitation",
    "final_address": "6217 Wales St",
    "address_councildis": "E",
    "status": "Assigned to Contractor",
    "contractor": "Waste Pro",
    "rowid": "1029279",
    "final_x": "3695806.12643",
    "final_y": "559734.291869",
    "longitude": "-90.0218772886507",
    "latitude": "30.03263251438896",
    "geocoded_column": {
      "latitude": "30.03263251438896",
      "longitude": "-90.0218772886507"
    }
  },
  {
    "service_request": "2023-1029278",
    "request_type": "Property Maintenance",
    "request_reason": "Property Maintenance",
    "date_created": "2023-08-24T19:26:50.000",
    "date_modified": "2023-08-24T19:26:50.000",
    "request_status": "Pending",
    "responsible_agency": "Department of Code Enforcement",
    "final_address": "6018 Cameron Blvd",
    "address_councildis": "D",
    "status": "Pending",
    "rowid": "1029278",
    "final_x": "3682276.97365",
    "final_y": "554923.247128",
    "longitude": "-90.06479880159162",
    "latitude": "30.019822745954837",
    "geocoded_column": {
      "latitude": "30.019822745954837",
      "longitude": "-90.06479880159162"
    }
  },
  {
    "service_request": "2023-1029277",
    "request_type": "Trash/Recycling",
    "request_reason": "Request a Large Item Pick Up",
    "date_created": "2023-08-24T19:04:19.000",
    "date_modified": "2023-08-24T19:04:20.000",
    "request_status": "Pending",
    "responsible_agency": "Department of Sanitation",
    "final_address": "3043 N Rampart St, New Orleans, Louisiana, 70117",
    "address_councildis": "C",
    "status": "Assigned to Contractor",
    "contractor": "IV Waste",
    "rowid": "1029277",
    "final_x": "3688704.7846",
    "final_y": "535651.655302",
    "longitude": "-90.04517360574992",
    "latitude": "29.96663557897953",
    "geocoded_column": {
      "latitude": "29.96663557897953",
      "longitude": "-90.04517360574992"
    }
  },
  {
    "service_request": "2023-1029276",
    "request_type": "Trash/Recycling",
    "request_reason": "Request a Large Item Pick Up",
    "date_created": "2023-08-24T18:54:43.000",
    "date_modified": "2023-08-24T18:54:44.000",
    "request_status": "Pending",
    "responsible_agency": "Department of Sanitation",
    "final_address": "5419 Story St",
    "address_councildis": "A",
    "status": "Assigned to Contractor",
    "contractor": "Richards Disposal",
    "rowid": "1029276",
    "final_x": "3668167.80199",
    "final_y": "526028.476542",
    "longitude": "-90.11035381862479",
    "latitude": "29.940793843630694",
    "geocoded_column": {
      "latitude": "29.940793843630694",
      "longitude": "-90.11035381862479"
    }
  },
  {
    "service_request": "2023-1029275",
    "request_type": "Abandoned Vehicles",
    "request_reason": "Abandoned/Junk Vehicles",
    "date_created": "2023-08-24T18:49:24.000",
    "date_modified": "2023-08-24T18:49:24.000",
    "request_status": "Pending",
    "responsible_agency": "Department of Public Works",
    "final_address": "930 Brooklyn Ave",
    "address_councildis": "C",
    "status": "Pending",
    "rowid": "1029275",
    "final_x": "3686227.11503",
    "final_y": "528013.278399",
    "longitude": "-90.05326752685265",
    "latitude": "29.945709021692526",
    "geocoded_column": {
      "latitude": "29.945709021692526",
      "longitude": "-90.05326752685265"
    }
  },
  {
    "service_request": "2023-1029274",
    "request_type": "Trash/Recycling",
    "request_reason": "Request a Large Item Pick Up",
    "date_created": "2023-08-24T18:34:51.000",
    "date_modified": "2023-08-24T18:34:52.000",
    "request_status": "Pending",
    "responsible_agency": "Department of Sanitation",
    "final_address": "1856 N Gayoso St",
    "address_councildis": "D",
    "status": "Assigned to Contractor",
    "contractor": "IV Waste",
    "rowid": "1029274",
    "final_x": "3679490.67279",
    "final_y": "542413.891661",
    "longitude": "-90.07403700239007",
    "latitude": "29.985511000088625",
    "geocoded_column": {
      "latitude": "29.985511000088625",
      "longitude": "-90.07403700239007"
    }
  },
  {
    "service_request": "2023-1029273",
    "request_type": "Trash/Recycling",
    "request_reason": "Request a Large Item Pick Up",
    "date_created": "2023-08-24T18:11:09.000",
    "date_modified": "2023-08-24T18:11:09.000",
    "request_status": "Pending",
    "responsible_agency": "Department of Sanitation",
    "final_address": "617 David St",
    "address_councildis": "A",
    "status": "Assigned to Contractor",
    "contractor": "Richards Disposal",
    "rowid": "1029273",
    "final_x": "3672047.77876",
    "final_y": "540096.798859",
    "longitude": "-90.09762503075697",
    "latitude": "29.97936260530238",
    "geocoded_column": {
      "latitude": "29.97936260530238",
      "longitude": "-90.09762503075697"
    }
  },
  {
    "service_request": "2023-1029272",
    "request_type": "Trash/Recycling",
    "request_reason": "MIssed Recycling Pick-Up",
    "date_created": "2023-08-24T18:08:20.000",
    "date_modified": "2023-08-24T18:08:20.000",
    "request_status": "Pending",
    "responsible_agency": "Department of Sanitation",
    "final_address": "1930 Bienville Ave",
    "address_councildis": "B",
    "status": "Assigned to Contractor",
    "contractor": "Richards Disposal",
    "rowid": "1029272",
    "final_x": "3678042.1188",
    "final_y": "533964.375813",
    "longitude": "-90.07890456978272",
    "latitude": "29.96232142777804",
    "geocoded_column": {
      "latitude": "29.96232142777804",
      "longitude": "-90.07890456978272"
    }
  },
  {
    "service_request": "2023-1029271",
    "request_type": "Trash/Recycling",
    "request_reason": "Missed Trash Pick-Up",
    "date_created": "2023-08-24T18:07:21.000",
    "date_modified": "2023-08-24T18:07:25.000",
    "request_status": "Pending",
    "responsible_agency": "Department of Sanitation",
    "final_address": "8036 Read Blvd",
    "address_councildis": "E",
    "status": "Assigned to Contractor",
    "contractor": "Waste Pro",
    "rowid": "1029271",
    "final_x": "3707699.87761",
    "final_y": "565823.164643",
    "longitude": "-89.98406581714222",
    "latitude": "30.0489948292551",
    "geocoded_column": {
      "latitude": "30.0489948292551",
      "longitude": "-89.98406581714222"
    }
  },
  {
    "service_request": "2023-1029270",
    "request_type": "Abandoned Vehicles",
    "request_reason": "Abandoned/Junk Vehicles",
    "date_created": "2023-08-24T18:06:50.000",
    "date_modified": "2023-08-24T18:06:50.000",
    "request_status": "Pending",
    "responsible_agency": "Department of Public Works",
    "final_address": "2709 Constitution Pl",
    "address_councildis": "D",
    "status": "Pending",
    "rowid": "1029270",
    "final_x": "3687550.14242",
    "final_y": "543008.881805",
    "longitude": "-90.04855943581082",
    "latitude": "29.986900999603566",
    "geocoded_column": {
      "latitude": "29.986900999603566",
      "longitude": "-90.04855943581082"
    }
  },
  {
    "service_request": "2023-1029269",
    "request_type": "Abandoned Vehicles",
    "request_reason": "Abandoned/Junk Vehicles",
    "date_created": "2023-08-24T17:54:37.000",
    "date_modified": "2023-08-24T17:54:37.000",
    "request_status": "Pending",
    "responsible_agency": "Department of Public Works",
    "final_address": "9 Christopher Ct",
    "address_councildis": "E",
    "status": "Pending",
    "rowid": "1029269",
    "final_x": "3716552.86188",
    "final_y": "570421.912039",
    "longitude": "-89.95591067384241",
    "latitude": "30.061349878427848",
    "geocoded_column": {
      "latitude": "30.061349878427848",
      "longitude": "-89.95591067384241"
    }
  },
  {
    "service_request": "2023-1029268",
    "request_type": "Trash/Recycling",
    "request_reason": "Request a Large Item Pick Up",
    "date_created": "2023-08-24T17:44:20.000",
    "date_modified": "2023-08-24T17:44:20.000",
    "request_status": "Pending",
    "responsible_agency": "Department of Sanitation",
    "final_address": "626 Poland Ave",
    "address_councildis": "C",
    "status": "Assigned to Contractor",
    "contractor": "IV Waste",
    "rowid": "1029268",
    "final_x": "3692578.76944",
    "final_y": "533388.131908",
    "longitude": "-90.03302075956145",
    "latitude": "29.960291364994795",
    "geocoded_column": {
      "latitude": "29.960291364994795",
      "longitude": "-90.03302075956145"
    }
  },
  {
    "service_request": "2023-1029267",
    "request_type": "Traffic Signals/Signs/Striping/Streetlights",
    "request_reason": "Request for Stop Sign",
    "date_created": "2023-08-24T17:11:49.000",
    "date_modified": "2023-08-24T17:11:49.000",
    "request_status": "Pending",
    "responsible_agency": "Department of Public Works",
    "final_address": "3984 Annunciation St, New Orleans, Louisiana, 70115",
    "address_councildis": "B",
    "status": "Pending",
    "rowid": "1029267",
    "final_x": "3672658.40392",
    "final_y": "517868.034678",
    "longitude": "-90.0964542845713",
    "latitude": "29.91822270363695",
    "geocoded_column": {
      "latitude": "29.91822270363695",
      "longitude": "-90.0964542845713"
    }
  },
  {
    "service_request": "2023-1029266",
    "request_type": "Traffic Signals/Signs/Striping/Streetlights",
    "request_reason": "Traffic Sign Missing/Damaged",
    "date_created": "2023-08-24T17:11:03.000",
    "date_modified": "2023-08-24T17:12:44.000",
    "request_status": "Pending",
    "responsible_agency": "Department of Public Works",
    "final_address": "ANNUNCIATION ST & CONSTANTINOPLE ST",
    "address_councildis": "B",
    "status": "Pending",
    "rowid": "1029266",
    "final_x": "3672626.7",
    "final_y": "517895.48",
    "longitude": "-90.09655342189997",
    "latitude": "29.918299110523158",
    "geocoded_column": {
      "latitude": "29.918299110523158",
      "longitude": "-90.09655342189997"
    }
  },
  {
    "service_request": "2023-1029265",
    "request_type": "Trash/Recycling",
    "request_reason": "MIssed Recycling Pick-Up",
    "date_created": "2023-08-24T17:10:18.000",
    "date_modified": "2023-08-24T17:12:02.000",
    "request_status": "Pending",
    "responsible_agency": "Department of Sanitation",
    "final_address": "3103 Gravier St",
    "address_councildis": "B",
    "status": "Assigned to Contractor",
    "contractor": "Richards Disposal",
    "rowid": "1029265",
    "final_x": "3672565.69921",
    "final_y": "534152.878981",
    "longitude": "-90.09619192118011",
    "latitude": "29.963003465431914",
    "geocoded_column": {
      "latitude": "29.963003465431914",
      "longitude": "-90.09619192118011"
    }
  },
  {
    "service_request": "2023-1029264",
    "request_type": "Trash/Recycling",
    "request_reason": "Replace Trash Cart",
    "date_created": "2023-08-24T17:09:02.000",
    "date_modified": "2023-08-24T17:10:52.000",
    "request_status": "Pending",
    "responsible_agency": "Department of Sanitation",
    "final_address": "13653 N Nemours St",
    "address_councildis": "E",
    "status": "Assigned to Contractor",
    "contractor": "Waste Pro",
    "rowid": "1029264",
    "final_x": "3726300.60467",
    "final_y": "563197.255456",
    "longitude": "-89.92537920335947",
    "latitude": "30.041159303978937",
    "geocoded_column": {
      "latitude": "30.041159303978937",
      "longitude": "-89.92537920335947"
    }
  },
  {
    "service_request": "2023-1029263",
    "request_type": "Roads/Drainage",
    "request_reason": "Leaking Hydrant",
    "date_created": "2023-08-24T17:08:01.000",
    "date_modified": "2023-08-24T17:08:01.000",
    "request_status": "Pending",
    "responsible_agency": "Department of Public Works",
    "final_address": "VENDOME PL & MARTIN LUTHER KING JR BLVD & S NORMAN C FRANCIS PKWY",
    "address_councildis": "B",
    "status": "Pending",
    "rowid": "1029263",
    "final_x": "3669505.4",
    "final_y": "531596.08",
    "longitude": "-90.10594248626451",
    "latitude": "29.956063611907474",
    "geocoded_column": {
      "latitude": "29.956063611907474",
      "longitude": "-90.10594248626451"
    }
  },
  {
    "service_request": "2023-1029262",
    "request_type": "Trash/Recycling",
    "request_reason": "Request a Large Item Pick Up",
    "date_created": "2023-08-24T17:07:42.000",
    "date_modified": "2023-08-24T17:09:32.000",
    "request_status": "Pending",
    "responsible_agency": "Department of Sanitation",
    "final_address": "3312 Clematis St",
    "address_councildis": "D",
    "status": "Assigned to Contractor",
    "contractor": "IV Waste",
    "rowid": "1029262",
    "final_x": "3686787.51554",
    "final_y": "545262.082959",
    "longitude": "-90.05088863426782",
    "latitude": "29.993119987847418",
    "geocoded_column": {
      "latitude": "29.993119987847418",
      "longitude": "-90.05088863426782"
    }
  },
  {
    "service_request": "2023-1029261",
    "request_type": "Trash/Recycling",
    "request_reason": "Request a Large Item Pick Up",
    "date_created": "2023-08-24T17:04:12.000",
    "date_modified": "2023-08-24T17:05:47.000",
    "request_status": "Pending",
    "responsible_agency": "Department of Sanitation",
    "final_address": "4810 Dauphine St",
    "address_councildis": "E",
    "status": "Assigned to Contractor",
    "contractor": "Waste Pro",
    "rowid": "1029261",
    "final_x": "3694811.78538",
    "final_y": "533313.754628",
    "longitude": "-90.02597207417128",
    "latitude": "29.960016987023565",
    "geocoded_column": {
      "latitude": "29.960016987023565",
      "longitude": "-90.02597207417128"
    }
  },
  {
    "service_request": "2023-1029260",
    "request_type": "Trash/Recycling",
    "request_reason": "Missed Trash Pick-Up",
    "date_created": "2023-08-24T17:01:54.000",
    "date_modified": "2023-08-24T17:02:51.000",
    "request_status": "Pending",
    "responsible_agency": "Department of Sanitation",
    "final_address": "2919 Baudin St",
    "address_councildis": "B",
    "status": "Assigned to Contractor",
    "contractor": "Richards Disposal",
    "rowid": "1029260",
    "final_x": "3673522.87611",
    "final_y": "534523.101765",
    "longitude": "-90.09315661493548",
    "latitude": "29.963993002899183",
    "geocoded_column": {
      "latitude": "29.963993002899183",
      "longitude": "-90.09315661493548"
    }
  },
  {
    "service_request": "2023-1029259",
    "request_type": "Trash/Recycling",
    "request_reason": "Repair Trash Cart",
    "date_created": "2023-08-24T16:58:52.000",
    "date_modified": "2023-08-24T16:59:48.000",
    "request_status": "Pending",
    "responsible_agency": "Department of Sanitation",
    "final_address": "5109 Pauline Dr",
    "address_councildis": "D",
    "status": "Assigned to Contractor",
    "contractor": "IV Waste",
    "rowid": "1029259",
    "final_x": "3692600.55171",
    "final_y": "552909.493399",
    "longitude": "-90.03225201592866",
    "latitude": "30.013967379256595",
    "geocoded_column": {
      "latitude": "30.013967379256595",
      "longitude": "-90.03225201592866"
    }
  },
  {
    "service_request": "2023-1029258",
    "request_type": "Property Maintenance",
    "request_reason": "Property Maintenance",
    "date_created": "2023-08-24T16:57:40.000",
    "date_modified": "2023-08-24T16:57:40.000",
    "request_status": "Pending",
    "responsible_agency": "Department of Code Enforcement",
    "status": "Pending",
    "rowid": "1029258",
    "longitude": "0.0",
    "latitude": "0.0",
    "geocoded_column": {
      "latitude": "0.0",
      "longitude": "0.0"
    }
  },
  {
    "service_request": "2023-1029257",
    "request_type": "Trash/Recycling",
    "request_reason": "Repair Trash Cart",
    "date_created": "2023-08-24T16:48:13.000",
    "date_modified": "2023-08-24T16:48:38.000",
    "request_status": "Pending",
    "responsible_agency": "Department of Sanitation",
    "final_address": "3641 Tall Timbers Dr",
    "address_councildis": "C",
    "status": "Assigned to Contractor",
    "contractor": "Richards Disposal",
    "rowid": "1029257",
    "final_x": "3703716.72535",
    "final_y": "512531.372849",
    "longitude": "-89.99861685536203",
    "latitude": "29.90259031960319",
    "geocoded_column": {
      "latitude": "29.90259031960319",
      "longitude": "-89.99861685536203"
    }
  },
  {
    "service_request": "2023-1029256",
    "request_type": "Property Maintenance",
    "request_reason": "Property Maintenance",
    "date_created": "2023-08-24T16:43:55.000",
    "date_modified": "2023-08-24T16:43:55.000",
    "request_status": "Pending",
    "responsible_agency": "Department of Code Enforcement",
    "final_address": "11301 N Forest Park Ct",
    "address_councildis": "E",
    "status": "Pending",
    "rowid": "1029256",
    "final_x": "3717027.6197",
    "final_y": "558962.454876",
    "longitude": "-89.95484576299116",
    "latitude": "30.029825347682028",
    "geocoded_column": {
      "latitude": "30.029825347682028",
      "longitude": "-89.95484576299116"
    }
  },
  {
    "service_request": "2023-1029255",
    "request_type": "Trash/Recycling",
    "request_reason": "Request a Large Item Pick Up",
    "date_created": "2023-08-24T16:38:32.000",
    "date_modified": "2023-08-24T16:38:33.000",
    "request_status": "Pending",
    "responsible_agency": "Department of Sanitation",
    "final_address": "4657 Chantilly Dr",
    "address_councildis": "E",
    "status": "Assigned to Contractor",
    "contractor": "Waste Pro",
    "rowid": "1029255",
    "final_x": "3701002.63217",
    "final_y": "553779.226711",
    "longitude": "-90.00567405799599",
    "latitude": "30.016093812742938",
    "geocoded_column": {
      "latitude": "30.016093812742938",
      "longitude": "-90.00567405799599"
    }
  },
  {
    "service_request": "2023-1029254",
    "request_type": "Traffic Signals/Signs/Striping/Streetlights",
    "request_reason": "Street Light Outage/Malfunction",
    "date_created": "2023-08-24T16:37:10.000",
    "date_modified": "2023-08-24T16:37:13.000",
    "request_status": "Pending",
    "responsible_agency": "Department of Public Works",
    "final_address": "4700 Charlene Dr",
    "address_councildis": "E",
    "status": "Assigned to Contractor",
    "contractor": "Legacy Professional Services",
    "rowid": "1029254",
    "final_x": "3707874.30148",
    "final_y": "555235.476697",
    "longitude": "-89.98390862657341",
    "latitude": "30.019877219010986",
    "geocoded_column": {
      "latitude": "30.019877219010986",
      "longitude": "-89.98390862657341"
    }
  },
  {
    "service_request": "2023-1029253",
    "request_type": "Trash/Recycling",
    "request_reason": "Request a Large Item Pick Up",
    "date_created": "2023-08-24T16:36:59.000",
    "date_modified": "2023-08-24T16:37:03.000",
    "request_status": "Pending",
    "responsible_agency": "Department of Sanitation",
    "final_address": "1536 Painters St",
    "address_councildis": "C",
    "status": "Assigned to Contractor",
    "contractor": "IV Waste",
    "rowid": "1029253",
    "final_x": "3687390.50806",
    "final_y": "538235.898185",
    "longitude": "-90.04923261324863",
    "latitude": "29.973781904141617",
    "geocoded_column": {
      "latitude": "29.973781904141617",
      "longitude": "-90.04923261324863"
    }
  },
  {
    "service_request": "2023-1029252",
    "request_type": "Traffic Signals/Signs/Striping/Streetlights",
    "request_reason": "Street Light Outage/Malfunction",
    "date_created": "2023-08-24T16:35:44.000",
    "date_modified": "2023-08-24T16:35:45.000",
    "request_status": "Pending",
    "responsible_agency": "Department of Public Works",
    "final_address": "3521 Mansfield Ave",
    "address_councildis": "C",
    "status": "Assigned to Contractor",
    "contractor": "Legacy Professional Services",
    "rowid": "1029252",
    "final_x": "3708987.85611",
    "final_y": "517794.19167",
    "longitude": "-89.98178558721116",
    "latitude": "29.916891367299314",
    "geocoded_column": {
      "latitude": "29.916891367299314",
      "longitude": "-89.98178558721116"
    }
  },
  {
    "service_request": "2023-1029251",
    "request_type": "Roads/Drainage",
    "request_reason": "Accessibility Ramps, Curbs and Sidewalk Repair",
    "date_created": "2023-08-24T16:34:00.000",
    "date_modified": "2023-08-24T16:34:01.000",
    "request_status": "Pending",
    "responsible_agency": "Department of Public Works",
    "final_address": "17 Eugenie Ct",
    "address_councildis": "C",
    "status": "Pending",
    "rowid": "1029251",
    "final_x": "3700174.82909",
    "final_y": "511941.168176",
    "longitude": "-90.00981640463321",
    "latitude": "29.901080424011187",
    "geocoded_column": {
      "latitude": "29.901080424011187",
      "longitude": "-90.00981640463321"
    }
  },
  {
    "service_request": "2023-1029250",
    "request_type": "Roads/Drainage",
    "request_reason": "Pothole",
    "date_created": "2023-08-24T16:33:10.000",
    "date_modified": "2023-08-24T16:33:10.000",
    "request_status": "Pending",
    "responsible_agency": "Department of Public Works",
    "final_address": "2800 BLK Grand Route St John St",
    "address_councildis": "A",
    "status": "Pending",
    "rowid": "1029250",
    "final_x": "3677947.23954",
    "final_y": "540275.343778",
    "longitude": "-90.07898602147532",
    "latitude": "29.979677285979754",
    "geocoded_column": {
      "latitude": "29.979677285979754",
      "longitude": "-90.07898602147532"
    }
  },
  {
    "service_request": "2023-1029248",
    "request_type": "Traffic Signals/Signs/Striping/Streetlights",
    "request_reason": "Street Light Outage/Malfunction",
    "date_created": "2023-08-24T16:31:30.000",
    "date_modified": "2023-08-24T16:32:03.000",
    "request_status": "Pending",
    "responsible_agency": "Department of Public Works",
    "final_address": "2334 Dreux Ave",
    "address_councildis": "D",
    "status": "Assigned to Contractor",
    "contractor": "Legacy Professional Services",
    "rowid": "1029248",
    "final_x": "3684906.50703",
    "final_y": "552006.48175",
    "longitude": "-90.0565930294746",
    "latitude": "30.01172240362775",
    "geocoded_column": {
      "latitude": "30.01172240362775",
      "longitude": "-90.0565930294746"
    }
  },
  {
    "service_request": "2023-1029246",
    "request_type": "Trash/Recycling",
    "request_reason": "Replace Trash Cart",
    "date_created": "2023-08-24T16:29:27.000",
    "date_modified": "2023-08-24T16:30:34.000",
    "request_status": "Pending",
    "responsible_agency": "Department of Sanitation",
    "final_address": "4321 St Claude Ave",
    "address_councildis": "D",
    "status": "Assigned to Contractor",
    "contractor": "IV Waste",
    "rowid": "1029246",
    "final_x": "3692909.48521",
    "final_y": "535191.119622",
    "longitude": "-90.03191176744843",
    "latitude": "29.965238623720722",
    "geocoded_column": {
      "latitude": "29.965238623720722",
      "longitude": "-90.03191176744843"
    }
  },
  {
    "service_request": "2023-1029245",
    "request_type": "Safety & Permits",
    "request_reason": "Construction permit",
    "date_created": "2023-08-24T16:29:13.000",
    "date_modified": "2023-08-24T16:29:13.000",
    "request_status": "Pending",
    "responsible_agency": "Department of Code Enforcement",
    "final_address": "609 Jackson Ave",
    "address_councildis": "B",
    "status": "Pending",
    "rowid": "1029245",
    "final_x": "3679901.14056",
    "final_y": "520810.428217",
    "longitude": "-90.07349075794016",
    "latitude": "29.926096366929237",
    "geocoded_column": {
      "latitude": "29.926096366929237",
      "longitude": "-90.07349075794016"
    }
  },
  {
    "service_request": "2023-1029244",
    "request_type": "Trash/Recycling",
    "request_reason": "Illegal Dumping",
    "date_created": "2023-08-24T16:28:18.000",
    "date_modified": "2023-08-24T16:28:18.000",
    "request_status": "Pending",
    "responsible_agency": "Department of Sanitation",
    "final_address": "7838 Earhart Blvd",
    "address_councildis": "B",
    "status": "Pending",
    "rowid": "1029244",
    "final_x": "3667212.85434",
    "final_y": "532930.344964",
    "longitude": "-90.11313672137535",
    "latitude": "29.959799727164988",
    "geocoded_column": {
      "latitude": "29.959799727164988",
      "longitude": "-90.11313672137535"
    }
  },
  {
    "service_request": "2023-1029243",
    "request_type": "Traffic Signals/Signs/Striping/Streetlights",
    "request_reason": "Traffic Sign Missing/Damaged",
    "date_created": "2023-08-24T16:21:39.000",
    "date_modified": "2023-08-24T16:21:39.000",
    "request_status": "Pending",
    "responsible_agency": "Department of Public Works",
    "final_address": "2408 S Tonti St",
    "address_councildis": "B",
    "status": "Pending",
    "rowid": "1029243",
    "final_x": "3672796.97371",
    "final_y": "529248.774593",
    "longitude": "-90.09562886478837",
    "latitude": "29.949511939385026",
    "geocoded_column": {
      "latitude": "29.949511939385026",
      "longitude": "-90.09562886478837"
    }
  },
  {
    "service_request": "2023-1029242",
    "request_type": "Traffic Signals/Signs/Striping/Streetlights",
    "request_reason": "Disabled Parking Sign ",
    "date_created": "2023-08-24T16:17:17.000",
    "date_modified": "2023-08-24T16:17:17.000",
    "request_status": "Pending",
    "responsible_agency": "Department of Public Works",
    "final_address": "913 Atlantic Ave",
    "address_councildis": "C",
    "status": "Pending",
    "rowid": "1029242",
    "final_x": "3688680.89129",
    "final_y": "528167.0576",
    "longitude": "-90.04551471033682",
    "latitude": "29.946056259679818",
    "geocoded_column": {
      "latitude": "29.946056259679818",
      "longitude": "-90.04551471033682"
    }
  },
  {
    "service_request": "2023-1029241",
    "request_type": "Trash/Recycling",
    "request_reason": "Missed Trash Pick-Up",
    "date_created": "2023-08-24T16:14:51.000",
    "date_modified": "2023-08-24T16:14:51.000",
    "request_status": "Pending",
    "responsible_agency": "Department of Sanitation",
    "final_address": "2100 BLK Freret St",
    "address_councildis": "B",
    "status": "Assigned to Contractor",
    "contractor": "Richards Disposal",
    "rowid": "1029241",
    "final_x": "3675767.74948",
    "final_y": "526422.084411",
    "longitude": "-90.08634590717543",
    "latitude": "29.941650906021973",
    "geocoded_column": {
      "latitude": "29.941650906021973",
      "longitude": "-90.08634590717543"
    }
  },
  {
    "service_request": "2023-1029240",
    "request_type": "Property Maintenance",
    "request_reason": "Property Maintenance",
    "date_created": "2023-08-24T16:09:34.000",
    "date_modified": "2023-08-24T16:09:34.000",
    "request_status": "Pending",
    "responsible_agency": "Department of Code Enforcement",
    "final_address": "3205 Belfort St",
    "address_councildis": "A",
    "status": "Pending",
    "rowid": "1029240",
    "final_x": "3678453.7997",
    "final_y": "542561.885325",
    "longitude": "-90.07730693598788",
    "latitude": "29.985949223701823",
    "geocoded_column": {
      "latitude": "29.985949223701823",
      "longitude": "-90.07730693598788"
    }
  },
  {
    "service_request": "2023-1029239",
    "request_type": "Trash/Recycling",
    "request_reason": "Missed Trash Pick-Up",
    "date_created": "2023-08-24T16:07:10.000",
    "date_modified": "2023-08-24T16:07:11.000",
    "request_status": "Pending",
    "responsible_agency": "Department of Sanitation",
    "final_address": "4527 Shalimar Dr",
    "address_councildis": "D",
    "status": "Assigned to Contractor",
    "contractor": "Waste Pro",
    "rowid": "1029239",
    "final_x": "3697351.55965",
    "final_y": "553111.218263",
    "longitude": "-90.01723401247797",
    "latitude": "30.01437285689367",
    "geocoded_column": {
      "latitude": "30.01437285689367",
      "longitude": "-90.01723401247797"
    }
  },
  {
    "service_request": "2023-1029238",
    "request_type": "Trash/Recycling",
    "request_reason": "MIssed Recycling Pick-Up",
    "date_created": "2023-08-24T16:04:37.000",
    "date_modified": "2023-08-24T16:04:37.000",
    "request_status": "Pending",
    "responsible_agency": "Department of Sanitation",
    "final_address": "1831 Bordeaux St",
    "address_councildis": "B",
    "status": "Assigned to Contractor",
    "contractor": "Richards Disposal",
    "rowid": "1029238",
    "final_x": "3669331.87892",
    "final_y": "521703.529722",
    "longitude": "-90.10682477262996",
    "latitude": "29.928867415105458",
    "geocoded_column": {
      "latitude": "29.928867415105458",
      "longitude": "-90.10682477262996"
    }
  },
  {
    "service_request": "2023-1029237",
    "request_type": "Trash/Recycling",
    "request_reason": "Request a Large Item Pick Up",
    "date_created": "2023-08-24T16:04:15.000",
    "date_modified": "2023-08-24T16:04:16.000",
    "request_status": "Pending",
    "responsible_agency": "Department of Sanitation",
    "final_address": "4626 Pecan St",
    "address_councildis": "E",
    "status": "Assigned to Contractor",
    "contractor": "Waste Pro",
    "rowid": "1029237",
    "final_x": "3701810.12074",
    "final_y": "553604.985367",
    "longitude": "-90.00312915964138",
    "latitude": "30.01558896467843",
    "geocoded_column": {
      "latitude": "30.01558896467843",
      "longitude": "-90.00312915964138"
    }
  },
  {
    "service_request": "2023-1029236",
    "request_type": "Traffic Signals/Signs/Striping/Streetlights",
    "request_reason": "Additional signage",
    "date_created": "2023-08-24T15:59:37.000",
    "date_modified": "2023-08-24T15:59:38.000",
    "request_status": "Pending",
    "responsible_agency": "Department of Public Works",
    "final_address": "800 BLK Verret St",
    "address_councildis": "C",
    "status": "Pending",
    "rowid": "1029236",
    "final_x": "3687146.59745",
    "final_y": "528532.485374",
    "longitude": "-90.05034606905508",
    "latitude": "29.947108387785768",
    "geocoded_column": {
      "latitude": "29.947108387785768",
      "longitude": "-90.05034606905508"
    }
  },
  {
    "service_request": "2023-1029235",
    "request_type": "Traffic Signals/Signs/Striping/Streetlights",
    "request_reason": "Street Light Outage/Malfunction",
    "date_created": "2023-08-24T15:48:09.000",
    "date_modified": "2023-08-24T15:48:09.000",
    "request_status": "Pending",
    "responsible_agency": "Department of Public Works",
    "final_address": "3726 Herald St",
    "address_councildis": "C",
    "status": "Assigned to Contractor",
    "contractor": "Legacy Professional Services",
    "rowid": "1029235",
    "final_x": "3702243.62826",
    "final_y": "517277.080629",
    "longitude": "-90.00309199189272",
    "latitude": "29.915686502308155",
    "geocoded_column": {
      "latitude": "29.915686502308155",
      "longitude": "-90.00309199189272"
    }
  },
  {
    "service_request": "2023-1029234",
    "request_type": "Traffic Signals/Signs/Striping/Streetlights",
    "request_reason": "Street Light Outage/Malfunction",
    "date_created": "2023-08-24T15:48:03.000",
    "date_modified": "2023-08-24T15:48:03.000",
    "request_status": "Pending",
    "responsible_agency": "Department of Public Works",
    "final_address": "9031 Bunker Hill Rd",
    "address_councildis": "E",
    "status": "Assigned to Contractor",
    "contractor": "Legacy Professional Services",
    "rowid": "1029234",
    "final_x": "3706320.94212",
    "final_y": "561824.358431",
    "longitude": "-89.9885723720645",
    "latitude": "30.038044276506092",
    "geocoded_column": {
      "latitude": "30.038044276506092",
      "longitude": "-89.9885723720645"
    }
  },
  {
    "service_request": "2023-1029233",
    "request_type": "Abandoned Vehicles",
    "request_reason": "Abandoned/Junk Vehicles",
    "date_created": "2023-08-24T15:46:31.000",
    "date_modified": "2023-08-24T15:52:34.000",
    "request_status": "Pending",
    "responsible_agency": "Department of Public Works",
    "final_address": "I 10 E & DWYER RD",
    "address_councildis": "E",
    "status": "Inspected",
    "rowid": "1029233",
    "final_x": "3698430.3",
    "final_y": "555384.38",
    "longitude": "-90.01374303742391",
    "latitude": "30.02058907742907",
    "geocoded_column": {
      "latitude": "30.02058907742907",
      "longitude": "-90.01374303742391"
    }
  },
  {
    "service_request": "2023-1029232",
    "request_type": "Abandoned Vehicles",
    "request_reason": "Abandoned/Junk Vehicles",
    "date_created": "2023-08-24T15:36:33.000",
    "date_modified": "2023-08-24T15:36:33.000",
    "request_status": "Pending",
    "responsible_agency": "Department of Public Works",
    "final_address": "6300 BLK Pines Blvd",
    "address_councildis": "D",
    "status": "Inspected",
    "rowid": "1029232",
    "final_x": "3697425.49061",
    "final_y": "556525.693495",
    "longitude": "-90.0168764849154",
    "latitude": "30.02375903543701",
    "geocoded_column": {
      "latitude": "30.02375903543701",
      "longitude": "-90.0168764849154"
    }
  },
  {
    "service_request": "2023-1029231",
    "request_type": "Traffic Signals/Signs/Striping/Streetlights",
    "request_reason": "Street Light Outage/Malfunction",
    "date_created": "2023-08-24T15:32:58.000",
    "date_modified": "2023-08-24T15:32:59.000",
    "request_status": "Pending",
    "responsible_agency": "Department of Public Works",
    "final_address": "3739 Napoleon Ave",
    "address_councildis": "B",
    "status": "Assigned to Contractor",
    "contractor": "Legacy Professional Services",
    "rowid": "1029231",
    "final_x": "3670189.67745",
    "final_y": "528419.319232",
    "longitude": "-90.10388939663812",
    "latitude": "29.947308390532854",
    "geocoded_column": {
      "latitude": "29.947308390532854",
      "longitude": "-90.10388939663812"
    }
  },
  {
    "service_request": "2023-1029230",
    "request_type": "Trash/Recycling",
    "request_reason": "Request a Large Item Pick Up",
    "date_created": "2023-08-24T15:29:15.000",
    "date_modified": "2023-08-24T15:29:15.000",
    "request_status": "Pending",
    "responsible_agency": "Department of Sanitation",
    "final_address": "515 Second St",
    "address_councildis": "B",
    "status": "Assigned to Contractor",
    "contractor": "Richards Disposal",
    "rowid": "1029230",
    "final_x": "3679020.11298",
    "final_y": "519591.559672",
    "longitude": "-90.07631411604763",
    "latitude": "29.922771481415612",
    "geocoded_column": {
      "latitude": "29.922771481415612",
      "longitude": "-90.07631411604763"
    }
  },
  {
    "service_request": "2023-1029229",
    "request_type": "Roads/Drainage",
    "request_reason": "Pothole",
    "date_created": "2023-08-24T15:28:25.000",
    "date_modified": "2023-08-24T15:28:57.000",
    "request_status": "Pending",
    "responsible_agency": "Department of Public Works",
    "final_address": "1340 Poydras St",
    "address_councildis": "B",
    "status": "Pending",
    "rowid": "1029229",
    "final_x": "3678596.10133",
    "final_y": "529893.831297",
    "longitude": "-90.07729607640525",
    "latitude": "29.951112114837542",
    "geocoded_column": {
      "latitude": "29.951112114837542",
      "longitude": "-90.07729607640525"
    }
  },
  {
    "service_request": "2023-1029228",
    "request_type": "Abandoned Vehicles",
    "request_reason": "Abandoned/Junk Vehicles",
    "date_created": "2023-08-24T15:27:22.000",
    "date_modified": "2023-08-24T15:27:22.000",
    "request_status": "Pending",
    "responsible_agency": "Department of Public Works",
    "final_address": "4900 BLK America St",
    "address_councildis": "E",
    "status": "Inspected",
    "rowid": "1029228",
    "final_x": "3699679.34536",
    "final_y": "555378.637718",
    "longitude": "-90.00979666238229",
    "latitude": "30.02053367728286",
    "geocoded_column": {
      "latitude": "30.02053367728286",
      "longitude": "-90.00979666238229"
    }
  },
  {
    "service_request": "2023-1029227",
    "request_type": "Trash/Recycling",
    "request_reason": "MIssed Recycling Pick-Up",
    "date_created": "2023-08-24T15:22:52.000",
    "date_modified": "2023-08-24T15:22:53.000",
    "request_status": "Pending",
    "responsible_agency": "Department of Sanitation",
    "final_address": "4021 Dryades St",
    "address_councildis": "B",
    "status": "Assigned to Contractor",
    "contractor": "Richards Disposal",
    "rowid": "1029227",
    "final_x": "3672015.05998",
    "final_y": "522122.440058",
    "longitude": "-90.09834024183361",
    "latitude": "29.929940038306103",
    "geocoded_column": {
      "latitude": "29.929940038306103",
      "longitude": "-90.09834024183361"
    }
  },
  {
    "service_request": "2023-1029226",
    "request_type": "Trash/Recycling",
    "request_reason": "Missed Trash Pick-Up",
    "date_created": "2023-08-24T15:20:28.000",
    "date_modified": "2023-08-24T15:20:29.000",
    "request_status": "Pending",
    "responsible_agency": "Department of Sanitation",
    "final_address": "7734 Walmsley Ave",
    "address_councildis": "A",
    "status": "Assigned to Contractor",
    "contractor": "Richards Disposal",
    "rowid": "1029226",
    "final_x": "3666645.74548",
    "final_y": "531769.727171",
    "longitude": "-90.11496650039612",
    "latitude": "29.95662500214332",
    "geocoded_column": {
      "latitude": "29.95662500214332",
      "longitude": "-90.11496650039612"
    }
  },
  {
    "service_request": "2023-1029225",
    "request_type": "Property Maintenance",
    "request_reason": "Property Maintenance",
    "date_created": "2023-08-24T15:20:24.000",
    "date_modified": "2023-08-24T15:20:25.000",
    "request_status": "Pending",
    "responsible_agency": "Department of Code Enforcement",
    "final_address": "1115 S Gayoso St",
    "address_councildis": "B",
    "status": "Pending",
    "rowid": "1029225",
    "final_x": "3671372.19502",
    "final_y": "531802.577731",
    "longitude": "-90.10004075429245",
    "latitude": "29.956576296429073",
    "geocoded_column": {
      "latitude": "29.956576296429073",
      "longitude": "-90.10004075429245"
    }
  },
  {
    "service_request": "2023-1029223",
    "request_type": "Traffic Signals/Signs/Striping/Streetlights",
    "request_reason": "Street Light Outage/Malfunction",
    "date_created": "2023-08-24T15:18:41.000",
    "date_modified": "2023-08-24T15:18:42.000",
    "request_status": "Pending",
    "responsible_agency": "Department of Public Works",
    "final_address": "4510 Longfellow Dr",
    "address_councildis": "E",
    "status": "Assigned to Contractor",
    "contractor": "Legacy Professional Services",
    "rowid": "1029223",
    "final_x": "3709687.00497",
    "final_y": "554503.526424",
    "longitude": "-89.9782084728539",
    "latitude": "30.017805818012075",
    "geocoded_column": {
      "latitude": "30.017805818012075",
      "longitude": "-89.9782084728539"
    }
  },
  {
    "service_request": "2023-1029222",
    "request_type": "Trash/Recycling",
    "request_reason": "Missed Trash Pick-Up",
    "date_created": "2023-08-24T15:10:45.000",
    "date_modified": "2023-08-24T15:10:45.000",
    "request_status": "Pending",
    "responsible_agency": "Department of Sanitation",
    "final_address": "1314 Jackson Ave",
    "address_councildis": "B",
    "status": "Assigned to Contractor",
    "contractor": "Richards Disposal",
    "rowid": "1029222",
    "final_x": "3678285.92808",
    "final_y": "522726.153146",
    "longitude": "-90.07852329167453",
    "latitude": "29.931412718073265",
    "geocoded_column": {
      "latitude": "29.931412718073265",
      "longitude": "-90.07852329167453"
    }
  },
  {
    "service_request": "2023-1029221",
    "request_type": "Trash/Recycling",
    "request_reason": "Illegal Dumping",
    "date_created": "2023-08-24T15:09:24.000",
    "date_modified": "2023-08-24T15:09:24.000",
    "request_status": "Pending",
    "responsible_agency": "Department of Sanitation",
    "final_address": "2210 Lapeyrouse St",
    "address_councildis": "D",
    "status": "Pending",
    "rowid": "1029221",
    "final_x": "3680383.4349",
    "final_y": "539108.509834",
    "longitude": "-90.07133212142851",
    "latitude": "29.976395342252708",
    "geocoded_column": {
      "latitude": "29.976395342252708",
      "longitude": "-90.07133212142851"
    }
  },
  {
    "service_request": "2023-1029220",
    "request_type": "Abandoned Vehicles",
    "request_reason": "Abandoned/Junk Vehicles",
    "date_created": "2023-08-24T15:08:45.000",
    "date_modified": "2023-08-24T15:10:50.000",
    "request_status": "Pending",
    "responsible_agency": "Department of Public Works",
    "final_address": "PORT ST & ARCHITECT ST",
    "address_councildis": "C",
    "status": "Pending",
    "rowid": "1029220",
    "final_x": "3686993.8",
    "final_y": "534719.48",
    "longitude": "-90.05060982399515",
    "latitude": "29.964125199523618",
    "geocoded_column": {
      "latitude": "29.964125199523618",
      "longitude": "-90.05060982399515"
    }
  },
  {
    "service_request": "2023-1029219",
    "request_type": "Trash/Recycling",
    "request_reason": "MIssed Recycling Pick-Up",
    "date_created": "2023-08-24T15:08:26.000",
    "date_modified": "2023-08-24T15:08:27.000",
    "request_status": "Pending",
    "responsible_agency": "Department of Sanitation",
    "final_address": "2736 Octavia St",
    "address_councildis": "A",
    "status": "Assigned to Contractor",
    "contractor": "Richards Disposal",
    "rowid": "1029219",
    "final_x": "3667901.85767",
    "final_y": "525666.879741",
    "longitude": "-90.11120563047973",
    "latitude": "29.939807371131554",
    "geocoded_column": {
      "latitude": "29.939807371131554",
      "longitude": "-90.11120563047973"
    }
  },
  {
    "service_request": "2023-1029218",
    "request_type": "Tax and Revenue",
    "request_reason": "General Tax Question",
    "date_created": "2023-08-24T15:07:23.000",
    "date_modified": "2023-08-24T15:07:24.000",
    "request_status": "Pending",
    "responsible_agency": "Bureau of Revenue",
    "status": "Pending",
    "rowid": "1029218",
    "longitude": "0.0",
    "latitude": "0.0",
    "geocoded_column": {
      "latitude": "0.0",
      "longitude": "0.0"
    }
  },
  {
    "service_request": "2023-1029217",
    "request_type": "Traffic Signals/Signs/Striping/Streetlights",
    "request_reason": "Street Light Outage/Malfunction",
    "date_created": "2023-08-24T15:06:35.000",
    "date_modified": "2023-08-24T15:06:36.000",
    "request_status": "Pending",
    "responsible_agency": "Department of Public Works",
    "final_address": "500 BLK N Bernadotte St",
    "address_councildis": "A",
    "status": "Assigned to Contractor",
    "contractor": "Legacy Professional Services",
    "rowid": "1029217",
    "final_x": "3669811.94216",
    "final_y": "541375.132917",
    "longitude": "-90.10464341212618",
    "latitude": "29.982943699938424",
    "geocoded_column": {
      "latitude": "29.982943699938424",
      "longitude": "-90.10464341212618"
    }
  },
  {
    "service_request": "2023-1029216",
    "request_type": "Roads/Drainage",
    "request_reason": "Pothole",
    "date_created": "2023-08-24T15:03:16.000",
    "date_modified": "2023-08-24T15:03:16.000",
    "request_status": "Pending",
    "responsible_agency": "Department of Public Works",
    "final_address": "514 Amethyst St",
    "address_councildis": "D",
    "status": "Pending",
    "rowid": "1029216",
    "final_x": "3668465.8571",
    "final_y": "556751.551834",
    "longitude": "-90.10837584693856",
    "latitude": "30.025263120629443",
    "geocoded_column": {
      "latitude": "30.025263120629443",
      "longitude": "-90.10837584693856"
    }
  },
  {
    "service_request": "2023-1029215",
    "request_type": "Trash/Recycling",
    "request_reason": "Order Recycling Cart",
    "date_created": "2023-08-24T15:03:01.000",
    "date_modified": "2023-08-24T15:03:02.000",
    "request_status": "Pending",
    "responsible_agency": "Department of Sanitation",
    "final_address": "5900 BLK W Hardy St",
    "address_councildis": "E",
    "status": "Pending",
    "rowid": "1029215",
    "final_x": "3712654.24296",
    "final_y": "561572.411092",
    "longitude": "-89.9685672273965",
    "latitude": "30.037145628247305",
    "geocoded_column": {
      "latitude": "30.037145628247305",
      "longitude": "-89.9685672273965"
    }
  },
  {
    "service_request": "2023-1029214",
    "request_type": "Trash/Recycling",
    "request_reason": "Repair Trash Cart",
    "date_created": "2023-08-24T15:02:25.000",
    "date_modified": "2023-08-24T15:02:26.000",
    "request_status": "Pending",
    "responsible_agency": "Department of Sanitation",
    "final_address": "5900 BLK W Hardy St",
    "address_councildis": "E",
    "status": "Assigned to Contractor",
    "contractor": "Waste Pro",
    "rowid": "1029214",
    "final_x": "3712654.24296",
    "final_y": "561572.411092",
    "longitude": "-89.9685672273965",
    "latitude": "30.037145628247305",
    "geocoded_column": {
      "latitude": "30.037145628247305",
      "longitude": "-89.9685672273965"
    }
  },
  {
    "service_request": "2023-1029213",
    "request_type": "Trash/Recycling",
    "request_reason": "Request a Large Item Pick Up",
    "date_created": "2023-08-24T15:00:27.000",
    "date_modified": "2023-08-24T15:00:27.000",
    "request_status": "Pending",
    "responsible_agency": "Department of Sanitation",
    "final_address": "3513 S Tonti St",
    "address_councildis": "B",
    "status": "Assigned to Contractor",
    "contractor": "Richards Disposal",
    "rowid": "1029213",
    "final_x": "3671082.03751",
    "final_y": "528306.87072",
    "longitude": "-90.10107568740045",
    "latitude": "29.946972836542376",
    "geocoded_column": {
      "latitude": "29.946972836542376",
      "longitude": "-90.10107568740045"
    }
  },
  {
    "service_request": "2023-1029212",
    "request_type": "Trash/Recycling",
    "request_reason": "Order Recycling Cart",
    "date_created": "2023-08-24T14:59:22.000",
    "date_modified": "2023-08-24T14:59:22.000",
    "request_status": "Pending",
    "responsible_agency": "Department of Sanitation",
    "final_address": "6860 Catina St",
    "address_councildis": "A",
    "status": "Pending",
    "rowid": "1029212",
    "final_x": "3667054.4025",
    "final_y": "553580.770327",
    "longitude": "-90.11294255722275",
    "latitude": "30.016586008273237",
    "geocoded_column": {
      "latitude": "30.016586008273237",
      "longitude": "-90.11294255722275"
    }
  },
  {
    "service_request": "2023-1029211",
    "request_type": "Trash/Recycling",
    "request_reason": "Order Trash Cart",
    "date_created": "2023-08-24T14:58:53.000",
    "date_modified": "2023-08-24T14:58:54.000",
    "request_status": "Pending",
    "responsible_agency": "Department of Sanitation",
    "final_address": "6860 Catina St",
    "address_councildis": "A",
    "status": "Assigned to Contractor",
    "contractor": "IV Waste",
    "rowid": "1029211",
    "final_x": "3667054.4025",
    "final_y": "553580.770327",
    "longitude": "-90.11294255722275",
    "latitude": "30.016586008273237",
    "geocoded_column": {
      "latitude": "30.016586008273237",
      "longitude": "-90.11294255722275"
    }
  },
  {
    "service_request": "2023-1029210",
    "request_type": "Property Maintenance",
    "request_reason": "Property Maintenance",
    "date_created": "2023-08-24T14:55:44.000",
    "date_modified": "2023-08-24T14:55:45.000",
    "request_status": "Pending",
    "responsible_agency": "Department of Code Enforcement",
    "final_address": "3912 Metropolitan St",
    "address_councildis": "D",
    "status": "Pending",
    "rowid": "1029210",
    "final_x": "3691458.12003",
    "final_y": "547635.55669",
    "longitude": "-90.03605015744459",
    "latitude": "29.9995016146968",
    "geocoded_column": {
      "latitude": "29.9995016146968",
      "longitude": "-90.03605015744459"
    }
  },
  {
    "service_request": "2023-1029209",
    "request_type": "Trash/Recycling",
    "request_reason": "Order Trash Cart",
    "date_created": "2023-08-24T14:51:12.000",
    "date_modified": "2023-08-24T14:51:13.000",
    "request_status": "Pending",
    "responsible_agency": "Department of Sanitation",
    "final_address": "4311 State Street Dr",
    "address_councildis": "B",
    "status": "Assigned to Contractor",
    "contractor": "Richards Disposal",
    "rowid": "1029209",
    "final_x": "3668558.99514",
    "final_y": "531229.526466",
    "longitude": "-90.1089432864963",
    "latitude": "29.95508355119546",
    "geocoded_column": {
      "latitude": "29.95508355119546",
      "longitude": "-90.1089432864963"
    }
  },
  {
    "service_request": "2023-1029208",
    "request_type": "Property Maintenance",
    "request_reason": "Property Maintenance",
    "date_created": "2023-08-24T14:50:56.000",
    "date_modified": "2023-08-24T14:50:56.000",
    "request_status": "Pending",
    "responsible_agency": "Department of Code Enforcement",
    "final_address": "3113 N Prieur St",
    "address_councildis": "D",
    "status": "Pending",
    "rowid": "1029208",
    "final_x": "3689912.38377",
    "final_y": "539006.64737",
    "longitude": "-90.0412405557756",
    "latitude": "29.975823240830458",
    "geocoded_column": {
      "latitude": "29.975823240830458",
      "longitude": "-90.0412405557756"
    }
  },
  {
    "service_request": "2023-1029207",
    "request_type": "Trash/Recycling",
    "request_reason": "Request a Large Item Pick Up",
    "date_created": "2023-08-24T14:44:26.000",
    "date_modified": "2023-08-24T14:44:27.000",
    "request_status": "Pending",
    "responsible_agency": "Department of Sanitation",
    "final_address": "8715 Willow St",
    "address_councildis": "A",
    "status": "Assigned to Contractor",
    "contractor": "Richards Disposal",
    "rowid": "1029207",
    "final_x": "3660781.15706",
    "final_y": "530450.52173",
    "longitude": "-90.133528687496",
    "latitude": "29.953167772302134",
    "geocoded_column": {
      "latitude": "29.953167772302134",
      "longitude": "-90.133528687496"
    }
  },
  {
    "service_request": "2023-1029205",
    "request_type": "Abandoned Vehicles",
    "request_reason": "Abandoned/Junk Vehicles",
    "date_created": "2023-08-24T14:38:26.000",
    "date_modified": "2023-08-24T14:38:26.000",
    "request_status": "Pending",
    "responsible_agency": "Department of Public Works",
    "final_address": "4900 BLK Bienville Ave",
    "address_councildis": "A",
    "status": "Pending",
    "rowid": "1029205",
    "final_x": "3668861.3125",
    "final_y": "541047.881603",
    "longitude": "-90.1076570498391",
    "latitude": "29.98207186462813",
    "geocoded_column": {
      "latitude": "29.98207186462813",
      "longitude": "-90.1076570498391"
    }
  },
  {
    "service_request": "2023-1029204",
    "request_type": "Traffic Signals/Signs/Striping/Streetlights",
    "request_reason": "Street Light Outage/Malfunction",
    "date_created": "2023-08-24T14:37:53.000",
    "date_modified": "2023-08-24T14:37:54.000",
    "request_status": "Pending",
    "responsible_agency": "Department of Public Works",
    "final_address": "1409 Baronne St",
    "address_councildis": "B",
    "status": "Assigned to Contractor",
    "contractor": "Legacy Professional Services",
    "rowid": "1029204",
    "final_x": "3678491.89512",
    "final_y": "526234.513918",
    "longitude": "-90.07775171666945",
    "latitude": "29.941053351098873",
    "geocoded_column": {
      "latitude": "29.941053351098873",
      "longitude": "-90.07775171666945"
    }
  },
  {
    "service_request": "2023-1029203",
    "request_type": "Trash/Recycling",
    "request_reason": "Missed Trash Pick-Up",
    "date_created": "2023-08-24T14:37:50.000",
    "date_modified": "2023-08-24T14:37:51.000",
    "request_status": "Pending",
    "responsible_agency": "Department of Sanitation",
    "final_address": "2627 Clover St",
    "address_councildis": "D",
    "status": "Assigned to Contractor",
    "contractor": "IV Waste",
    "rowid": "1029203",
    "final_x": "3687365.56175",
    "final_y": "546745.896401",
    "longitude": "-90.04901015283059",
    "latitude": "29.99718213905374",
    "geocoded_column": {
      "latitude": "29.99718213905374",
      "longitude": "-90.04901015283059"
    }
  },
  {
    "service_request": "2023-1029202",
    "request_type": "Property Maintenance",
    "request_reason": "Property Maintenance",
    "date_created": "2023-08-24T14:36:41.000",
    "date_modified": "2023-08-24T14:36:41.000",
    "request_status": "Pending",
    "responsible_agency": "Department of Code Enforcement",
    "final_address": "4134 Magazine St",
    "address_councildis": "B",
    "status": "Pending",
    "rowid": "1029202",
    "final_x": "3671880.78631",
    "final_y": "518782.104695",
    "longitude": "-90.09887772598339",
    "latitude": "29.92075916352316",
    "geocoded_column": {
      "latitude": "29.92075916352316",
      "longitude": "-90.09887772598339"
    }
  },
  {
    "service_request": "2023-1029201",
    "request_type": "Traffic Signals/Signs/Striping/Streetlights",
    "request_reason": "Street Light Outage/Malfunction",
    "date_created": "2023-08-24T14:36:04.000",
    "date_modified": "2023-08-24T14:36:05.000",
    "request_status": "Pending",
    "responsible_agency": "Department of Public Works",
    "final_address": "DANNEEL ST & LOUISIANA AVE",
    "address_councildis": "B",
    "status": "Assigned to Contractor",
    "contractor": "Legacy Professional Services",
    "rowid": "1029201",
    "final_x": "3673604.6",
    "final_y": "522860.38",
    "longitude": "-90.09329711281605",
    "latitude": "29.93192193098849",
    "geocoded_column": {
      "latitude": "29.93192193098849",
      "longitude": "-90.09329711281605"
    }
  },
  {
    "service_request": "2023-1029197",
    "request_type": "Roads/Drainage",
    "request_reason": "Damaged Sidewalk",
    "date_created": "2023-08-24T14:34:51.000",
    "date_modified": "2023-08-24T14:35:20.000",
    "request_status": "Pending",
    "responsible_agency": "Department of Public Works",
    "final_address": "7232 Claridge Ct",
    "address_councildis": "E",
    "status": "Pending",
    "rowid": "1029197",
    "final_x": "3704754.54641",
    "final_y": "560852.509406",
    "longitude": "-89.993558451832",
    "latitude": "30.03542252763297",
    "geocoded_column": {
      "latitude": "30.03542252763297",
      "longitude": "-89.993558451832"
    }
  },
  {
    "service_request": "2023-1029195",
    "request_type": "Trash/Recycling",
    "request_reason": "Order Trash Cart",
    "date_created": "2023-08-24T14:34:46.000",
    "date_modified": "2023-08-24T14:34:47.000",
    "request_status": "Pending",
    "responsible_agency": "Department of Sanitation",
    "final_address": "1440 N Roman St",
    "address_councildis": "D",
    "status": "Assigned to Contractor",
    "contractor": "IV Waste",
    "rowid": "1029195",
    "final_x": "3680942.19631",
    "final_y": "537281.48084",
    "longitude": "-90.06963102388809",
    "latitude": "29.971354710922242",
    "geocoded_column": {
      "latitude": "29.971354710922242",
      "longitude": "-90.06963102388809"
    }
  },
  {
    "service_request": "2023-1029194",
    "request_type": "Trash/Recycling",
    "request_reason": "Order Recycling Cart",
    "date_created": "2023-08-24T14:33:51.000",
    "date_modified": "2023-08-24T14:33:51.000",
    "request_status": "Pending",
    "responsible_agency": "Department of Sanitation",
    "final_address": "1440 N Roman St",
    "address_councildis": "D",
    "status": "Pending",
    "rowid": "1029194",
    "final_x": "3680942.19631",
    "final_y": "537281.48084",
    "longitude": "-90.06963102388809",
    "latitude": "29.971354710922242",
    "geocoded_column": {
      "latitude": "29.971354710922242",
      "longitude": "-90.06963102388809"
    }
  },
  {
    "service_request": "2023-1029191",
    "request_type": "Parks & Parkways",
    "request_reason": "Request Tree Service (Right of Way/Public Property)",
    "date_created": "2023-08-24T14:33:49.000",
    "date_modified": "2023-08-24T14:39:40.000",
    "request_status": "Pending",
    "responsible_agency": "Department of Parks & Parkway",
    "final_address": "7232 Claridge Ct",
    "address_councildis": "E",
    "status": "Pending",
    "rowid": "1029191",
    "final_x": "3704754.54641",
    "final_y": "560852.509406",
    "longitude": "-89.993558451832",
    "latitude": "30.03542252763297",
    "geocoded_column": {
      "latitude": "30.03542252763297",
      "longitude": "-89.993558451832"
    }
  },
  {
    "service_request": "2023-1029190",
    "request_type": "Trash/Recycling",
    "request_reason": "Order Recycling Cart",
    "date_created": "2023-08-24T14:33:21.000",
    "date_modified": "2023-08-24T14:33:21.000",
    "request_status": "Pending",
    "responsible_agency": "Department of Sanitation",
    "final_address": "1438 N Roman St",
    "address_councildis": "D",
    "status": "Pending",
    "rowid": "1029190",
    "final_x": "3680932.84117",
    "final_y": "537269.700296",
    "longitude": "-90.06966097903648",
    "latitude": "29.971322602178123",
    "geocoded_column": {
      "latitude": "29.971322602178123",
      "longitude": "-90.06966097903648"
    }
  },
  {
    "service_request": "2023-1029189",
    "request_type": "Trash/Recycling",
    "request_reason": "Order Trash Cart",
    "date_created": "2023-08-24T14:32:52.000",
    "date_modified": "2023-08-24T14:32:53.000",
    "request_status": "Pending",
    "responsible_agency": "Department of Sanitation",
    "final_address": "1438 N Roman St",
    "address_councildis": "D",
    "status": "Assigned to Contractor",
    "contractor": "IV Waste",
    "rowid": "1029189",
    "final_x": "3680932.84117",
    "final_y": "537269.700296",
    "longitude": "-90.06966097903648",
    "latitude": "29.971322602178123",
    "geocoded_column": {
      "latitude": "29.971322602178123",
      "longitude": "-90.06966097903648"
    }
  },
  {
    "service_request": "2023-1029188",
    "request_type": "Trash/Recycling",
    "request_reason": "Order Trash Cart",
    "date_created": "2023-08-24T14:30:23.000",
    "date_modified": "2023-08-24T14:30:24.000",
    "request_status": "Pending",
    "responsible_agency": "Department of Sanitation",
    "final_address": "431 40Th St",
    "address_councildis": "A",
    "status": "Assigned to Contractor",
    "contractor": "IV Waste",
    "rowid": "1029188",
    "final_x": "3664762.66324",
    "final_y": "553425.686871",
    "longitude": "-90.12018869605376",
    "latitude": "30.01622649843815",
    "geocoded_column": {
      "latitude": "30.01622649843815",
      "longitude": "-90.12018869605376"
    }
  },
  {
    "service_request": "2023-1029187",
    "request_type": "Trash/Recycling",
    "request_reason": "Order Trash Cart",
    "date_created": "2023-08-24T14:29:41.000",
    "date_modified": "2023-08-24T14:29:42.000",
    "request_status": "Pending",
    "responsible_agency": "Department of Sanitation",
    "final_address": "429 40Th St",
    "address_councildis": "A",
    "status": "Assigned to Contractor",
    "contractor": "IV Waste",
    "rowid": "1029187",
    "final_x": "3664780.71879",
    "final_y": "553423.603543",
    "longitude": "-90.120131717861",
    "latitude": "30.016220244379195",
    "geocoded_column": {
      "latitude": "30.016220244379195",
      "longitude": "-90.120131717861"
    }
  },
  {
    "service_request": "2023-1029186",
    "request_type": "Traffic Signals/Signs/Striping/Streetlights",
    "request_reason": "Street Light Outage/Malfunction",
    "date_created": "2023-08-24T14:27:18.000",
    "date_modified": "2023-08-24T14:27:19.000",
    "request_status": "Pending",
    "responsible_agency": "Department of Public Works",
    "final_address": "1409 Baronne St",
    "address_councildis": "B",
    "status": "Assigned to Contractor",
    "contractor": "Legacy Professional Services",
    "rowid": "1029186",
    "final_x": "3678491.89512",
    "final_y": "526234.513918",
    "longitude": "-90.07775171666945",
    "latitude": "29.941053351098873",
    "geocoded_column": {
      "latitude": "29.941053351098873",
      "longitude": "-90.07775171666945"
    }
  },
  {
    "service_request": "2023-1029185",
    "request_type": "Traffic Signals/Signs/Striping/Streetlights",
    "request_reason": "Street Light Outage/Malfunction",
    "date_created": "2023-08-24T14:25:46.000",
    "date_modified": "2023-08-24T14:27:44.000",
    "request_status": "Pending",
    "responsible_agency": "Department of Public Works",
    "final_address": "1539 Exposition Blvd",
    "address_councildis": "A",
    "status": "Assigned to Contractor",
    "contractor": "Legacy Professional Services",
    "rowid": "1029185",
    "final_x": "3664484.629",
    "final_y": "522678.773434",
    "longitude": "-90.12209408264928",
    "latitude": "29.931690804342406",
    "geocoded_column": {
      "latitude": "29.931690804342406",
      "longitude": "-90.12209408264928"
    }
  },
  {
    "service_request": "2023-1029184",
    "request_type": "Trash/Recycling",
    "request_reason": "Order Recycling Cart",
    "date_created": "2023-08-24T14:24:19.000",
    "date_modified": "2023-08-24T14:24:19.000",
    "request_status": "Pending",
    "responsible_agency": "Department of Sanitation",
    "final_address": "2320 Aubry St",
    "address_councildis": "D",
    "status": "Pending",
    "rowid": "1029184",
    "final_x": "3680691.17307",
    "final_y": "540278.838027",
    "longitude": "-90.07031944973672",
    "latitude": "29.97960401525594",
    "geocoded_column": {
      "latitude": "29.97960401525594",
      "longitude": "-90.07031944973672"
    }
  },
  {
    "service_request": "2023-1029183",
    "request_type": "Roads/Drainage",
    "request_reason": "Pothole",
    "date_created": "2023-08-24T14:23:59.000",
    "date_modified": "2023-08-24T14:23:59.000",
    "request_status": "Pending",
    "responsible_agency": "Department of Public Works",
    "final_address": "4819 Carondelet St",
    "address_councildis": "B",
    "status": "Pending",
    "rowid": "1029183",
    "final_x": "3669166.86868",
    "final_y": "521163.278585",
    "longitude": "-90.10736392540642",
    "latitude": "29.927386752325763",
    "geocoded_column": {
      "latitude": "29.927386752325763",
      "longitude": "-90.10736392540642"
    }
  },
  {
    "service_request": "2023-1029182",
    "request_type": "Trash/Recycling",
    "request_reason": "Order Trash Cart",
    "date_created": "2023-08-24T14:23:31.000",
    "date_modified": "2023-08-24T14:23:32.000",
    "request_status": "Pending",
    "responsible_agency": "Department of Sanitation",
    "final_address": "2320 Aubry St",
    "address_councildis": "D",
    "status": "Assigned to Contractor",
    "contractor": "IV Waste",
    "rowid": "1029182",
    "final_x": "3680691.17307",
    "final_y": "540278.838027",
    "longitude": "-90.07031944973672",
    "latitude": "29.97960401525594",
    "geocoded_column": {
      "latitude": "29.97960401525594",
      "longitude": "-90.07031944973672"
    }
  },
  {
    "service_request": "2023-1029181",
    "request_type": "Trash/Recycling",
    "request_reason": "Order Recycling Cart",
    "date_created": "2023-08-24T14:23:28.000",
    "date_modified": "2023-08-24T14:23:29.000",
    "request_status": "Pending",
    "responsible_agency": "Department of Sanitation",
    "final_address": "4049 S Inwood Ave",
    "address_councildis": "C",
    "status": "Pending",
    "rowid": "1029181",
    "final_x": "3705026.19857",
    "final_y": "513098.052721",
    "longitude": "-89.99446333768041",
    "latitude": "29.904106489992042",
    "geocoded_column": {
      "latitude": "29.904106489992042",
      "longitude": "-89.99446333768041"
    }
  },
  {
    "service_request": "2023-1029180",
    "request_type": "Trash/Recycling",
    "request_reason": "MIssed Recycling Pick-Up",
    "date_created": "2023-08-24T14:23:23.000",
    "date_modified": "2023-08-24T14:23:24.000",
    "request_status": "Pending",
    "responsible_agency": "Department of Sanitation",
    "final_address": "1840 Marengo St",
    "address_councildis": "B",
    "status": "Assigned to Contractor",
    "contractor": "Richards Disposal",
    "rowid": "1029180",
    "final_x": "3671783.5179",
    "final_y": "522006.739834",
    "longitude": "-90.09907511709385",
    "latitude": "29.929628759868",
    "geocoded_column": {
      "latitude": "29.929628759868",
      "longitude": "-90.09907511709385"
    }
  },
  {
    "service_request": "2023-1029179",
    "request_type": "Trash/Recycling",
    "request_reason": "Repair Recycling Cart",
    "date_created": "2023-08-24T14:16:29.000",
    "date_modified": "2023-08-24T14:16:29.000",
    "request_status": "Pending",
    "responsible_agency": "Department of Sanitation",
    "final_address": "618 Valence St",
    "address_councildis": "B",
    "status": "Pending",
    "rowid": "1029179",
    "final_x": "3669977.49281",
    "final_y": "517823.957174",
    "longitude": "-90.10491799079445",
    "latitude": "29.918180805530916",
    "geocoded_column": {
      "latitude": "29.918180805530916",
      "longitude": "-90.10491799079445"
    }
  },
  {
    "service_request": "2023-1029178",
    "request_type": "Trash/Recycling",
    "request_reason": "MIssed Recycling Pick-Up",
    "date_created": "2023-08-24T14:16:05.000",
    "date_modified": "2023-08-24T14:16:06.000",
    "request_status": "Pending",
    "responsible_agency": "Department of Sanitation",
    "final_address": "618 Valence St",
    "address_councildis": "B",
    "status": "Assigned to Contractor",
    "contractor": "Richards Disposal",
    "rowid": "1029178",
    "final_x": "3669977.49281",
    "final_y": "517823.957174",
    "longitude": "-90.10491799079445",
    "latitude": "29.918180805530916",
    "geocoded_column": {
      "latitude": "29.918180805530916",
      "longitude": "-90.10491799079445"
    }
  },
  {
    "service_request": "2023-1029177",
    "request_type": "Trash/Recycling",
    "request_reason": "Request a Large Item Pick Up",
    "date_created": "2023-08-24T14:15:58.000",
    "date_modified": "2023-08-24T14:15:58.000",
    "request_status": "Pending",
    "responsible_agency": "Department of Sanitation",
    "final_address": "8903 Middleboro Rd",
    "address_councildis": "E",
    "status": "Assigned to Contractor",
    "contractor": "Waste Pro",
    "rowid": "1029177",
    "final_x": "3706120.78135",
    "final_y": "560872.781406",
    "longitude": "-89.98924020084614",
    "latitude": "30.035434272453273",
    "geocoded_column": {
      "latitude": "30.035434272453273",
      "longitude": "-89.98924020084614"
    }
  },
  {
    "service_request": "2023-1029176",
    "request_type": "Parks & Parkways",
    "request_reason": "Request Tree Service (Right of Way/Public Property)",
    "date_created": "2023-08-24T14:05:17.000",
    "date_modified": "2023-08-24T14:05:18.000",
    "request_status": "Pending",
    "responsible_agency": "Department of Parks & Parkway",
    "final_address": "1208 St Charles Ave",
    "address_councildis": "B",
    "status": "Pending",
    "rowid": "1029176",
    "final_x": "3679749.34133",
    "final_y": "526229.516798",
    "longitude": "-90.07378190295405",
    "latitude": "29.941001663756175",
    "geocoded_column": {
      "latitude": "29.941001663756175",
      "longitude": "-90.07378190295405"
    }
  },
  {
    "service_request": "2023-1029174",
    "request_type": "Trash/Recycling",
    "request_reason": "Order Recycling Cart",
    "date_created": "2023-08-24T14:03:33.000",
    "date_modified": "2023-08-24T14:03:33.000",
    "request_status": "Pending",
    "responsible_agency": "Department of Sanitation",
    "final_address": "4315 State Street Dr",
    "address_councildis": "B",
    "status": "Pending",
    "rowid": "1029174",
    "final_x": "3668566.84167",
    "final_y": "531273.914114",
    "longitude": "-90.10891701229157",
    "latitude": "29.955205372109024",
    "geocoded_column": {
      "latitude": "29.955205372109024",
      "longitude": "-90.10891701229157"
    }
  },
  {
    "service_request": "2023-1029173",
    "request_type": "Traffic Signals/Signs/Striping/Streetlights",
    "request_reason": "Street Light Outage/Malfunction",
    "date_created": "2023-08-24T14:02:03.000",
    "date_modified": "2023-08-24T14:02:04.000",
    "request_status": "Pending",
    "responsible_agency": "Department of Public Works",
    "final_address": "2502 Magazine St",
    "address_councildis": "B",
    "status": "Assigned to Contractor",
    "contractor": "Legacy Professional Services",
    "rowid": "1029173",
    "final_x": "3677818.78664",
    "final_y": "521245.976057",
    "longitude": "-90.08004910981816",
    "latitude": "29.927356772199683",
    "geocoded_column": {
      "latitude": "29.927356772199683",
      "longitude": "-90.08004910981816"
    }
  },
  {
    "service_request": "2023-1029172",
    "request_type": "Trash/Recycling",
    "request_reason": "Request a Large Item Pick Up",
    "date_created": "2023-08-24T14:00:02.000",
    "date_modified": "2023-08-24T14:00:03.000",
    "request_status": "Pending",
    "responsible_agency": "Department of Sanitation",
    "final_address": "5511 S Eastover Dr",
    "address_councildis": "E",
    "status": "Assigned to Contractor",
    "contractor": "Waste Pro",
    "rowid": "1029172",
    "final_x": "3719544.25311",
    "final_y": "561651.708511",
    "longitude": "-89.94679048859892",
    "latitude": "30.037136218598697",
    "geocoded_column": {
      "latitude": "30.037136218598697",
      "longitude": "-89.94679048859892"
    }
  },
  {
    "service_request": "2023-1029171",
    "request_type": "Traffic Signals/Signs/Striping/Streetlights",
    "request_reason": "Street Light Outage/Malfunction",
    "date_created": "2023-08-24T13:56:41.000",
    "date_modified": "2023-08-24T13:56:42.000",
    "request_status": "Pending",
    "responsible_agency": "Department of Public Works",
    "final_address": "2502 Magazine St",
    "address_councildis": "B",
    "status": "Assigned to Contractor",
    "contractor": "Legacy Professional Services",
    "rowid": "1029171",
    "final_x": "3677818.78664",
    "final_y": "521245.976057",
    "longitude": "-90.08004910981816",
    "latitude": "29.927356772199683",
    "geocoded_column": {
      "latitude": "29.927356772199683",
      "longitude": "-90.08004910981816"
    }
  },
  {
    "service_request": "2023-1029170",
    "request_type": "Property Maintenance",
    "request_reason": "Property Maintenance",
    "date_created": "2023-08-24T13:55:31.000",
    "date_modified": "2023-08-24T13:55:31.000",
    "request_status": "Pending",
    "responsible_agency": "Department of Code Enforcement",
    "final_address": "514 S Salcedo St",
    "address_councildis": "B",
    "status": "Pending",
    "rowid": "1029170",
    "final_x": "3673080.29096",
    "final_y": "534620.464198",
    "longitude": "-90.09455093703228",
    "latitude": "29.96427388101359",
    "geocoded_column": {
      "latitude": "29.96427388101359",
      "longitude": "-90.09455093703228"
    }
  },
  {
    "service_request": "2023-1029169",
    "request_type": "Trash/Recycling",
    "request_reason": "Replace Trash Cart",
    "date_created": "2023-08-24T13:55:23.000",
    "date_modified": "2023-08-24T13:55:23.000",
    "request_status": "Pending",
    "responsible_agency": "Department of Sanitation",
    "final_address": "639 Clouet St, New Orleans, Louisiana, 70117",
    "address_councildis": "C",
    "status": "Assigned to Contractor",
    "contractor": "IV Waste",
    "rowid": "1029169",
    "final_x": "3688641.92214",
    "final_y": "534434.546949",
    "longitude": "-90.04541532636097",
    "latitude": "29.96329089855064",
    "geocoded_column": {
      "latitude": "29.96329089855064",
      "longitude": "-90.04541532636097"
    }
  },
  {
    "service_request": "2023-1029168",
    "request_type": "Abandoned Vehicles",
    "request_reason": "Abandoned/Junk Vehicles",
    "date_created": "2023-08-24T13:53:26.000",
    "date_modified": "2023-08-24T15:18:59.000",
    "request_status": "Pending",
    "responsible_agency": "Department of Public Works",
    "final_address": "4500 BLK Marque Dr",
    "address_councildis": "E",
    "status": "Pending",
    "rowid": "1029168",
    "final_x": "3710212.67928",
    "final_y": "554454.98635",
    "longitude": "-89.9765493778502",
    "latitude": "30.017655247149715",
    "geocoded_column": {
      "latitude": "30.017655247149715",
      "longitude": "-89.9765493778502"
    }
  },
  {
    "service_request": "2023-1029167",
    "request_type": "Trash/Recycling",
    "request_reason": "Request a Large Item Pick Up",
    "date_created": "2023-08-24T13:49:16.000",
    "date_modified": "2023-08-24T13:49:17.000",
    "request_status": "Pending",
    "responsible_agency": "Department of Sanitation",
    "final_address": "1938 Shalett St",
    "address_councildis": "C",
    "status": "Assigned to Contractor",
    "contractor": "Richards Disposal",
    "rowid": "1029167",
    "final_x": "3694297.44157",
    "final_y": "523202.372859",
    "longitude": "-90.02796000253919",
    "latitude": "29.93223031634593",
    "geocoded_column": {
      "latitude": "29.93223031634593",
      "longitude": "-90.02796000253919"
    }
  },
  {
    "service_request": "2023-1029166",
    "request_type": "Parks & Parkways",
    "request_reason": "Request Tree Service (Right of Way/Public Property)",
    "date_created": "2023-08-24T13:48:43.000",
    "date_modified": "2023-08-24T13:48:43.000",
    "request_status": "Pending",
    "responsible_agency": "Department of Parks & Parkway",
    "final_address": "3804 Chestnut St",
    "address_councildis": "B",
    "status": "Pending",
    "rowid": "1029166",
    "final_x": "3673149.49185",
    "final_y": "519720.696568",
    "longitude": "-90.09484097475008",
    "latitude": "29.923302346827146",
    "geocoded_column": {
      "latitude": "29.923302346827146",
      "longitude": "-90.09484097475008"
    }
  },
  {
    "service_request": "2023-1029165",
    "request_type": "Traffic Signals/Signs/Striping/Streetlights",
    "request_reason": "Street Light Outage/Malfunction",
    "date_created": "2023-08-24T13:47:05.000",
    "date_modified": "2023-08-24T13:47:06.000",
    "request_status": "Pending",
    "responsible_agency": "Department of Public Works",
    "final_address": "4038 S Derbigny St",
    "address_councildis": "B",
    "status": "Assigned to Contractor",
    "contractor": "Legacy Professional Services",
    "rowid": "1029165",
    "final_x": "3671508.43342",
    "final_y": "526332.071166",
    "longitude": "-90.09979651837014",
    "latitude": "29.941530167079108",
    "geocoded_column": {
      "latitude": "29.941530167079108",
      "longitude": "-90.09979651837014"
    }
  },
  {
    "service_request": "2023-1029163",
    "request_type": "Abandoned Vehicles",
    "request_reason": "Abandoned/Junk Vehicles",
    "date_created": "2023-08-24T13:45:59.000",
    "date_modified": "2023-08-24T13:45:59.000",
    "request_status": "Pending",
    "responsible_agency": "Department of Public Works",
    "final_address": "1214 Bartholomew St",
    "address_councildis": "D",
    "status": "Pending",
    "rowid": "1029163",
    "final_x": "3691889.70838",
    "final_y": "535785.465095",
    "longitude": "-90.03511089215135",
    "latitude": "29.96690467279949",
    "geocoded_column": {
      "latitude": "29.96690467279949",
      "longitude": "-90.03511089215135"
    }
  },
  {
    "service_request": "2023-1029162",
    "request_type": "Roads/Drainage",
    "request_reason": "Catch Basin - Clogged",
    "date_created": "2023-08-24T13:40:56.000",
    "date_modified": "2023-08-24T13:40:57.000",
    "request_status": "Pending",
    "responsible_agency": "Department of Public Works",
    "final_address": "13951 Dominic Mai Dr",
    "address_councildis": "E",
    "status": "Pending",
    "rowid": "1029162",
    "final_x": "3727870.85229",
    "final_y": "563699.937697",
    "longitude": "-89.92039715508564",
    "latitude": "30.042488325044857",
    "geocoded_column": {
      "latitude": "30.042488325044857",
      "longitude": "-89.92039715508564"
    }
  },
  {
    "service_request": "2023-1029161",
    "request_type": "Parks & Parkways",
    "request_reason": "Request Tree Service (Right of Way/Public Property)",
    "date_created": "2023-08-24T13:40:50.000",
    "date_modified": "2023-08-24T13:40:50.000",
    "request_status": "Pending",
    "responsible_agency": "Department of Parks & Parkway",
    "final_address": "NAPOLEON AVE & DANNEEL ST",
    "address_councildis": "B",
    "status": "Pending",
    "rowid": "1029161",
    "final_x": "3670751.1",
    "final_y": "522298.68",
    "longitude": "-90.10232438346941",
    "latitude": "29.930462039992946",
    "geocoded_column": {
      "latitude": "29.930462039992946",
      "longitude": "-90.10232438346941"
    }
  },
  {
    "service_request": "2023-1029160",
    "request_type": "Trash/Recycling",
    "request_reason": "Missed Trash Pick-Up",
    "date_created": "2023-08-24T13:39:11.000",
    "date_modified": "2023-08-24T14:47:20.000",
    "case_close_date": "2023-08-24T09:47:20.000",
    "request_status": "Closed",
    "responsible_agency": "Department of Sanitation",
    "final_address": "4548 Virgilian St",
    "address_councildis": "D",
    "status": "Invalid Request",
    "contractor": "Waste Pro",
    "contractor_action": "Invalid Pick-Up",
    "rowid": "1029160",
    "final_x": "3697485.13059",
    "final_y": "552838.157398",
    "longitude": "-90.01682190933802",
    "latitude": "30.013617823238178",
    "geocoded_column": {
      "latitude": "30.013617823238178",
      "longitude": "-90.01682190933802"
    }
  },
  {
    "service_request": "2023-1029159",
    "request_type": "Trash/Recycling",
    "request_reason": "Order Recycling Cart",
    "date_created": "2023-08-24T13:37:07.000",
    "date_modified": "2023-08-24T13:37:08.000",
    "request_status": "Pending",
    "responsible_agency": "Department of Sanitation",
    "final_address": "509 Octavia St",
    "address_councildis": "A",
    "status": "Pending",
    "rowid": "1029159",
    "final_x": "3666274.22189",
    "final_y": "517970.31007",
    "longitude": "-90.11660235566231",
    "latitude": "29.918691877100073",
    "geocoded_column": {
      "latitude": "29.918691877100073",
      "longitude": "-90.11660235566231"
    }
  },
  {
    "service_request": "2023-1029158",
    "request_type": "Trash/Recycling",
    "request_reason": "Repair Recycling Cart",
    "date_created": "2023-08-24T13:35:23.000",
    "date_modified": "2023-08-24T13:35:24.000",
    "request_status": "Pending",
    "responsible_agency": "Department of Sanitation",
    "final_address": "1456 Verna St",
    "address_councildis": "A",
    "status": "Pending",
    "rowid": "1029158",
    "final_x": "3675881.54465",
    "final_y": "541347.364364",
    "longitude": "-90.08547345615145",
    "latitude": "29.98268698968683",
    "geocoded_column": {
      "latitude": "29.98268698968683",
      "longitude": "-90.08547345615145"
    }
  },
  {
    "service_request": "2023-1029157",
    "request_type": "Trash/Recycling",
    "request_reason": "Return Trash Cart",
    "date_created": "2023-08-24T13:19:08.000",
    "date_modified": "2023-08-24T13:19:08.000",
    "request_status": "Pending",
    "responsible_agency": "Department of Sanitation",
    "final_address": "1318 Nashville Ave",
    "address_councildis": "A",
    "status": "Assigned to Contractor",
    "contractor": "Richards Disposal",
    "rowid": "1029157",
    "final_x": "3665867.84429",
    "final_y": "520841.413625",
    "longitude": "-90.11778894303781",
    "latitude": "29.926598369111478",
    "geocoded_column": {
      "latitude": "29.926598369111478",
      "longitude": "-90.11778894303781"
    }
  },
  {
    "service_request": "2023-1029156",
    "request_type": "Traffic Signals/Signs/Striping/Streetlights",
    "request_reason": "Street Light Outage/Malfunction",
    "date_created": "2023-08-24T13:18:20.000",
    "date_modified": "2023-08-24T13:18:20.000",
    "request_status": "Pending",
    "responsible_agency": "Department of Public Works",
    "final_address": "2736 Ap Tureaud Ave",
    "address_councildis": "D",
    "status": "Assigned to Contractor",
    "contractor": "Legacy Professional Services",
    "rowid": "1029156",
    "final_x": "3681406.55842",
    "final_y": "542539.182733",
    "longitude": "-90.06798113922717",
    "latitude": "29.985797471148835",
    "geocoded_column": {
      "latitude": "29.985797471148835",
      "longitude": "-90.06798113922717"
    }
  },
  {
    "service_request": "2023-1029155",
    "request_type": "Trash/Recycling",
    "request_reason": "Repair Trash Cart",
    "date_created": "2023-08-24T13:17:01.000",
    "date_modified": "2023-08-24T13:17:02.000",
    "request_status": "Pending",
    "responsible_agency": "Department of Sanitation",
    "final_address": "6620 Peony St",
    "address_councildis": "C",
    "status": "Assigned to Contractor",
    "contractor": "Richards Disposal",
    "rowid": "1029155",
    "final_x": "3708321.05873",
    "final_y": "516446.558581",
    "longitude": "-89.98394035312086",
    "latitude": "29.913207453961288",
    "geocoded_column": {
      "latitude": "29.913207453961288",
      "longitude": "-89.98394035312086"
    }
  },