[
  {
    "service_request": "2025-1226575",
    "request_type": "Roads and Streets",
    "request_reason": "Pothole",
    "date_created": "2025-09-15T22:30:57.000",
    "date_modified": "2025-09-15T22:30:59.000",
    "request_status": "Pending",
    "responsible_agency": "Department of Public Works",
    "final_address": "2708 Octavia St",
    "address_councildis": "A",
    "status": "Pending",
    "rowid": "1226575",
    "final_x": "3667854.99533",
    "final_y": "525457.428989",
    "longitude": "-90.11136063414558",
    "latitude": "29.93923282324112",
    "geocoded_column": {
      "latitude": "29.93923282324112",
      "longitude": "-90.11136063414558"
    }
  },
  {
    "service_request": "2025-1226574",
    "request_type": "Roads and Streets",
    "request_reason": "Debris in Driving Lanes",
    "date_created": "2025-09-15T22:18:13.000",
    "date_modified": "2025-09-15T22:18:15.000",
    "request_status": "Pending",
    "responsible_agency": "Department of Public Works",
    "final_address": "2708 Octavia St",
    "address_councildis": "A",
    "status": "Pending",
    "rowid": "1226574",
    "final_x": "3667854.99533",
    "final_y": "525457.428989",
    "longitude": "-90.11136063414558",
    "latitude": "29.93923282324112",
    "geocoded_column": {
      "latitude": "29.93923282324112",
      "longitude": "-90.11136063414558"
    }
  },
  {
    "service_request": "2025-1226573",
    "request_type": "Parks & Parkways",
    "request_reason": "Request Tree Service (Right of Way/Public Property)",
    "date_created": "2025-09-15T22:17:57.000",
    "date_modified": "2025-09-15T22:17:58.000",
    "request_status": "Pending",
    "responsible_agency": "Department of Parks & Parkway",
    "final_address": "1016 Joseph St",
    "address_councildis": "A",
    "status": "Pending",
    "rowid": "1226573",
    "final_x": "3666241.31847",
    "final_y": "519674.125944",
    "longitude": "-90.11664910922086",
    "latitude": "29.923377796667936",
    "geocoded_column": {
      "latitude": "29.923377796667936",
      "longitude": "-90.11664910922086"
    }
  },
  {
    "service_request": "2025-1226572",
    "request_type": "Trash/Recycling",
    "request_reason": "Request a Large Item Pick Up",
    "date_created": "2025-09-15T22:14:19.000",
    "date_modified": "2025-09-15T22:14:21.000",
    "request_status": "Pending",
    "responsible_agency": "Department of Sanitation",
    "final_address": "5430 Vermillion Blvd",
    "address_councildis": "D",
    "status": "Assigned to Contractor",
    "contractor": "IV Waste",
    "rowid": "1226572",
    "final_x": "3683152.63093",
    "final_y": "552849.825303",
    "longitude": "-90.06210469354386",
    "latitude": "30.014094909391517",
    "geocoded_column": {
      "latitude": "30.014094909391517",
      "longitude": "-90.06210469354386"
    }
  },
  {
    "service_request": "2025-1226571",
    "request_type": "Trash/Recycling",
    "request_reason": "Missed Trash Pick-Up",
    "date_created": "2025-09-15T21:55:33.000",
    "date_modified": "2025-09-15T21:55:35.000",
    "request_status": "Pending",
    "responsible_agency": "Department of Sanitation",
    "final_address": "8608 Marks St, New Orleans, Louisiana, 70118",
    "address_councildis": "A",
    "status": "Assigned to Contractor",
    "contractor": "IV Waste",
    "rowid": "1226571",
    "final_x": "3667466.20359",
    "final_y": "537236.656456",
    "longitude": "-90.11219177811225",
    "latitude": "29.97163323545828",
    "geocoded_column": {
      "latitude": "29.97163323545828",
      "longitude": "-90.11219177811225"
    }
  },
  {
    "service_request": "2025-1226570",
    "request_type": "Property Maintenance",
    "request_reason": "Property Maintenance",
    "date_created": "2025-09-15T21:45:35.000",
    "date_modified": "2025-09-15T21:45:37.000",
    "request_status": "Pending",
    "responsible_agency": "Department of Code Enforcement",
    "final_address": "4928 Cartier Ave",
    "address_councildis": "D",
    "status": "Pending",
    "rowid": "1226570",
    "final_x": "3677673.11438",
    "final_y": "550467.417812",
    "longitude": "-90.07949957400453",
    "latitude": "30.007710158796847",
    "geocoded_column": {
      "latitude": "30.007710158796847",
      "longitude": "-90.07949957400453"
    }
  },
  {
    "service_request": "2025-1226569",
    "request_type": "Trash/Recycling",
    "request_reason": "Request a Large Item Pick Up",
    "date_created": "2025-09-15T21:43:53.000",
    "date_modified": "2025-09-15T21:43:55.000",
    "request_status": "Pending",
    "responsible_agency": "Department of Sanitation",
    "final_address": "4224 Prentiss Ave",
    "address_councildis": "D",
    "status": "Assigned to Contractor",
    "contractor": "IV Waste",
    "rowid": "1226569",
    "final_x": "3689647.00361",
    "final_y": "554088.727",
    "longitude": "-90.04154169150111",
    "latitude": "30.017301718541834",
    "geocoded_column": {
      "latitude": "30.017301718541834",
      "longitude": "-90.04154169150111"
    }
  },
  {
    "service_request": "2025-1226568",
    "request_type": "Trash/Recycling",
    "request_reason": "Replace Trash Cart",
    "date_created": "2025-09-15T21:15:45.000",
    "date_modified": "2025-09-15T21:15:46.000",
    "request_status": "Pending",
    "responsible_agency": "Department of Sanitation",
    "final_address": "720 Belleville St",
    "address_councildis": "C",
    "status": "Assigned to Contractor",
    "contractor": "Richards Disposal",
    "rowid": "1226568",
    "final_x": "3687855.88233",
    "final_y": "528912.802112",
    "longitude": "-90.04809312808595",
    "latitude": "29.94813227262319",
    "geocoded_column": {
      "latitude": "29.94813227262319",
      "longitude": "-90.04809312808595"
    }
  },
  {
    "service_request": "2025-1226567",
    "request_type": "General Services",
    "request_reason": "General Service Request",
    "date_created": "2025-09-15T21:12:29.000",
    "date_modified": "2025-09-15T21:12:31.000",
    "request_status": "Pending",
    "responsible_agency": "Orleans Parish Communication District",
    "final_address": "3161 Mansfield Ave",
    "address_councildis": "C",
    "status": "Pending",
    "rowid": "1226567",
    "final_x": "3709047.13707",
    "final_y": "518555.554103",
    "longitude": "-89.98157012289155",
    "latitude": "29.918982925399398",
    "geocoded_column": {
      "latitude": "29.918982925399398",
      "longitude": "-89.98157012289155"
    }
  },
  {
    "service_request": "2025-1226566",
    "request_type": "Trash/Recycling",
    "request_reason": "Repair Trash Cart",
    "date_created": "2025-09-15T21:05:03.000",
    "date_modified": "2025-09-15T21:05:05.000",
    "request_status": "Pending",
    "responsible_agency": "Department of Sanitation",
    "final_address": "6856 Catina St",
    "address_councildis": "A",
    "status": "Assigned to Contractor",
    "contractor": "IV Waste",
    "rowid": "1226566",
    "final_x": "3667049.96474",
    "final_y": "553539.692375",
    "longitude": "-90.11295796102038",
    "latitude": "30.016473188331624",
    "geocoded_column": {
      "latitude": "30.016473188331624",
      "longitude": "-90.11295796102038"
    }
  },
  {
    "service_request": "2025-1226564",
    "request_type": "Streetlights",
    "request_reason": "Streetlight Outage/Malfunction",
    "date_created": "2025-09-15T20:18:03.000",
    "date_modified": "2025-09-15T20:18:05.000",
    "request_status": "Pending",
    "responsible_agency": "Department of Public Works",
    "final_address": "3828 Banks St",
    "address_councildis": "B",
    "status": "Pending",
    "rowid": "1226564",
    "final_x": "3671114.70235",
    "final_y": "536729.077959",
    "longitude": "-90.10068648612713",
    "latitude": "29.970130146875608",
    "geocoded_column": {
      "latitude": "29.970130146875608",
      "longitude": "-90.10068648612713"
    }
  },
  {
    "service_request": "2025-1226563",
    "request_type": "Property Maintenance",
    "request_reason": "Property Maintenance",
    "date_created": "2025-09-15T20:10:06.000",
    "date_modified": "2025-09-15T20:10:09.000",
    "request_status": "Pending",
    "responsible_agency": "Department of Code Enforcement",
    "final_address": "4431 Arthur Dr",
    "address_councildis": "E",
    "status": "Pending",
    "rowid": "1226563",
    "final_x": "3707932.79793",
    "final_y": "553798.929751",
    "longitude": "-89.98377725817956",
    "latitude": "30.015925377251275",
    "geocoded_column": {
      "latitude": "30.015925377251275",
      "longitude": "-89.98377725817956"
    }
  },
  {
    "service_request": "2025-1226562",
    "request_type": "Trash/Recycling",
    "request_reason": "Request a Large Item Pick Up",
    "date_created": "2025-09-15T20:08:34.000",
    "date_modified": "2025-09-15T20:08:35.000",
    "request_status": "Pending",
    "responsible_agency": "Department of Sanitation",
    "final_address": "3610 Touro St",
    "address_councildis": "D",
    "status": "Assigned to Contractor",
    "contractor": "IV Waste",
    "rowid": "1226562",
    "final_x": "3683418.02082",
    "final_y": "545904.160016",
    "longitude": "-90.06150977230449",
    "latitude": "29.994988735381984",
    "geocoded_column": {
      "latitude": "29.994988735381984",
      "longitude": "-90.06150977230449"
    }
  },
  {
    "service_request": "2025-1226561",
    "request_type": "Property Maintenance",
    "request_reason": "Property Maintenance",
    "date_created": "2025-09-15T20:07:21.000",
    "date_modified": "2025-09-15T20:07:24.000",
    "request_status": "Pending",
    "responsible_agency": "Department of Code Enforcement",
    "final_address": "4423 Arthur Dr",
    "address_councildis": "E",
    "status": "Pending",
    "rowid": "1226561",
    "final_x": "3707939.03275",
    "final_y": "553739.645527",
    "longitude": "-89.98375976526667",
    "latitude": "30.015762166641117",
    "geocoded_column": {
      "latitude": "30.015762166641117",
      "longitude": "-89.98375976526667"
    }
  },
  {
    "service_request": "2025-1226560",
    "request_type": "Trash/Recycling",
    "request_reason": "Repair Trash Cart",
    "date_created": "2025-09-15T19:40:54.000",
    "date_modified": "2025-09-15T19:40:56.000",
    "request_status": "Pending",
    "responsible_agency": "Department of Sanitation",
    "final_address": "5934 Colbert St",
    "address_councildis": "A",
    "status": "Assigned to Contractor",
    "contractor": "IV Waste",
    "rowid": "1226560",
    "final_x": "3667329.23969",
    "final_y": "547008.273809",
    "longitude": "-90.11229547700822",
    "latitude": "29.998505881913893",
    "geocoded_column": {
      "latitude": "29.998505881913893",
      "longitude": "-90.11229547700822"
    }
  },
  {
    "service_request": "2025-1226559",
    "request_type": "Trash/Recycling",
    "request_reason": "Illegal Dumping",
    "date_created": "2025-09-15T19:39:06.000",
    "date_modified": "2025-09-15T19:39:08.000",
    "request_status": "Pending",
    "responsible_agency": "Department of Sanitation",
    "final_address": "4449 Woodland Dr",
    "address_councildis": "C",
    "status": "Pending",
    "rowid": "1226559",
    "final_x": "3705445.01879",
    "final_y": "513656.422514",
    "longitude": "-89.99312093424625",
    "latitude": "29.905628353450297",
    "geocoded_column": {
      "latitude": "29.905628353450297",
      "longitude": "-89.99312093424625"
    }
  },
  {
    "service_request": "2025-1226558",
    "request_type": "Trash/Recycling",
    "request_reason": "Request a Large Item Pick Up",
    "date_created": "2025-09-15T19:22:42.000",
    "date_modified": "2025-09-15T19:22:44.000",
    "request_status": "Pending",
    "responsible_agency": "Department of Sanitation",
    "final_address": "1312 Gordon St",
    "address_councildis": "E",
    "status": "Assigned to Contractor",
    "contractor": "Waste Pro",
    "rowid": "1226558",
    "final_x": "3699454.51799",
    "final_y": "534265.604677",
    "longitude": "-90.01127674460399",
    "latitude": "29.962487764153153",
    "geocoded_column": {
      "latitude": "29.962487764153153",
      "longitude": "-90.01127674460399"
    }
  },
  {
    "service_request": "2025-1226557",
    "request_type": "Trash/Recycling",
    "request_reason": "Illegal Dumping",
    "date_created": "2025-09-15T19:22:10.000",
    "date_modified": "2025-09-15T19:22:11.000",
    "request_status": "Pending",
    "responsible_agency": "Department of Sanitation",
    "final_address": "501 S St Patrick St",
    "address_councildis": "A",
    "status": "Pending",
    "rowid": "1226557",
    "final_x": "3667995.56673",
    "final_y": "538515.585097",
    "longitude": "-90.11047685868172",
    "latitude": "29.975134337979277",
    "geocoded_column": {
      "latitude": "29.975134337979277",
      "longitude": "-90.11047685868172"
    }
  },
  {
    "service_request": "2025-1226556",
    "request_type": "Trash/Recycling",
    "request_reason": "Order Recycling Cart",
    "date_created": "2025-09-15T19:21:27.000",
    "date_modified": "2025-09-15T19:21:29.000",
    "request_status": "Pending",
    "responsible_agency": "Department of Sanitation",
    "final_address": "2816 Banks St",
    "address_councildis": "B",
    "status": "Pending",
    "rowid": "1226556",
    "final_x": "3673977.86017",
    "final_y": "534556.743045",
    "longitude": "-90.09171866335743",
    "latitude": "29.96407195676531",
    "geocoded_column": {
      "latitude": "29.96407195676531",
      "longitude": "-90.09171866335743"
    }
  },
  {
    "service_request": "2025-1226555",
    "request_type": "Abandoned Vehicles",
    "request_reason": "Abandoned/Junk Vehicles",
    "date_created": "2025-09-15T19:11:14.000",
    "date_modified": "2025-09-15T19:11:15.000",
    "request_status": "Pending",
    "responsible_agency": "Department of Public Works",
    "final_address": "6415 Debore Dr",
    "address_councildis": "D",
    "status": "Pending",
    "rowid": "1226555",
    "final_x": "3690887.06633",
    "final_y": "557079.256602",
    "longitude": "-90.03751675155884",
    "latitude": "30.025486057533744",
    "geocoded_column": {
      "latitude": "30.025486057533744",
      "longitude": "-90.03751675155884"
    }
  },
  {
    "service_request": "2025-1226554",
    "request_type": "Abandoned Vehicles",
    "request_reason": "Abandoned/Junk Vehicles",
    "date_created": "2025-09-15T19:08:48.000",
    "date_modified": "2025-09-15T19:08:49.000",
    "request_status": "Pending",
    "responsible_agency": "Department of Public Works",
    "final_address": "702 General Pershing St",
    "address_councildis": "B",
    "status": "Pending",
    "rowid": "1226554",
    "final_x": "3671467.96065",
    "final_y": "518140.008694",
    "longitude": "-90.1002026422634",
    "latitude": "29.919005826298992",
    "geocoded_column": {
      "latitude": "29.919005826298992",
      "longitude": "-90.1002026422634"
    }
  },
  {
    "service_request": "2025-1226553",
    "request_type": "Trash/Recycling",
    "request_reason": "Request a Large Item Pick Up",
    "date_created": "2025-09-15T18:52:30.000",
    "date_modified": "2025-09-15T18:52:32.000",
    "request_status": "Pending",
    "responsible_agency": "Department of Sanitation",
    "final_address": "12531 Carmel Pl",
    "address_councildis": "E",
    "status": "Assigned to Contractor",
    "contractor": "Waste Pro",
    "rowid": "1226553",
    "final_x": "3716359.7381",
    "final_y": "566925.797348",
    "longitude": "-89.9566539044965",
    "latitude": "30.051743387510015",
    "geocoded_column": {
      "latitude": "30.051743387510015",
      "longitude": "-89.9566539044965"
    }
  },
  {
    "service_request": "2025-1226552",
    "request_type": "Trash/Recycling",
    "request_reason": "Order Recycling Cart",
    "date_created": "2025-09-15T18:39:00.000",
    "date_modified": "2025-09-15T18:39:02.000",
    "request_status": "Pending",
    "responsible_agency": "Department of Sanitation",
    "final_address": "829 Amethyst St",
    "address_councildis": "D",
    "status": "Pending",
    "rowid": "1226552",
    "final_x": "3670401.80385",
    "final_y": "556885.007514",
    "longitude": "-90.10225400074042",
    "latitude": "30.025573026788148",
    "geocoded_column": {
      "latitude": "30.025573026788148",
      "longitude": "-90.10225400074042"
    }
  },
  {
    "service_request": "2025-1226551",
    "request_type": "Streetlights",
    "request_reason": "Streetlight Outage/Malfunction",
    "date_created": "2025-09-15T18:30:28.000",
    "date_modified": "2025-09-15T18:30:30.000",
    "request_status": "Pending",
    "responsible_agency": "Department of Public Works",
    "final_address": "2500 General De Gaulle Dr",
    "address_councildis": "C",
    "status": "Pending",
    "rowid": "1226551",
    "final_x": "3693079.02723",
    "final_y": "522388.352378",
    "longitude": "-90.0318355918901",
    "latitude": "29.930030147215714",
    "geocoded_column": {
      "latitude": "29.930030147215714",
      "longitude": "-90.0318355918901"
    }
  },
  {
    "service_request": "2025-1226550",
    "request_type": "General Services",
    "request_reason": "General Service Request",
    "date_created": "2025-09-15T18:28:36.000",
    "date_modified": "2025-09-15T18:28:39.000",
    "request_status": "Pending",
    "responsible_agency": "Orleans Parish Communication District",
    "final_address": "Nashville Ave, New Orleans, Louisiana, 70115 and Fontainebleau Dr, New Orleans, Louisiana, 70118",
    "status": "Pending",
    "rowid": "1226550",
    "longitude": "0.0",
    "latitude": "0.0",
    "geocoded_column": {
      "latitude": "0.0",
      "longitude": "0.0"
    }
  },
  {
    "service_request": "2025-1226549",
    "request_type": "Traffic Signals",
    "request_reason": "Traffic Signal Malfunctioning or Damaged",
    "date_created": "2025-09-15T18:18:50.000",
    "date_modified": "2025-09-15T18:18:58.000",
    "request_status": "Pending",
    "responsible_agency": "Department of Public Works",
    "final_address": "5466 Royal St",
    "address_councildis": "E",
    "status": "Pending",
    "rowid": "1226549",
    "final_x": "3697121.76061",
    "final_y": "532360.332803",
    "longitude": "-90.01871225578576",
    "latitude": "29.957322742156077",
    "geocoded_column": {
      "latitude": "29.957322742156077",
      "longitude": "-90.01871225578576"
    }
  },
  {
    "service_request": "2025-1226548",
    "request_type": "Abandoned Vehicles",
    "request_reason": "Abandoned/Junk Vehicles",
    "date_created": "2025-09-15T18:18:46.000",
    "date_modified": "2025-09-15T18:18:48.000",
    "request_status": "Pending",
    "responsible_agency": "Department of Public Works",
    "final_address": "2421 Annunciation St",
    "address_councildis": "B",
    "status": "Pending",
    "rowid": "1226548",
    "final_x": "3678515.31784",
    "final_y": "520532.552312",
    "longitude": "-90.07787501011872",
    "latitude": "29.925374122727415",
    "geocoded_column": {
      "latitude": "29.925374122727415",
      "longitude": "-90.07787501011872"
    }
  },
  {
    "service_request": "2025-1226547",
    "request_type": "Trash/Recycling",
    "request_reason": "Repair Recycling Cart",
    "date_created": "2025-09-15T18:17:36.000",
    "date_modified": "2025-09-15T18:17:38.000",
    "request_status": "Pending",
    "responsible_agency": "Department of Sanitation",
    "final_address": "1139 Louisiana Ave",
    "address_councildis": "B",
    "status": "Pending",
    "rowid": "1226547",
    "final_x": "3674980.13825",
    "final_y": "519945.326584",
    "longitude": "-90.08905460956093",
    "latitude": "29.923865473092864",
    "geocoded_column": {
      "latitude": "29.923865473092864",
      "longitude": "-90.08905460956093"
    }
  },
  {
    "service_request": "2025-1226546",
    "request_type": "Traffic Signals",
    "request_reason": "Traffic Signal Malfunctioning or Damaged",
    "date_created": "2025-09-15T18:07:48.000",
    "date_modified": "2025-09-15T18:07:51.000",
    "request_status": "Pending",
    "responsible_agency": "Department of Public Works",
    "final_address": "CALLIOPE ST & ANNUNCIATION ST & GAIENNIE ST",
    "address_councildis": "B",
    "status": "Pending",
    "rowid": "1226546",
    "final_x": "3681532.2",
    "final_y": "525857.38",
    "longitude": "-90.06816607131924",
    "latitude": "29.93992440362708",
    "geocoded_column": {
      "latitude": "29.93992440362708",
      "longitude": "-90.06816607131924"
    }
  },
  {
    "service_request": "2025-1226545",
    "request_type": "Abandoned Vehicles",
    "request_reason": "Abandoned/Junk Vehicles",
    "date_created": "2025-09-15T18:07:35.000",
    "date_modified": "2025-09-15T18:07:39.000",
    "request_status": "Pending",
    "responsible_agency": "Department of Public Works",
    "final_address": "2136 Toledano St",
    "address_councildis": "B",
    "status": "Pending",
    "rowid": "1226545",
    "final_x": "3673682.97921",
    "final_y": "523620.326203",
    "longitude": "-90.0930237089031",
    "latitude": "29.934009204108694",
    "geocoded_column": {
      "latitude": "29.934009204108694",
      "longitude": "-90.0930237089031"
    }
  },
  {
    "service_request": "2025-1226544",
    "request_type": "Mosquito, Termite & Rodent Control",
    "request_reason": "Non-Rodent Complaint (Possums & Snakes)",
    "date_created": "2025-09-15T17:58:08.000",
    "date_modified": "2025-09-15T17:58:09.000",
    "request_status": "Pending",
    "responsible_agency": "Mosquito, Termite & Rodent Control Board",
    "final_address": "2510 Bienville St",
    "address_councildis": "B",
    "status": "Pending",
    "rowid": "1226544",
    "final_x": "3676416.98325",
    "final_y": "535048.24903",
    "longitude": "-90.08399919934831",
    "latitude": "29.965350533072254",
    "geocoded_column": {
      "latitude": "29.965350533072254",
      "longitude": "-90.08399919934831"
    }
  },
  {
    "service_request": "2025-1226543",
    "request_type": "Trash/Recycling",
    "request_reason": "Damaged Caused By Contractor",
    "date_created": "2025-09-15T17:54:24.000",
    "date_modified": "2025-09-15T17:54:26.000",
    "request_status": "Pending",
    "responsible_agency": "Department of Sanitation",
    "final_address": "14060 Kingswood Dr",
    "address_councildis": "E",
    "status": "Assigned to Contractor",
    "contractor": "Waste Pro",
    "rowid": "1226543",
    "final_x": "3719600.27666",
    "final_y": "568613.724197",
    "longitude": "-89.946347126667",
    "latitude": "30.05627703613769",
    "geocoded_column": {
      "latitude": "30.05627703613769",
      "longitude": "-89.946347126667"
    }
  },
  {
    "service_request": "2025-1226542",
    "request_type": "Trash/Recycling",
    "request_reason": "Request a Large Item Pick Up",
    "date_created": "2025-09-15T17:49:23.000",
    "date_modified": "2025-09-15T17:49:25.000",
    "request_status": "Pending",
    "responsible_agency": "Department of Sanitation",
    "final_address": "8439 Sycamore St",
    "address_councildis": "A",
    "status": "Assigned to Contractor",
    "contractor": "IV Waste",
    "rowid": "1226542",
    "final_x": "3663326.15034",
    "final_y": "531942.587331",
    "longitude": "-90.12544300049993",
    "latitude": "29.957196949179068",
    "geocoded_column": {
      "latitude": "29.957196949179068",
      "longitude": "-90.12544300049993"
    }
  },
  {
    "service_request": "2025-1226541",
    "request_type": "Roads and Streets",
    "request_reason": "Street Subsidence (Sinking)",
    "date_created": "2025-09-15T17:45:24.000",
    "date_modified": "2025-09-15T17:45:26.000",
    "request_status": "Pending",
    "responsible_agency": "Sewerage & Water Board",
    "final_address": "103 Sherwood Forest Dr",
    "address_councildis": "A",
    "status": "Pending",
    "rowid": "1226541",
    "final_x": "3673256.92436",
    "final_y": "541280.025036",
    "longitude": "-90.09376563636803",
    "latitude": "29.982580161976518",
    "geocoded_column": {
      "latitude": "29.982580161976518",
      "longitude": "-90.09376563636803"
    }
  },
  {
    "service_request": "2025-1226540",
    "request_type": "Abandoned Vehicles",
    "request_reason": "Abandoned/Junk Vehicles",
    "date_created": "2025-09-15T17:42:31.000",
    "date_modified": "2025-09-15T17:42:32.000",
    "request_status": "Pending",
    "responsible_agency": "Department of Public Works",
    "final_address": "1300 General Collins Ave",
    "address_councildis": "C",
    "status": "Pending",
    "rowid": "1226540",
    "final_x": "3698666.028",
    "final_y": "526478.383998",
    "longitude": "-90.01404980334961",
    "latitude": "29.941100642618117",
    "geocoded_column": {
      "latitude": "29.941100642618117",
      "longitude": "-90.01404980334961"
    }
  },
  {
    "service_request": "2025-1226539",
    "request_type": "Abandoned Vehicles",
    "request_reason": "Abandoned/Junk Vehicles",
    "date_created": "2025-09-15T17:42:30.000",
    "date_modified": "2025-09-15T17:42:31.000",
    "request_status": "Pending",
    "responsible_agency": "Department of Public Works",
    "final_address": "1300 General Collins Ave",
    "address_councildis": "C",
    "status": "Pending",
    "rowid": "1226539",
    "final_x": "3698666.028",
    "final_y": "526478.383998",
    "longitude": "-90.01404980334961",
    "latitude": "29.941100642618117",
    "geocoded_column": {
      "latitude": "29.941100642618117",
      "longitude": "-90.01404980334961"
    }
  },
  {
    "service_request": "2025-1226538",
    "request_type": "Property Maintenance",
    "request_reason": "Property Maintenance",
    "date_created": "2025-09-15T17:37:48.000",
    "date_modified": "2025-09-15T17:37:50.000",
    "request_status": "Pending",
    "responsible_agency": "Department of Code Enforcement",
    "final_address": "7 S Oak Ridge Ct",
    "address_councildis": "E",
    "status": "Pending",
    "rowid": "1226538",
    "final_x": "3713411.77343",
    "final_y": "567497.65098",
    "longitude": "-89.96594983193944",
    "latitude": "30.053412809365476",
    "geocoded_column": {
      "latitude": "30.053412809365476",
      "longitude": "-89.96594983193944"
    }
  },
  {
    "service_request": "2025-1226537",
    "request_type": "Trash/Recycling",
    "request_reason": "Request a Large Item Pick Up",
    "date_created": "2025-09-15T17:30:07.000",
    "date_modified": "2025-09-15T17:30:17.000",
    "request_status": "Pending",
    "responsible_agency": "Department of Sanitation",
    "final_address": "16 Grand Cypress Ct",
    "address_councildis": "C",
    "status": "Assigned to Contractor",
    "contractor": "Richards Disposal",
    "rowid": "1226537",
    "final_x": "3722118.08819",
    "final_y": "513232.899122",
    "longitude": "-89.94051664456497",
    "latitude": "29.903917064805764",
    "geocoded_column": {
      "latitude": "29.903917064805764",
      "longitude": "-89.94051664456497"
    }
  },
  {
    "service_request": "2025-1226536",
    "request_type": "Abandoned Vehicles",
    "request_reason": "Abandoned/Junk Vehicles",
    "date_created": "2025-09-15T17:28:23.000",
    "date_modified": "2025-09-15T17:28:26.000",
    "request_status": "Pending",
    "responsible_agency": "Department of Public Works",
    "final_address": "3526 Danneel St",
    "address_councildis": "B",
    "status": "Pending",
    "rowid": "1226536",
    "final_x": "3673124.14452",
    "final_y": "522606.910202",
    "longitude": "-90.0948225116188",
    "latitude": "29.93123925921304",
    "geocoded_column": {
      "latitude": "29.93123925921304",
      "longitude": "-90.0948225116188"
    }
  },
  {
    "service_request": "2025-1226535",
    "request_type": "Trash/Recycling",
    "request_reason": "Order Recycling Cart",
    "date_created": "2025-09-15T17:12:45.000",
    "date_modified": "2025-09-15T17:12:47.000",
    "request_status": "Pending",
    "responsible_agency": "Department of Sanitation",
    "final_address": "4614 Allen St",
    "address_councildis": "D",
    "status": "Pending",
    "rowid": "1226535",
    "final_x": "3681660.93589",
    "final_y": "549518.229267",
    "longitude": "-90.06693402993716",
    "latitude": "30.0049796437878",
    "geocoded_column": {
      "latitude": "30.0049796437878",
      "longitude": "-90.06693402993716"
    }
  },
  {
    "service_request": "2025-1226534",
    "request_type": "Street and Traffic Signs",
    "request_reason": "Traffic or Parking Sign Damaged or Missing",
    "date_created": "2025-09-15T17:03:36.000",
    "date_modified": "2025-09-15T17:03:38.000",
    "request_status": "Pending",
    "responsible_agency": "Department of Public Works",
    "final_address": "3800 BLK Nashville Ave",
    "address_councildis": "A",
    "status": "Pending",
    "rowid": "1226534",
    "final_x": "3668487.0685",
    "final_y": "529597.708965",
    "longitude": "-90.10922545104786",
    "latitude": "29.950598700378197",
    "geocoded_column": {
      "latitude": "29.950598700378197",
      "longitude": "-90.10922545104786"
    }
  },
  {
    "service_request": "2025-1226533",
    "request_type": "Traffic Signals",
    "request_reason": "Traffic Signal Malfunctioning or Damaged",
    "date_created": "2025-09-15T16:58:41.000",
    "date_modified": "2025-09-15T16:58:42.000",
    "request_status": "Pending",
    "responsible_agency": "Department of Public Works",
    "final_address": "CHEF MENTEUR HWY & DOWNMAN RD & CHEF MENTEUR BRIDGE",
    "address_councildis": "D",
    "status": "Pending",
    "rowid": "1226533",
    "final_x": "3696211.9",
    "final_y": "551507.88",
    "longitude": "-90.02089277553281",
    "latitude": "30.010000220946775",
    "geocoded_column": {
      "latitude": "30.010000220946775",
      "longitude": "-90.02089277553281"
    }
  },
  {
    "service_request": "2025-1226532",
    "request_type": "Utility Poles",
    "request_reason": "Utility Pole Down",
    "date_created": "2025-09-15T16:57:13.000",
    "date_modified": "2025-09-15T16:57:18.000",
    "request_status": "Pending",
    "responsible_agency": "Utility Company Collective",
    "final_address": "1919 Montegut St",
    "address_councildis": "D",
    "status": "Pending",
    "rowid": "1226532",
    "final_x": "3689329.92342",
    "final_y": "539278.073802",
    "longitude": "-90.04307047193626",
    "latitude": "29.976587614455298",
    "geocoded_column": {
      "latitude": "29.976587614455298",
      "longitude": "-90.04307047193626"
    }
  },
  {
    "service_request": "2025-1226531",
    "request_type": "Trash/Recycling",
    "request_reason": "Order Second Trash Cart",
    "date_created": "2025-09-15T16:53:53.000",
    "date_modified": "2025-09-15T16:53:54.000",
    "request_status": "Pending",
    "responsible_agency": "Department of Sanitation",
    "final_address": "2167 N Tonti St",
    "address_councildis": "D",
    "status": "Assigned to Contractor",
    "contractor": "IV Waste",
    "rowid": "1226531",
    "final_x": "3684108.52514",
    "final_y": "540714.252363",
    "longitude": "-90.05951080301602",
    "latitude": "29.980697235129796",
    "geocoded_column": {
      "latitude": "29.980697235129796",
      "longitude": "-90.05951080301602"
    }
  },
  {
    "service_request": "2025-1226530",
    "request_type": "Trash/Recycling",
    "request_reason": "Request a Large Item Pick Up",
    "date_created": "2025-09-15T16:53:40.000",
    "date_modified": "2025-09-15T16:53:43.000",
    "request_status": "Pending",
    "responsible_agency": "Department of Sanitation",
    "final_address": "5719 Mandeville St",
    "address_councildis": "D",
    "status": "Assigned to Contractor",
    "contractor": "IV Waste",
    "rowid": "1226530",
    "final_x": "3684404.68021",
    "final_y": "554092.577432",
    "longitude": "-90.05810515779102",
    "latitude": "30.017473769172874",
    "geocoded_column": {
      "latitude": "30.017473769172874",
      "longitude": "-90.05810515779102"
    }
  },
  {
    "service_request": "2025-1226529",
    "request_type": "Property Maintenance",
    "request_reason": "Property Maintenance",
    "date_created": "2025-09-15T16:51:01.000",
    "date_modified": "2025-09-15T16:51:03.000",
    "request_status": "Pending",
    "responsible_agency": "Department of Code Enforcement",
    "final_address": "4516 S Robertson St",
    "address_councildis": "B",
    "status": "Pending",
    "rowid": "1226529",
    "final_x": "3669948.49806",
    "final_y": "524303.036476",
    "longitude": "-90.10479024132798",
    "latitude": "29.935997061313838",
    "geocoded_column": {
      "latitude": "29.935997061313838",
      "longitude": "-90.10479024132798"
    }
  },
  {
    "service_request": "2025-1226528",
    "request_type": "Trash/Recycling",
    "request_reason": "Request a Large Item Pick Up",
    "date_created": "2025-09-15T16:49:49.000",
    "date_modified": "2025-09-15T16:49:50.000",
    "request_status": "Pending",
    "responsible_agency": "Department of Sanitation",
    "final_address": "14140 Dwyer Blvd",
    "address_councildis": "E",
    "status": "Assigned to Contractor",
    "contractor": "Waste Pro",
    "rowid": "1226528",
    "final_x": "3729031.0009",
    "final_y": "563007.606432",
    "longitude": "-89.91675773628448",
    "latitude": "30.040545316593146",
    "geocoded_column": {
      "latitude": "30.040545316593146",
      "longitude": "-89.91675773628448"
    }
  },
  {
    "service_request": "2025-1226527",
    "request_type": "Trash/Recycling",
    "request_reason": "Repair Trash Cart",
    "date_created": "2025-09-15T16:48:14.000",
    "date_modified": "2025-09-15T16:48:19.000",
    "request_status": "Pending",
    "responsible_agency": "Department of Sanitation",
    "final_address": "5620 Prytania St",
    "address_councildis": "A",
    "status": "Assigned to Contractor",
    "contractor": "IV Waste",
    "rowid": "1226527",
    "final_x": "3666274.63815",
    "final_y": "520535.31724",
    "longitude": "-90.11651506259058",
    "latitude": "29.925744828466836",
    "geocoded_column": {
      "latitude": "29.925744828466836",
      "longitude": "-90.11651506259058"
    }
  },
  {
    "service_request": "2025-1226526",
    "request_type": "Trash/Recycling",
    "request_reason": "Order Trash Cart",
    "date_created": "2025-09-15T16:44:05.000",
    "date_modified": "2025-09-15T16:44:08.000",
    "request_status": "Pending",
    "responsible_agency": "Department of Sanitation",
    "final_address": "4228 Downman Rd",
    "address_councildis": "D",
    "status": "Assigned to Contractor",
    "contractor": "Waste Pro",
    "rowid": "1226526",
    "final_x": "3696002.84886",
    "final_y": "552801.61135",
    "longitude": "-90.02150644645901",
    "latitude": "30.013564080085526",
    "geocoded_column": {
      "latitude": "30.013564080085526",
      "longitude": "-90.02150644645901"
    }
  },
  {
    "service_request": "2025-1226525",
    "request_type": "Roads and Streets",
    "request_reason": "Street Subsidence (Sinking)",
    "date_created": "2025-09-15T16:43:23.000",
    "date_modified": "2025-09-15T16:43:26.000",
    "request_status": "Pending",
    "responsible_agency": "Sewerage & Water Board",
    "final_address": "1820 Fern St",
    "address_councildis": "A",
    "status": "Pending",
    "rowid": "1226525",
    "final_x": "3664044.77632",
    "final_y": "529573.671873",
    "longitude": "-90.12325278647215",
    "latitude": "29.950662350231312",
    "geocoded_column": {
      "latitude": "29.950662350231312",
      "longitude": "-90.12325278647215"
    }
  },
  {
    "service_request": "2025-1226524",
    "request_type": "Abandoned Vehicles",
    "request_reason": "Abandoned/Junk Vehicles",
    "date_created": "2025-09-15T16:42:56.000",
    "date_modified": "2025-09-15T16:42:58.000",
    "request_status": "Pending",
    "responsible_agency": "Department of Public Works",
    "final_address": "1018 First St",
    "address_councildis": "B",
    "status": "Pending",
    "rowid": "1226524",
    "final_x": "3678150.17544",
    "final_y": "521308.377529",
    "longitude": "-90.07900084158312",
    "latitude": "29.927518385214334",
    "geocoded_column": {
      "latitude": "29.927518385214334",
      "longitude": "-90.07900084158312"
    }
  },
  {
    "service_request": "2025-1226523",
    "request_type": "Trash/Recycling",
    "request_reason": "Dead Animal Pick Up",
    "date_created": "2025-09-15T16:42:25.000",
    "date_modified": "2025-09-15T16:42:26.000",
    "request_status": "Pending",
    "responsible_agency": "Department of Sanitation",
    "final_address": "HILLARY ST & WILLOW ST",
    "address_councildis": "A",
    "status": "Assigned to Contractor",
    "contractor": "IV Waste",
    "rowid": "1226523",
    "final_x": "3663767.9",
    "final_y": "527680.68",
    "longitude": "-90.12419009701334",
    "latitude": "29.94546526875443",
    "geocoded_column": {
      "latitude": "29.94546526875443",
      "longitude": "-90.12419009701334"
    }
  },
  {
    "service_request": "2025-1226522",
    "request_type": "Trash/Recycling",
    "request_reason": "Request a Large Item Pick Up",
    "date_created": "2025-09-15T16:42:14.000",
    "date_modified": "2025-09-15T16:42:16.000",
    "request_status": "Pending",
    "responsible_agency": "Department of Sanitation",
    "final_address": "7321 Agate St",
    "address_councildis": "D",
    "status": "Assigned to Contractor",
    "contractor": "IV Waste",
    "rowid": "1226522",
    "final_x": "3670808.76167",
    "final_y": "555360.111449",
    "longitude": "-90.10101988919605",
    "latitude": "30.021368080330767",
    "geocoded_column": {
      "latitude": "30.021368080330767",
      "longitude": "-90.10101988919605"
    }
  },
  {
    "service_request": "2025-1226521",
    "request_type": "Trash/Recycling",
    "request_reason": "Replace Trash Cart",
    "date_created": "2025-09-15T16:39:49.000",
    "date_modified": "2025-09-15T16:39:52.000",
    "request_status": "Pending",
    "responsible_agency": "Department of Sanitation",
    "final_address": "2737 Annette St",
    "address_councildis": "D",
    "status": "Assigned to Contractor",
    "contractor": "IV Waste",
    "rowid": "1226521",
    "final_x": "3682694.65634",
    "final_y": "542373.947917",
    "longitude": "-90.06391834073253",
    "latitude": "29.985303958362593",
    "geocoded_column": {
      "latitude": "29.985303958362593",
      "longitude": "-90.06391834073253"
    }
  },
  {
    "service_request": "2025-1226520",
    "request_type": "Trash/Recycling",
    "request_reason": "Request a Large Item Pick Up",
    "date_created": "2025-09-15T16:35:09.000",
    "date_modified": "2025-09-15T16:35:10.000",
    "request_status": "Pending",
    "responsible_agency": "Department of Sanitation",
    "final_address": "6119 N Tonti St",
    "address_councildis": "E",
    "status": "Assigned to Contractor",
    "contractor": "Waste Pro",
    "rowid": "1226520",
    "final_x": "3701394.1098",
    "final_y": "537562.302152",
    "longitude": "-90.00503114293868",
    "latitude": "29.971490817012626",
    "geocoded_column": {
      "latitude": "29.971490817012626",
      "longitude": "-90.00503114293868"
    }
  },
  {
    "service_request": "2025-1226519",
    "request_type": "Streetlights",
    "request_reason": "Streetlight Outage/Malfunction",
    "date_created": "2025-09-15T16:34:03.000",
    "date_modified": "2025-09-15T16:34:05.000",
    "request_status": "Pending",
    "responsible_agency": "Department of Public Works",
    "final_address": "2820 Aubry St",
    "address_councildis": "D",
    "status": "Pending",
    "rowid": "1226519",
    "final_x": "3679023.72482",
    "final_y": "541578.974156",
    "longitude": "-90.07554084782727",
    "latitude": "29.98322937034226",
    "geocoded_column": {
      "latitude": "29.98322937034226",
      "longitude": "-90.07554084782727"
    }
  },
  {
    "service_request": "2025-1226518",
    "request_type": "Trash/Recycling",
    "request_reason": "Repair Trash Cart",
    "date_created": "2025-09-15T16:31:19.000",
    "date_modified": "2025-09-15T16:31:21.000",
    "request_status": "Pending",
    "responsible_agency": "Department of Sanitation",
    "final_address": "7636 Tricia Ct",
    "address_councildis": "E",
    "status": "Assigned to Contractor",
    "contractor": "Waste Pro",
    "rowid": "1226518",
    "final_x": "3717609.64127",
    "final_y": "571043.971943",
    "longitude": "-89.95254654756565",
    "latitude": "30.06302531183269",
    "geocoded_column": {
      "latitude": "30.06302531183269",
      "longitude": "-89.95254654756565"
    }
  },
  {
    "service_request": "2025-1226517",
    "request_type": "Trash/Recycling",
    "request_reason": "Missed Trash Pick-Up",
    "date_created": "2025-09-15T16:28:26.000",
    "date_modified": "2025-09-15T16:28:36.000",
    "request_status": "Pending",
    "responsible_agency": "Department of Sanitation",
    "final_address": "1713 Patterson St",
    "address_councildis": "C",
    "status": "Assigned to Contractor",
    "contractor": "Richards Disposal",
    "rowid": "1226517",
    "final_x": "3690806.19548",
    "final_y": "530830.690754",
    "longitude": "-90.0387094037177",
    "latitude": "29.953314481787835",
    "geocoded_column": {
      "latitude": "29.953314481787835",
      "longitude": "-90.0387094037177"
    }
  },
  {
    "service_request": "2025-1226516",
    "request_type": "Trash/Recycling",
    "request_reason": "Request a Large Item Pick Up",
    "date_created": "2025-09-15T16:26:03.000",
    "date_modified": "2025-09-15T16:26:06.000",
    "request_status": "Pending",
    "responsible_agency": "Department of Sanitation",
    "final_address": "4827 Bright Dr",
    "address_councildis": "E",
    "status": "Assigned to Contractor",
    "contractor": "Waste Pro",
    "rowid": "1226516",
    "final_x": "3715866.06501",
    "final_y": "557251.269787",
    "longitude": "-89.9585811013429",
    "latitude": "30.02515864311863",
    "geocoded_column": {
      "latitude": "30.02515864311863",
      "longitude": "-89.9585811013429"
    }
  },
  {
    "service_request": "2025-1226515",
    "request_type": "Trash/Recycling",
    "request_reason": "Request a Large Item Pick Up",
    "date_created": "2025-09-15T16:20:21.000",
    "date_modified": "2025-09-15T16:20:22.000",
    "request_status": "Pending",
    "responsible_agency": "Department of Sanitation",
    "final_address": "2413 Allen St",
    "address_councildis": "D",
    "status": "Assigned to Contractor",
    "contractor": "IV Waste",
    "rowid": "1226515",
    "final_x": "3682418.79944",
    "final_y": "541084.077388",
    "longitude": "-90.06483475976499",
    "latitude": "29.98176566730219",
    "geocoded_column": {
      "latitude": "29.98176566730219",
      "longitude": "-90.06483475976499"
    }
  },
  {
    "service_request": "2025-1226514",
    "request_type": "Abandoned Vehicles",
    "request_reason": "Abandoned/Junk Vehicles",
    "date_created": "2025-09-15T16:18:53.000",
    "date_modified": "2025-09-15T16:18:55.000",
    "request_status": "Pending",
    "responsible_agency": "Department of Public Works",
    "final_address": "5219 Cannes St",
    "address_councildis": "E",
    "status": "Pending",
    "rowid": "1226514",
    "final_x": "3726758.51526",
    "final_y": "563087.344032",
    "longitude": "-89.92393633900721",
    "latitude": "30.040841614287988",
    "geocoded_column": {
      "latitude": "30.040841614287988",
      "longitude": "-89.92393633900721"
    }
  },
  {
    "service_request": "2025-1226513",
    "request_type": "Trash/Recycling",
    "request_reason": "Request a Large Item Pick Up",
    "date_created": "2025-09-15T16:14:45.000",
    "date_modified": "2025-09-15T16:14:46.000",
    "request_status": "Pending",
    "responsible_agency": "Department of Sanitation",
    "final_address": "303 Audubon St",
    "address_councildis": "A",
    "status": "Assigned to Contractor",
    "contractor": "IV Waste",
    "rowid": "1226513",
    "final_x": "3661595.50214",
    "final_y": "522051.552314",
    "longitude": "-90.1312355496734",
    "latitude": "29.930049802594002",
    "geocoded_column": {
      "latitude": "29.930049802594002",
      "longitude": "-90.1312355496734"
    }
  },
  {
    "service_request": "2025-1226512",
    "request_type": "Trash/Recycling",
    "request_reason": "Repair Trash Cart",
    "date_created": "2025-09-15T16:14:35.000",
    "date_modified": "2025-09-15T16:14:36.000",
    "request_status": "Pending",
    "responsible_agency": "Department of Sanitation",
    "final_address": "3205 Behrman Hwy",
    "address_councildis": "C",
    "status": "Assigned to Contractor",
    "contractor": "Richards Disposal",
    "rowid": "1226512",
    "final_x": "3695040.9311",
    "final_y": "518567.526711",
    "longitude": "-90.02577985618775",
    "latitude": "29.919462752730457",
    "geocoded_column": {
      "latitude": "29.919462752730457",
      "longitude": "-90.02577985618775"
    }
  },
  {
    "service_request": "2025-1226511",
    "request_type": "Trash/Recycling",
    "request_reason": "Request a Large Item Pick Up",
    "date_created": "2025-09-15T16:12:05.000",
    "date_modified": "2025-09-15T16:15:57.000",
    "request_status": "Pending",
    "responsible_agency": "Department of Sanitation",
    "final_address": "1523 Athis St",
    "address_councildis": "D",
    "status": "Assigned to Contractor",
    "contractor": "IV Waste",
    "rowid": "1226511",
    "final_x": "3678553.09166",
    "final_y": "553826.854167",
    "longitude": "-90.07660306180952",
    "latitude": "30.01692089417734",
    "geocoded_column": {
      "latitude": "30.01692089417734",
      "longitude": "-90.07660306180952"
    }
  },
  {
    "service_request": "2025-1226510",
    "request_type": "Trash/Recycling",
    "request_reason": "Request a Large Item Pick Up",
    "date_created": "2025-09-15T16:08:23.000",
    "date_modified": "2025-09-15T16:08:25.000",
    "request_status": "Pending",
    "responsible_agency": "Department of Sanitation",
    "final_address": "3103 Banks St Apt 2A",
    "address_councildis": "B",
    "status": "Assigned to Contractor",
    "contractor": "IV Waste",
    "rowid": "1226510",
    "final_x": "3673362.06952",
    "final_y": "535198.216518",
    "longitude": "-90.09364136264686",
    "latitude": "29.965854126324125",
    "geocoded_column": {
      "latitude": "29.965854126324125",
      "longitude": "-90.09364136264686"
    }
  },
  {
    "service_request": "2025-1226509",
    "request_type": "Trash/Recycling",
    "request_reason": "Order Trash Cart",
    "date_created": "2025-09-15T16:07:27.000",
    "date_modified": "2025-09-15T16:07:29.000",
    "request_status": "Pending",
    "responsible_agency": "Department of Sanitation",
    "final_address": "707 Toulouse St",
    "address_councildis": "C",
    "status": "Assigned to Contractor",
    "contractor": "IV Waste",
    "rowid": "1226509",
    "final_x": "3682293.90236",
    "final_y": "532213.028483",
    "longitude": "-90.06553925371693",
    "latitude": "29.957377146772284",
    "geocoded_column": {
      "latitude": "29.957377146772284",
      "longitude": "-90.06553925371693"
    }
  },
  {
    "service_request": "2025-1226508",
    "request_type": "Trash/Recycling",
    "request_reason": "Request a Large Item Pick Up",
    "date_created": "2025-09-15T16:01:07.000",
    "date_modified": "2025-09-15T16:01:09.000",
    "request_status": "Pending",
    "responsible_agency": "Department of Sanitation",
    "final_address": "3040 St Peter St",
    "address_councildis": "A",
    "status": "Assigned to Contractor",
    "contractor": "IV Waste",
    "rowid": "1226508",
    "final_x": "3675313.46273",
    "final_y": "537819.988233",
    "longitude": "-90.0873888908425",
    "latitude": "29.973004913042967",
    "geocoded_column": {
      "latitude": "29.973004913042967",
      "longitude": "-90.0873888908425"
    }
  },
  {
    "service_request": "2025-1226507",
    "request_type": "Trash/Recycling",
    "request_reason": "Request a Large Item Pick Up",
    "date_created": "2025-09-15T15:54:24.000",
    "date_modified": "2025-09-15T15:54:26.000",
    "request_status": "Pending",
    "responsible_agency": "Department of Sanitation",
    "final_address": "220 Pacific Ave",
    "address_councildis": "C",
    "status": "Assigned to Contractor",
    "contractor": "Richards Disposal",
    "rowid": "1226507",
    "final_x": "3688588.87708",
    "final_y": "530967.98093",
    "longitude": "-90.04570585218373",
    "latitude": "29.95376068154674",
    "geocoded_column": {
      "latitude": "29.95376068154674",
      "longitude": "-90.04570585218373"
    }
  },
  {
    "service_request": "2025-1226506",
    "request_type": "Trash/Recycling",
    "request_reason": "Return Trash Cart",
    "date_created": "2025-09-15T15:53:54.000",
    "date_modified": "2025-09-15T15:53:55.000",
    "request_status": "Pending",
    "responsible_agency": "Department of Sanitation",
    "final_address": "1032 State St",
    "address_councildis": "A",
    "status": "Assigned to Contractor",
    "contractor": "IV Waste",
    "rowid": "1226506",
    "final_x": "3664940.30266",
    "final_y": "520163.182328",
    "longitude": "-90.12073960727646",
    "latitude": "29.924760469631025",
    "geocoded_column": {
      "latitude": "29.924760469631025",
      "longitude": "-90.12073960727646"
    }
  },
  {
    "service_request": "2025-1226505",
    "request_type": "Trash/Recycling",
    "request_reason": "Request a Large Item Pick Up",
    "date_created": "2025-09-15T15:50:30.000",
    "date_modified": "2025-09-15T15:50:31.000",
    "request_status": "Pending",
    "responsible_agency": "Department of Sanitation",
    "final_address": "9413 Dinkins St",
    "address_councildis": "E",
    "status": "Assigned to Contractor",
    "contractor": "Waste Pro",
    "rowid": "1226505",
    "final_x": "3706055.53259",
    "final_y": "564250.106593",
    "longitude": "-89.98932120875955",
    "latitude": "30.044722684573642",
    "geocoded_column": {
      "latitude": "30.044722684573642",
      "longitude": "-89.98932120875955"
    }
  },
  {
    "service_request": "2025-1226504",
    "request_type": "Safety & Permits",
    "request_reason": "Licenses & Permits",
    "date_created": "2025-09-15T15:49:53.000",
    "date_modified": "2025-09-15T15:49:54.000",
    "request_status": "Pending",
    "responsible_agency": "Safety and Permits",
    "final_address": "2010 Dauphine St",
    "address_councildis": "C",
    "status": "Pending",
    "rowid": "1226504",
    "final_x": "3684435.93807",
    "final_y": "535150.236998",
    "longitude": "-90.05867218426214",
    "latitude": "29.965388119110795",
    "geocoded_column": {
      "latitude": "29.965388119110795",
      "longitude": "-90.05867218426214"
    }
  },
  {
    "service_request": "2025-1226503",
    "request_type": "Trash/Recycling",
    "request_reason": "Request a Large Item Pick Up",
    "date_created": "2025-09-15T15:49:45.000",
    "date_modified": "2025-09-15T15:50:04.000",
    "request_status": "Pending",
    "responsible_agency": "Department of Sanitation",
    "final_address": "53 Marywood Ct",
    "address_councildis": "E",
    "status": "Assigned to Contractor",
    "contractor": "Waste Pro",
    "rowid": "1226503",
    "final_x": "3712068.5635",
    "final_y": "566980.591076",
    "longitude": "-89.97021476869486",
    "latitude": "30.052035110516993",
    "geocoded_column": {
      "latitude": "30.052035110516993",
      "longitude": "-89.97021476869486"
    }
  },
  {
    "service_request": "2025-1226502",
    "request_type": "Mosquito, Termite & Rodent Control",
    "request_reason": "Rodent Complaint (Mice & Rats)",
    "date_created": "2025-09-15T15:45:14.000",
    "date_modified": "2025-09-15T15:45:16.000",
    "request_status": "Pending",
    "responsible_agency": "Mosquito, Termite & Rodent Control Board",
    "final_address": "1118 Robert St",
    "address_councildis": "B",
    "status": "Pending",
    "rowid": "1226502",
    "final_x": "3668630.06452",
    "final_y": "519506.650487",
    "longitude": "-90.1091143605357",
    "latitude": "29.92284733226444",
    "geocoded_column": {
      "latitude": "29.92284733226444",
      "longitude": "-90.1091143605357"
    }
  },
  {
    "service_request": "2025-1226501",
    "request_type": "Trash/Recycling",
    "request_reason": "Request a Large Item Pick Up",
    "date_created": "2025-09-15T15:43:57.000",
    "date_modified": "2025-09-15T15:43:58.000",
    "request_status": "Pending",
    "responsible_agency": "Department of Sanitation",
    "final_address": "6201 Oxford St",
    "address_councildis": "C",
    "status": "Assigned to Contractor",
    "contractor": "Richards Disposal",
    "rowid": "1226501",
    "final_x": "3707040.25502",
    "final_y": "519673.730616",
    "longitude": "-89.98786331672554",
    "latitude": "29.922122468502515",
    "geocoded_column": {
      "latitude": "29.922122468502515",
      "longitude": "-89.98786331672554"
    }
  },
  {
    "service_request": "2025-1226500",
    "request_type": "Trash/Recycling",
    "request_reason": "Request a Large Item Pick Up",
    "date_created": "2025-09-15T15:43:19.000",
    "date_modified": "2025-09-15T15:43:21.000",
    "request_status": "Pending",
    "responsible_agency": "Department of Sanitation",
    "final_address": "1635 Franklin Ave",
    "address_councildis": "D",
    "status": "Assigned to Contractor",
    "contractor": "IV Waste",
    "rowid": "1226500",
    "final_x": "3687702.83407",
    "final_y": "538618.601417",
    "longitude": "-90.04823266645504",
    "latitude": "29.974824575628308",
    "geocoded_column": {
      "latitude": "29.974824575628308",
      "longitude": "-90.04823266645504"
    }
  },
  {
    "service_request": "2025-1226499",
    "request_type": "Trash/Recycling",
    "request_reason": "Order Second Trash Cart",
    "date_created": "2025-09-15T15:40:16.000",
    "date_modified": "2025-09-15T15:40:18.000",
    "request_status": "Pending",
    "responsible_agency": "Department of Sanitation",
    "final_address": "4405 Cartier Ave",
    "address_councildis": "D",
    "status": "Assigned to Contractor",
    "contractor": "IV Waste",
    "rowid": "1226499",
    "final_x": "3678060.81333",
    "final_y": "548500.416722",
    "longitude": "-90.07834278199809",
    "latitude": "30.00228993572683",
    "geocoded_column": {
      "latitude": "30.00228993572683",
      "longitude": "-90.07834278199809"
    }
  },
  {
    "service_request": "2025-1226498",
    "request_type": "Trash/Recycling",
    "request_reason": "Order Recycling Cart",
    "date_created": "2025-09-15T15:39:38.000",
    "date_modified": "2025-09-15T15:39:39.000",
    "request_status": "Pending",
    "responsible_agency": "Department of Sanitation",
    "final_address": "803 Constantinople St",
    "address_councildis": "B",
    "status": "Pending",
    "rowid": "1226498",
    "final_x": "3672587.71195",
    "final_y": "518613.221367",
    "longitude": "-90.09665203515789",
    "latitude": "29.920273827833952",
    "geocoded_column": {
      "latitude": "29.920273827833952",
      "longitude": "-90.09665203515789"
    }
  },
  {
    "service_request": "2025-1226497",
    "request_type": "Trash/Recycling",
    "request_reason": "Repair Trash Cart",
    "date_created": "2025-09-15T15:39:32.000",
    "date_modified": "2025-09-15T15:39:35.000",
    "request_status": "Pending",
    "responsible_agency": "Department of Sanitation",
    "final_address": "3338 Octavia St",
    "address_councildis": "A",
    "status": "Assigned to Contractor",
    "contractor": "IV Waste",
    "rowid": "1226497",
    "final_x": "3668402.83879",
    "final_y": "527986.363711",
    "longitude": "-90.1095457450252",
    "latitude": "29.94617049955007",
    "geocoded_column": {
      "latitude": "29.94617049955007",
      "longitude": "-90.1095457450252"
    }
  },
  {
    "service_request": "2025-1226496",
    "request_type": "Abandoned Vehicles",
    "request_reason": "Abandoned/Junk Vehicles",
    "date_created": "2025-09-15T15:34:37.000",
    "date_modified": "2025-09-15T15:34:39.000",
    "request_status": "Pending",
    "responsible_agency": "Department of Public Works",
    "final_address": "7201 Crowder Blvd",
    "address_councildis": "E",
    "status": "Pending",
    "rowid": "1226496",
    "final_x": "3703974.99991",
    "final_y": "560778.40643",
    "longitude": "-89.99602466602495",
    "latitude": "30.03524381284246",
    "geocoded_column": {
      "latitude": "30.03524381284246",
      "longitude": "-89.99602466602495"
    }
  },
  {
    "service_request": "2025-1226495",
    "request_type": "Parks & Parkways",
    "request_reason": "Request Tree Service (Right of Way/Public Property)",
    "date_created": "2025-09-15T15:33:26.000",
    "date_modified": "2025-09-15T15:33:27.000",
    "request_status": "Pending",
    "responsible_agency": "Department of Parks & Parkway",
    "final_address": "6535 Memphis St",
    "address_councildis": "A",
    "status": "Pending",
    "rowid": "1226495",
    "final_x": "3669614.98785",
    "final_y": "550931.786965",
    "longitude": "-90.10494190139653",
    "latitude": "30.009227001929922",
    "geocoded_column": {
      "latitude": "30.009227001929922",
      "longitude": "-90.10494190139653"
    }
  },
  {
    "service_request": "2025-1226494",
    "request_type": "Abandoned Vehicles",
    "request_reason": "Abandoned/Junk Vehicles",
    "date_created": "2025-09-15T15:30:22.000",
    "date_modified": "2025-09-15T15:30:24.000",
    "request_status": "Pending",
    "responsible_agency": "Department of Public Works",
    "final_address": "8419 Beechwood Ct",
    "address_councildis": "E",
    "status": "Pending",
    "rowid": "1226494",
    "final_x": "3704155.51671",
    "final_y": "560668.513054",
    "longitude": "-89.99545826237454",
    "latitude": "30.03493585494704",
    "geocoded_column": {
      "latitude": "30.03493585494704",
      "longitude": "-89.99545826237454"
    }
  },
  {
    "service_request": "2025-1226493",
    "request_type": "Trash/Recycling",
    "request_reason": "Illegal Dumping",
    "date_created": "2025-09-15T15:30:08.000",
    "date_modified": "2025-09-15T15:30:10.000",
    "request_status": "Pending",
    "responsible_agency": "Department of Sanitation",
    "final_address": "9021 Bunker Hill Rd",
    "address_councildis": "E",
    "status": "Pending",
    "rowid": "1226493",
    "final_x": "3706238.23083",
    "final_y": "561853.372511",
    "longitude": "-89.98883268264953",
    "latitude": "30.038126722567913",
    "geocoded_column": {
      "latitude": "30.038126722567913",
      "longitude": "-89.98883268264953"
    }
  },
  {
    "service_request": "2025-1226492",
    "request_type": "Abandoned Vehicles",
    "request_reason": "Abandoned/Junk Vehicles",
    "date_created": "2025-09-15T15:30:06.000",
    "date_modified": "2025-09-15T15:30:08.000",
    "request_status": "Pending",
    "responsible_agency": "Department of Public Works",
    "final_address": "5840 Brunswick Ct",
    "address_councildis": "C",
    "status": "Pending",
    "rowid": "1226492",
    "final_x": "3705303.07787",
    "final_y": "517184.860597",
    "longitude": "-89.99343868632837",
    "latitude": "29.915334911506523",
    "geocoded_column": {
      "latitude": "29.915334911506523",
      "longitude": "-89.99343868632837"
    }
  },
  {
    "service_request": "2025-1226491",
    "request_type": "Safety & Permits",
    "request_reason": "Zoning Enforcement",
    "date_created": "2025-09-15T15:29:56.000",
    "date_modified": "2025-09-15T15:29:58.000",
    "request_status": "Pending",
    "responsible_agency": "Safety and Permits",
    "final_address": "2334 New York St",
    "address_councildis": "D",
    "status": "Pending",
    "rowid": "1226491",
    "final_x": "3684455.63772",
    "final_y": "556572.739802",
    "longitude": "-90.05785692365302",
    "latitude": "30.024291742471583",
    "geocoded_column": {
      "latitude": "30.024291742471583",
      "longitude": "-90.05785692365302"
    }
  },
  {
    "service_request": "2025-1226490",
    "request_type": "Roads and Streets",
    "request_reason": "Road Shoulder Damage",
    "date_created": "2025-09-15T15:27:27.000",
    "date_modified": "2025-09-15T15:49:56.000",
    "request_status": "Pending",
    "responsible_agency": "Department of Public Works",
    "final_address": "4600 Cleveland Ave",
    "address_councildis": "A",
    "status": "Pending",
    "rowid": "1226490",
    "final_x": "3669076.14049",
    "final_y": "539303.778698",
    "longitude": "-90.10703747282543",
    "latitude": "29.977269851412984",
    "geocoded_column": {
      "latitude": "29.977269851412984",
      "longitude": "-90.10703747282543"
    }
  },
  {
    "service_request": "2025-1226489",
    "request_type": "Trash/Recycling",
    "request_reason": "Request a Large Item Pick Up",
    "date_created": "2025-09-15T15:26:31.000",
    "date_modified": "2025-09-15T15:26:33.000",
    "request_status": "Pending",
    "responsible_agency": "Department of Sanitation",
    "final_address": "8454 Beechwood Ct",
    "address_councildis": "E",
    "status": "Assigned to Contractor",
    "contractor": "Waste Pro",
    "rowid": "1226489",
    "final_x": "3704520.25348",
    "final_y": "560729.63427",
    "longitude": "-89.99430338941492",
    "latitude": "30.035092199629737",
    "geocoded_column": {
      "latitude": "30.035092199629737",
      "longitude": "-89.99430338941492"
    }
  },
  {
    "service_request": "2025-1226488",
    "request_type": "Property Maintenance",
    "request_reason": "Property Maintenance",
    "date_created": "2025-09-15T15:24:44.000",
    "date_modified": "2025-09-15T15:24:46.000",
    "request_status": "Pending",
    "responsible_agency": "Department of Code Enforcement",
    "final_address": "710 N Carrollton Ave",
    "address_councildis": "A",
    "status": "Pending",
    "rowid": "1226488",
    "final_x": "3672733.29659",
    "final_y": "539957.811658",
    "longitude": "-90.09546463261647",
    "latitude": "29.978960092375473",
    "geocoded_column": {
      "latitude": "29.978960092375473",
      "longitude": "-90.09546463261647"
    }
  },
  {
    "service_request": "2025-1226487",
    "request_type": "Abandoned Vehicles",
    "request_reason": "Abandoned/Junk Vehicles",
    "date_created": "2025-09-15T15:22:53.000",
    "date_modified": "2025-09-15T15:22:55.000",
    "request_status": "Pending",
    "responsible_agency": "Department of Public Works",
    "final_address": "1428 Shirley Dr",
    "address_councildis": "C",
    "status": "Pending",
    "rowid": "1226487",
    "final_x": "3693167.56419",
    "final_y": "525798.486653",
    "longitude": "-90.03143378263648",
    "latitude": "29.939404087440185",
    "geocoded_column": {
      "latitude": "29.939404087440185",
      "longitude": "-90.03143378263648"
    }
  },
  {
    "service_request": "2025-1226486",
    "request_type": "Trash/Recycling",
    "request_reason": "Request a Large Item Pick Up",
    "date_created": "2025-09-15T15:21:10.000",
    "date_modified": "2025-09-15T15:21:12.000",
    "request_status": "Pending",
    "responsible_agency": "Department of Sanitation",
    "final_address": "4906 Longfellow Dr",
    "address_councildis": "E",
    "status": "Assigned to Contractor",
    "contractor": "Waste Pro",
    "rowid": "1226486",
    "final_x": "3709495.98053",
    "final_y": "556625.81097",
    "longitude": "-89.97873275772868",
    "latitude": "30.023647482930127",
    "geocoded_column": {
      "latitude": "30.023647482930127",
      "longitude": "-89.97873275772868"
    }
  },
  {
    "service_request": "2025-1226485",
    "request_type": "Property Maintenance",
    "request_reason": "Property Maintenance",
    "date_created": "2025-09-15T15:20:46.000",
    "date_modified": "2025-09-15T15:20:49.000",
    "request_status": "Pending",
    "responsible_agency": "Department of Code Enforcement",
    "final_address": "4956 Copernicus St",
    "address_councildis": "C",
    "status": "Pending",
    "rowid": "1226485",
    "final_x": "3702445.32164",
    "final_y": "522514.981114",
    "longitude": "-90.00226332185771",
    "latitude": "29.93008248156346",
    "geocoded_column": {
      "latitude": "29.93008248156346",
      "longitude": "-90.00226332185771"
    }
  },
  {
    "service_request": "2025-1226484",
    "request_type": "Property Maintenance",
    "request_reason": "Property Maintenance",
    "date_created": "2025-09-15T15:19:54.000",
    "date_modified": "2025-09-15T15:19:55.000",
    "request_status": "Pending",
    "responsible_agency": "Department of Code Enforcement",
    "final_address": "4950 Copernicus St",
    "address_councildis": "C",
    "status": "Pending",
    "rowid": "1226484",
    "final_x": "3702438.21783",
    "final_y": "522561.923258",
    "longitude": "-90.0022840258505",
    "latitude": "29.930211783047223",
    "geocoded_column": {
      "latitude": "29.930211783047223",
      "longitude": "-90.0022840258505"
    }
  },
  {
    "service_request": "2025-1226483",
    "request_type": "Trash/Recycling",
    "request_reason": "Illegal Dumping",
    "date_created": "2025-09-15T15:18:45.000",
    "date_modified": "2025-09-15T15:18:47.000",
    "request_status": "Pending",
    "responsible_agency": "Department of Sanitation",
    "final_address": "710 N Carrollton Ave",
    "address_councildis": "A",
    "status": "Pending",
    "rowid": "1226483",
    "final_x": "3672733.29659",
    "final_y": "539957.811658",
    "longitude": "-90.09546463261647",
    "latitude": "29.978960092375473",
    "geocoded_column": {
      "latitude": "29.978960092375473",
      "longitude": "-90.09546463261647"
    }
  },
  {
    "service_request": "2025-1226482",
    "request_type": "Trash/Recycling",
    "request_reason": "Request a Large Item Pick Up",
    "date_created": "2025-09-15T15:14:41.000",
    "date_modified": "2025-09-15T15:14:43.000",
    "request_status": "Pending",
    "responsible_agency": "Department of Sanitation",
    "final_address": "7501 Vanderkloot Ave",
    "address_councildis": "E",
    "status": "Assigned to Contractor",
    "contractor": "Waste Pro",
    "rowid": "1226482",
    "final_x": "3706203.53879",
    "final_y": "562845.255584",
    "longitude": "-89.98890553889072",
    "latitude": "30.040855127879937",
    "geocoded_column": {
      "latitude": "30.040855127879937",
      "longitude": "-89.98890553889072"
    }
  },
  {
    "service_request": "2025-1226481",
    "request_type": "Abandoned Vehicles",
    "request_reason": "Abandoned/Junk Vehicles",
    "date_created": "2025-09-15T15:14:09.000",
    "date_modified": "2025-09-15T15:14:11.000",
    "request_status": "Pending",
    "responsible_agency": "Department of Public Works",
    "final_address": "3311 Plymouth Pl",
    "address_councildis": "C",
    "status": "Pending",
    "rowid": "1226481",
    "final_x": "3702746.7457",
    "final_y": "519052.765239",
    "longitude": "-90.00143882550245",
    "latitude": "29.920552954910786",
    "geocoded_column": {
      "latitude": "29.920552954910786",
      "longitude": "-90.00143882550245"
    }
  },
  {
    "service_request": "2025-1226480",
    "request_type": "Trash/Recycling",
    "request_reason": "Request a Large Item Pick Up",
    "date_created": "2025-09-15T15:12:40.000",
    "date_modified": "2025-09-15T15:12:42.000",
    "request_status": "Pending",
    "responsible_agency": "Department of Sanitation",
    "final_address": "4901 Perelli Dr",
    "address_councildis": "E",
    "status": "Assigned to Contractor",
    "contractor": "Waste Pro",
    "rowid": "1226480",
    "final_x": "3711706.26565",
    "final_y": "556970.295194",
    "longitude": "-89.97173584072611",
    "latitude": "30.024522646685334",
    "geocoded_column": {
      "latitude": "30.024522646685334",
      "longitude": "-89.97173584072611"
    }
  },
  {
    "service_request": "2025-1226479",
    "request_type": "Trash/Recycling",
    "request_reason": "Request a Large Item Pick Up",
    "date_created": "2025-09-15T15:12:34.000",
    "date_modified": "2025-09-15T15:12:36.000",
    "request_status": "Pending",
    "responsible_agency": "Department of Sanitation",
    "final_address": "6031 Brighton Pl",
    "address_councildis": "C",
    "status": "Assigned to Contractor",
    "contractor": "Richards Disposal",
    "rowid": "1226479",
    "final_x": "3706296.24702",
    "final_y": "520050.310776",
    "longitude": "-89.99019788700552",
    "latitude": "29.923181933717387",
    "geocoded_column": {
      "latitude": "29.923181933717387",
      "longitude": "-89.99019788700552"
    }
  },
  {
    "service_request": "2025-1226478",
    "request_type": "Abandoned Vehicles",
    "request_reason": "Abandoned/Junk Vehicles",
    "date_created": "2025-09-15T15:09:23.000",
    "date_modified": "2025-09-15T15:09:24.000",
    "request_status": "Pending",
    "responsible_agency": "Department of Public Works",
    "final_address": "5907 Berkley Dr",
    "address_councildis": "C",
    "status": "Pending",
    "rowid": "1226478",
    "final_x": "3705689.68427",
    "final_y": "518061.36575",
    "longitude": "-89.99218604246974",
    "latitude": "29.91773256136229",
    "geocoded_column": {
      "latitude": "29.91773256136229",
      "longitude": "-89.99218604246974"
    }
  },
  {
    "service_request": "2025-1226477",
    "request_type": "Roads and Streets",
    "request_reason": "Pothole",
    "date_created": "2025-09-15T15:09:08.000",
    "date_modified": "2025-09-15T15:09:10.000",
    "request_status": "Pending",
    "responsible_agency": "Department of Public Works",
    "final_address": "3511 Rue Mignon",
    "address_councildis": "C",
    "status": "Pending",
    "rowid": "1226477",
    "final_x": "3703275.62097",
    "final_y": "517776.087158",
    "longitude": "-89.99981632407118",
    "latitude": "29.917025615526146",
    "geocoded_column": {
      "latitude": "29.917025615526146",
      "longitude": "-89.99981632407118"
    }
  },
  {
    "service_request": "2025-1226476",
    "request_type": "Trash/Recycling",
    "request_reason": "Repair Recycling Cart",
    "date_created": "2025-09-15T15:08:48.000",
    "date_modified": "2025-09-15T15:08:49.000",
    "request_status": "Pending",
    "responsible_agency": "Department of Sanitation",
    "final_address": "2770 Gladiolus St",
    "address_councildis": "D",
    "status": "Pending",
    "rowid": "1226476",
    "final_x": "3688322.14191",
    "final_y": "547565.734994",
    "longitude": "-90.04595926603382",
    "latitude": "29.999406882321015",
    "geocoded_column": {
      "latitude": "29.999406882321015",
      "longitude": "-90.04595926603382"
    }
  },
  {
    "service_request": "2025-1226475",
    "request_type": "Trash/Recycling",
    "request_reason": "Repair Trash Cart",
    "date_created": "2025-09-15T15:05:52.000",
    "date_modified": "2025-09-15T15:09:21.000",
    "request_status": "Pending",
    "responsible_agency": "Department of Sanitation",
    "final_address": "4919 S Derbigny St",
    "address_councildis": "B",
    "status": "Assigned to Contractor",
    "contractor": "IV Waste",
    "rowid": "1226475",
    "final_x": "3669090.45639",
    "final_y": "526377.695486",
    "longitude": "-90.10742903276821",
    "latitude": "29.94172697261908",
    "geocoded_column": {
      "latitude": "29.94172697261908",
      "longitude": "-90.10742903276821"
    }
  },
  {
    "service_request": "2025-1226474",
    "request_type": "Property Maintenance",
    "request_reason": "Property Maintenance",
    "date_created": "2025-09-15T15:04:01.000",
    "date_modified": "2025-09-15T15:04:03.000",
    "request_status": "Pending",
    "responsible_agency": "Department of Code Enforcement",
    "final_address": "8813 Apple St",
    "address_councildis": "A",
    "status": "Pending",
    "rowid": "1226474",
    "final_x": "3663458.00826",
    "final_y": "533881.835013",
    "longitude": "-90.1249620542832",
    "latitude": "29.962525425452625",
    "geocoded_column": {
      "latitude": "29.962525425452625",
      "longitude": "-90.1249620542832"
    }
  },
  {
    "service_request": "2025-1226473",
    "request_type": "Parks & Parkways",
    "request_reason": "Tree Stump (removal, grind)",
    "date_created": "2025-09-15T15:03:51.000",
    "date_modified": "2025-09-15T15:03:54.000",
    "request_status": "Pending",
    "responsible_agency": "Department of Parks & Parkway",
    "final_address": "1458 Riviera Ave",
    "address_councildis": "D",
    "status": "Pending",
    "rowid": "1226473",
    "final_x": "3678022.46901",
    "final_y": "550792.327317",
    "longitude": "-90.07838461773507",
    "latitude": "30.00859302779604",
    "geocoded_column": {
      "latitude": "30.00859302779604",
      "longitude": "-90.07838461773507"
    }
  },
  {
    "service_request": "2025-1226472",
    "request_type": "Trash/Recycling",
    "request_reason": "Request a Large Item Pick Up",
    "date_created": "2025-09-15T15:01:59.000",
    "date_modified": "2025-09-15T15:02:05.000",
    "request_status": "Pending",
    "responsible_agency": "Department of Sanitation",
    "final_address": "2704 Jasmine St",
    "address_councildis": "D",
    "status": "Assigned to Contractor",
    "contractor": "IV Waste",
    "rowid": "1226472",
    "final_x": "3687790.38499",
    "final_y": "548095.659474",
    "longitude": "-90.04762031367113",
    "latitude": "30.00088039935346",
    "geocoded_column": {
      "latitude": "30.00088039935346",
      "longitude": "-90.04762031367113"
    }
  },
  {
    "service_request": "2025-1226471",
    "request_type": "Trash/Recycling",
    "request_reason": "Repair Trash Cart",
    "date_created": "2025-09-15T15:01:12.000",
    "date_modified": "2025-09-15T15:10:13.000",
    "request_status": "Pending",
    "responsible_agency": "Department of Sanitation",
    "final_address": "4322 S Liberty St",
    "address_councildis": "B",
    "status": "Assigned to Contractor",
    "contractor": "IV Waste",
    "rowid": "1226471",
    "final_x": "3670830.15579",
    "final_y": "523326.388923",
    "longitude": "-90.1020399529896",
    "latitude": "29.93328557357923",
    "geocoded_column": {
      "latitude": "29.93328557357923",
      "longitude": "-90.1020399529896"
    }
  },
  {
    "service_request": "2025-1226470",
    "request_type": "Trash/Recycling",
    "request_reason": "Order Recycling Cart",
    "date_created": "2025-09-15T15:00:26.000",
    "date_modified": "2025-09-15T15:00:27.000",
    "request_status": "Pending",
    "responsible_agency": "Department of Sanitation",
    "final_address": "4322 S Liberty St",
    "address_councildis": "B",
    "status": "Pending",
    "rowid": "1226470",
    "final_x": "3670830.15579",
    "final_y": "523326.388923",
    "longitude": "-90.1020399529896",
    "latitude": "29.93328557357923",
    "geocoded_column": {
      "latitude": "29.93328557357923",
      "longitude": "-90.1020399529896"
    }
  },
  {
    "service_request": "2025-1226469",
    "request_type": "Abandoned Vehicles",
    "request_reason": "Abandoned/Junk Vehicles",
    "date_created": "2025-09-15T14:59:51.000",
    "date_modified": "2025-09-15T14:59:52.000",
    "request_status": "Pending",
    "responsible_agency": "Department of Public Works",
    "final_address": "1725 Nunez St Apt 1B",
    "address_councildis": "C",
    "status": "Pending",
    "rowid": "1226469",
    "final_x": "3687035.47292",
    "final_y": "525011.077949",
    "longitude": "-90.0508213755104",
    "latitude": "29.9374291310576",
    "geocoded_column": {
      "latitude": "29.9374291310576",
      "longitude": "-90.0508213755104"
    }
  },
  {
    "service_request": "2025-1226468",
    "request_type": "General Services",
    "request_reason": "General Service Request",
    "date_created": "2025-09-15T14:59:45.000",
    "date_modified": "2025-09-15T15:51:39.000",
    "case_close_date": "2025-09-15T10:51:38.000",
    "request_status": "Closed",
    "responsible_agency": "Orleans Parish Communication District",
    "final_address": "2314 1st St, New Orleans, Louisiana, 70113",
    "address_councildis": "B",
    "status": "Additional information requested from citizen",
    "rowid": "1226468",
    "final_x": "3675467.82062",
    "final_y": "525383.548605",
    "longitude": "-90.08732849913784",
    "latitude": "29.938804245165944",
    "geocoded_column": {
      "latitude": "29.938804245165944",
      "longitude": "-90.08732849913784"
    }
  },
  {
    "service_request": "2025-1226467",
    "request_type": "Streetlights",
    "request_reason": "Streetlight Outage/Malfunction",
    "date_created": "2025-09-15T14:56:42.000",
    "date_modified": "2025-09-15T14:56:43.000",
    "request_status": "Pending",
    "responsible_agency": "Department of Public Works",
    "final_address": "5621 St Roch Ave",
    "address_councildis": "D",
    "status": "Pending",
    "rowid": "1226467",
    "final_x": "3685184.48316",
    "final_y": "553714.586903",
    "longitude": "-90.05565461230823",
    "latitude": "30.016410548073623",
    "geocoded_column": {
      "latitude": "30.016410548073623",
      "longitude": "-90.05565461230823"
    }
  },
  {
    "service_request": "2025-1226466",
    "request_type": "Trash/Recycling",
    "request_reason": "Request a Large Item Pick Up",
    "date_created": "2025-09-15T14:55:53.000",
    "date_modified": "2025-09-15T14:55:54.000",
    "request_status": "Pending",
    "responsible_agency": "Department of Sanitation",
    "final_address": "442 S Rendon St",
    "address_councildis": "B",
    "status": "Assigned to Contractor",
    "contractor": "IV Waste",
    "rowid": "1226466",
    "final_x": "3672710.80532",
    "final_y": "535228.605062",
    "longitude": "-90.09569700141458",
    "latitude": "29.965957042838507",
    "geocoded_column": {
      "latitude": "29.965957042838507",
      "longitude": "-90.09569700141458"
    }
  },
  {
    "service_request": "2025-1226465",
    "request_type": "Streetlights",
    "request_reason": "Streetlight Outage/Malfunction",
    "date_created": "2025-09-15T14:54:35.000",
    "date_modified": "2025-09-15T14:54:36.000",
    "request_status": "Pending",
    "responsible_agency": "Department of Public Works",
    "final_address": "2316 Camp St",
    "address_councildis": "B",
    "status": "Pending",
    "rowid": "1226465",
    "final_x": "3678203.65384",
    "final_y": "522012.930362",
    "longitude": "-90.0788076727196",
    "latitude": "29.929454065795714",
    "geocoded_column": {
      "latitude": "29.929454065795714",
      "longitude": "-90.0788076727196"
    }
  },
  {
    "service_request": "2025-1226464",
    "request_type": "Trash/Recycling",
    "request_reason": "Order Trash Cart",
    "date_created": "2025-09-15T14:53:21.000",
    "date_modified": "2025-09-15T14:53:22.000",
    "request_status": "Pending",
    "responsible_agency": "Department of Sanitation",
    "final_address": "2646 Elder St",
    "address_councildis": "D",
    "status": "Assigned to Contractor",
    "contractor": "IV Waste",
    "rowid": "1226464",
    "final_x": "3687674.18588",
    "final_y": "545779.773712",
    "longitude": "-90.04806945717209",
    "latitude": "29.994516134614585",
    "geocoded_column": {
      "latitude": "29.994516134614585",
      "longitude": "-90.04806945717209"
    }
  },
  {
    "service_request": "2025-1226463",
    "request_type": "Trash/Recycling",
    "request_reason": "Missed Trash Pick-Up",
    "date_created": "2025-09-15T14:52:56.000",
    "date_modified": "2025-09-15T15:24:16.000",
    "case_close_date": "2025-09-15T10:24:14.000",
    "request_status": "Closed",
    "responsible_agency": "Department of Sanitation",
    "final_address": "2338 Iberville St",
    "address_councildis": "B",
    "status": "Invalid Request",
    "contractor": "IV Waste",
    "contractor_action": "Invalid",
    "rowid": "1226463",
    "final_x": "3676683.51361",
    "final_y": "534592.778245",
    "longitude": "-90.08317320174908",
    "latitude": "29.964090149351325",
    "geocoded_column": {
      "latitude": "29.964090149351325",
      "longitude": "-90.08317320174908"
    }
  },
  {
    "service_request": "2025-1226462",
    "request_type": "Mosquito, Termite & Rodent Control",
    "request_reason": "Rodent Complaint (Mice & Rats)",
    "date_created": "2025-09-15T14:50:50.000",
    "date_modified": "2025-09-15T14:50:51.000",
    "request_status": "Pending",
    "responsible_agency": "Mosquito, Termite & Rodent Control Board",
    "final_address": "2900 Thalia St",
    "address_councildis": "B",
    "status": "Pending",
    "rowid": "1226462",
    "final_x": "3675505.98293",
    "final_y": "528196.108352",
    "longitude": "-90.08711144168333",
    "latitude": "29.946536717284367",
    "geocoded_column": {
      "latitude": "29.946536717284367",
      "longitude": "-90.08711144168333"
    }
  },
  {
    "service_request": "2025-1226461",
    "request_type": "Parks & Parkways",
    "request_reason": "Request Tree Service (Right of Way/Public Property)",
    "date_created": "2025-09-15T14:50:44.000",
    "date_modified": "2025-09-15T14:50:45.000",
    "request_status": "Pending",
    "responsible_agency": "Department of Parks & Parkway",
    "final_address": "6 Charlotte Dr",
    "address_councildis": "D",
    "status": "Pending",
    "rowid": "1226461",
    "final_x": "3680272.00021",
    "final_y": "551297.000277",
    "longitude": "-90.0712600675902",
    "latitude": "30.009912761147813",
    "geocoded_column": {
      "latitude": "30.009912761147813",
      "longitude": "-90.0712600675902"
    }
  },
  {
    "service_request": "2025-1226460",
    "request_type": "Trash/Recycling",
    "request_reason": "Order Trash Cart",
    "date_created": "2025-09-15T14:50:06.000",
    "date_modified": "2025-09-15T14:50:08.000",
    "request_status": "Pending",
    "responsible_agency": "Department of Sanitation",
    "final_address": "2644 Elder St",
    "address_councildis": "D",
    "status": "Assigned to Contractor",
    "contractor": "IV Waste",
    "rowid": "1226460",
    "final_x": "3687674.71881",
    "final_y": "545756.32488",
    "longitude": "-90.04806860456546",
    "latitude": "29.994451642328485",
    "geocoded_column": {
      "latitude": "29.994451642328485",
      "longitude": "-90.04806860456546"
    }
  },
  {
    "service_request": "2025-1226459",
    "request_type": "Health Related Request",
    "request_reason": "Homeless Encampment Complaint",
    "date_created": "2025-09-15T14:49:07.000",
    "date_modified": "2025-09-15T14:49:09.000",
    "request_status": "Pending",
    "responsible_agency": "Office Of Homeless Services And Strategy",
    "final_address": "3300 BLK Royal St",
    "address_councildis": "C",
    "status": "Pending",
    "rowid": "1226459",
    "final_x": "3689634.3871",
    "final_y": "534252.326624",
    "longitude": "-90.04228772812296",
    "latitude": "29.96275914579874",
    "geocoded_column": {
      "latitude": "29.96275914579874",
      "longitude": "-90.04228772812296"
    }
  },
  {
    "service_request": "2025-1226458",
    "request_type": "Streetlights",
    "request_reason": "Streetlight Outage/Malfunction",
    "date_created": "2025-09-15T14:47:47.000",
    "date_modified": "2025-09-15T14:47:50.000",
    "request_status": "Pending",
    "responsible_agency": "Department of Public Works",
    "final_address": "9980 Morrison Rd",
    "address_councildis": "E",
    "status": "Pending",
    "rowid": "1226458",
    "final_x": "3708701.9692",
    "final_y": "563380.074912",
    "longitude": "-89.98098976663974",
    "latitude": "30.04224482773333",
    "geocoded_column": {
      "latitude": "30.04224482773333",
      "longitude": "-89.98098976663974"
    }
  },
  {
    "service_request": "2025-1226457",
    "request_type": "Safety & Permits",
    "request_reason": "Zoning Enforcement",
    "date_created": "2025-09-15T14:47:03.000",
    "date_modified": "2025-09-15T15:03:11.000",
    "case_close_date": "2025-09-15T10:03:09.000",
    "request_status": "Closed",
    "responsible_agency": "Safety and Permits",
    "final_address": "1457 N Dorgenois St",
    "address_councildis": "D",
    "status": "Resolved",
    "rowid": "1226457",
    "final_x": "3679013.1693",
    "final_y": "539147.819722",
    "longitude": "-90.07565847064835",
    "latitude": "29.976544856893724",
    "geocoded_column": {
      "latitude": "29.976544856893724",
      "longitude": "-90.07565847064835"
    }
  },
  {
    "service_request": "2025-1226456",
    "request_type": "Roads and Streets",
    "request_reason": "Sidewalk Damaged or Missing",
    "date_created": "2025-09-15T14:46:41.000",
    "date_modified": "2025-09-15T14:46:43.000",
    "request_status": "Pending",
    "responsible_agency": "Department of Public Works",
    "final_address": "1126 Washington Ave",
    "address_councildis": "B",
    "status": "Pending",
    "rowid": "1226456",
    "final_x": "3676865.68776",
    "final_y": "520976.298553",
    "longitude": "-90.08306709552865",
    "latitude": "29.926643876720053",
    "geocoded_column": {
      "latitude": "29.926643876720053",
      "longitude": "-90.08306709552865"
    }
  },
  {
    "service_request": "2025-1226455",
    "request_type": "Trash/Recycling",
    "request_reason": "Return Trash Cart",
    "date_created": "2025-09-15T14:45:53.000",
    "date_modified": "2025-09-15T14:45:55.000",
    "request_status": "Pending",
    "responsible_agency": "Department of Sanitation",
    "final_address": "410 Henry Clay Ave",
    "address_councildis": "A",
    "status": "Assigned to Contractor",
    "contractor": "IV Waste",
    "rowid": "1226455",
    "final_x": "3663230.28243",
    "final_y": "518379.403574",
    "longitude": "-90.12619691871355",
    "latitude": "29.91990528299333",
    "geocoded_column": {
      "latitude": "29.91990528299333",
      "longitude": "-90.12619691871355"
    }
  },
  {
    "service_request": "2025-1226454",
    "request_type": "Trash/Recycling",
    "request_reason": "Request a Large Item Pick Up",
    "date_created": "2025-09-15T14:45:24.000",
    "date_modified": "2025-09-15T14:45:25.000",
    "request_status": "Pending",
    "responsible_agency": "Department of Sanitation",
    "final_address": "6333 Marshal Foch St",
    "address_councildis": "A",
    "status": "Assigned to Contractor",
    "contractor": "IV Waste",
    "rowid": "1226454",
    "final_x": "3670127.9314",
    "final_y": "549529.232339",
    "longitude": "-90.10336889816136",
    "latitude": "30.005355338326982",
    "geocoded_column": {
      "latitude": "30.005355338326982",
      "longitude": "-90.10336889816136"
    }
  },
  {
    "service_request": "2025-1226453",
    "request_type": "Parks & Parkways",
    "request_reason": "Request Tree Service (Right of Way/Public Property)",
    "date_created": "2025-09-15T14:44:27.000",
    "date_modified": "2025-09-15T14:44:31.000",
    "request_status": "Pending",
    "responsible_agency": "Department of Parks & Parkway",
    "final_address": "6462 General Diaz St",
    "address_councildis": "A",
    "status": "Pending",
    "rowid": "1226453",
    "final_x": "3669720.19143",
    "final_y": "550367.993364",
    "longitude": "-90.1046286267855",
    "latitude": "30.00767366577779",
    "geocoded_column": {
      "latitude": "30.00767366577779",
      "longitude": "-90.1046286267855"
    }
  },
  {
    "service_request": "2025-1226452",
    "request_type": "Trash/Recycling",
    "request_reason": "Repair Trash Cart",
    "date_created": "2025-09-15T14:40:21.000",
    "date_modified": "2025-09-15T14:40:22.000",
    "request_status": "Pending",
    "responsible_agency": "Department of Sanitation",
    "final_address": "4715 Francisco Verrett Dr",
    "address_councildis": "E",
    "status": "Assigned to Contractor",
    "contractor": "Waste Pro",
    "rowid": "1226452",
    "final_x": "3704270.30647",
    "final_y": "555070.071833",
    "longitude": "-89.99530210517594",
    "latitude": "30.019538630113576",
    "geocoded_column": {
      "latitude": "30.019538630113576",
      "longitude": "-89.99530210517594"
    }
  },
  {
    "service_request": "2025-1226451",
    "request_type": "Trash/Recycling",
    "request_reason": "Request a Large Item Pick Up",
    "date_created": "2025-09-15T14:38:41.000",
    "date_modified": "2025-09-15T14:38:44.000",
    "request_status": "Pending",
    "responsible_agency": "Department of Sanitation",
    "final_address": "3571 Somerset Dr",
    "address_councildis": "C",
    "status": "Assigned to Contractor",
    "contractor": "Richards Disposal",
    "rowid": "1226451",
    "final_x": "3702420.4689",
    "final_y": "517642.513782",
    "longitude": "-90.00252042309315",
    "latitude": "29.916685672025586",
    "geocoded_column": {
      "latitude": "29.916685672025586",
      "longitude": "-90.00252042309315"
    }
  },
  {
    "service_request": "2025-1226450",
    "request_type": "Trash/Recycling",
    "request_reason": "Request a Large Item Pick Up",
    "date_created": "2025-09-15T14:38:35.000",
    "date_modified": "2025-09-15T14:38:36.000",
    "request_status": "Pending",
    "responsible_agency": "Department of Sanitation",
    "final_address": "7930 Wave Dr",
    "address_councildis": "E",
    "status": "Assigned to Contractor",
    "contractor": "Waste Pro",
    "rowid": "1226450",
    "final_x": "3714167.02885",
    "final_y": "569727.654054",
    "longitude": "-89.96347842724394",
    "latitude": "30.05951959889848",
    "geocoded_column": {
      "latitude": "30.05951959889848",
      "longitude": "-89.96347842724394"
    }
  },
  {
    "service_request": "2025-1226449",
    "request_type": "Trash/Recycling",
    "request_reason": "Request a Large Item Pick Up",
    "date_created": "2025-09-15T14:37:40.000",
    "date_modified": "2025-09-15T14:37:41.000",
    "request_status": "Pending",
    "responsible_agency": "Department of Sanitation",
    "final_address": "2933 Dante St",
    "address_councildis": "A",
    "status": "Assigned to Contractor",
    "contractor": "IV Waste",
    "rowid": "1226449",
    "final_x": "3665725.94624",
    "final_y": "533535.444613",
    "longitude": "-90.1178117933445",
    "latitude": "29.961507006980806",
    "geocoded_column": {
      "latitude": "29.961507006980806",
      "longitude": "-90.1178117933445"
    }
  },
  {
    "service_request": "2025-1226448",
    "request_type": "Health Related Request",
    "request_reason": "Homeless Encampment Complaint",
    "date_created": "2025-09-15T14:34:38.000",
    "date_modified": "2025-09-15T14:34:40.000",
    "request_status": "Pending",
    "responsible_agency": "Office Of Homeless Services And Strategy",
    "final_address": "100 Iberville St",
    "address_councildis": "C",
    "status": "Pending",
    "rowid": "1226448",
    "final_x": "3682746.02844",
    "final_y": "529908.779201",
    "longitude": "-90.06419216785",
    "latitude": "29.951027481006758",
    "geocoded_column": {
      "latitude": "29.951027481006758",
      "longitude": "-90.06419216785"
    }
  },
  {
    "service_request": "2025-1226447",
    "request_type": "Trash/Recycling",
    "request_reason": "Return Trash Cart",
    "date_created": "2025-09-15T14:34:04.000",
    "date_modified": "2025-09-15T14:34:06.000",
    "request_status": "Pending",
    "responsible_agency": "Department of Sanitation",
    "final_address": "5422 Seminary Pl",
    "address_councildis": "D",
    "status": "Assigned to Contractor",
    "contractor": "IV Waste",
    "rowid": "1226447",
    "final_x": "3688592.32028",
    "final_y": "553223.238679",
    "longitude": "-90.0449048047616",
    "latitude": "30.014954597407172",
    "geocoded_column": {
      "latitude": "30.014954597407172",
      "longitude": "-90.0449048047616"
    }
  },
  {
    "service_request": "2025-1226446",
    "request_type": "Trash/Recycling",
    "request_reason": "Request a Large Item Pick Up",
    "date_created": "2025-09-15T14:30:47.000",
    "date_modified": "2025-09-15T14:30:48.000",
    "request_status": "Pending",
    "responsible_agency": "Department of Sanitation",
    "final_address": "4112 Hollygrove St",
    "address_councildis": "A",
    "status": "Assigned to Contractor",
    "contractor": "IV Waste",
    "rowid": "1226446",
    "final_x": "3666598.07373",
    "final_y": "538239.786825",
    "longitude": "-90.1148997857593",
    "latitude": "29.97441692000006",
    "geocoded_column": {
      "latitude": "29.97441692000006",
      "longitude": "-90.1148997857593"
    }
  },
  {
    "service_request": "2025-1226445",
    "request_type": "Abandoned Vehicles",
    "request_reason": "Abandoned/Junk Vehicles",
    "date_created": "2025-09-15T14:30:43.000",
    "date_modified": "2025-09-15T14:30:45.000",
    "request_status": "Pending",
    "responsible_agency": "Department of Public Works",
    "final_address": "7422 Devine Ave",
    "address_councildis": "E",
    "status": "Pending",
    "rowid": "1226445",
    "final_x": "3705861.20471",
    "final_y": "562542.656096",
    "longitude": "-89.98999863444364",
    "latitude": "30.040034138833878",
    "geocoded_column": {
      "latitude": "30.040034138833878",
      "longitude": "-89.98999863444364"
    }
  },
  {
    "service_request": "2025-1226444",
    "request_type": "Trash/Recycling",
    "request_reason": "Repair Trash Cart",
    "date_created": "2025-09-15T14:26:28.000",
    "date_modified": "2025-09-15T14:26:29.000",
    "request_status": "Pending",
    "responsible_agency": "Department of Sanitation",
    "final_address": "2634 Prancer St",
    "address_councildis": "C",
    "status": "Assigned to Contractor",
    "contractor": "Richards Disposal",
    "rowid": "1226444",
    "final_x": "3699643.55351",
    "final_y": "521170.367225",
    "longitude": "-90.0111569678005",
    "latitude": "29.92647445221378",
    "geocoded_column": {
      "latitude": "29.92647445221378",
      "longitude": "-90.0111569678005"
    }
  },
  {
    "service_request": "2025-1226443",
    "request_type": "Trash/Recycling",
    "request_reason": "Request a Large Item Pick Up",
    "date_created": "2025-09-15T14:25:10.000",
    "date_modified": "2025-09-15T14:25:13.000",
    "request_status": "Pending",
    "responsible_agency": "Department of Sanitation",
    "final_address": "6339 Catina St",
    "address_councildis": "A",
    "status": "Assigned to Contractor",
    "contractor": "IV Waste",
    "rowid": "1226443",
    "final_x": "3666986.67412",
    "final_y": "549783.35874",
    "longitude": "-90.11328430347915",
    "latitude": "30.00614643829945",
    "geocoded_column": {
      "latitude": "30.00614643829945",
      "longitude": "-90.11328430347915"
    }
  },
  {
    "service_request": "2025-1226442",
    "request_type": "Property Maintenance",
    "request_reason": "Property Maintenance",
    "date_created": "2025-09-15T14:22:15.000",
    "date_modified": "2025-09-15T14:22:16.000",
    "request_status": "Pending",
    "responsible_agency": "Department of Code Enforcement",
    "final_address": "NELSON ST & DUBLIN ST",
    "address_councildis": "A",
    "status": "Pending",
    "rowid": "1226442",
    "final_x": "3664861.0",
    "final_y": "532080.18",
    "longitude": "-90.12059179625726",
    "latitude": "29.95753070624251",
    "geocoded_column": {
      "latitude": "29.95753070624251",
      "longitude": "-90.12059179625726"
    }
  },
  {
    "service_request": "2025-1226441",
    "request_type": "Property Maintenance",
    "request_reason": "Property Maintenance",
    "date_created": "2025-09-15T14:20:18.000",
    "date_modified": "2025-09-15T14:20:20.000",
    "request_status": "Pending",
    "responsible_agency": "Department of Code Enforcement",
    "final_address": "APPLE ST & DANTE ST",
    "address_councildis": "A",
    "status": "Pending",
    "rowid": "1226441",
    "final_x": "3664822.7",
    "final_y": "532594.28",
    "longitude": "-90.12069555671157",
    "latitude": "29.958945427958206",
    "geocoded_column": {
      "latitude": "29.958945427958206",
      "longitude": "-90.12069555671157"
    }
  },
  {
    "service_request": "2025-1226440",
    "request_type": "Trash/Recycling",
    "request_reason": "Request a Large Item Pick Up",
    "date_created": "2025-09-15T14:17:24.000",
    "date_modified": "2025-09-15T14:17:27.000",
    "request_status": "Pending",
    "responsible_agency": "Department of Sanitation",
    "final_address": "5613 N Villere St",
    "address_councildis": "E",
    "status": "Assigned to Contractor",
    "contractor": "Waste Pro",
    "rowid": "1226440",
    "final_x": "3698479.05207",
    "final_y": "534893.31303",
    "longitude": "-90.01433429450884",
    "latitude": "29.964244649031198",
    "geocoded_column": {
      "latitude": "29.964244649031198",
      "longitude": "-90.01433429450884"
    }
  },
  {
    "service_request": "2025-1226439",
    "request_type": "Trash/Recycling",
    "request_reason": "Repair Trash Cart",
    "date_created": "2025-09-15T14:15:40.000",
    "date_modified": "2025-09-15T14:15:43.000",
    "request_status": "Pending",
    "responsible_agency": "Department of Sanitation",
    "final_address": "2363 Holiday Dr",
    "address_councildis": "C",
    "status": "Assigned to Contractor",
    "contractor": "Richards Disposal",
    "rowid": "1226439",
    "final_x": "3698777.3594",
    "final_y": "522468.762746",
    "longitude": "-90.01384408706906",
    "latitude": "29.930072047967485",
    "geocoded_column": {
      "latitude": "29.930072047967485",
      "longitude": "-90.01384408706906"
    }
  },
  {
    "service_request": "2025-1226438",
    "request_type": "Health Related Request",
    "request_reason": "Noise Ordinance Complaint",
    "date_created": "2025-09-15T14:15:33.000",
    "date_modified": "2025-09-15T14:29:47.000",
    "case_close_date": "2025-09-15T09:29:46.000",
    "request_status": "Closed",
    "responsible_agency": "Health Department",
    "final_address": "1518 Prytania St",
    "address_councildis": "B",
    "status": "Invalid Request",
    "rowid": "1226438",
    "final_x": "3679597.52936",
    "final_y": "525065.130621",
    "longitude": "-90.07430159409654",
    "latitude": "29.937804575393677",
    "geocoded_column": {
      "latitude": "29.937804575393677",
      "longitude": "-90.07430159409654"
    }
  },
  {
    "service_request": "2025-1226437",
    "request_type": "Trash/Recycling",
    "request_reason": "Repair Trash Cart",
    "date_created": "2025-09-15T14:14:31.000",
    "date_modified": "2025-09-15T14:14:33.000",
    "request_status": "Pending",
    "responsible_agency": "Department of Sanitation",
    "final_address": "3027 Magazine St",
    "address_councildis": "B",
    "status": "Assigned to Contractor",
    "contractor": "IV Waste",
    "rowid": "1226437",
    "final_x": "3676173.99713",
    "final_y": "520291.488696",
    "longitude": "-90.08527412225564",
    "latitude": "29.92478160566063",
    "geocoded_column": {
      "latitude": "29.92478160566063",
      "longitude": "-90.08527412225564"
    }
  },
  {
    "service_request": "2025-1226436",
    "request_type": "Trash/Recycling",
    "request_reason": "Request a Large Item Pick Up",
    "date_created": "2025-09-15T14:10:52.000",
    "date_modified": "2025-09-15T14:10:54.000",
    "request_status": "Pending",
    "responsible_agency": "Department of Sanitation",
    "final_address": "7639 Lacombe St",
    "address_councildis": "E",
    "status": "Assigned to Contractor",
    "contractor": "Waste Pro",
    "rowid": "1226436",
    "final_x": "3709730.41195",
    "final_y": "565261.282658",
    "longitude": "-89.97766918043298",
    "latitude": "30.047383979715057",
    "geocoded_column": {
      "latitude": "30.047383979715057",
      "longitude": "-89.97766918043298"
    }
  },