[
  {
    "service_request": "2021-849604",
    "request_type": "Trash/Recycling",
    "request_reason": "Order Recycling Cart",
    "date_created": "2021-12-23T01:51:52.000",
    "date_modified": "2021-12-23T02:00:54.000",
    "request_status": "Pending",
    "responsible_agency": "Department of Sanitation",
    "final_address": "7901 Oak St",
    "address_councildis": "A",
    "status": "Pending",
    "rowid": "849604",
    "final_x": "3662530.88947",
    "final_y": "527916.704191",
    "longitude": "-90.12808791915138",
    "latitude": "29.946150094633193",
    "geocoded_column": {
      "latitude": "29.946150094633193",
      "longitude": "-90.12808791915138"
    }
  },
  {
    "service_request": "2021-849603",
    "request_type": "Trash/Recycling",
    "request_reason": "Replace Trash Cart",
    "date_created": "2021-12-22T22:05:20.000",
    "date_modified": "2021-12-22T23:01:13.000",
    "request_status": "Pending",
    "responsible_agency": "Department of Sanitation",
    "final_address": "5907 Annunciation St",
    "address_councildis": "A",
    "status": "Assigned to Contractor",
    "contractor": "Richards Disposal",
    "rowid": "849603",
    "final_x": "3664859.08205",
    "final_y": "517828.07199",
    "longitude": "-90.12107397934275",
    "latitude": "29.918342010095085",
    "geocoded_column": {
      "latitude": "29.918342010095085",
      "longitude": "-90.12107397934275"
    }
  },
  {
    "service_request": "2021-849602",
    "request_type": "Trash/Recycling",
    "request_reason": "Request a Large Item Pick Up",
    "date_created": "2021-12-22T21:41:46.000",
    "date_modified": "2021-12-22T21:41:47.000",
    "request_status": "Pending",
    "responsible_agency": "Department of Sanitation",
    "final_address": "1501 Robert E Lee Blvd",
    "address_councildis": "D",
    "status": "Assigned to Contractor",
    "contractor": "Metro Disposal",
    "rowid": "849602",
    "final_x": "3678318.7348",
    "final_y": "555441.167705",
    "longitude": "-90.077287621092",
    "latitude": "30.021366736680008",
    "geocoded_column": {
      "latitude": "30.021366736680008",
      "longitude": "-90.077287621092"
    }
  },
  {
    "service_request": "2021-849601",
    "request_type": "Traffic Signals/Signs/Striping/Streetlights",
    "request_reason": "Street Light Outage/Malfunction",
    "date_created": "2021-12-22T21:19:06.000",
    "date_modified": "2021-12-22T21:19:06.000",
    "request_status": "Pending",
    "responsible_agency": "Department of Public Works",
    "final_address": "S NORMAN C FRANCIS PKWY & DHEMECOURT ST",
    "address_councildis": "B",
    "status": "Pending",
    "contractor": "Royal Engineering",
    "rowid": "849601",
    "final_x": "3671940.5",
    "final_y": "535213.18",
    "longitude": "-90.09813013364315",
    "latitude": "29.965937484228466",
    "geocoded_column": {
      "latitude": "29.965937484228466",
      "longitude": "-90.09813013364315"
    }
  },
  {
    "service_request": "2021-849600",
    "request_type": "Traffic Signals/Signs/Striping/Streetlights",
    "request_reason": "Street Light Outage/Malfunction",
    "date_created": "2021-12-22T21:18:38.000",
    "date_modified": "2021-12-22T21:18:38.000",
    "request_status": "Pending",
    "responsible_agency": "Department of Public Works",
    "final_address": "S NORMAN C FRANCIS PKWY & DHEMECOURT ST",
    "address_councildis": "B",
    "status": "Pending",
    "contractor": "Royal Engineering",
    "rowid": "849600",
    "final_x": "3671940.5",
    "final_y": "535213.18",
    "longitude": "-90.09813013364315",
    "latitude": "29.965937484228466",
    "geocoded_column": {
      "latitude": "29.965937484228466",
      "longitude": "-90.09813013364315"
    }
  },
  {
    "service_request": "2021-849599",
    "request_type": "Trash/Recycling",
    "request_reason": "Replace Trash Cart",
    "date_created": "2021-12-22T21:12:21.000",
    "date_modified": "2021-12-22T21:12:22.000",
    "request_status": "Pending",
    "responsible_agency": "Department of Sanitation",
    "final_address": "1126 Joseph St",
    "address_councildis": "A",
    "status": "Assigned to Contractor",
    "contractor": "Richards Disposal",
    "rowid": "849599",
    "final_x": "3666337.53921",
    "final_y": "520090.882488",
    "longitude": "-90.11633140290098",
    "latitude": "29.924520936207614",
    "geocoded_column": {
      "latitude": "29.924520936207614",
      "longitude": "-90.11633140290098"
    }
  },
  {
    "service_request": "2021-849598",
    "request_type": "Trash/Recycling",
    "request_reason": "Replace Trash Cart",
    "date_created": "2021-12-22T20:24:55.000",
    "date_modified": "2021-12-22T20:24:56.000",
    "request_status": "Pending",
    "responsible_agency": "Department of Sanitation",
    "final_address": "8432 Panola St",
    "address_councildis": "A",
    "status": "Assigned to Contractor",
    "contractor": "Richards Disposal",
    "rowid": "849598",
    "final_x": "3663106.9792",
    "final_y": "531560.678211",
    "longitude": "-90.12614778431227",
    "latitude": "29.95615317403037",
    "geocoded_column": {
      "latitude": "29.95615317403037",
      "longitude": "-90.12614778431227"
    }
  },
  {
    "service_request": "2021-849597",
    "request_type": "Traffic Signals/Signs/Striping/Streetlights",
    "request_reason": "Street Light Outage/Malfunction",
    "date_created": "2021-12-22T20:12:33.000",
    "date_modified": "2021-12-22T21:00:38.000",
    "request_status": "Pending",
    "responsible_agency": "Department of Public Works",
    "final_address": "1817 Aubry St",
    "address_councildis": "D",
    "status": "Pending",
    "contractor": "Royal Engineering",
    "rowid": "849597",
    "final_x": "3682166.33583",
    "final_y": "539232.243018",
    "longitude": "-90.06569686486844",
    "latitude": "29.97668145158057",
    "geocoded_column": {
      "latitude": "29.97668145158057",
      "longitude": "-90.06569686486844"
    }
  },
  {
    "service_request": "2021-849596",
    "request_type": "Trash/Recycling",
    "request_reason": "Replace Trash Cart",
    "date_created": "2021-12-22T18:21:01.000",
    "date_modified": "2021-12-22T18:21:02.000",
    "request_status": "Pending",
    "responsible_agency": "Department of Sanitation",
    "final_address": "8010 Trapier Ave",
    "address_councildis": "E",
    "status": "Assigned to Contractor",
    "contractor": "Metro Disposal",
    "rowid": "849596",
    "final_x": "3705933.59518",
    "final_y": "564614.909601",
    "longitude": "-89.98969306482903",
    "latitude": "30.04572967978005",
    "geocoded_column": {
      "latitude": "30.04572967978005",
      "longitude": "-89.98969306482903"
    }
  },
  {
    "service_request": "2021-849595",
    "request_type": "Traffic Signals/Signs/Striping/Streetlights",
    "request_reason": "Street Light Outage/Malfunction",
    "date_created": "2021-12-22T18:04:43.000",
    "date_modified": "2021-12-22T19:00:57.000",
    "request_status": "Pending",
    "responsible_agency": "Department of Public Works",
    "final_address": "8514 Pritchard Pl",
    "address_councildis": "A",
    "status": "Pending",
    "contractor": "Royal Engineering",
    "rowid": "849595",
    "final_x": "3664898.3593",
    "final_y": "533891.962117",
    "longitude": "-90.12041326610664",
    "latitude": "29.962511426927303",
    "geocoded_column": {
      "latitude": "29.962511426927303",
      "longitude": "-90.12041326610664"
    }
  },
  {
    "service_request": "2021-849594",
    "request_type": "Trash/Recycling",
    "request_reason": "Stop Trash Service",
    "date_created": "2021-12-22T17:54:39.000",
    "date_modified": "2021-12-22T18:00:58.000",
    "request_status": "Pending",
    "responsible_agency": "Department of Sanitation",
    "final_address": "2909 Baronne St",
    "address_councildis": "B",
    "status": "Assigned to Contractor",
    "contractor": "Richards Disposal",
    "rowid": "849594",
    "final_x": "3674986.64789",
    "final_y": "522836.456443",
    "longitude": "-90.08893494854145",
    "latitude": "29.931814950830415",
    "geocoded_column": {
      "latitude": "29.931814950830415",
      "longitude": "-90.08893494854145"
    }
  },
  {
    "service_request": "2021-849593",
    "request_type": "Trash/Recycling",
    "request_reason": "Return Trash Cart",
    "date_created": "2021-12-22T17:53:19.000",
    "date_modified": "2021-12-22T18:00:59.000",
    "request_status": "Pending",
    "responsible_agency": "Department of Sanitation",
    "final_address": "2909 Baronne St",
    "address_councildis": "B",
    "status": "Assigned to Contractor",
    "contractor": "Richards Disposal",
    "rowid": "849593",
    "final_x": "3674986.64789",
    "final_y": "522836.456443",
    "longitude": "-90.08893494854145",
    "latitude": "29.931814950830415",
    "geocoded_column": {
      "latitude": "29.931814950830415",
      "longitude": "-90.08893494854145"
    }
  },
  {
    "service_request": "2021-849592",
    "request_type": "Traffic Signals/Signs/Striping/Streetlights",
    "request_reason": "Street Name Sign Damaged or Missing",
    "date_created": "2021-12-22T17:42:19.000",
    "date_modified": "2021-12-22T17:42:19.000",
    "request_status": "Pending",
    "responsible_agency": "Department of Public Works",
    "final_address": "15 Dreyfous Dr",
    "address_councildis": "A",
    "status": "Pending",
    "rowid": "849592",
    "final_x": "3670795.28372",
    "final_y": "542214.304589",
    "longitude": "-90.10150901721629",
    "latitude": "29.985222105285867",
    "geocoded_column": {
      "latitude": "29.985222105285867",
      "longitude": "-90.10150901721629"
    }
  },
  {
    "service_request": "2021-849591",
    "request_type": "Abandoned Vehicles",
    "request_reason": "Abandoned/Junk Vehicles",
    "date_created": "2021-12-22T17:33:02.000",
    "date_modified": "2021-12-22T17:33:02.000",
    "request_status": "Pending",
    "responsible_agency": "Department of Public Works",
    "final_address": "4434 S Liberty St",
    "address_councildis": "B",
    "status": "Pending",
    "rowid": "849591",
    "final_x": "3670272.32372",
    "final_y": "523257.209723",
    "longitude": "-90.10380334202296",
    "latitude": "29.933111823691",
    "geocoded_column": {
      "latitude": "29.933111823691",
      "longitude": "-90.10380334202296"
    }
  },
  {
    "service_request": "2021-849590",
    "request_type": "Abandoned Vehicles",
    "request_reason": "Abandoned/Junk Vehicles",
    "date_created": "2021-12-22T17:07:32.000",
    "date_modified": "2021-12-22T18:01:00.000",
    "request_status": "Pending",
    "responsible_agency": "Department of Public Works",
    "final_address": "5844 General Haig St, New Orleans, Louisiana, 70124",
    "address_councildis": "A",
    "status": "Pending",
    "rowid": "849590",
    "final_x": "3670384.38702",
    "final_y": "546142.067344",
    "longitude": "-90.10267362587713",
    "latitude": "29.99603424178883",
    "geocoded_column": {
      "latitude": "29.99603424178883",
      "longitude": "-90.10267362587713"
    }
  },
  {
    "service_request": "2021-849589",
    "request_type": "COVID-19",
    "request_reason": "COVID-19 Business Non-Compliance",
    "date_created": "2021-12-22T16:47:56.000",
    "date_modified": "2021-12-22T17:01:00.000",
    "request_status": "Pending",
    "responsible_agency": "Safety and Permits",
    "final_address": "1300 Perdido St",
    "address_councildis": "B",
    "status": "Pending",
    "rowid": "849589",
    "final_x": "3678683.48347",
    "final_y": "530227.987073",
    "longitude": "-90.07700859883013",
    "latitude": "29.952028297123956",
    "geocoded_column": {
      "latitude": "29.952028297123956",
      "longitude": "-90.07700859883013"
    }
  },
  {
    "service_request": "2021-849588",
    "request_type": "Trash/Recycling",
    "request_reason": "Request a Large Item Pick Up",
    "date_created": "2021-12-22T16:46:12.000",
    "date_modified": "2021-12-22T17:01:02.000",
    "request_status": "Pending",
    "responsible_agency": "Department of Sanitation",
    "final_address": "7241 Westhaven Rd",
    "address_councildis": "E",
    "status": "Assigned to Contractor",
    "contractor": "Metro Disposal",
    "rowid": "849588",
    "final_x": "3703536.07364",
    "final_y": "560575.50659",
    "longitude": "-89.99741921061168",
    "latitude": "30.03469999584492",
    "geocoded_column": {
      "latitude": "30.03469999584492",
      "longitude": "-89.99741921061168"
    }
  },
  {
    "service_request": "2021-849587",
    "request_type": "COVID-19",
    "request_reason": "COVID-19 Business Non-Compliance",
    "date_created": "2021-12-22T16:40:27.000",
    "date_modified": "2021-12-22T16:40:28.000",
    "request_status": "Pending",
    "responsible_agency": "Safety and Permits",
    "final_address": "15 Henry Thomas Dr",
    "address_councildis": "A",
    "status": "Pending",
    "rowid": "849587",
    "final_x": "3673098.80392",
    "final_y": "543854.265358",
    "longitude": "-90.09417713131299",
    "latitude": "29.98966313912075",
    "geocoded_column": {
      "latitude": "29.98966313912075",
      "longitude": "-90.09417713131299"
    }
  },
  {
    "service_request": "2021-849586",
    "request_type": "Trash/Recycling",
    "request_reason": "Missed Trash Pick-Up",
    "date_created": "2021-12-22T16:38:05.000",
    "date_modified": "2021-12-22T16:38:05.000",
    "request_status": "Pending",
    "responsible_agency": "Department of Sanitation",
    "final_address": "7236 Gem St",
    "address_councildis": "D",
    "status": "Assigned to Contractor",
    "contractor": "Metro Disposal",
    "rowid": "849586",
    "final_x": "3669728.18606",
    "final_y": "555216.223129",
    "longitude": "-90.10443909728616",
    "latitude": "30.021004348646404",
    "geocoded_column": {
      "latitude": "30.021004348646404",
      "longitude": "-90.10443909728616"
    }
  },
  {
    "service_request": "2021-849585",
    "request_type": "Trash/Recycling",
    "request_reason": "Request a Large Item Pick Up",
    "date_created": "2021-12-22T16:37:50.000",
    "date_modified": "2021-12-22T16:37:50.000",
    "request_status": "Pending",
    "responsible_agency": "Department of Sanitation",
    "final_address": "1225 S Genois St",
    "address_councildis": "B",
    "status": "Assigned to Contractor",
    "contractor": "Richards Disposal",
    "rowid": "849585",
    "final_x": "3669324.81127",
    "final_y": "532639.90298",
    "longitude": "-90.10647743455085",
    "latitude": "29.958939098584075",
    "geocoded_column": {
      "latitude": "29.958939098584075",
      "longitude": "-90.10647743455085"
    }
  },
  {
    "service_request": "2021-849584",
    "request_type": "Trash/Recycling",
    "request_reason": "Order Trash Cart",
    "date_created": "2021-12-22T16:36:51.000",
    "date_modified": "2021-12-22T17:01:04.000",
    "request_status": "Pending",
    "responsible_agency": "Department of Sanitation",
    "final_address": "3819 Dhemecourt St, New Orleans, Louisiana, 70119",
    "address_councildis": "B",
    "status": "Assigned to Contractor",
    "contractor": "Richards Disposal",
    "rowid": "849584",
    "final_x": "3670735.6651",
    "final_y": "536167.542727",
    "longitude": "-90.10190258638417",
    "latitude": "29.96859731978876",
    "geocoded_column": {
      "latitude": "29.96859731978876",
      "longitude": "-90.10190258638417"
    }
  },
  {
    "service_request": "2021-849583",
    "request_type": "Trash/Recycling",
    "request_reason": "Order Trash Cart",
    "date_created": "2021-12-22T16:35:57.000",
    "date_modified": "2021-12-22T17:01:06.000",
    "request_status": "Pending",
    "responsible_agency": "Department of Sanitation",
    "final_address": "3819 Dhemecourt St, New Orleans, Louisiana, 70119",
    "address_councildis": "B",
    "status": "Assigned to Contractor",
    "contractor": "Richards Disposal",
    "rowid": "849583",
    "final_x": "3670735.6651",
    "final_y": "536167.542727",
    "longitude": "-90.10190258638417",
    "latitude": "29.96859731978876",
    "geocoded_column": {
      "latitude": "29.96859731978876",
      "longitude": "-90.10190258638417"
    }
  },
  {
    "service_request": "2021-849581",
    "request_type": "COVID-19",
    "request_reason": "COVID-19 Business Non-Compliance",
    "date_created": "2021-12-22T16:28:04.000",
    "date_modified": "2021-12-22T16:28:05.000",
    "request_status": "Pending",
    "responsible_agency": "Safety and Permits",
    "final_address": "935 Gravier St",
    "address_councildis": "B",
    "status": "Pending",
    "rowid": "849581",
    "final_x": "3679898.29691",
    "final_y": "530533.113026",
    "longitude": "-90.07316219376503",
    "latitude": "29.952830610787032",
    "geocoded_column": {
      "latitude": "29.952830610787032",
      "longitude": "-90.07316219376503"
    }
  },
  {
    "service_request": "2021-849580",
    "request_type": "Trash/Recycling",
    "request_reason": "Replace Trash Cart",
    "date_created": "2021-12-22T16:26:35.000",
    "date_modified": "2021-12-22T17:01:09.000",
    "request_status": "Pending",
    "responsible_agency": "Department of Sanitation",
    "final_address": "8510 Bill St",
    "address_councildis": "E",
    "status": "Assigned to Contractor",
    "contractor": "Metro Disposal",
    "rowid": "849580",
    "final_x": "3703485.79825",
    "final_y": "563015.128032",
    "longitude": "-89.99748820755882",
    "latitude": "30.041409608797515",
    "geocoded_column": {
      "latitude": "30.041409608797515",
      "longitude": "-89.99748820755882"
    }
  },
  {
    "service_request": "2021-849579",
    "request_type": "Roads/Drainage",
    "request_reason": "Street Flooding / Drainage",
    "date_created": "2021-12-22T16:22:12.000",
    "date_modified": "2021-12-22T17:01:11.000",
    "request_status": "Pending",
    "responsible_agency": "Department of Public Works",
    "final_address": "201 St Charles Ave",
    "address_councildis": "B",
    "status": "Pending",
    "rowid": "849579",
    "final_x": "3680907.66773",
    "final_y": "530296.154625",
    "longitude": "-90.06998330034857",
    "latitude": "29.952148492948435",
    "geocoded_column": {
      "latitude": "29.952148492948435",
      "longitude": "-90.06998330034857"
    }
  },
  {
    "service_request": "2021-849578",
    "request_type": "Trash/Recycling",
    "request_reason": "Request a Large Item Pick Up",
    "date_created": "2021-12-22T16:20:37.000",
    "date_modified": "2021-12-22T16:20:38.000",
    "request_status": "Pending",
    "responsible_agency": "Department of Sanitation",
    "final_address": "5542 Chatham Dr",
    "address_councildis": "D",
    "status": "Assigned to Contractor",
    "contractor": "Metro Disposal",
    "rowid": "849578",
    "final_x": "3679641.27439",
    "final_y": "552916.108375",
    "longitude": "-90.07319650292024",
    "latitude": "30.014383811412316",
    "geocoded_column": {
      "latitude": "30.014383811412316",
      "longitude": "-90.07319650292024"
    }
  },
  {
    "service_request": "2021-849577",
    "request_type": "Trash/Recycling",
    "request_reason": "Order Trash Cart",
    "date_created": "2021-12-22T16:20:00.000",
    "date_modified": "2021-12-22T17:01:12.000",
    "request_status": "Pending",
    "responsible_agency": "Department of Sanitation",
    "final_address": "6120 Dover Pl",
    "address_councildis": "C",
    "status": "Assigned to Contractor",
    "contractor": "Richards Disposal",
    "rowid": "849577",
    "final_x": "3706688.88311",
    "final_y": "519147.230711",
    "longitude": "-89.9889919406829",
    "latitude": "29.92068611723704",
    "geocoded_column": {
      "latitude": "29.92068611723704",
      "longitude": "-89.9889919406829"
    }
  },
  {
    "service_request": "2021-849576",
    "request_type": "Trash/Recycling",
    "request_reason": "Order Trash Cart",
    "date_created": "2021-12-22T16:18:13.000",
    "date_modified": "2021-12-22T17:01:13.000",
    "request_status": "Pending",
    "responsible_agency": "Department of Sanitation",
    "final_address": "4601 Redwood St",
    "address_councildis": "E",
    "status": "Assigned to Contractor",
    "contractor": "Metro Disposal",
    "rowid": "849576",
    "final_x": "3712653.55742",
    "final_y": "555279.621081",
    "longitude": "-89.96880621353864",
    "latitude": "30.019842972832343",
    "geocoded_column": {
      "latitude": "30.019842972832343",
      "longitude": "-89.96880621353864"
    }
  },
  {
    "service_request": "2021-849575",
    "request_type": "Abandoned Vehicles",
    "request_reason": "Abandoned/Junk Vehicles",
    "date_created": "2021-12-22T16:13:39.000",
    "date_modified": "2021-12-22T16:13:39.000",
    "request_status": "Pending",
    "responsible_agency": "Department of Public Works",
    "final_address": "2443 Congress St",
    "address_councildis": "D",
    "status": "Pending",
    "rowid": "849575",
    "final_x": "3692054.93021",
    "final_y": "540792.069579",
    "longitude": "-90.03440989201816",
    "latitude": "29.980665908612274",
    "geocoded_column": {
      "latitude": "29.980665908612274",
      "longitude": "-90.03440989201816"
    }
  },
  {
    "service_request": "2021-849574",
    "request_type": "Trash/Recycling",
    "request_reason": "Request a Large Item Pick Up",
    "date_created": "2021-12-22T16:01:42.000",
    "date_modified": "2021-12-22T17:01:15.000",
    "request_status": "Pending",
    "responsible_agency": "Department of Sanitation",
    "final_address": "1237 Gallier St, New Orleans, Louisiana, 70117",
    "address_councildis": "C",
    "status": "Assigned to Contractor",
    "contractor": "Metro Disposal",
    "rowid": "849574",
    "final_x": "3690675.49404",
    "final_y": "536276.601351",
    "longitude": "-90.03892784762269",
    "latitude": "29.968292895684066",
    "geocoded_column": {
      "latitude": "29.968292895684066",
      "longitude": "-90.03892784762269"
    }
  },
  {
    "service_request": "2021-849573",
    "request_type": "Traffic Signals/Signs/Striping/Streetlights",
    "request_reason": "Street Light Outage/Malfunction",
    "date_created": "2021-12-22T16:00:54.000",
    "date_modified": "2021-12-22T21:17:42.000",
    "request_status": "Pending",
    "responsible_agency": "Department of Public Works",
    "final_address": "New Orleans,LA",
    "address_councildis": "B",
    "status": "Pending",
    "contractor": "Royal Engineering",
    "rowid": "849573",
    "final_x": "3671940.5",
    "final_y": "535213.18",
    "longitude": "-90.09813013364315",
    "latitude": "29.965937484228466",
    "geocoded_column": {
      "latitude": "29.965937484228466",
      "longitude": "-90.09813013364315"
    }
  },
  {
    "service_request": "2021-849572",
    "request_type": "Abandoned Vehicles",
    "request_reason": "Abandoned/Junk Vehicles",
    "date_created": "2021-12-22T15:47:55.000",
    "date_modified": "2021-12-22T15:47:55.000",
    "request_status": "Pending",
    "responsible_agency": "Department of Public Works",
    "final_address": "4443 Knight Dr",
    "address_councildis": "E",
    "status": "Pending",
    "rowid": "849572",
    "final_x": "3708359.46577",
    "final_y": "554030.476184",
    "longitude": "-89.98242056568391",
    "latitude": "30.016548215847344",
    "geocoded_column": {
      "latitude": "30.016548215847344",
      "longitude": "-89.98242056568391"
    }
  },
  {
    "service_request": "2021-849571",
    "request_type": "Trash/Recycling",
    "request_reason": "Request a Large Item Pick Up",
    "date_created": "2021-12-22T15:41:15.000",
    "date_modified": "2021-12-22T16:00:58.000",
    "request_status": "Pending",
    "responsible_agency": "Department of Sanitation",
    "final_address": "5505 Wilton Dr B",
    "address_councildis": "D",
    "status": "Assigned to Contractor",
    "contractor": "Metro Disposal",
    "rowid": "849571",
    "final_x": "3681929.30536",
    "final_y": "553058.963671",
    "longitude": "-90.06596247299446",
    "latitude": "30.01470722504582",
    "geocoded_column": {
      "latitude": "30.01470722504582",
      "longitude": "-90.06596247299446"
    }
  },
  {
    "service_request": "2021-849570",
    "request_type": "Trash/Recycling",
    "request_reason": "Repair Trash Cart",
    "date_created": "2021-12-22T15:37:31.000",
    "date_modified": "2021-12-22T16:01:00.000",
    "request_status": "Pending",
    "responsible_agency": "Department of Sanitation",
    "final_address": "60 Dove St",
    "address_councildis": "D",
    "status": "Assigned to Contractor",
    "contractor": "Metro Disposal",
    "rowid": "849570",
    "final_x": "3673580.16859",
    "final_y": "555235.021849",
    "longitude": "-90.092267270035",
    "latitude": "30.020941883205975",
    "geocoded_column": {
      "latitude": "30.020941883205975",
      "longitude": "-90.092267270035"
    }
  },
  {
    "service_request": "2021-849569",
    "request_type": "Trash/Recycling",
    "request_reason": "Replace Trash Cart",
    "date_created": "2021-12-22T15:30:41.000",
    "date_modified": "2021-12-22T16:01:01.000",
    "request_status": "Pending",
    "responsible_agency": "Department of Sanitation",
    "final_address": "60 Dove St, New Orleans, Louisiana, 70124",
    "address_councildis": "D",
    "status": "Assigned to Contractor",
    "contractor": "Metro Disposal",
    "rowid": "849569",
    "final_x": "3673580.16859",
    "final_y": "555235.021849",
    "longitude": "-90.092267270035",
    "latitude": "30.020941883205975",
    "geocoded_column": {
      "latitude": "30.020941883205975",
      "longitude": "-90.092267270035"
    }
  },
  {
    "service_request": "2021-849568",
    "request_type": "Trash/Recycling",
    "request_reason": "Request a Large Item Pick Up",
    "date_created": "2021-12-22T15:09:00.000",
    "date_modified": "2021-12-22T15:09:00.000",
    "request_status": "Pending",
    "responsible_agency": "Department of Sanitation",
    "final_address": "4628 Pauger St",
    "address_councildis": "D",
    "status": "Assigned to Contractor",
    "contractor": "Metro Disposal",
    "rowid": "849568",
    "final_x": "3682740.73596",
    "final_y": "549692.79362",
    "longitude": "-90.06351661076843",
    "latitude": "30.0054267741653",
    "geocoded_column": {
      "latitude": "30.0054267741653",
      "longitude": "-90.06351661076843"
    }
  },
  {
    "service_request": "2021-849567",
    "request_type": "Trash/Recycling",
    "request_reason": "Missed Trash Pick-Up",
    "date_created": "2021-12-22T15:01:05.000",
    "date_modified": "2021-12-22T15:01:22.000",
    "request_status": "Pending",
    "responsible_agency": "Department of Sanitation",
    "final_address": "4634 Charlmark Dr, New Orleans, Louisiana, 70127",
    "address_councildis": "E",
    "status": "Assigned to Contractor",
    "contractor": "Metro Disposal",
    "rowid": "849567",
    "final_x": "3711416.21086",
    "final_y": "555348.754393",
    "longitude": "-89.97271319578194",
    "latitude": "30.020073520012815",
    "geocoded_column": {
      "latitude": "30.020073520012815",
      "longitude": "-89.97271319578194"
    }
  },
  {
    "service_request": "2021-849566",
    "request_type": "Trash/Recycling",
    "request_reason": "Replace Trash Cart",
    "date_created": "2021-12-22T14:59:06.000",
    "date_modified": "2021-12-22T15:01:24.000",
    "request_status": "Pending",
    "responsible_agency": "Department of Sanitation",
    "final_address": "3154 N Derbigny St",
    "address_councildis": "D",
    "status": "Assigned to Contractor",
    "contractor": "Metro Disposal",
    "rowid": "849566",
    "final_x": "3689950.96176",
    "final_y": "538058.202121",
    "longitude": "-90.04115249614212",
    "latitude": "29.973214155625307",
    "geocoded_column": {
      "latitude": "29.973214155625307",
      "longitude": "-90.04115249614212"
    }
  },
  {
    "service_request": "2021-849565",
    "request_type": "Parks & Parkways",
    "request_reason": "Request Tree Service (Right of Way/Public Property)",
    "date_created": "2021-12-22T14:58:57.000",
    "date_modified": "2021-12-22T15:01:26.000",
    "request_status": "Pending",
    "responsible_agency": "Department of Parks & Parkway",
    "final_address": "1521 Mithra St",
    "address_councildis": "D",
    "status": "Pending",
    "rowid": "849565",
    "final_x": "3678819.44776",
    "final_y": "552284.330582",
    "longitude": "-90.07581497452323",
    "latitude": "30.012671475955663",
    "geocoded_column": {
      "latitude": "30.012671475955663",
      "longitude": "-90.07581497452323"
    }
  },
  {
    "service_request": "2021-849562",
    "request_type": "Traffic Signals/Signs/Striping/Streetlights",
    "request_reason": "Street Light Outage/Malfunction",
    "date_created": "2021-12-22T14:41:31.000",
    "date_modified": "2021-12-22T14:41:32.000",
    "request_status": "Pending",
    "responsible_agency": "Department of Public Works",
    "final_address": "6115 N Rocheblave St",
    "address_councildis": "E",
    "status": "Pending",
    "contractor": "Royal Engineering",
    "rowid": "849562",
    "final_x": "3701527.91857",
    "final_y": "537930.532873",
    "longitude": "-90.00459507274776",
    "latitude": "29.97249905210447",
    "geocoded_column": {
      "latitude": "29.97249905210447",
      "longitude": "-90.00459507274776"
    }
  },
  {
    "service_request": "2021-849561",
    "request_type": "Abandoned Vehicles",
    "request_reason": "Abandoned/Junk Vehicles",
    "date_created": "2021-12-22T14:39:08.000",
    "date_modified": "2021-12-22T15:01:30.000",
    "request_status": "Pending",
    "responsible_agency": "Department of Public Works",
    "final_address": "6300 BLK Burgundy St",
    "address_councildis": "E",
    "status": "Pending",
    "rowid": "849561",
    "final_x": "3699980.41759",
    "final_y": "532233.286371",
    "longitude": "-90.00969017363296",
    "latitude": "29.956882918627706",
    "geocoded_column": {
      "latitude": "29.956882918627706",
      "longitude": "-90.00969017363296"
    }
  },
  {
    "service_request": "2021-849560",
    "request_type": "Trash/Recycling",
    "request_reason": "Start Trash Service",
    "date_created": "2021-12-22T14:36:32.000",
    "date_modified": "2021-12-22T14:36:33.000",
    "request_status": "Pending",
    "responsible_agency": "Department of Sanitation",
    "final_address": "421 Alabo St",
    "address_councildis": "E",
    "status": "Assigned to Contractor",
    "contractor": "Metro Disposal",
    "rowid": "849560",
    "final_x": "3698401.94391",
    "final_y": "531178.44141",
    "longitude": "-90.01471279593594",
    "latitude": "29.95403251098095",
    "geocoded_column": {
      "latitude": "29.95403251098095",
      "longitude": "-90.01471279593594"
    }
  },
  {
    "service_request": "2021-849559",
    "request_type": "Trash/Recycling",
    "request_reason": "Request a Large Item Pick Up",
    "date_created": "2021-12-22T14:36:21.000",
    "date_modified": "2021-12-22T14:36:21.000",
    "request_status": "Pending",
    "responsible_agency": "Department of Sanitation",
    "final_address": "5729 Franklin Ave",
    "address_councildis": "D",
    "status": "Assigned to Contractor",
    "contractor": "Metro Disposal",
    "rowid": "849559",
    "final_x": "3686582.95586",
    "final_y": "554306.216728",
    "longitude": "-90.05121513585532",
    "latitude": "30.01799436064056",
    "geocoded_column": {
      "latitude": "30.01799436064056",
      "longitude": "-90.05121513585532"
    }
  },
  {
    "service_request": "2021-849558",
    "request_type": "Trash/Recycling",
    "request_reason": "Request a Large Item Pick Up",
    "date_created": "2021-12-22T14:26:28.000",
    "date_modified": "2021-12-22T15:01:31.000",
    "request_status": "Pending",
    "responsible_agency": "Department of Sanitation",
    "final_address": "12931 Mcraven Ct",
    "address_councildis": "E",
    "status": "Assigned to Contractor",
    "contractor": "Metro Disposal",
    "rowid": "849558",
    "final_x": "3716582.6133",
    "final_y": "568112.811493",
    "longitude": "-89.95590437337623",
    "latitude": "30.054999823499724",
    "geocoded_column": {
      "latitude": "30.054999823499724",
      "longitude": "-89.95590437337623"
    }
  },
  {
    "service_request": "2021-849557",
    "request_type": "Roads/Drainage",
    "request_reason": "Pothole",
    "date_created": "2021-12-22T14:24:10.000",
    "date_modified": "2021-12-22T14:24:10.000",
    "request_status": "Pending",
    "responsible_agency": "Department of Public Works",
    "final_address": "PERDIDO ST & S GAYOSO ST",
    "address_councildis": "B",
    "status": "Pending",
    "rowid": "849557",
    "final_x": "3672561.6",
    "final_y": "533520.08",
    "longitude": "-90.09622644069105",
    "latitude": "29.96126360144017",
    "geocoded_column": {
      "latitude": "29.96126360144017",
      "longitude": "-90.09622644069105"
    }
  },
  {
    "service_request": "2021-849556",
    "request_type": "Trash/Recycling",
    "request_reason": "Request a Large Item Pick Up",
    "date_created": "2021-12-22T14:22:07.000",
    "date_modified": "2021-12-22T14:22:08.000",
    "request_status": "Pending",
    "responsible_agency": "Department of Sanitation",
    "final_address": "5101 Desire Dr",
    "address_councildis": "D",
    "status": "Assigned to Contractor",
    "contractor": "Metro Disposal",
    "rowid": "849556",
    "final_x": "3691564.27792",
    "final_y": "552578.323222",
    "longitude": "-90.03553795216554",
    "latitude": "30.013089097663705",
    "geocoded_column": {
      "latitude": "30.013089097663705",
      "longitude": "-90.03553795216554"
    }
  },
  {
    "service_request": "2021-849555",
    "request_type": "Trash/Recycling",
    "request_reason": "Order Recycling Cart",
    "date_created": "2021-12-22T14:18:05.000",
    "date_modified": "2021-12-22T15:01:32.000",
    "request_status": "Pending",
    "responsible_agency": "Department of Sanitation",
    "final_address": "175 Forest Oaks Dr",
    "address_councildis": "C",
    "status": "Pending",
    "rowid": "849555",
    "final_x": "3723199.07647",
    "final_y": "510621.008431",
    "longitude": "-89.93720552057381",
    "latitude": "29.89669912040193",
    "geocoded_column": {
      "latitude": "29.89669912040193",
      "longitude": "-89.93720552057381"
    }
  },
  {
    "service_request": "2021-849553",
    "request_type": "Roads/Drainage",
    "request_reason": "Service Cut",
    "date_created": "2021-12-22T14:17:57.000",
    "date_modified": "2021-12-22T14:17:57.000",
    "request_status": "Pending",
    "responsible_agency": "Department of Public Works",
    "final_address": "2111 Franklin Ave",
    "address_councildis": "D",
    "status": "Pending",
    "rowid": "849553",
    "final_x": "3687694.543",
    "final_y": "540329.982923",
    "longitude": "-90.04819823140865",
    "latitude": "29.97953052664869",
    "geocoded_column": {
      "latitude": "29.97953052664869",
      "longitude": "-90.04819823140865"
    }
  },
  {
    "service_request": "2021-849552",
    "request_type": "Trash/Recycling",
    "request_reason": "Request a Large Item Pick Up",
    "date_created": "2021-12-22T14:16:38.000",
    "date_modified": "2021-12-22T15:01:34.000",
    "request_status": "Pending",
    "responsible_agency": "Department of Sanitation",
    "final_address": "175 Forest Oaks Dr",
    "address_councildis": "C",
    "status": "Assigned to Contractor",
    "contractor": "Richards Disposal",
    "rowid": "849552",
    "final_x": "3723199.07647",
    "final_y": "510621.008431",
    "longitude": "-89.93720552057381",
    "latitude": "29.89669912040193",
    "geocoded_column": {
      "latitude": "29.89669912040193",
      "longitude": "-89.93720552057381"
    }
  },
  {
    "service_request": "2021-849551",
    "request_type": "Trash/Recycling",
    "request_reason": "Request a Large Item Pick Up",
    "date_created": "2021-12-22T14:15:33.000",
    "date_modified": "2021-12-22T14:15:34.000",
    "request_status": "Pending",
    "responsible_agency": "Department of Sanitation",
    "final_address": "1206 Touro St",
    "address_councildis": "C",
    "status": "Assigned to Contractor",
    "contractor": "Metro Disposal",
    "rowid": "849551",
    "final_x": "3684168.95804",
    "final_y": "536683.043271",
    "longitude": "-90.05946147947584",
    "latitude": "29.96961096968141",
    "geocoded_column": {
      "latitude": "29.96961096968141",
      "longitude": "-90.05946147947584"
    }
  },
  {
    "service_request": "2021-849550",
    "request_type": "COVID-19",
    "request_reason": "COVID-19 Business Non-Compliance",
    "date_created": "2021-12-22T14:07:28.000",
    "date_modified": "2021-12-22T15:01:37.000",
    "request_status": "Pending",
    "responsible_agency": "Safety and Permits",
    "final_address": "8536 Pontchartrain Blvd",
    "address_councildis": "A",
    "status": "Pending",
    "rowid": "849550",
    "final_x": "3666468.40455",
    "final_y": "555173.014937",
    "longitude": "-90.11474056575663",
    "latitude": "30.020981267569343",
    "geocoded_column": {
      "latitude": "30.020981267569343",
      "longitude": "-90.11474056575663"
    }
  },
  {
    "service_request": "2021-849549",
    "request_type": "Trash/Recycling",
    "request_reason": "Order Recycling Cart",
    "date_created": "2021-12-22T13:54:14.000",
    "date_modified": "2021-12-22T14:01:58.000",
    "request_status": "Pending",
    "responsible_agency": "Department of Sanitation",
    "final_address": "3102 General Taylor St Apt A",
    "address_councildis": "B",
    "status": "Pending",
    "rowid": "849549",
    "final_x": "3671326.21863",
    "final_y": "526393.044798",
    "longitude": "-90.10036973648221",
    "latitude": "29.941703217233144",
    "geocoded_column": {
      "latitude": "29.941703217233144",
      "longitude": "-90.10036973648221"
    }
  },
  {
    "service_request": "2021-849547",
    "request_type": "Property Maintenance",
    "request_reason": "Property Maintenance",
    "date_created": "2021-12-22T13:44:55.000",
    "date_modified": "2021-12-22T14:02:01.000",
    "request_status": "Pending",
    "responsible_agency": "Department of Code Enforcement",
    "final_address": "1700 Touro St",
    "address_councildis": "D",
    "status": "Pending",
    "rowid": "849547",
    "final_x": "3684019.7062",
    "final_y": "538475.856009",
    "longitude": "-90.05986990432764",
    "latitude": "29.97454514302639",
    "geocoded_column": {
      "latitude": "29.97454514302639",
      "longitude": "-90.05986990432764"
    }
  },
  {
    "service_request": "2021-849546",
    "request_type": "Property Maintenance",
    "request_reason": "Property Maintenance",
    "date_created": "2021-12-22T13:42:16.000",
    "date_modified": "2021-12-22T13:42:16.000",
    "request_status": "Pending",
    "responsible_agency": "Department of Code Enforcement",
    "final_address": "5117 Forest Park Ln",
    "address_councildis": "C",
    "status": "Pending",
    "rowid": "849546",
    "final_x": "3703027.96318",
    "final_y": "510910.392239",
    "longitude": "-90.00085004018709",
    "latitude": "29.89815521290149",
    "geocoded_column": {
      "latitude": "29.89815521290149",
      "longitude": "-90.00085004018709"
    }
  },
  {
    "service_request": "2021-849544",
    "request_type": "Roads/Drainage",
    "request_reason": "Road Shoulder Repair",
    "date_created": "2021-12-22T13:38:18.000",
    "date_modified": "2021-12-22T13:38:18.000",
    "request_status": "Pending",
    "responsible_agency": "Department of Public Works",
    "final_address": "214 N Pierce St",
    "address_councildis": "A",
    "status": "Pending",
    "rowid": "849544",
    "final_x": "3671838.25582",
    "final_y": "538481.945033",
    "longitude": "-90.09834176027081",
    "latitude": "29.974928517005054",
    "geocoded_column": {
      "latitude": "29.974928517005054",
      "longitude": "-90.09834176027081"
    }
  },
  {
    "service_request": "2021-849542",
    "request_type": "Property Maintenance",
    "request_reason": "Property Maintenance",
    "date_created": "2021-12-22T13:32:19.000",
    "date_modified": "2021-12-22T13:32:19.000",
    "request_status": "Pending",
    "responsible_agency": "Department of Code Enforcement",
    "final_address": "937 Caffin Ave",
    "address_councildis": "E",
    "status": "Pending",
    "rowid": "849542",
    "final_x": "3697942.42627",
    "final_y": "533287.40378",
    "longitude": "-90.01608720362415",
    "latitude": "29.959845944005593",
    "geocoded_column": {
      "latitude": "29.959845944005593",
      "longitude": "-90.01608720362415"
    }
  },
  {
    "service_request": "2021-849541",
    "request_type": "Trash/Recycling",
    "request_reason": "Replace Trash Cart",
    "date_created": "2021-12-22T13:25:56.000",
    "date_modified": "2021-12-22T14:02:06.000",
    "request_status": "Pending",
    "responsible_agency": "Department of Sanitation",
    "final_address": "7028 Lake Willow Dr",
    "address_councildis": "E",
    "status": "Assigned to Contractor",
    "contractor": "Metro Disposal",
    "rowid": "849541",
    "final_x": "3702337.71069",
    "final_y": "558895.66166",
    "longitude": "-90.00126790066801",
    "latitude": "30.030119437590105",
    "geocoded_column": {
      "latitude": "30.030119437590105",
      "longitude": "-90.00126790066801"
    }
  },
  {
    "service_request": "2021-849540",
    "request_type": "Trash/Recycling",
    "request_reason": "Repair Trash Cart",
    "date_created": "2021-12-22T13:21:08.000",
    "date_modified": "2021-12-22T13:21:08.000",
    "request_status": "Pending",
    "responsible_agency": "Department of Sanitation",
    "final_address": "5521 West End Blvd",
    "address_councildis": "A",
    "status": "Assigned to Contractor",
    "contractor": "Metro Disposal",
    "rowid": "849540",
    "final_x": "3666354.06055",
    "final_y": "544306.287183",
    "longitude": "-90.1154668023517",
    "latitude": "29.99110488141177",
    "geocoded_column": {
      "latitude": "29.99110488141177",
      "longitude": "-90.1154668023517"
    }
  },
  {
    "service_request": "2021-849539",
    "request_type": "COVID-19",
    "request_reason": "COVID-19 Business Non-Compliance",
    "date_created": "2021-12-22T13:18:43.000",
    "date_modified": "2021-12-22T14:02:07.000",
    "request_status": "Pending",
    "responsible_agency": "Safety and Permits",
    "final_address": "1838 Napoleon Ave",
    "address_councildis": "B",
    "status": "Pending",
    "rowid": "849539",
    "final_x": "3670664.88283",
    "final_y": "521896.164666",
    "longitude": "-90.10261020678146",
    "latitude": "29.9293577984954",
    "geocoded_column": {
      "latitude": "29.9293577984954",
      "longitude": "-90.10261020678146"
    }
  },
  {
    "service_request": "2021-849538",
    "request_type": "Roads/Drainage",
    "request_reason": "Unpermitted work in ROW",
    "date_created": "2021-12-22T13:11:24.000",
    "date_modified": "2021-12-22T14:02:10.000",
    "request_status": "Pending",
    "responsible_agency": "Department of Public Works",
    "final_address": "2359 Chippewa St",
    "address_councildis": "B",
    "status": "Pending",
    "rowid": "849538",
    "final_x": "3679003.26018",
    "final_y": "520391.706936",
    "longitude": "-90.07633960606887",
    "latitude": "29.924972134451615",
    "geocoded_column": {
      "latitude": "29.924972134451615",
      "longitude": "-90.07633960606887"
    }
  },
  {
    "service_request": "2021-849537",
    "request_type": "Traffic Signals/Signs/Striping/Streetlights",
    "request_reason": "Street Light Outage/Malfunction",
    "date_created": "2021-12-22T13:05:43.000",
    "date_modified": "2021-12-22T13:05:44.000",
    "request_status": "Pending",
    "responsible_agency": "Department of Public Works",
    "final_address": "600 BLK Commercial Pl",
    "address_councildis": "B",
    "status": "Pending",
    "contractor": "Royal Engineering",
    "rowid": "849537",
    "final_x": "3681015.27376",
    "final_y": "529701.842615",
    "longitude": "-90.06966422613392",
    "latitude": "29.9505110725781",
    "geocoded_column": {
      "latitude": "29.9505110725781",
      "longitude": "-90.06966422613392"
    }
  },
  {
    "service_request": "2021-849535",
    "request_type": "Trash/Recycling",
    "request_reason": "Illegal Dumping",
    "date_created": "2021-12-22T12:57:37.000",
    "date_modified": "2021-12-22T13:00:54.000",
    "request_status": "Pending",
    "responsible_agency": "Department of Sanitation",
    "final_address": "PONCE DE LEON ST & CRETE ST",
    "address_councildis": "A",
    "status": "Pending",
    "rowid": "849535",
    "final_x": "3678192.0",
    "final_y": "540486.88",
    "longitude": "-90.07820565012001",
    "latitude": "29.980251567761584",
    "geocoded_column": {
      "latitude": "29.980251567761584",
      "longitude": "-90.07820565012001"
    }
  },
  {
    "service_request": "2021-849534",
    "request_type": "Trash/Recycling",
    "request_reason": "Replace Trash Cart",
    "date_created": "2021-12-22T12:55:38.000",
    "date_modified": "2021-12-22T12:55:39.000",
    "request_status": "Pending",
    "responsible_agency": "Department of Sanitation",
    "final_address": "1112 Touro St",
    "address_councildis": "C",
    "status": "Assigned to Contractor",
    "contractor": "Metro Disposal",
    "rowid": "849534",
    "final_x": "3684194.38626",
    "final_y": "536364.023943",
    "longitude": "-90.05939237631348",
    "latitude": "29.968732999784493",
    "geocoded_column": {
      "latitude": "29.968732999784493",
      "longitude": "-90.05939237631348"
    }
  },
  {
    "service_request": "2021-849532",
    "request_type": "Abandoned Vehicles",
    "request_reason": "Abandoned/Junk Vehicles",
    "date_created": "2021-12-22T12:45:51.000",
    "date_modified": "2021-12-22T13:00:56.000",
    "request_status": "Pending",
    "responsible_agency": "Department of Public Works",
    "final_address": "7920 Brevard Ave",
    "address_councildis": "E",
    "status": "Pending",
    "rowid": "849532",
    "final_x": "3705842.41169",
    "final_y": "564227.272609",
    "longitude": "-89.98999561047458",
    "latitude": "30.04466677196659",
    "geocoded_column": {
      "latitude": "30.04466677196659",
      "longitude": "-89.98999561047458"
    }
  },
  {
    "service_request": "2021-849531",
    "request_type": "Trash/Recycling",
    "request_reason": "Request a Large Item Pick Up",
    "date_created": "2021-12-22T12:43:55.000",
    "date_modified": "2021-12-22T13:00:58.000",
    "request_status": "Pending",
    "responsible_agency": "Department of Sanitation",
    "final_address": "195 Pinewood Ct",
    "address_councildis": "C",
    "status": "Assigned to Contractor",
    "contractor": "Richards Disposal",
    "rowid": "849531",
    "final_x": "3696079.84266",
    "final_y": "523630.312251",
    "longitude": "-90.02231770581209",
    "latitude": "29.933351048891375",
    "geocoded_column": {
      "latitude": "29.933351048891375",
      "longitude": "-90.02231770581209"
    }
  },
  {
    "service_request": "2021-849529",
    "request_type": "Trash/Recycling",
    "request_reason": "Replace Trash Cart",
    "date_created": "2021-12-22T12:32:16.000",
    "date_modified": "2021-12-22T13:00:59.000",
    "request_status": "Pending",
    "responsible_agency": "Department of Sanitation",
    "final_address": "4737 Odin St",
    "address_councildis": "D",
    "status": "Assigned to Contractor",
    "contractor": "Metro Disposal",
    "rowid": "849529",
    "final_x": "3691206.86147",
    "final_y": "553920.078616",
    "longitude": "-90.03661921810978",
    "latitude": "30.0167895525203",
    "geocoded_column": {
      "latitude": "30.0167895525203",
      "longitude": "-90.03661921810978"
    }
  },
  {
    "service_request": "2021-849528",
    "request_type": "Property Maintenance",
    "request_reason": "Property Maintenance",
    "date_created": "2021-12-22T12:30:38.000",
    "date_modified": "2021-12-22T13:01:06.000",
    "request_status": "Pending",
    "responsible_agency": "Department of Code Enforcement",
    "final_address": "2233 Laurel St",
    "address_councildis": "B",
    "status": "Pending",
    "rowid": "849528",
    "final_x": "3679051.6381",
    "final_y": "521352.572409",
    "longitude": "-90.07615361407984",
    "latitude": "29.92761274169696",
    "geocoded_column": {
      "latitude": "29.92761274169696",
      "longitude": "-90.07615361407984"
    }
  },
  {
    "service_request": "2021-849527",
    "request_type": "Traffic Signals/Signs/Striping/Streetlights",
    "request_reason": "Traffic Signal Malfunctioning/Damaged",
    "date_created": "2021-12-22T12:30:03.000",
    "date_modified": "2021-12-22T13:01:07.000",
    "request_status": "Pending",
    "responsible_agency": "Department of Public Works",
    "final_address": "CHARBONNET ST & N CLAIBORNE AVE",
    "address_councildis": "E",
    "status": "Pending",
    "rowid": "849527",
    "final_x": "3699123.5",
    "final_y": "535466.28",
    "longitude": "-90.01227833360534",
    "latitude": "29.965799689497423",
    "geocoded_column": {
      "latitude": "29.965799689497423",
      "longitude": "-90.01227833360534"
    }
  },
  {
    "service_request": "2021-849526",
    "request_type": "Trash/Recycling",
    "request_reason": "Request a Large Item Pick Up",
    "date_created": "2021-12-22T12:29:36.000",
    "date_modified": "2021-12-22T13:01:09.000",
    "request_status": "Pending",
    "responsible_agency": "Department of Sanitation",
    "final_address": "3758 Herald St",
    "address_councildis": "C",
    "status": "Assigned to Contractor",
    "contractor": "Richards Disposal",
    "rowid": "849526",
    "final_x": "3702237.38404",
    "final_y": "517040.984053",
    "longitude": "-90.0031203520618",
    "latitude": "29.91503751683337",
    "geocoded_column": {
      "latitude": "29.91503751683337",
      "longitude": "-90.0031203520618"
    }
  },
  {
    "service_request": "2021-849525",
    "request_type": "Abandoned Vehicles",
    "request_reason": "Abandoned/Junk Vehicles",
    "date_created": "2021-12-22T12:24:06.000",
    "date_modified": "2021-12-22T12:24:06.000",
    "request_status": "Pending",
    "responsible_agency": "Department of Public Works",
    "final_address": "915 Thalia St",
    "address_councildis": "B",
    "status": "Pending",
    "rowid": "849525",
    "final_x": "3681195.47324",
    "final_y": "525113.379773",
    "longitude": "-90.06925507965235",
    "latitude": "29.93788886923079",
    "geocoded_column": {
      "latitude": "29.93788886923079",
      "longitude": "-90.06925507965235"
    }
  },
  {
    "service_request": "2021-849524",
    "request_type": "Trash/Recycling",
    "request_reason": "Request a Large Item Pick Up",
    "date_created": "2021-12-22T12:15:57.000",
    "date_modified": "2021-12-22T13:01:18.000",
    "request_status": "Pending",
    "responsible_agency": "Department of Sanitation",
    "final_address": "7531 Jonlee Dr",
    "address_councildis": "E",
    "status": "Assigned to Contractor",
    "contractor": "Metro Disposal",
    "rowid": "849524",
    "final_x": "3717449.85605",
    "final_y": "570176.823079",
    "longitude": "-89.95308464824525",
    "latitude": "30.06064630661613",
    "geocoded_column": {
      "latitude": "30.06064630661613",
      "longitude": "-89.95308464824525"
    }
  },
  {
    "service_request": "2021-849523",
    "request_type": "Trash/Recycling",
    "request_reason": "Request a Large Item Pick Up",
    "date_created": "2021-12-22T12:15:14.000",
    "date_modified": "2021-12-22T13:01:20.000",
    "request_status": "Pending",
    "responsible_agency": "Department of Sanitation",
    "final_address": "2407 Amelia St",
    "address_councildis": "B",
    "status": "Assigned to Contractor",
    "contractor": "Richards Disposal",
    "rowid": "849523",
    "final_x": "3672467.08635",
    "final_y": "524029.269244",
    "longitude": "-90.09684831054331",
    "latitude": "29.935169798531103",
    "geocoded_column": {
      "latitude": "29.935169798531103",
      "longitude": "-90.09684831054331"
    }
  },
  {
    "service_request": "2021-849522",
    "request_type": "Trash/Recycling",
    "request_reason": "Request a Large Item Pick Up",
    "date_created": "2021-12-22T12:14:58.000",
    "date_modified": "2021-12-22T13:01:21.000",
    "request_status": "Pending",
    "responsible_agency": "Department of Sanitation",
    "final_address": "5313 Zeno Pl",
    "address_councildis": "E",
    "status": "Assigned to Contractor",
    "contractor": "Metro Disposal",
    "rowid": "849522",
    "final_x": "3718340.7278",
    "final_y": "561576.304671",
    "longitude": "-89.95059672789853",
    "latitude": "30.036968877612576",
    "geocoded_column": {
      "latitude": "30.036968877612576",
      "longitude": "-89.95059672789853"
    }
  },
  {
    "service_request": "2021-849521",
    "request_type": "Abandoned Vehicles",
    "request_reason": "Abandoned/Junk Vehicles",
    "date_created": "2021-12-22T12:14:09.000",
    "date_modified": "2021-12-22T12:14:09.000",
    "request_status": "Pending",
    "responsible_agency": "Department of Public Works",
    "status": "Inspected",
    "rowid": "849521",
    "longitude": "0.0",
    "latitude": "0.0",
    "geocoded_column": {
      "latitude": "0.0",
      "longitude": "0.0"
    }
  },
  {
    "service_request": "2021-849518",
    "request_type": "Trash/Recycling",
    "request_reason": "Missed Trash Pick-Up",
    "date_created": "2021-12-22T12:11:45.000",
    "date_modified": "2021-12-22T13:01:24.000",
    "request_status": "Pending",
    "responsible_agency": "Department of Sanitation",
    "final_address": "5519 Durham Dr, New Orleans, Louisiana, 70131",
    "address_councildis": "C",
    "status": "Assigned to Contractor",
    "contractor": "Richards Disposal",
    "rowid": "849518",
    "final_x": "3704449.7779",
    "final_y": "518697.863991",
    "longitude": "-89.99607626162903",
    "latitude": "29.91952255801804",
    "geocoded_column": {
      "latitude": "29.91952255801804",
      "longitude": "-89.99607626162903"
    }
  },
  {
    "service_request": "2021-849515",
    "request_type": "Trash/Recycling",
    "request_reason": "Missed Trash Pick-Up",
    "date_created": "2021-12-22T12:06:35.000",
    "date_modified": "2021-12-22T12:06:36.000",
    "request_status": "Pending",
    "responsible_agency": "Department of Sanitation",
    "final_address": "954 Florida Blvd",
    "address_councildis": "A",
    "status": "Assigned to Contractor",
    "contractor": "Metro Disposal",
    "rowid": "849515",
    "final_x": "3670244.18926",
    "final_y": "545116.901903",
    "longitude": "-90.10315126892625",
    "latitude": "29.9932195305075",
    "geocoded_column": {
      "latitude": "29.9932195305075",
      "longitude": "-90.10315126892625"
    }
  },
  {
    "service_request": "2021-849513",
    "request_type": "Trash/Recycling",
    "request_reason": "Missed Trash Pick-Up",
    "date_created": "2021-12-22T11:59:46.000",
    "date_modified": "2021-12-22T12:00:50.000",
    "request_status": "Pending",
    "responsible_agency": "Department of Sanitation",
    "final_address": "223 Clinton St",
    "address_councildis": "C",
    "status": "Assigned to Contractor",
    "contractor": "Empire Services",
    "rowid": "849513",
    "final_x": "3682213.63644",
    "final_y": "530569.308738",
    "longitude": "-90.06585012296284",
    "latitude": "29.95285991727074",
    "geocoded_column": {
      "latitude": "29.95285991727074",
      "longitude": "-90.06585012296284"
    }
  },
  {
    "service_request": "2021-849512",
    "request_type": "Trash/Recycling",
    "request_reason": "Illegal Dumping",
    "date_created": "2021-12-22T11:53:16.000",
    "date_modified": "2021-12-22T11:53:16.000",
    "request_status": "Pending",
    "responsible_agency": "Department of Sanitation",
    "final_address": "218 N Robertson St Apt C",
    "address_councildis": "C",
    "status": "Pending",
    "rowid": "849512",
    "final_x": "3679100.57205",
    "final_y": "532998.10906",
    "longitude": "-90.07559561993006",
    "latitude": "29.959632617536638",
    "geocoded_column": {
      "latitude": "29.959632617536638",
      "longitude": "-90.07559561993006"
    }
  },
  {
    "service_request": "2021-849511",
    "request_type": "Trash/Recycling",
    "request_reason": "Request a Large Item Pick Up",
    "date_created": "2021-12-22T11:37:36.000",
    "date_modified": "2021-12-22T12:00:53.000",
    "request_status": "Pending",
    "responsible_agency": "Department of Sanitation",
    "final_address": "3815 Dumaine St, New Orleans, Louisiana, 70119",
    "address_councildis": "A",
    "status": "Assigned to Contractor",
    "contractor": "Richards Disposal",
    "rowid": "849511",
    "final_x": "3673692.82702",
    "final_y": "540210.435787",
    "longitude": "-90.0924254226367",
    "latitude": "29.979626184658006",
    "geocoded_column": {
      "latitude": "29.979626184658006",
      "longitude": "-90.0924254226367"
    }
  },
  {
    "service_request": "2021-849510",
    "request_type": "Trash/Recycling",
    "request_reason": "Repair Trash Cart",
    "date_created": "2021-12-22T11:36:40.000",
    "date_modified": "2021-12-22T12:00:57.000",
    "request_status": "Pending",
    "responsible_agency": "Department of Sanitation",
    "final_address": "2221 Killdeer St, New Orleans, Louisiana, 70122",
    "address_councildis": "D",
    "status": "Assigned to Contractor",
    "contractor": "Metro Disposal",
    "rowid": "849510",
    "final_x": "3683861.93609",
    "final_y": "557596.331931",
    "longitude": "-90.05969695926714",
    "latitude": "30.02712440020005",
    "geocoded_column": {
      "latitude": "30.02712440020005",
      "longitude": "-90.05969695926714"
    }
  },
  {
    "service_request": "2021-849509",
    "request_type": "Property Maintenance",
    "request_reason": "Property Maintenance",
    "date_created": "2021-12-22T11:29:25.000",
    "date_modified": "2021-12-22T11:29:25.000",
    "request_status": "Pending",
    "responsible_agency": "Department of Code Enforcement",
    "final_address": "2519 Dreux Ave",
    "address_councildis": "D",
    "status": "Pending",
    "rowid": "849509",
    "final_x": "3686241.43689",
    "final_y": "552227.86735",
    "longitude": "-90.05236761512926",
    "latitude": "30.0122901664569",
    "geocoded_column": {
      "latitude": "30.0122901664569",
      "longitude": "-90.05236761512926"
    }
  },
  {
    "service_request": "2021-849508",
    "request_type": "Trash/Recycling",
    "request_reason": "Request a Large Item Pick Up",
    "date_created": "2021-12-22T11:29:04.000",
    "date_modified": "2021-12-22T11:29:04.000",
    "request_status": "Pending",
    "responsible_agency": "Department of Sanitation",
    "final_address": "5632 Peoples Ave",
    "address_councildis": "D",
    "status": "Assigned to Contractor",
    "contractor": "Metro Disposal",
    "rowid": "849508",
    "final_x": "3687839.84067",
    "final_y": "554034.902488",
    "longitude": "-90.04725349130553",
    "latitude": "30.017209616912634",
    "geocoded_column": {
      "latitude": "30.017209616912634",
      "longitude": "-90.04725349130553"
    }
  },
  {
    "service_request": "2021-849507",
    "request_type": "Roads/Drainage",
    "request_reason": "Damaged Sidewalk",
    "date_created": "2021-12-22T11:26:54.000",
    "date_modified": "2021-12-22T12:01:00.000",
    "request_status": "Pending",
    "responsible_agency": "Department of Public Works",
    "final_address": "820 Octavia St",
    "address_councildis": "A",
    "status": "Pending",
    "rowid": "849507",
    "final_x": "3666403.30266",
    "final_y": "519022.420279",
    "longitude": "-90.1161596367017",
    "latitude": "29.921581080633004",
    "geocoded_column": {
      "latitude": "29.921581080633004",
      "longitude": "-90.1161596367017"
    }
  },
  {
    "service_request": "2021-849506",
    "request_type": "Trash/Recycling",
    "request_reason": "Request a Large Item Pick Up",
    "date_created": "2021-12-22T11:14:01.000",
    "date_modified": "2021-12-22T12:01:04.000",
    "request_status": "Pending",
    "responsible_agency": "Department of Sanitation",
    "final_address": "5838 Argonne Blvd",
    "address_councildis": "A",
    "status": "Assigned to Contractor",
    "contractor": "Metro Disposal",
    "rowid": "849506",
    "final_x": "3669991.80711",
    "final_y": "546126.886992",
    "longitude": "-90.10391427356187",
    "latitude": "29.996004088852033",
    "geocoded_column": {
      "latitude": "29.996004088852033",
      "longitude": "-90.10391427356187"
    }
  },
  {
    "service_request": "2021-849504",
    "request_type": "Trash/Recycling",
    "request_reason": "Request a Large Item Pick Up",
    "date_created": "2021-12-22T11:04:08.000",
    "date_modified": "2021-12-22T12:01:12.000",
    "request_status": "Pending",
    "responsible_agency": "Department of Sanitation",
    "final_address": "36 Grand Canyon Dr",
    "address_councildis": "C",
    "status": "Assigned to Contractor",
    "contractor": "Richards Disposal",
    "rowid": "849504",
    "final_x": "3699680.28944",
    "final_y": "516844.535541",
    "longitude": "-90.01119856726943",
    "latitude": "29.914578727803015",
    "geocoded_column": {
      "latitude": "29.914578727803015",
      "longitude": "-90.01119856726943"
    }
  },
  {
    "service_request": "2021-849503",
    "request_type": "Trash/Recycling",
    "request_reason": "Request a Large Item Pick Up",
    "date_created": "2021-12-22T11:03:15.000",
    "date_modified": "2021-12-22T12:01:21.000",
    "request_status": "Pending",
    "responsible_agency": "Department of Sanitation",
    "final_address": "38 Grand Canyon Dr",
    "address_councildis": "C",
    "status": "Assigned to Contractor",
    "contractor": "Richards Disposal",
    "rowid": "849503",
    "final_x": "3699642.79031",
    "final_y": "516793.609269",
    "longitude": "-90.01131878128598",
    "latitude": "29.914439887540265",
    "geocoded_column": {
      "latitude": "29.914439887540265",
      "longitude": "-90.01131878128598"
    }
  },
  {
    "service_request": "2021-849502",
    "request_type": "Trash/Recycling",
    "request_reason": "Replace Trash Cart",
    "date_created": "2021-12-22T10:59:50.000",
    "date_modified": "2021-12-22T10:59:51.000",
    "request_status": "Pending",
    "responsible_agency": "Department of Sanitation",
    "final_address": "9101 Quince St",
    "address_councildis": "A",
    "status": "Assigned to Contractor",
    "contractor": "Richards Disposal",
    "rowid": "849502",
    "final_x": "3666986.32596",
    "final_y": "539233.888778",
    "longitude": "-90.1136401683546",
    "latitude": "29.977139009589298",
    "geocoded_column": {
      "latitude": "29.977139009589298",
      "longitude": "-90.1136401683546"
    }
  },
  {
    "service_request": "2021-849501",
    "request_type": "Abandoned Vehicles",
    "request_reason": "Abandoned/Junk Vehicles",
    "date_created": "2021-12-22T10:58:48.000",
    "date_modified": "2021-12-22T10:58:48.000",
    "request_status": "Pending",
    "responsible_agency": "Department of Public Works",
    "final_address": "27 Christopher Ct",
    "address_councildis": "E",
    "status": "Pending",
    "rowid": "849501",
    "final_x": "3716452.68127",
    "final_y": "570139.390823",
    "longitude": "-89.95623807308125",
    "latitude": "30.060576373175895",
    "geocoded_column": {
      "latitude": "30.060576373175895",
      "longitude": "-89.95623807308125"
    }
  },
  {
    "service_request": "2021-849500",
    "request_type": "Traffic Signals/Signs/Striping/Streetlights",
    "request_reason": "Street Light Outage/Malfunction",
    "date_created": "2021-12-22T10:55:44.000",
    "date_modified": "2021-12-22T10:55:44.000",
    "request_status": "Pending",
    "responsible_agency": "Department of Public Works",
    "final_address": "6254 Louis Xiv St",
    "address_councildis": "A",
    "status": "Pending",
    "contractor": "Royal Engineering",
    "rowid": "849500",
    "final_x": "3668147.54573",
    "final_y": "549117.067795",
    "longitude": "-90.10963929541713",
    "latitude": "30.00428033200568",
    "geocoded_column": {
      "latitude": "30.00428033200568",
      "longitude": "-90.10963929541713"
    }
  },
  {
    "service_request": "2021-849499",
    "request_type": "Trash/Recycling",
    "request_reason": "Replace Trash Cart",
    "date_created": "2021-12-22T10:55:18.000",
    "date_modified": "2021-12-22T11:00:41.000",
    "request_status": "Pending",
    "responsible_agency": "Department of Sanitation",
    "final_address": "1408 First St",
    "address_councildis": "B",
    "status": "Assigned to Contractor",
    "contractor": "Richards Disposal",
    "rowid": "849499",
    "final_x": "3677419.2324",
    "final_y": "522418.253498",
    "longitude": "-90.08126996683472",
    "latitude": "29.930592163783576",
    "geocoded_column": {
      "latitude": "29.930592163783576",
      "longitude": "-90.08126996683472"
    }
  },
  {
    "service_request": "2021-849498",
    "request_type": "Trash/Recycling",
    "request_reason": "Return Recycling Cart",
    "date_created": "2021-12-22T10:54:00.000",
    "date_modified": "2021-12-22T10:54:00.000",
    "request_status": "Pending",
    "responsible_agency": "Department of Sanitation",
    "final_address": "533 Governor Nicholls St",
    "address_councildis": "C",
    "status": "Pending",
    "rowid": "849498",
    "final_x": "3684068.00066",
    "final_y": "533631.192069",
    "longitude": "-90.05988742448592",
    "latitude": "29.96122251779213",
    "geocoded_column": {
      "latitude": "29.96122251779213",
      "longitude": "-90.05988742448592"
    }
  },
  {
    "service_request": "2021-849497",
    "request_type": "Traffic Signals/Signs/Striping/Streetlights",
    "request_reason": "Traffic Sign Missing/Damaged",
    "date_created": "2021-12-22T10:49:55.000",
    "date_modified": "2021-12-22T10:49:55.000",
    "request_status": "Pending",
    "responsible_agency": "Department of Public Works",
    "final_address": "URQUHART ST & ELYSIAN FIELDS AVE",
    "address_councildis": "C",
    "status": "Pending",
    "rowid": "849497",
    "final_x": "3684905.4",
    "final_y": "537036.38",
    "longitude": "-90.05712330777588",
    "latitude": "29.97055999008169",
    "geocoded_column": {
      "latitude": "29.97055999008169",
      "longitude": "-90.05712330777588"
    }
  },
  {
    "service_request": "2021-849496",
    "request_type": "Roads/Drainage",
    "request_reason": "Accessibility Ramps, Curbs and Sidewalk Repair",
    "date_created": "2021-12-22T10:48:51.000",
    "date_modified": "2021-12-22T11:00:52.000",
    "request_status": "Pending",
    "responsible_agency": "Department of Public Works",
    "final_address": "8023 Olive St",
    "address_councildis": "B",
    "status": "Pending",
    "rowid": "849496",
    "final_x": "3667569.05703",
    "final_y": "534062.825477",
    "longitude": "-90.11197379097668",
    "latitude": "29.962903240225245",
    "geocoded_column": {
      "latitude": "29.962903240225245",
      "longitude": "-90.11197379097668"
    }
  },
  {
    "service_request": "2021-849494",
    "request_type": "Abandoned Vehicles",
    "request_reason": "Abandoned/Junk Vehicles",
    "date_created": "2021-12-22T10:45:46.000",
    "date_modified": "2021-12-22T10:45:46.000",
    "request_status": "Pending",
    "responsible_agency": "Department of Public Works",
    "final_address": "4818 Evangeline Dr",
    "address_councildis": "E",
    "status": "Pending",
    "rowid": "849494",
    "final_x": "3708993.95147",
    "final_y": "556218.723994",
    "longitude": "-89.98033424181675",
    "latitude": "30.022544462110194",
    "geocoded_column": {
      "latitude": "30.022544462110194",
      "longitude": "-89.98033424181675"
    }
  },
  {
    "service_request": "2021-849493",
    "request_type": "Traffic Signals/Signs/Striping/Streetlights",
    "request_reason": "Street Light Outage/Malfunction",
    "date_created": "2021-12-22T10:42:59.000",
    "date_modified": "2021-12-22T11:00:56.000",
    "request_status": "Pending",
    "responsible_agency": "Department of Public Works",
    "final_address": "2113 Fern St",
    "address_councildis": "A",
    "status": "Pending",
    "contractor": "Royal Engineering",
    "rowid": "849493",
    "final_x": "3664781.15648",
    "final_y": "530259.729345",
    "longitude": "-90.12090474468889",
    "latitude": "29.952527382333702",
    "geocoded_column": {
      "latitude": "29.952527382333702",
      "longitude": "-90.12090474468889"
    }
  },
  {
    "service_request": "2021-849492",
    "request_type": "Trash/Recycling",
    "request_reason": "Repair Trash Cart",
    "date_created": "2021-12-22T10:41:41.000",
    "date_modified": "2021-12-22T10:41:41.000",
    "request_status": "Pending",
    "responsible_agency": "Department of Sanitation",
    "final_address": "7821 Cohn St",
    "address_councildis": "A",
    "status": "Assigned to Contractor",
    "contractor": "Richards Disposal",
    "rowid": "849492",
    "final_x": "3664343.29684",
    "final_y": "529595.354497",
    "longitude": "-90.12230948408548",
    "latitude": "29.950713298548695",
    "geocoded_column": {
      "latitude": "29.950713298548695",
      "longitude": "-90.12230948408548"
    }
  },
  {
    "service_request": "2021-849491",
    "request_type": "Traffic Signals/Signs/Striping/Streetlights",
    "request_reason": "Traffic Sign Missing/Damaged",
    "date_created": "2021-12-22T10:37:16.000",
    "date_modified": "2021-12-22T10:37:16.000",
    "request_status": "Pending",
    "responsible_agency": "Department of Public Works",
    "final_address": "1818 Magazine St",
    "address_councildis": "B",
    "status": "Pending",
    "rowid": "849491",
    "final_x": "3679810.00763",
    "final_y": "522804.744699",
    "longitude": "-90.07370923182951",
    "latitude": "29.931582838462727",
    "geocoded_column": {
      "latitude": "29.931582838462727",
      "longitude": "-90.07370923182951"
    }
  },
  {
    "service_request": "2021-849490",
    "request_type": "Trash/Recycling",
    "request_reason": "Repair Trash Cart",
    "date_created": "2021-12-22T10:30:53.000",
    "date_modified": "2021-12-22T10:30:54.000",
    "request_status": "Pending",
    "responsible_agency": "Department of Sanitation",
    "final_address": "44 Newcomb Blvd",
    "address_councildis": "A",
    "status": "Assigned to Contractor",
    "contractor": "Richards Disposal",
    "rowid": "849490",
    "final_x": "3664062.74951",
    "final_y": "525622.550333",
    "longitude": "-90.12332777857694",
    "latitude": "29.939797512086955",
    "geocoded_column": {
      "latitude": "29.939797512086955",
      "longitude": "-90.12332777857694"
    }
  },
  {
    "service_request": "2021-849489",
    "request_type": "Trash/Recycling",
    "request_reason": "Request a Large Item Pick Up",
    "date_created": "2021-12-22T10:29:55.000",
    "date_modified": "2021-12-22T11:01:02.000",
    "request_status": "Pending",
    "responsible_agency": "Department of Sanitation",
    "final_address": "2531 Wisteria St",
    "address_councildis": "D",
    "status": "Assigned to Contractor",
    "contractor": "Metro Disposal",
    "rowid": "849489",
    "final_x": "3686512.36905",
    "final_y": "548390.27221",
    "longitude": "-90.05164724444408",
    "latitude": "30.001729846399844",
    "geocoded_column": {
      "latitude": "30.001729846399844",
      "longitude": "-90.05164724444408"
    }
  },
  {
    "service_request": "2021-849488",
    "request_type": "Traffic Signals/Signs/Striping/Streetlights",
    "request_reason": "Additional signage",
    "date_created": "2021-12-22T10:28:37.000",
    "date_modified": "2021-12-22T11:01:04.000",
    "request_status": "Pending",
    "responsible_agency": "Department of Public Works",
    "final_address": "2431 Ap Tureaud Ave",
    "address_councildis": "D",
    "status": "Pending",
    "rowid": "849488",
    "final_x": "3681663.96546",
    "final_y": "541112.499532",
    "longitude": "-90.06721788753791",
    "latitude": "29.98186677375577",
    "geocoded_column": {
      "latitude": "29.98186677375577",
      "longitude": "-90.06721788753791"
    }
  },
  {
    "service_request": "2021-849485",
    "request_type": "Trash/Recycling",
    "request_reason": "Repair Trash Cart",
    "date_created": "2021-12-22T10:12:28.000",
    "date_modified": "2021-12-22T11:01:18.000",
    "request_status": "Pending",
    "responsible_agency": "Department of Sanitation",
    "final_address": "5639 Milne St",
    "address_councildis": "A",
    "status": "Assigned to Contractor",
    "contractor": "Metro Disposal",
    "rowid": "849485",
    "final_x": "3666868.64513",
    "final_y": "545020.193359",
    "longitude": "-90.11381734294781",
    "latitude": "29.993052830773657",
    "geocoded_column": {
      "latitude": "29.993052830773657",
      "longitude": "-90.11381734294781"
    }
  },
  {
    "service_request": "2021-849484",
    "request_type": "Property Maintenance",
    "request_reason": "Property Maintenance",
    "date_created": "2021-12-22T09:57:45.000",
    "date_modified": "2021-12-22T10:00:36.000",
    "request_status": "Pending",
    "responsible_agency": "Department of Code Enforcement",
    "final_address": "2300 Leon C Simon Dr",
    "address_councildis": "D",
    "status": "Pending",
    "rowid": "849484",
    "final_x": "3684181.15663",
    "final_y": "556834.85833",
    "longitude": "-90.05871501937101",
    "latitude": "30.02502086970795",
    "geocoded_column": {
      "latitude": "30.02502086970795",
      "longitude": "-90.05871501937101"
    }
  },
  {
    "service_request": "2021-849483",
    "request_type": "Traffic Signals/Signs/Striping/Streetlights",
    "request_reason": "Street Name Sign Damaged or Missing",
    "date_created": "2021-12-22T09:54:00.000",
    "date_modified": "2021-12-22T10:00:39.000",
    "request_status": "Pending",
    "responsible_agency": "Department of Public Works",
    "final_address": "3800 Cambronne St",
    "address_councildis": "A",
    "status": "Pending",
    "rowid": "849483",
    "final_x": "3667391.48263",
    "final_y": "536008.904647",
    "longitude": "-90.11246907202907",
    "latitude": "29.96825951633695",
    "geocoded_column": {
      "latitude": "29.96825951633695",
      "longitude": "-90.11246907202907"
    }
  },
  {
    "service_request": "2021-849481",
    "request_type": "Traffic Signals/Signs/Striping/Streetlights",
    "request_reason": "Traffic Signal Malfunctioning/Damaged",
    "date_created": "2021-12-22T09:52:45.000",
    "date_modified": "2021-12-22T09:52:45.000",
    "request_status": "Pending",
    "responsible_agency": "Department of Public Works",
    "final_address": "714 N Claiborne Ave",
    "address_councildis": "C",
    "status": "Pending",
    "rowid": "849481",
    "final_x": "3679900.41551",
    "final_y": "534592.632453",
    "longitude": "-90.07301451626424",
    "latitude": "29.96399284949121",
    "geocoded_column": {
      "latitude": "29.96399284949121",
      "longitude": "-90.07301451626424"
    }
  },
  {
    "service_request": "2021-849480",
    "request_type": "Abandoned Vehicles",
    "request_reason": "Abandoned/Junk Vehicles",
    "date_created": "2021-12-22T09:47:30.000",
    "date_modified": "2021-12-22T10:00:41.000",
    "request_status": "Pending",
    "responsible_agency": "Department of Public Works",
    "final_address": "615 S Telemachus St",
    "address_councildis": "B",
    "status": "Pending",
    "rowid": "849480",
    "final_x": "3670995.62855",
    "final_y": "535741.063943",
    "longitude": "-90.10109608958841",
    "latitude": "29.967416961504863",
    "geocoded_column": {
      "latitude": "29.967416961504863",
      "longitude": "-90.10109608958841"
    }
  },
  {
    "service_request": "2021-849479",
    "request_type": "Trash/Recycling",
    "request_reason": "Replace Recycling Cart",
    "date_created": "2021-12-22T09:43:30.000",
    "date_modified": "2021-12-22T10:00:43.000",
    "request_status": "Pending",
    "responsible_agency": "Department of Sanitation",
    "final_address": "7014 Bellaire Dr",
    "address_councildis": "A",
    "status": "Pending",
    "rowid": "849479",
    "final_x": "3664631.99341",
    "final_y": "554455.655704",
    "longitude": "-90.12056711406798",
    "latitude": "30.019062354875487",
    "geocoded_column": {
      "latitude": "30.019062354875487",
      "longitude": "-90.12056711406798"
    }
  },
  {
    "service_request": "2021-849478",
    "request_type": "Traffic Signals/Signs/Striping/Streetlights",
    "request_reason": "Traffic Signal Malfunctioning/Damaged",
    "date_created": "2021-12-22T09:42:22.000",
    "date_modified": "2021-12-22T09:42:23.000",
    "request_status": "Pending",
    "responsible_agency": "Department of Public Works",
    "final_address": "N CLAIBORNE AVE & ORLEANS AVE",
    "address_councildis": "D",
    "status": "Pending",
    "rowid": "849478",
    "final_x": "3679822.0",
    "final_y": "534774.88",
    "longitude": "-90.07325581625649",
    "latitude": "29.96449633943059",
    "geocoded_column": {
      "latitude": "29.96449633943059",
      "longitude": "-90.07325581625649"
    }
  },
  {
    "service_request": "2021-849477",
    "request_type": "Trash/Recycling",
    "request_reason": "MIssed Recycling Pick-Up",
    "date_created": "2021-12-22T09:41:32.000",
    "date_modified": "2021-12-22T09:41:33.000",
    "request_status": "Pending",
    "responsible_agency": "Department of Sanitation",
    "final_address": "7300 Amber St",
    "address_councildis": "D",
    "status": "Assigned to Contractor",
    "contractor": "Metro Disposal",
    "rowid": "849477",
    "final_x": "3669816.59751",
    "final_y": "555297.186265",
    "longitude": "-90.10415699733916",
    "latitude": "30.02122436091844",
    "geocoded_column": {
      "latitude": "30.02122436091844",
      "longitude": "-90.10415699733916"
    }
  },
  {
    "service_request": "2021-849476",
    "request_type": "Abandoned Vehicles",
    "request_reason": "Abandoned/Junk Vehicles",
    "date_created": "2021-12-22T09:39:26.000",
    "date_modified": "2021-12-22T10:00:45.000",
    "request_status": "Pending",
    "responsible_agency": "Department of Public Works",
    "final_address": "7833 St Charles Ave",
    "address_councildis": "A",
    "status": "Pending",
    "rowid": "849476",
    "final_x": "3661240.09235",
    "final_y": "526303.036606",
    "longitude": "-90.13221683860013",
    "latitude": "29.94175029187979",
    "geocoded_column": {
      "latitude": "29.94175029187979",
      "longitude": "-90.13221683860013"
    }
  },
  {
    "service_request": "2021-849475",
    "request_type": "Trash/Recycling",
    "request_reason": "Missed Trash Pick-Up",
    "date_created": "2021-12-22T09:35:08.000",
    "date_modified": "2021-12-22T09:35:08.000",
    "request_status": "Pending",
    "responsible_agency": "Department of Sanitation",
    "final_address": "401 Robert E Lee Blvd",
    "address_councildis": "D",
    "status": "Assigned to Contractor",
    "contractor": "Metro Disposal",
    "rowid": "849475",
    "final_x": "3667868.55553",
    "final_y": "554912.90716",
    "longitude": "-90.11032524725007",
    "latitude": "30.02022504558169",
    "geocoded_column": {
      "latitude": "30.02022504558169",
      "longitude": "-90.11032524725007"
    }
  },
  {
    "service_request": "2021-849474",
    "request_type": "Trash/Recycling",
    "request_reason": "Illegal Dumping",
    "date_created": "2021-12-22T09:35:07.000",
    "date_modified": "2021-12-22T09:35:07.000",
    "request_status": "Pending",
    "responsible_agency": "Department of Sanitation",
    "final_address": "BENSON ST & GERVAIS ST",
    "address_councildis": "E",
    "status": "Pending",
    "rowid": "849474",
    "final_x": "3704235.3",
    "final_y": "562895.78",
    "longitude": "-89.99512393528605",
    "latitude": "30.041057401738783",
    "geocoded_column": {
      "latitude": "30.041057401738783",
      "longitude": "-89.99512393528605"
    }
  },
  {
    "service_request": "2021-849473",
    "request_type": "Trash/Recycling",
    "request_reason": "Replace Trash Cart",
    "date_created": "2021-12-22T09:30:31.000",
    "date_modified": "2021-12-22T10:00:47.000",
    "request_status": "Pending",
    "responsible_agency": "Department of Sanitation",
    "final_address": "6025 Louis Xiv St",
    "address_councildis": "A",
    "status": "Assigned to Contractor",
    "contractor": "Metro Disposal",
    "rowid": "849473",
    "final_x": "3668191.97479",
    "final_y": "547508.25909",
    "longitude": "-90.10955321777413",
    "latitude": "29.999855361412717",
    "geocoded_column": {
      "latitude": "29.999855361412717",
      "longitude": "-90.10955321777413"
    }
  },
  {
    "service_request": "2021-849472",
    "request_type": "Trash/Recycling",
    "request_reason": "Illegal Dumping",
    "date_created": "2021-12-22T09:29:32.000",
    "date_modified": "2021-12-22T09:29:32.000",
    "request_status": "Pending",
    "responsible_agency": "Department of Sanitation",
    "final_address": "1217 St Anthony St",
    "address_councildis": "C",
    "status": "Pending",
    "rowid": "849472",
    "final_x": "3683554.72373",
    "final_y": "536329.703303",
    "longitude": "-90.06141366864784",
    "latitude": "29.968658169243096",
    "geocoded_column": {
      "latitude": "29.968658169243096",
      "longitude": "-90.06141366864784"
    }
  },
  {
    "service_request": "2021-849471",
    "request_type": "Trash/Recycling",
    "request_reason": "Replace Trash Cart",
    "date_created": "2021-12-22T09:24:17.000",
    "date_modified": "2021-12-22T09:24:18.000",
    "request_status": "Pending",
    "responsible_agency": "Department of Sanitation",
    "final_address": "4322 Rayne Dr",
    "address_councildis": "D",
    "status": "Assigned to Contractor",
    "contractor": "Metro Disposal",
    "rowid": "849471",
    "final_x": "3679680.18875",
    "final_y": "548187.12501",
    "longitude": "-90.0732378636186",
    "latitude": "30.001379627112268",
    "geocoded_column": {
      "latitude": "30.001379627112268",
      "longitude": "-90.0732378636186"
    }
  },
  {
    "service_request": "2021-849470",
    "request_type": "Roads/Drainage",
    "request_reason": "Catch Basin - Clogged",
    "date_created": "2021-12-22T09:22:59.000",
    "date_modified": "2021-12-22T10:00:49.000",
    "request_status": "Pending",
    "responsible_agency": "Department of Public Works",
    "final_address": "8603 Stroelitz St",
    "address_councildis": "A",
    "status": "Pending",
    "rowid": "849470",
    "final_x": "3666632.30682",
    "final_y": "536219.389383",
    "longitude": "-90.11485952291173",
    "latitude": "29.968860499187386",
    "geocoded_column": {
      "latitude": "29.968860499187386",
      "longitude": "-90.11485952291173"
    }
  },
  {
    "service_request": "2021-849469",
    "request_type": "Roads/Drainage",
    "request_reason": "Catch Basin - Clogged",
    "date_created": "2021-12-22T09:22:32.000",
    "date_modified": "2021-12-22T10:00:52.000",
    "request_status": "Pending",
    "responsible_agency": "Department of Public Works",
    "final_address": "8603 Stroelitz St",
    "address_councildis": "A",
    "status": "Pending",
    "rowid": "849469",
    "final_x": "3666632.30682",
    "final_y": "536219.389383",
    "longitude": "-90.11485952291173",
    "latitude": "29.968860499187386",
    "geocoded_column": {
      "latitude": "29.968860499187386",
      "longitude": "-90.11485952291173"
    }
  },
  {
    "service_request": "2021-849468",
    "request_type": "Trash/Recycling",
    "request_reason": "Order Trash Cart",
    "date_created": "2021-12-22T09:17:28.000",
    "date_modified": "2021-12-22T10:00:53.000",
    "request_status": "Pending",
    "responsible_agency": "Department of Sanitation",
    "final_address": "4829 Feliciana Dr",
    "address_councildis": "D",
    "status": "Assigned to Contractor",
    "contractor": "Metro Disposal",
    "rowid": "849468",
    "final_x": "3690198.86524",
    "final_y": "551006.233173",
    "longitude": "-90.03990797587163",
    "latitude": "30.008808882200665",
    "geocoded_column": {
      "latitude": "30.008808882200665",
      "longitude": "-90.03990797587163"
    }
  },
  {
    "service_request": "2021-849467",
    "request_type": "Trash/Recycling",
    "request_reason": "Order Recycling Cart",
    "date_created": "2021-12-22T09:16:28.000",
    "date_modified": "2021-12-22T10:00:55.000",
    "request_status": "Pending",
    "responsible_agency": "Department of Sanitation",
    "final_address": "4829 Feliciana Dr",
    "address_councildis": "D",
    "status": "Pending",
    "rowid": "849467",
    "final_x": "3690198.86524",
    "final_y": "551006.233173",
    "longitude": "-90.03990797587163",
    "latitude": "30.008808882200665",
    "geocoded_column": {
      "latitude": "30.008808882200665",
      "longitude": "-90.03990797587163"
    }
  },
  {
    "service_request": "2021-849466",
    "request_type": "Traffic Signals/Signs/Striping/Streetlights",
    "request_reason": "Street Light Outage/Malfunction",
    "date_created": "2021-12-22T09:08:25.000",
    "date_modified": "2021-12-22T10:00:57.000",
    "request_status": "Pending",
    "responsible_agency": "Department of Public Works",
    "final_address": "7824 N Coronet Ct",
    "address_councildis": "E",
    "status": "Pending",
    "contractor": "Royal Engineering",
    "rowid": "849466",
    "final_x": "3703087.78097",
    "final_y": "557582.248539",
    "longitude": "-89.99894602729061",
    "latitude": "30.026484063493164",
    "geocoded_column": {
      "latitude": "30.026484063493164",
      "longitude": "-89.99894602729061"
    }
  },
  {
    "service_request": "2021-849465",
    "request_type": "Trash/Recycling",
    "request_reason": "Replace Trash Cart",
    "date_created": "2021-12-22T09:01:20.000",
    "date_modified": "2021-12-22T09:01:20.000",
    "request_status": "Pending",
    "responsible_agency": "Department of Sanitation",
    "final_address": "1140 St Charles Ave",
    "address_councildis": "B",
    "status": "Assigned to Contractor",
    "contractor": "Richards Disposal",
    "rowid": "849465",
    "final_x": "3679817.38421",
    "final_y": "526342.11667",
    "longitude": "-90.07356317083148",
    "latitude": "29.941309219192448",
    "geocoded_column": {
      "latitude": "29.941309219192448",
      "longitude": "-90.07356317083148"
    }
  },
  {
    "service_request": "2021-849464",
    "request_type": "Trash/Recycling",
    "request_reason": "Replace Trash Cart",
    "date_created": "2021-12-22T08:59:18.000",
    "date_modified": "2021-12-22T08:59:19.000",
    "request_status": "Pending",
    "responsible_agency": "Department of Sanitation",
    "final_address": "1140 Second St",
    "address_councildis": "B",
    "status": "Assigned to Contractor",
    "contractor": "Richards Disposal",
    "rowid": "849464",
    "final_x": "3677597.49032",
    "final_y": "521571.187065",
    "longitude": "-90.08073646469411",
    "latitude": "29.928257650246785",
    "geocoded_column": {
      "latitude": "29.928257650246785",
      "longitude": "-90.08073646469411"
    }
  },
  {
    "service_request": "2021-849463",
    "request_type": "Trash/Recycling",
    "request_reason": "Repair Trash Cart",
    "date_created": "2021-12-22T08:56:50.000",
    "date_modified": "2021-12-22T08:56:51.000",
    "request_status": "Pending",
    "responsible_agency": "Department of Sanitation",
    "final_address": "230 Abalon Ct",
    "address_councildis": "C",
    "status": "Assigned to Contractor",
    "contractor": "Richards Disposal",
    "rowid": "849463",
    "final_x": "3689118.53321",
    "final_y": "530904.514818",
    "longitude": "-90.04403567789913",
    "latitude": "29.95356979512036",
    "geocoded_column": {
      "latitude": "29.95356979512036",
      "longitude": "-90.04403567789913"
    }
  },
  {
    "service_request": "2021-849462",
    "request_type": "Trash/Recycling",
    "request_reason": "Request a Large Item Pick Up",
    "date_created": "2021-12-22T08:53:22.000",
    "date_modified": "2021-12-22T08:53:23.000",
    "request_status": "Pending",
    "responsible_agency": "Department of Sanitation",
    "final_address": "1930 Gallier St",
    "address_councildis": "D",
    "status": "Assigned to Contractor",
    "contractor": "Metro Disposal",
    "rowid": "849462",
    "final_x": "3691220.39926",
    "final_y": "538892.29153",
    "longitude": "-90.03711357332158",
    "latitude": "29.975468181589253",
    "geocoded_column": {
      "latitude": "29.975468181589253",
      "longitude": "-90.03711357332158"
    }
  },
  {
    "service_request": "2021-849461",
    "request_type": "Trash/Recycling",
    "request_reason": "Request a Large Item Pick Up",
    "date_created": "2021-12-22T08:49:49.000",
    "date_modified": "2021-12-22T08:49:49.000",
    "request_status": "Pending",
    "responsible_agency": "Department of Sanitation",
    "final_address": "4969 Tynecastle Dr",
    "address_councildis": "E",
    "status": "Assigned to Contractor",
    "contractor": "Metro Disposal",
    "rowid": "849461",
    "final_x": "3718462.12441",
    "final_y": "558420.613852",
    "longitude": "-89.95033345984216",
    "latitude": "30.028287972746426",
    "geocoded_column": {
      "latitude": "30.028287972746426",
      "longitude": "-89.95033345984216"
    }
  },
  {
    "service_request": "2021-849460",
    "request_type": "Trash/Recycling",
    "request_reason": "Request a Large Item Pick Up",
    "date_created": "2021-12-22T08:49:14.000",
    "date_modified": "2021-12-22T08:49:15.000",
    "request_status": "Pending",
    "responsible_agency": "Department of Sanitation",
    "final_address": "1416 St Andrew St",
    "address_councildis": "B",
    "status": "Assigned to Contractor",
    "contractor": "Richards Disposal",
    "rowid": "849460",
    "final_x": "3678697.44795",
    "final_y": "523465.006267",
    "longitude": "-90.07719860358408",
    "latitude": "29.933431923758636",
    "geocoded_column": {
      "latitude": "29.933431923758636",
      "longitude": "-90.07719860358408"
    }
  },
  {
    "service_request": "2021-849459",
    "request_type": "Trash/Recycling",
    "request_reason": "Illegal Dumping",
    "date_created": "2021-12-22T08:32:08.000",
    "date_modified": "2021-12-22T09:00:26.000",
    "request_status": "Pending",
    "responsible_agency": "Department of Sanitation",
    "final_address": "6850 Bundy Rd",
    "address_councildis": "E",
    "status": "Pending",
    "rowid": "849459",
    "final_x": "3707438.60664",
    "final_y": "559720.552477",
    "longitude": "-89.98511852739304",
    "latitude": "30.032223526557775",
    "geocoded_column": {
      "latitude": "30.032223526557775",
      "longitude": "-89.98511852739304"
    }
  },
  {
    "service_request": "2021-849458",
    "request_type": "Trash/Recycling",
    "request_reason": "Order Trash Cart",
    "date_created": "2021-12-22T08:10:17.000",
    "date_modified": "2021-12-22T09:00:29.000",
    "request_status": "Pending",
    "responsible_agency": "Department of Sanitation",
    "final_address": "4220 Baudin St",
    "address_councildis": "A",
    "status": "Assigned to Contractor",
    "contractor": "Richards Disposal",
    "rowid": "849458",
    "final_x": "3669452.22855",
    "final_y": "537530.868488",
    "longitude": "-90.10590964068756",
    "latitude": "29.972383872699652",
    "geocoded_column": {
      "latitude": "29.972383872699652",
      "longitude": "-90.10590964068756"
    }
  },
  {
    "service_request": "2021-849457",
    "request_type": "Trash/Recycling",
    "request_reason": "Order Recycling Cart",
    "date_created": "2021-12-22T08:08:59.000",
    "date_modified": "2021-12-22T09:00:31.000",
    "request_status": "Pending",
    "responsible_agency": "Department of Sanitation",
    "final_address": "4220 Baudin St",
    "address_councildis": "A",
    "status": "Pending",
    "rowid": "849457",
    "final_x": "3669452.22855",
    "final_y": "537530.868488",
    "longitude": "-90.10590964068756",
    "latitude": "29.972383872699652",
    "geocoded_column": {
      "latitude": "29.972383872699652",
      "longitude": "-90.10590964068756"
    }
  },
  {
    "service_request": "2021-849456",
    "request_type": "Traffic Signals/Signs/Striping/Streetlights",
    "request_reason": "Street Light Outage/Malfunction",
    "date_created": "2021-12-22T07:56:43.000",
    "date_modified": "2021-12-22T08:00:31.000",
    "request_status": "Pending",
    "responsible_agency": "Department of Public Works",
    "final_address": "FILMORE AVE & PARIS AVE",
    "address_councildis": "D",
    "status": "Pending",
    "contractor": "Royal Engineering",
    "rowid": "849456",
    "final_x": "3679126.3",
    "final_y": "551918.38",
    "longitude": "-90.07485818873242",
    "latitude": "30.011655980423722",
    "geocoded_column": {
      "latitude": "30.011655980423722",
      "longitude": "-90.07485818873242"
    }
  },
  {
    "service_request": "2021-849455",
    "request_type": "Trash/Recycling",
    "request_reason": "Request a Large Item Pick Up",
    "date_created": "2021-12-22T07:52:17.000",
    "date_modified": "2021-12-22T07:52:17.000",
    "request_status": "Pending",
    "responsible_agency": "Department of Sanitation",
    "final_address": "3127 Cambronne St",
    "address_councildis": "A",
    "status": "Assigned to Contractor",
    "contractor": "Richards Disposal",
    "rowid": "849455",
    "final_x": "3665916.97812",
    "final_y": "534252.444101",
    "longitude": "-90.11718451379703",
    "latitude": "29.96347294613625",
    "geocoded_column": {
      "latitude": "29.96347294613625",
      "longitude": "-90.11718451379703"
    }
  },
  {
    "service_request": "2021-849454",
    "request_type": "Trash/Recycling",
    "request_reason": "Dead Animal Pick Up",
    "date_created": "2021-12-22T07:42:57.000",
    "date_modified": "2021-12-22T07:42:57.000",
    "request_status": "Pending",
    "responsible_agency": "Department of Sanitation",
    "final_address": "1122 Jackson Ave",
    "address_councildis": "B",
    "status": "Assigned to Contractor",
    "contractor": "Richards Disposal",
    "rowid": "849454",
    "final_x": "3678686.91688",
    "final_y": "522193.302778",
    "longitude": "-90.07727585819373",
    "latitude": "29.929935473530463",
    "geocoded_column": {
      "latitude": "29.929935473530463",
      "longitude": "-90.07727585819373"
    }
  },
  {
    "service_request": "2021-849453",
    "request_type": "Roads/Drainage",
    "request_reason": "Street Subsidence (Sinking)",
    "date_created": "2021-12-22T07:27:43.000",
    "date_modified": "2021-12-22T08:00:33.000",
    "request_status": "Pending",
    "responsible_agency": "Department of Public Works",
    "final_address": "PLEASANT ST & CAMP ST",
    "address_councildis": "B",
    "status": "Inspected",
    "rowid": "849453",
    "final_x": "3675385.0",
    "final_y": "520201.48",
    "longitude": "-90.0877678159675",
    "latitude": "29.92455771742885",
    "geocoded_column": {
      "latitude": "29.92455771742885",
      "longitude": "-90.0877678159675"
    }
  },
  {
    "service_request": "2021-849452",
    "request_type": "Trash/Recycling",
    "request_reason": "Missed Trash Pick-Up",
    "date_created": "2021-12-22T07:06:00.000",
    "date_modified": "2021-12-22T07:06:01.000",
    "request_status": "Pending",
    "responsible_agency": "Department of Sanitation",
    "final_address": "3301 Kabel Dr",
    "address_councildis": "C",
    "status": "Assigned to Contractor",
    "contractor": "Richards Disposal",
    "rowid": "849452",
    "final_x": "3700539.56964",
    "final_y": "519084.496631",
    "longitude": "-90.0084046489459",
    "latitude": "29.920710565354987",
    "geocoded_column": {
      "latitude": "29.920710565354987",
      "longitude": "-90.0084046489459"
    }
  },
  {
    "service_request": "2021-849451",
    "request_type": "Property Maintenance",
    "request_reason": "Property Maintenance",
    "date_created": "2021-12-22T07:04:43.000",
    "date_modified": "2021-12-22T12:16:43.000",
    "case_close_date": "2021-12-22T06:16:43.000",
    "request_status": "Closed",
    "responsible_agency": "Department of Code Enforcement",
    "final_address": "1327 St Charles Ave",
    "address_councildis": "B",
    "status": "Referred to Code Enforcement",
    "rowid": "849451",
    "final_x": "3679353.25493",
    "final_y": "525883.514813",
    "longitude": "-90.07504441544013",
    "latitude": "29.940062238975948",
    "geocoded_column": {
      "latitude": "29.940062238975948",
      "longitude": "-90.07504441544013"
    }
  },
  {
    "service_request": "2021-849449",
    "request_type": "COVID-19",
    "request_reason": "COVID-19 Business Non-Compliance",
    "date_created": "2021-12-22T06:09:26.000",
    "date_modified": "2021-12-22T06:09:27.000",
    "request_status": "Pending",
    "responsible_agency": "Safety and Permits",
    "final_address": "601 Poydras St",
    "address_councildis": "B",
    "status": "Pending",
    "rowid": "849449",
    "final_x": "3680938.01679",
    "final_y": "529396.806657",
    "longitude": "-90.06991878324561",
    "latitude": "29.94967466888167",
    "geocoded_column": {
      "latitude": "29.94967466888167",
      "longitude": "-90.06991878324561"
    }
  },
  {
    "service_request": "2021-849448",
    "request_type": "Roads/Drainage",
    "request_reason": "Alley Way",
    "date_created": "2021-12-21T23:34:10.000",
    "date_modified": "2021-12-21T23:34:10.000",
    "request_status": "Pending",
    "responsible_agency": "Department of Public Works",
    "final_address": "6165 Louis Xiv St",
    "address_councildis": "A",
    "status": "Pending",
    "rowid": "849448",
    "final_x": "3668234.16589",
    "final_y": "548468.24117",
    "longitude": "-90.1093875403318",
    "latitude": "30.00249374037747",
    "geocoded_column": {
      "latitude": "30.00249374037747",
      "longitude": "-90.1093875403318"
    }
  },
  {
    "service_request": "2021-849446",
    "request_type": "COVID-19",
    "request_reason": "COVID-19 Business Non-Compliance",
    "date_created": "2021-12-21T22:38:13.000",
    "date_modified": "2021-12-21T23:00:46.000",
    "request_status": "Pending",
    "responsible_agency": "Safety and Permits",
    "final_address": "130 Roosevelt Way",
    "address_councildis": "B",
    "status": "Pending",
    "rowid": "849446",
    "final_x": "3680098.32175",
    "final_y": "531043.278402",
    "longitude": "-90.07251287919232",
    "latitude": "29.954227343254153",
    "geocoded_column": {
      "latitude": "29.954227343254153",
      "longitude": "-90.07251287919232"
    }
  },
  {
    "service_request": "2021-849445",
    "request_type": "COVID-19",
    "request_reason": "COVID-19 Business Non-Compliance",
    "date_created": "2021-12-21T22:31:11.000",
    "date_modified": "2021-12-21T22:31:12.000",
    "request_status": "Pending",
    "responsible_agency": "Safety and Permits",
    "final_address": "129 Carondelet St",
    "address_councildis": "B",
    "status": "Pending",
    "rowid": "849445",
    "final_x": "3680687.4701",
    "final_y": "530679.433858",
    "longitude": "-90.0706652454544",
    "latitude": "29.953209055333968",
    "geocoded_column": {
      "latitude": "29.953209055333968",
      "longitude": "-90.0706652454544"
    }
  },