[
  {
    "service_request": "2023-1027406",
    "request_type": "Trash/Recycling",
    "request_reason": "Illegal Dumping",
    "date_created": "2023-08-17T22:37:53.000",
    "date_modified": "2023-08-17T22:37:53.000",
    "request_status": "Pending",
    "responsible_agency": "Department of Sanitation",
    "final_address": "430 N Johnson St",
    "address_councildis": "B",
    "status": "Pending",
    "rowid": "1027406",
    "final_x": "3678161.42126",
    "final_y": "534752.76583",
    "longitude": "-90.07850056533776",
    "latitude": "29.96448564095247",
    "geocoded_column": {
      "latitude": "29.96448564095247",
      "longitude": "-90.07850056533776"
    }
  },
  {
    "service_request": "2023-1027405",
    "request_type": "Parks & Parkways",
    "request_reason": "Non-Rodent Complaint (Mice, Possums, Snakes)",
    "date_created": "2023-08-17T22:22:04.000",
    "date_modified": "2023-08-17T22:22:04.000",
    "request_status": "Pending",
    "responsible_agency": "Mosquito, Termite & Rodent Control Board",
    "final_address": "1318 Deslonde St",
    "address_councildis": "E",
    "status": "Pending",
    "rowid": "1027405",
    "final_x": "3695592.42115",
    "final_y": "535328.159622",
    "longitude": "-90.02343429031347",
    "latitude": "29.965531374249323",
    "geocoded_column": {
      "latitude": "29.965531374249323",
      "longitude": "-90.02343429031347"
    }
  },
  {
    "service_request": "2023-1027404",
    "request_type": "Parks & Parkways",
    "request_reason": "Non-Rodent Complaint (Mice, Possums, Snakes)",
    "date_created": "2023-08-17T22:21:03.000",
    "date_modified": "2023-08-17T22:21:03.000",
    "request_status": "Pending",
    "responsible_agency": "Mosquito, Termite & Rodent Control Board",
    "final_address": "1318 Deslonde St",
    "address_councildis": "E",
    "status": "Pending",
    "rowid": "1027404",
    "final_x": "3695592.42115",
    "final_y": "535328.159622",
    "longitude": "-90.02343429031347",
    "latitude": "29.965531374249323",
    "geocoded_column": {
      "latitude": "29.965531374249323",
      "longitude": "-90.02343429031347"
    }
  },
  {
    "service_request": "2023-1027403",
    "request_type": "Roads/Drainage",
    "request_reason": "Pothole",
    "date_created": "2023-08-17T22:18:39.000",
    "date_modified": "2023-08-17T22:18:39.000",
    "request_status": "Pending",
    "responsible_agency": "Department of Public Works",
    "final_address": "4200 BLK Perrier St",
    "address_councildis": "B",
    "status": "Pending",
    "rowid": "1027403",
    "final_x": "3671500.64253",
    "final_y": "520125.882108",
    "longitude": "-90.1000320136845",
    "latitude": "29.924465378806524",
    "geocoded_column": {
      "latitude": "29.924465378806524",
      "longitude": "-90.1000320136845"
    }
  },
  {
    "service_request": "2023-1027402",
    "request_type": "Trash/Recycling",
    "request_reason": "Request a Large Item Pick Up",
    "date_created": "2023-08-17T22:17:35.000",
    "date_modified": "2023-08-17T22:17:36.000",
    "request_status": "Pending",
    "responsible_agency": "Department of Sanitation",
    "final_address": "4719 Toulouse St",
    "address_councildis": "A",
    "status": "Assigned to Contractor",
    "contractor": "Richards Disposal",
    "rowid": "1027402",
    "final_x": "3670081.77498",
    "final_y": "541390.35918",
    "longitude": "-90.10379062445499",
    "latitude": "29.982977608286028",
    "geocoded_column": {
      "latitude": "29.982977608286028",
      "longitude": "-90.10379062445499"
    }
  },
  {
    "service_request": "2023-1027401",
    "request_type": "Roads/Drainage",
    "request_reason": "Street Subsidence (Sinking)",
    "date_created": "2023-08-17T22:15:07.000",
    "date_modified": "2023-08-17T22:15:07.000",
    "request_status": "Pending",
    "responsible_agency": "Department of Public Works",
    "final_address": "742 Royal St",
    "address_councildis": "C",
    "status": "Pending",
    "rowid": "1027401",
    "final_x": "3682782.04834",
    "final_y": "532722.538884",
    "longitude": "-90.06398001405942",
    "latitude": "29.958763266607733",
    "geocoded_column": {
      "latitude": "29.958763266607733",
      "longitude": "-90.06398001405942"
    }
  },
  {
    "service_request": "2023-1027400",
    "request_type": "Property Maintenance",
    "request_reason": "Property Maintenance",
    "date_created": "2023-08-17T22:00:09.000",
    "date_modified": "2023-08-17T22:00:09.000",
    "request_status": "Pending",
    "responsible_agency": "Department of Code Enforcement",
    "final_address": "2206 Dauphine St",
    "address_councildis": "C",
    "status": "Pending",
    "rowid": "1027400",
    "final_x": "3685223.9654",
    "final_y": "535210.187462",
    "longitude": "-90.05618152544126",
    "latitude": "29.965528834535636",
    "geocoded_column": {
      "latitude": "29.965528834535636",
      "longitude": "-90.05618152544126"
    }
  },
  {
    "service_request": "2023-1027399",
    "request_type": "Roads/Drainage",
    "request_reason": "Pothole",
    "date_created": "2023-08-17T21:56:49.000",
    "date_modified": "2023-08-17T21:56:49.000",
    "request_status": "Pending",
    "responsible_agency": "Department of Public Works",
    "final_address": "1221 Constantinople St",
    "address_councildis": "B",
    "status": "Pending",
    "rowid": "1027399",
    "final_x": "3672464.70081",
    "final_y": "520181.419896",
    "longitude": "-90.09698691327688",
    "latitude": "29.92458952289487",
    "geocoded_column": {
      "latitude": "29.92458952289487",
      "longitude": "-90.09698691327688"
    }
  },
  {
    "service_request": "2023-1027398",
    "request_type": "Traffic Signals/Signs/Striping/Streetlights",
    "request_reason": "Street Light Outage/Malfunction",
    "date_created": "2023-08-17T21:51:16.000",
    "date_modified": "2023-08-17T21:51:16.000",
    "request_status": "Pending",
    "responsible_agency": "Department of Public Works",
    "final_address": "N GALVEZ ST & BARTHOLOMEW ST",
    "address_councildis": "D",
    "status": "Assigned to Contractor",
    "contractor": "Legacy Professional Services",
    "rowid": "1027398",
    "final_x": "3692735.9",
    "final_y": "539068.98",
    "longitude": "-90.03232089374605",
    "latitude": "29.975906784996774",
    "geocoded_column": {
      "latitude": "29.975906784996774",
      "longitude": "-90.03232089374605"
    }
  },
  {
    "service_request": "2023-1027397",
    "request_type": "Traffic Signals/Signs/Striping/Streetlights",
    "request_reason": "Street Light Outage/Malfunction",
    "date_created": "2023-08-17T21:02:56.000",
    "date_modified": "2023-08-17T21:02:57.000",
    "request_status": "Pending",
    "responsible_agency": "Department of Public Works",
    "final_address": "429 Amethyst St",
    "address_councildis": "D",
    "status": "Assigned to Contractor",
    "contractor": "Legacy Professional Services",
    "rowid": "1027397",
    "final_x": "3667631.67284",
    "final_y": "556678.378138",
    "longitude": "-90.11101421883531",
    "latitude": "30.025086413441702",
    "geocoded_column": {
      "latitude": "30.025086413441702",
      "longitude": "-90.11101421883531"
    }
  },
  {
    "service_request": "2023-1027396",
    "request_type": "Traffic Signals/Signs/Striping/Streetlights",
    "request_reason": "Street Light Outage/Malfunction",
    "date_created": "2023-08-17T20:35:20.000",
    "date_modified": "2023-08-17T20:35:20.000",
    "request_status": "Pending",
    "responsible_agency": "Department of Public Works",
    "final_address": "6409 Canal Blvd",
    "address_councildis": "A",
    "status": "Assigned to Contractor",
    "contractor": "Legacy Professional Services",
    "rowid": "1027396",
    "final_x": "3668859.23668",
    "final_y": "550140.525012",
    "longitude": "-90.1073563314224",
    "latitude": "30.00707356443264",
    "geocoded_column": {
      "latitude": "30.00707356443264",
      "longitude": "-90.1073563314224"
    }
  },
  {
    "service_request": "2023-1027395",
    "request_type": "Trash/Recycling",
    "request_reason": "Request a Large Item Pick Up",
    "date_created": "2023-08-17T20:32:46.000",
    "date_modified": "2023-08-17T20:32:47.000",
    "request_status": "Pending",
    "responsible_agency": "Department of Sanitation",
    "final_address": "2003 Mazant St, New Orleans, Louisiana, 70117",
    "address_councildis": "D",
    "status": "Assigned to Contractor",
    "contractor": "IV Waste",
    "rowid": "1027395",
    "final_x": "3693014.16105",
    "final_y": "538652.183049",
    "longitude": "-90.03145702572947",
    "latitude": "29.974752051737514",
    "geocoded_column": {
      "latitude": "29.974752051737514",
      "longitude": "-90.03145702572947"
    }
  },
  {
    "service_request": "2023-1027394",
    "request_type": "Trash/Recycling",
    "request_reason": "Request a Large Item Pick Up",
    "date_created": "2023-08-17T20:28:51.000",
    "date_modified": "2023-08-17T20:28:52.000",
    "request_status": "Pending",
    "responsible_agency": "Department of Sanitation",
    "final_address": "3322 Louisiana Avenue Pkwy, New Orleans, Louisiana, 70125",
    "status": "Assigned to Contractor",
    "rowid": "1027394",
    "longitude": "0.0",
    "latitude": "0.0",
    "geocoded_column": {
      "latitude": "0.0",
      "longitude": "0.0"
    }
  },
  {
    "service_request": "2023-1027393",
    "request_type": "Property Maintenance",
    "request_reason": "Property Maintenance",
    "date_created": "2023-08-17T19:59:00.000",
    "date_modified": "2023-08-17T19:59:00.000",
    "request_status": "Pending",
    "responsible_agency": "Department of Code Enforcement",
    "final_address": "7230 Yorktown Dr",
    "address_councildis": "E",
    "status": "Pending",
    "rowid": "1027393",
    "final_x": "3705713.71179",
    "final_y": "561375.752158",
    "longitude": "-89.99050797250248",
    "latitude": "30.036830367212122",
    "geocoded_column": {
      "latitude": "30.036830367212122",
      "longitude": "-89.99050797250248"
    }
  },
  {
    "service_request": "2023-1027391",
    "request_type": "Trash/Recycling",
    "request_reason": "Missed Trash Pick-Up",
    "date_created": "2023-08-17T19:38:15.000",
    "date_modified": "2023-08-17T19:38:16.000",
    "request_status": "Pending",
    "responsible_agency": "Department of Sanitation",
    "final_address": "7031 Walmsley Ave",
    "address_councildis": "B",
    "status": "Assigned to Contractor",
    "contractor": "Richards Disposal",
    "rowid": "1027391",
    "final_x": "3667696.22183",
    "final_y": "530998.40269",
    "longitude": "-90.11167539295494",
    "latitude": "29.954473357961415",
    "geocoded_column": {
      "latitude": "29.954473357961415",
      "longitude": "-90.11167539295494"
    }
  },
  {
    "service_request": "2023-1027390",
    "request_type": "Trash/Recycling",
    "request_reason": "Dead Animal Pick Up",
    "date_created": "2023-08-17T19:36:44.000",
    "date_modified": "2023-08-17T19:36:45.000",
    "request_status": "Pending",
    "responsible_agency": "Department of Sanitation",
    "final_address": "3610 Mimosa Ct",
    "address_councildis": "C",
    "status": "Assigned to Contractor",
    "contractor": "Richards Disposal",
    "rowid": "1027390",
    "final_x": "3703015.89751",
    "final_y": "513266.542386",
    "longitude": "-90.00080164648305",
    "latitude": "29.90463421511576",
    "geocoded_column": {
      "latitude": "29.90463421511576",
      "longitude": "-90.00080164648305"
    }
  },
  {
    "service_request": "2023-1027388",
    "request_type": "Trash/Recycling",
    "request_reason": "Missed Trash Pick-Up",
    "date_created": "2023-08-17T19:32:07.000",
    "date_modified": "2023-08-17T19:32:08.000",
    "request_status": "Pending",
    "responsible_agency": "Department of Sanitation",
    "final_address": "4326 Clio St",
    "address_councildis": "B",
    "status": "Assigned to Contractor",
    "contractor": "Richards Disposal",
    "rowid": "1027388",
    "final_x": "3671099.43534",
    "final_y": "531694.157699",
    "longitude": "-90.10090572481897",
    "latitude": "29.95628624677812",
    "geocoded_column": {
      "latitude": "29.95628624677812",
      "longitude": "-90.10090572481897"
    }
  },
  {
    "service_request": "2023-1027387",
    "request_type": "Roads/Drainage",
    "request_reason": "Service Cut",
    "date_created": "2023-08-17T19:21:24.000",
    "date_modified": "2023-08-17T19:21:25.000",
    "request_status": "Pending",
    "responsible_agency": "Department of Public Works",
    "final_address": "1721 Pace Blvd",
    "address_councildis": "C",
    "status": "Pending",
    "rowid": "1027387",
    "final_x": "3694227.08509",
    "final_y": "524268.823164",
    "longitude": "-90.0281437614496",
    "latitude": "29.935164893960966",
    "geocoded_column": {
      "latitude": "29.935164893960966",
      "longitude": "-90.0281437614496"
    }
  },
  {
    "service_request": "2023-1027386",
    "request_type": "Trash/Recycling",
    "request_reason": "Replace Trash Cart",
    "date_created": "2023-08-17T19:09:05.000",
    "date_modified": "2023-08-17T19:09:06.000",
    "request_status": "Pending",
    "responsible_agency": "Department of Sanitation",
    "final_address": "1 St Maurice Ave",
    "address_councildis": "E",
    "status": "Assigned to Contractor",
    "contractor": "Waste Pro",
    "rowid": "1027386",
    "final_x": "3700147.36484",
    "final_y": "533716.706565",
    "longitude": "-90.00910887653636",
    "latitude": "29.960956491674477",
    "geocoded_column": {
      "latitude": "29.960956491674477",
      "longitude": "-90.00910887653636"
    }
  },
  {
    "service_request": "2023-1027385",
    "request_type": "Trash/Recycling",
    "request_reason": "MIssed Recycling Pick-Up",
    "date_created": "2023-08-17T19:08:52.000",
    "date_modified": "2023-08-17T19:08:53.000",
    "request_status": "Pending",
    "responsible_agency": "Department of Sanitation",
    "final_address": "2032 Jefferson Ave",
    "address_councildis": "A",
    "status": "Assigned to Contractor",
    "contractor": "Richards Disposal",
    "rowid": "1027385",
    "final_x": "3667652.09274",
    "final_y": "523277.828155",
    "longitude": "-90.1120745672925",
    "latitude": "29.933245567747143",
    "geocoded_column": {
      "latitude": "29.933245567747143",
      "longitude": "-90.1120745672925"
    }
  },
  {
    "service_request": "2023-1027384",
    "request_type": "Traffic Signals/Signs/Striping/Streetlights",
    "request_reason": "Street Light Knocked Down/Leaning",
    "date_created": "2023-08-17T19:08:36.000",
    "date_modified": "2023-08-17T19:08:37.000",
    "request_status": "Pending",
    "responsible_agency": "Department of Public Works",
    "final_address": "2713 Magnolia St",
    "address_councildis": "B",
    "status": "Pending",
    "contractor": "Legacy Professional Services",
    "rowid": "1027384",
    "final_x": "3673863.40206",
    "final_y": "525985.112765",
    "longitude": "-90.09237326746373",
    "latitude": "29.940506225173348",
    "geocoded_column": {
      "latitude": "29.940506225173348",
      "longitude": "-90.09237326746373"
    }
  },
  {
    "service_request": "2023-1027383",
    "request_type": "Trash/Recycling",
    "request_reason": "Repair Trash Cart",
    "date_created": "2023-08-17T18:40:32.000",
    "date_modified": "2023-08-17T18:40:32.000",
    "request_status": "Pending",
    "responsible_agency": "Department of Sanitation",
    "final_address": "3635 Herald St",
    "address_councildis": "C",
    "status": "Assigned to Contractor",
    "contractor": "Richards Disposal",
    "rowid": "1027383",
    "final_x": "3702141.18141",
    "final_y": "517631.780982",
    "longitude": "-90.00340235649529",
    "latitude": "29.916665076728812",
    "geocoded_column": {
      "latitude": "29.916665076728812",
      "longitude": "-90.00340235649529"
    }
  },
  {
    "service_request": "2023-1027382",
    "request_type": "Property Maintenance",
    "request_reason": "Property Maintenance",
    "date_created": "2023-08-17T18:36:31.000",
    "date_modified": "2023-08-17T18:36:31.000",
    "request_status": "Pending",
    "responsible_agency": "Department of Code Enforcement",
    "final_address": "5504 Annunciation St",
    "address_councildis": "A",
    "status": "Pending",
    "rowid": "1027382",
    "final_x": "3666080.06311",
    "final_y": "517509.981046",
    "longitude": "-90.11723063672471",
    "latitude": "29.917431783832857",
    "geocoded_column": {
      "latitude": "29.917431783832857",
      "longitude": "-90.11723063672471"
    }
  },
  {
    "service_request": "2023-1027380",
    "request_type": "Property Maintenance",
    "request_reason": "Property Maintenance",
    "date_created": "2023-08-17T18:14:36.000",
    "date_modified": "2023-08-17T18:14:36.000",
    "request_status": "Pending",
    "responsible_agency": "Department of Code Enforcement",
    "final_address": "1818 Lamanche St",
    "address_councildis": "E",
    "status": "Pending",
    "rowid": "1027380",
    "final_x": "3699029.07108",
    "final_y": "536473.090055",
    "longitude": "-90.0125398858565",
    "latitude": "29.968571049259648",
    "geocoded_column": {
      "latitude": "29.968571049259648",
      "longitude": "-90.0125398858565"
    }
  },
  {
    "service_request": "2023-1027379",
    "request_type": "Trash/Recycling",
    "request_reason": "Return Trash Cart",
    "date_created": "2023-08-17T18:11:16.000",
    "date_modified": "2023-08-17T18:11:17.000",
    "request_status": "Pending",
    "responsible_agency": "Department of Sanitation",
    "final_address": "130 S Telemachus St",
    "address_councildis": "B",
    "status": "Assigned to Contractor",
    "contractor": "Richards Disposal",
    "rowid": "1027379",
    "final_x": "3672212.00366",
    "final_y": "537114.909256",
    "longitude": "-90.09720794322331",
    "latitude": "29.97115854936369",
    "geocoded_column": {
      "latitude": "29.97115854936369",
      "longitude": "-90.09720794322331"
    }
  },
  {
    "service_request": "2023-1027378",
    "request_type": "Property Maintenance",
    "request_reason": "Property Maintenance",
    "date_created": "2023-08-17T18:10:22.000",
    "date_modified": "2023-08-17T18:10:22.000",
    "request_status": "Pending",
    "responsible_agency": "Department of Code Enforcement",
    "final_address": "1810 Lamanche St",
    "address_councildis": "E",
    "status": "Pending",
    "rowid": "1027378",
    "final_x": "3699012.80388",
    "final_y": "536414.139207",
    "longitude": "-90.01259340409382",
    "latitude": "29.968409471173732",
    "geocoded_column": {
      "latitude": "29.968409471173732",
      "longitude": "-90.01259340409382"
    }
  },
  {
    "service_request": "2023-1027377",
    "request_type": "Abandoned Vehicles",
    "request_reason": "Abandoned/Junk Vehicles",
    "date_created": "2023-08-17T18:07:23.000",
    "date_modified": "2023-08-17T18:07:23.000",
    "request_status": "Pending",
    "responsible_agency": "Department of Public Works",
    "final_address": "4429 Bienville Ave",
    "address_councildis": "A",
    "status": "Pending",
    "rowid": "1027377",
    "final_x": "3670293.33908",
    "final_y": "540049.658955",
    "longitude": "-90.10316785794446",
    "latitude": "29.97928489448897",
    "geocoded_column": {
      "latitude": "29.97928489448897",
      "longitude": "-90.10316785794446"
    }
  },
  {
    "service_request": "2023-1027376",
    "request_type": "Roads/Drainage",
    "request_reason": "Pothole",
    "date_created": "2023-08-17T18:06:24.000",
    "date_modified": "2023-08-17T18:06:24.000",
    "request_status": "Pending",
    "responsible_agency": "Department of Public Works",
    "status": "Pending",
    "rowid": "1027376",
    "longitude": "0.0",
    "latitude": "0.0",
    "geocoded_column": {
      "latitude": "0.0",
      "longitude": "0.0"
    }
  },
  {
    "service_request": "2023-1027375",
    "request_type": "Trash/Recycling",
    "request_reason": "Replace Recycling Cart",
    "date_created": "2023-08-17T17:59:31.000",
    "date_modified": "2023-08-17T17:59:31.000",
    "request_status": "Pending",
    "responsible_agency": "Department of Sanitation",
    "final_address": "438 Millaudon St",
    "address_councildis": "A",
    "status": "Pending",
    "rowid": "1027375",
    "final_x": "3662047.29587",
    "final_y": "524917.913468",
    "longitude": "-90.12971425500784",
    "latitude": "29.93791835189131",
    "geocoded_column": {
      "latitude": "29.93791835189131",
      "longitude": "-90.12971425500784"
    }
  },
  {
    "service_request": "2023-1027374",
    "request_type": "Property Maintenance",
    "request_reason": "Property Maintenance",
    "date_created": "2023-08-17T17:57:28.000",
    "date_modified": "2023-08-17T17:57:28.000",
    "request_status": "Pending",
    "responsible_agency": "Department of Code Enforcement",
    "final_address": "2825 Spain St",
    "address_councildis": "D",
    "status": "Pending",
    "rowid": "1027374",
    "final_x": "3685655.31913",
    "final_y": "543241.909774",
    "longitude": "-90.0545362625689",
    "latitude": "29.987600025914986",
    "geocoded_column": {
      "latitude": "29.987600025914986",
      "longitude": "-90.0545362625689"
    }
  },
  {
    "service_request": "2023-1027373",
    "request_type": "Trash/Recycling",
    "request_reason": "Start Trash Service",
    "date_created": "2023-08-17T17:31:11.000",
    "date_modified": "2023-08-17T17:31:11.000",
    "request_status": "Pending",
    "responsible_agency": "Department of Sanitation",
    "final_address": "9005 Olive St",
    "address_councildis": "A",
    "status": "Assigned to Contractor",
    "contractor": "Richards Disposal",
    "rowid": "1027373",
    "final_x": "3664872.52519",
    "final_y": "536388.138631",
    "longitude": "-90.12041140634454",
    "latitude": "29.96937584174801",
    "geocoded_column": {
      "latitude": "29.96937584174801",
      "longitude": "-90.12041140634454"
    }
  },
  {
    "service_request": "2023-1027372",
    "request_type": "Trash/Recycling",
    "request_reason": "Request a Large Item Pick Up",
    "date_created": "2023-08-17T17:26:34.000",
    "date_modified": "2023-08-17T17:26:34.000",
    "request_status": "Pending",
    "responsible_agency": "Department of Sanitation",
    "final_address": "6128 S Robertson St",
    "address_councildis": "A",
    "status": "Assigned to Contractor",
    "contractor": "Richards Disposal",
    "rowid": "1027372",
    "final_x": "3665886.28589",
    "final_y": "524940.069757",
    "longitude": "-90.11759345148067",
    "latitude": "29.937867833823535",
    "geocoded_column": {
      "latitude": "29.937867833823535",
      "longitude": "-90.11759345148067"
    }
  },
  {
    "service_request": "2023-1027371",
    "request_type": "Trash/Recycling",
    "request_reason": "Request a Large Item Pick Up",
    "date_created": "2023-08-17T17:26:18.000",
    "date_modified": "2023-08-17T17:26:18.000",
    "request_status": "Pending",
    "responsible_agency": "Department of Sanitation",
    "final_address": "3842 Mimosa Dr",
    "address_councildis": "C",
    "status": "Assigned to Contractor",
    "contractor": "Richards Disposal",
    "rowid": "1027371",
    "final_x": "3704218.54231",
    "final_y": "513146.916658",
    "longitude": "-89.99701049434523",
    "latitude": "29.904266773584823",
    "geocoded_column": {
      "latitude": "29.904266773584823",
      "longitude": "-89.99701049434523"
    }
  },
  {
    "service_request": "2023-1027370",
    "request_type": "Trash/Recycling",
    "request_reason": "Missed Trash Pick-Up",
    "date_created": "2023-08-17T17:23:06.000",
    "date_modified": "2023-08-17T17:23:07.000",
    "request_status": "Pending",
    "responsible_agency": "Department of Sanitation",
    "final_address": "4022 Prentiss Ave",
    "address_councildis": "D",
    "status": "Assigned to Contractor",
    "contractor": "IV Waste",
    "rowid": "1027370",
    "final_x": "3688822.52246",
    "final_y": "554220.228952",
    "longitude": "-90.0441420370358",
    "latitude": "30.017688832233258",
    "geocoded_column": {
      "latitude": "30.017688832233258",
      "longitude": "-90.0441420370358"
    }
  },
  {
    "service_request": "2023-1027369",
    "request_type": "Trash/Recycling",
    "request_reason": "Request a Large Item Pick Up",
    "date_created": "2023-08-17T17:23:01.000",
    "date_modified": "2023-08-17T17:23:02.000",
    "request_status": "Pending",
    "responsible_agency": "Department of Sanitation",
    "final_address": "6830 Manchester St",
    "address_councildis": "E",
    "status": "Assigned to Contractor",
    "contractor": "Waste Pro",
    "rowid": "1027369",
    "final_x": "3698591.07613",
    "final_y": "559896.172317",
    "longitude": "-90.01307077655628",
    "latitude": "30.032989685425093",
    "geocoded_column": {
      "latitude": "30.032989685425093",
      "longitude": "-90.01307077655628"
    }
  },
  {
    "service_request": "2023-1027368",
    "request_type": "Trash/Recycling",
    "request_reason": "Order Trash Cart",
    "date_created": "2023-08-17T17:22:26.000",
    "date_modified": "2023-08-17T17:22:26.000",
    "request_status": "Pending",
    "responsible_agency": "Department of Sanitation",
    "final_address": "4022 Prentiss Ave",
    "address_councildis": "D",
    "status": "Assigned to Contractor",
    "contractor": "IV Waste",
    "rowid": "1027368",
    "final_x": "3688822.52246",
    "final_y": "554220.228952",
    "longitude": "-90.0441420370358",
    "latitude": "30.017688832233258",
    "geocoded_column": {
      "latitude": "30.017688832233258",
      "longitude": "-90.0441420370358"
    }
  },
  {
    "service_request": "2023-1027367",
    "request_type": "Trash/Recycling",
    "request_reason": "Missed Trash Pick-Up",
    "date_created": "2023-08-17T17:18:54.000",
    "date_modified": "2023-08-17T17:24:24.000",
    "case_close_date": "2023-08-17T12:24:24.000",
    "request_status": "Closed",
    "responsible_agency": "Department of Sanitation",
    "final_address": "7741 Symmes Ave",
    "address_councildis": "E",
    "status": "Duplicate Request",
    "contractor": "Waste Pro",
    "contractor_action": "duplicate",
    "rowid": "1027367",
    "final_x": "3707678.11102",
    "final_y": "565012.959522",
    "longitude": "-89.98416476329626",
    "latitude": "30.0467677945899",
    "geocoded_column": {
      "latitude": "30.0467677945899",
      "longitude": "-89.98416476329626"
    }
  },
  {
    "service_request": "2023-1027366",
    "request_type": "Trash/Recycling",
    "request_reason": "MIssed Recycling Pick-Up",
    "date_created": "2023-08-17T17:18:27.000",
    "date_modified": "2023-08-17T17:18:53.000",
    "case_close_date": "2023-08-09T19:00:00.000",
    "request_status": "Pending",
    "responsible_agency": "Department of Sanitation",
    "final_address": "2015 Allen St",
    "address_councildis": "D",
    "status": "Assigned to Contractor",
    "contractor": "IV Waste",
    "rowid": "1027366",
    "final_x": "3682533.58492",
    "final_y": "539570.218634",
    "longitude": "-90.06452515958121",
    "latitude": "29.977599590206577",
    "geocoded_column": {
      "latitude": "29.977599590206577",
      "longitude": "-90.06452515958121"
    }
  },
  {
    "service_request": "2023-1027365",
    "request_type": "Trash/Recycling",
    "request_reason": "MIssed Recycling Pick-Up",
    "date_created": "2023-08-17T17:13:36.000",
    "date_modified": "2023-08-17T17:13:37.000",
    "request_status": "Pending",
    "responsible_agency": "Department of Sanitation",
    "final_address": "924 Cadiz St",
    "address_councildis": "B",
    "status": "Assigned to Contractor",
    "contractor": "Richards Disposal",
    "rowid": "1027365",
    "final_x": "3670254.53588",
    "final_y": "518943.137911",
    "longitude": "-90.10400561273318",
    "latitude": "29.921250028508346",
    "geocoded_column": {
      "latitude": "29.921250028508346",
      "longitude": "-90.10400561273318"
    }
  },
  {
    "service_request": "2023-1027364",
    "request_type": "Trash/Recycling",
    "request_reason": "Missed Trash Pick-Up",
    "date_created": "2023-08-17T17:09:42.000",
    "date_modified": "2023-08-17T17:09:43.000",
    "request_status": "Pending",
    "responsible_agency": "Department of Sanitation",
    "final_address": "7741 Symmes Ave",
    "address_councildis": "E",
    "status": "Assigned to Contractor",
    "contractor": "Waste Pro",
    "rowid": "1027364",
    "final_x": "3707678.11102",
    "final_y": "565012.959522",
    "longitude": "-89.98416476329626",
    "latitude": "30.0467677945899",
    "geocoded_column": {
      "latitude": "30.0467677945899",
      "longitude": "-89.98416476329626"
    }
  },
  {
    "service_request": "2023-1027363",
    "request_type": "Trash/Recycling",
    "request_reason": "Order Trash Cart",
    "date_created": "2023-08-17T16:58:01.000",
    "date_modified": "2023-08-17T16:58:02.000",
    "request_status": "Pending",
    "responsible_agency": "Department of Sanitation",
    "final_address": "2309 Coliseum St",
    "address_councildis": "B",
    "status": "Assigned to Contractor",
    "contractor": "Richards Disposal",
    "rowid": "1027363",
    "final_x": "3677814.00277",
    "final_y": "522620.119098",
    "longitude": "-90.08001676430277",
    "latitude": "29.9311353611319",
    "geocoded_column": {
      "latitude": "29.9311353611319",
      "longitude": "-90.08001676430277"
    }
  },
  {
    "service_request": "2023-1027362",
    "request_type": "Abandoned Vehicles",
    "request_reason": "Abandoned/Junk Vehicles",
    "date_created": "2023-08-17T16:57:34.000",
    "date_modified": "2023-08-17T16:57:34.000",
    "request_status": "Pending",
    "responsible_agency": "Department of Public Works",
    "final_address": "2132 Dumaine St",
    "address_councildis": "D",
    "status": "Pending",
    "rowid": "1027362",
    "final_x": "3678844.10715",
    "final_y": "536183.374663",
    "longitude": "-90.0762951329089",
    "latitude": "29.968398752506356",
    "geocoded_column": {
      "latitude": "29.968398752506356",
      "longitude": "-90.0762951329089"
    }
  },
  {
    "service_request": "2023-1027361",
    "request_type": "Roads/Drainage",
    "request_reason": "Catch Basin - Clogged",
    "date_created": "2023-08-17T16:49:13.000",
    "date_modified": "2023-08-17T16:49:13.000",
    "request_status": "Pending",
    "responsible_agency": "Department of Public Works",
    "final_address": "7366 Brevard Ave",
    "address_councildis": "E",
    "status": "Pending",
    "rowid": "1027361",
    "final_x": "3706595.78852",
    "final_y": "562935.072032",
    "longitude": "-89.98766257228559",
    "latitude": "30.041089427051862",
    "geocoded_column": {
      "latitude": "30.041089427051862",
      "longitude": "-89.98766257228559"
    }
  },
  {
    "service_request": "2023-1027360",
    "request_type": "Trash/Recycling",
    "request_reason": "Replace Trash Cart",
    "date_created": "2023-08-17T16:43:40.000",
    "date_modified": "2023-08-17T16:43:41.000",
    "request_status": "Pending",
    "responsible_agency": "Department of Sanitation",
    "final_address": "1429 Joliet Street, New Orleans, 70118",
    "address_councildis": "A",
    "status": "Assigned to Contractor",
    "contractor": "Richards Disposal",
    "rowid": "1027360",
    "final_x": "3661555.15488",
    "final_y": "529991.739457",
    "longitude": "-90.13109992467142",
    "latitude": "29.951883961247397",
    "geocoded_column": {
      "latitude": "29.951883961247397",
      "longitude": "-90.13109992467142"
    }
  },
  {
    "service_request": "2023-1027359",
    "request_type": "Trash/Recycling",
    "request_reason": "Repair Recycling Cart",
    "date_created": "2023-08-17T16:38:32.000",
    "date_modified": "2023-08-17T16:38:33.000",
    "request_status": "Pending",
    "responsible_agency": "Department of Sanitation",
    "final_address": "2241 Milton St",
    "address_councildis": "D",
    "status": "Pending",
    "rowid": "1027359",
    "final_x": "3684381.13308",
    "final_y": "546697.419281",
    "longitude": "-90.05843953100218",
    "latitude": "29.997140485582094",
    "geocoded_column": {
      "latitude": "29.997140485582094",
      "longitude": "-90.05843953100218"
    }
  },
  {
    "service_request": "2023-1027358",
    "request_type": "Trash/Recycling",
    "request_reason": "Request a Large Item Pick Up",
    "date_created": "2023-08-17T16:32:48.000",
    "date_modified": "2023-08-17T16:33:24.000",
    "request_status": "Pending",
    "responsible_agency": "Department of Sanitation",
    "final_address": "6928 Lamb Rd",
    "address_councildis": "D",
    "status": "Assigned to Contractor",
    "contractor": "Waste Pro",
    "rowid": "1027358",
    "final_x": "3697684.56426",
    "final_y": "556884.112666",
    "longitude": "-90.01604484846655",
    "latitude": "30.024736364694895",
    "geocoded_column": {
      "latitude": "30.024736364694895",
      "longitude": "-90.01604484846655"
    }
  },
  {
    "service_request": "2023-1027357",
    "request_type": "Roads/Drainage",
    "request_reason": "Damaged Sidewalk",
    "date_created": "2023-08-17T16:32:43.000",
    "date_modified": "2023-08-17T16:35:30.000",
    "request_status": "Pending",
    "responsible_agency": "Department of Public Works",
    "final_address": "1852 Murl St",
    "address_councildis": "C",
    "status": "Inspected",
    "rowid": "1027357",
    "final_x": "3695428.54269",
    "final_y": "524219.71686",
    "longitude": "-90.02435255371178",
    "latitude": "29.934992183490923",
    "geocoded_column": {
      "latitude": "29.934992183490923",
      "longitude": "-90.02435255371178"
    }
  },
  {
    "service_request": "2023-1027356",
    "request_type": "Traffic Signals/Signs/Striping/Streetlights",
    "request_reason": "Street Name Sign Damaged or Missing",
    "date_created": "2023-08-17T16:31:34.000",
    "date_modified": "2023-08-17T16:31:34.000",
    "request_status": "Pending",
    "responsible_agency": "Department of Public Works",
    "final_address": "2336 Annunciation St",
    "address_councildis": "B",
    "status": "Pending",
    "rowid": "1027356",
    "final_x": "3678974.23586",
    "final_y": "520754.667193",
    "longitude": "-90.07641865827779",
    "latitude": "29.92597103234842",
    "geocoded_column": {
      "latitude": "29.92597103234842",
      "longitude": "-90.07641865827779"
    }
  },
  {
    "service_request": "2023-1027355",
    "request_type": "Trash/Recycling",
    "request_reason": "Return Recycling Cart",
    "date_created": "2023-08-17T16:31:17.000",
    "date_modified": "2023-08-17T16:31:18.000",
    "request_status": "Pending",
    "responsible_agency": "Department of Sanitation",
    "final_address": "1004 Kerlerec St",
    "address_councildis": "C",
    "status": "Pending",
    "rowid": "1027355",
    "final_x": "3683339.21813",
    "final_y": "535345.631302",
    "longitude": "-90.06212872430868",
    "latitude": "29.96595888687059",
    "geocoded_column": {
      "latitude": "29.96595888687059",
      "longitude": "-90.06212872430868"
    }
  },
  {
    "service_request": "2023-1027354",
    "request_type": "Trash/Recycling",
    "request_reason": "Missed Trash Pick-Up",
    "date_created": "2023-08-17T16:29:56.000",
    "date_modified": "2023-08-17T16:29:57.000",
    "request_status": "Pending",
    "responsible_agency": "Department of Sanitation",
    "final_address": "95 Spanish Fort Blvd",
    "address_councildis": "D",
    "status": "Assigned to Contractor",
    "contractor": "IV Waste",
    "rowid": "1027354",
    "final_x": "3673980.56225",
    "final_y": "555800.132313",
    "longitude": "-90.09098277956045",
    "latitude": "30.022483803116863",
    "geocoded_column": {
      "latitude": "30.022483803116863",
      "longitude": "-90.09098277956045"
    }
  },
  {
    "service_request": "2023-1027353",
    "request_type": "Trash/Recycling",
    "request_reason": "Request a Large Item Pick Up",
    "date_created": "2023-08-17T16:27:28.000",
    "date_modified": "2023-08-17T16:27:29.000",
    "request_status": "Pending",
    "responsible_agency": "Department of Sanitation",
    "final_address": "5508 Annunciation St",
    "address_councildis": "A",
    "status": "Assigned to Contractor",
    "contractor": "Richards Disposal",
    "rowid": "1027353",
    "final_x": "3666038.32128",
    "final_y": "517515.25791",
    "longitude": "-90.11736221589926",
    "latitude": "29.91744751164147",
    "geocoded_column": {
      "latitude": "29.91744751164147",
      "longitude": "-90.11736221589926"
    }
  },
  {
    "service_request": "2023-1027352",
    "request_type": "Trash/Recycling",
    "request_reason": "Repair Recycling Cart",
    "date_created": "2023-08-17T16:25:40.000",
    "date_modified": "2023-08-17T16:25:40.000",
    "request_status": "Pending",
    "responsible_agency": "Department of Sanitation",
    "final_address": "6120 Magnolia St",
    "address_councildis": "A",
    "status": "Pending",
    "rowid": "1027352",
    "final_x": "3666369.69044",
    "final_y": "525067.322173",
    "longitude": "-90.11606302982325",
    "latitude": "29.93820362548688",
    "geocoded_column": {
      "latitude": "29.93820362548688",
      "longitude": "-90.11606302982325"
    }
  },
  {
    "service_request": "2023-1027351",
    "request_type": "Trash/Recycling",
    "request_reason": "Repair Trash Cart",
    "date_created": "2023-08-17T16:21:31.000",
    "date_modified": "2023-08-17T16:21:32.000",
    "request_status": "Pending",
    "responsible_agency": "Department of Sanitation",
    "final_address": "4422 S Johnson St",
    "address_councildis": "B",
    "status": "Assigned to Contractor",
    "contractor": "Richards Disposal",
    "rowid": "1027351",
    "final_x": "3670009.05281",
    "final_y": "527103.488959",
    "longitude": "-90.10450425379823",
    "latitude": "29.943695613721957",
    "geocoded_column": {
      "latitude": "29.943695613721957",
      "longitude": "-90.10450425379823"
    }
  },
  {
    "service_request": "2023-1027350",
    "request_type": "Trash/Recycling",
    "request_reason": "Request a Large Item Pick Up",
    "date_created": "2023-08-17T16:20:36.000",
    "date_modified": "2023-08-17T16:20:37.000",
    "request_status": "Pending",
    "responsible_agency": "Department of Sanitation",
    "final_address": "3736 Virgil Blvd",
    "address_councildis": "D",
    "status": "Assigned to Contractor",
    "contractor": "IV Waste",
    "rowid": "1027350",
    "final_x": "3680869.43835",
    "final_y": "546168.11048",
    "longitude": "-90.06955126379998",
    "latitude": "29.995792041242513",
    "geocoded_column": {
      "latitude": "29.995792041242513",
      "longitude": "-90.06955126379998"
    }
  },
  {
    "service_request": "2023-1027349",
    "request_type": "Trash/Recycling",
    "request_reason": "Repair Trash Cart",
    "date_created": "2023-08-17T16:14:36.000",
    "date_modified": "2023-08-17T16:14:43.000",
    "request_status": "Pending",
    "responsible_agency": "Department of Sanitation",
    "final_address": "2210 St Bernard Ave",
    "address_councildis": "D",
    "status": "Assigned to Contractor",
    "contractor": "IV Waste",
    "rowid": "1027349",
    "final_x": "3680985.55727",
    "final_y": "539902.638218",
    "longitude": "-90.06940277277674",
    "latitude": "29.97856067109524",
    "geocoded_column": {
      "latitude": "29.97856067109524",
      "longitude": "-90.06940277277674"
    }
  },
  {
    "service_request": "2023-1027348",
    "request_type": "Roads/Drainage",
    "request_reason": "WaterMain Break",
    "date_created": "2023-08-17T16:06:44.000",
    "date_modified": "2023-08-17T16:06:44.000",
    "request_status": "Pending",
    "responsible_agency": "Department of Public Works",
    "final_address": "5513 Wingate Dr",
    "address_councildis": "D",
    "status": "Pending",
    "rowid": "1027348",
    "final_x": "3681428.69372",
    "final_y": "553244.641175",
    "longitude": "-90.06753768102438",
    "latitude": "30.01523298617939",
    "geocoded_column": {
      "latitude": "30.01523298617939",
      "longitude": "-90.06753768102438"
    }
  },
  {
    "service_request": "2023-1027347",
    "request_type": "Abandoned Vehicles",
    "request_reason": "Abandoned/Junk Vehicles",
    "date_created": "2023-08-17T16:06:41.000",
    "date_modified": "2023-08-17T16:12:46.000",
    "request_status": "Pending",
    "responsible_agency": "Department of Public Works",
    "final_address": "723 S Dupre St",
    "address_councildis": "B",
    "status": "Pending",
    "rowid": "1027347",
    "final_x": "3672997.55425",
    "final_y": "533601.603845",
    "longitude": "-90.09484698949377",
    "latitude": "29.96147481550059",
    "geocoded_column": {
      "latitude": "29.96147481550059",
      "longitude": "-90.09484698949377"
    }
  },
  {
    "service_request": "2023-1027346",
    "request_type": "Roads/Drainage",
    "request_reason": "WaterMain Break",
    "date_created": "2023-08-17T16:05:26.000",
    "date_modified": "2023-08-17T16:05:26.000",
    "request_status": "Pending",
    "responsible_agency": "Department of Public Works",
    "final_address": "5513 Wingate Dr",
    "address_councildis": "D",
    "status": "Pending",
    "rowid": "1027346",
    "final_x": "3681428.69372",
    "final_y": "553244.641175",
    "longitude": "-90.06753768102438",
    "latitude": "30.01523298617939",
    "geocoded_column": {
      "latitude": "30.01523298617939",
      "longitude": "-90.06753768102438"
    }
  },
  {
    "service_request": "2023-1027345",
    "request_type": "Trash/Recycling",
    "request_reason": "Missed Trash Pick-Up",
    "date_created": "2023-08-17T16:04:29.000",
    "date_modified": "2023-08-17T16:04:31.000",
    "request_status": "Pending",
    "responsible_agency": "Department of Sanitation",
    "final_address": "4700 Papania Dr",
    "address_councildis": "E",
    "status": "Assigned to Contractor",
    "contractor": "Waste Pro",
    "rowid": "1027345",
    "final_x": "3715513.98399",
    "final_y": "556672.083482",
    "longitude": "-89.95971554960884",
    "latitude": "30.0235777210429",
    "geocoded_column": {
      "latitude": "30.0235777210429",
      "longitude": "-89.95971554960884"
    }
  },
  {
    "service_request": "2023-1027344",
    "request_type": "Parks & Parkways",
    "request_reason": "Request Tree Service (Right of Way/Public Property)",
    "date_created": "2023-08-17T16:04:28.000",
    "date_modified": "2023-08-17T16:04:29.000",
    "request_status": "Pending",
    "responsible_agency": "Department of Parks & Parkway",
    "final_address": "4391 Trieste St",
    "address_councildis": "E",
    "status": "Pending",
    "rowid": "1027344",
    "final_x": "3760304.56835",
    "final_y": "573976.814314",
    "longitude": "-89.81746690232194",
    "latitude": "30.0696055014782",
    "geocoded_column": {
      "latitude": "30.0696055014782",
      "longitude": "-89.81746690232194"
    }
  },
  {
    "service_request": "2023-1027343",
    "request_type": "Abandoned Vehicles",
    "request_reason": "Abandoned/Junk Vehicles",
    "date_created": "2023-08-17T15:58:56.000",
    "date_modified": "2023-08-17T15:58:56.000",
    "request_status": "Pending",
    "responsible_agency": "Department of Public Works",
    "final_address": "401 Dufossat St",
    "address_councildis": "B",
    "status": "Pending",
    "rowid": "1027343",
    "final_x": "3668032.23092",
    "final_y": "517048.582005",
    "longitude": "-90.11108425842012",
    "latitude": "29.916105967027615",
    "geocoded_column": {
      "latitude": "29.916105967027615",
      "longitude": "-90.11108425842012"
    }
  },
  {
    "service_request": "2023-1027342",
    "request_type": "Trash/Recycling",
    "request_reason": "Request a Large Item Pick Up",
    "date_created": "2023-08-17T15:58:01.000",
    "date_modified": "2023-08-17T15:58:02.000",
    "request_status": "Pending",
    "responsible_agency": "Department of Sanitation",
    "final_address": "1310 Leonidas St",
    "address_councildis": "A",
    "status": "Assigned to Contractor",
    "contractor": "Richards Disposal",
    "rowid": "1027342",
    "final_x": "3660919.68083",
    "final_y": "529932.697153",
    "longitude": "-90.13310841387836",
    "latitude": "29.951739931953373",
    "geocoded_column": {
      "latitude": "29.951739931953373",
      "longitude": "-90.13310841387836"
    }
  },
  {
    "service_request": "2023-1027341",
    "request_type": "Abandoned Vehicles",
    "request_reason": "Abandoned/Junk Vehicles",
    "date_created": "2023-08-17T15:56:49.000",
    "date_modified": "2023-08-17T15:56:49.000",
    "request_status": "Pending",
    "responsible_agency": "Department of Public Works",
    "final_address": "401 Dufossat St",
    "address_councildis": "B",
    "status": "Pending",
    "rowid": "1027341",
    "final_x": "3668032.23092",
    "final_y": "517048.582005",
    "longitude": "-90.11108425842012",
    "latitude": "29.916105967027615",
    "geocoded_column": {
      "latitude": "29.916105967027615",
      "longitude": "-90.11108425842012"
    }
  },
  {
    "service_request": "2023-1027340",
    "request_type": "Trash/Recycling",
    "request_reason": "Replace Trash Cart",
    "date_created": "2023-08-17T15:56:14.000",
    "date_modified": "2023-08-17T15:56:15.000",
    "request_status": "Pending",
    "responsible_agency": "Department of Sanitation",
    "final_address": "9863 Andover Dr",
    "address_councildis": "E",
    "status": "Assigned to Contractor",
    "contractor": "Waste Pro",
    "rowid": "1027340",
    "final_x": "3709203.16408",
    "final_y": "562293.482591",
    "longitude": "-89.97944638721592",
    "latitude": "30.039240858147952",
    "geocoded_column": {
      "latitude": "30.039240858147952",
      "longitude": "-89.97944638721592"
    }
  },
  {
    "service_request": "2023-1027339",
    "request_type": "Trash/Recycling",
    "request_reason": "Replace Trash Cart",
    "date_created": "2023-08-17T15:54:12.000",
    "date_modified": "2023-08-17T15:54:13.000",
    "request_status": "Pending",
    "responsible_agency": "Department of Sanitation",
    "final_address": "JEFFERSON AVE & DANNEEL ST",
    "address_councildis": "A",
    "status": "Assigned to Contractor",
    "contractor": "Richards Disposal",
    "rowid": "1027339",
    "final_x": "3667515.7",
    "final_y": "522260.78",
    "longitude": "-90.11253935981905",
    "latitude": "29.930453006015263",
    "geocoded_column": {
      "latitude": "29.930453006015263",
      "longitude": "-90.11253935981905"
    }
  },
  {
    "service_request": "2023-1027338",
    "request_type": "Trash/Recycling",
    "request_reason": "Order Trash Cart",
    "date_created": "2023-08-17T15:53:32.000",
    "date_modified": "2023-08-17T15:53:33.000",
    "request_status": "Pending",
    "responsible_agency": "Department of Sanitation",
    "final_address": "8040 Lacombe St Apt D",
    "address_councildis": "E",
    "status": "Assigned to Contractor",
    "contractor": "Waste Pro",
    "rowid": "1027338",
    "final_x": "3708845.27672",
    "final_y": "566429.101219",
    "longitude": "-89.98042308911319",
    "latitude": "30.050623775722855",
    "geocoded_column": {
      "latitude": "30.050623775722855",
      "longitude": "-89.98042308911319"
    }
  },
  {
    "service_request": "2023-1027337",
    "request_type": "Traffic Signals/Signs/Striping/Streetlights",
    "request_reason": "Disabled Parking Sign ",
    "date_created": "2023-08-17T15:52:22.000",
    "date_modified": "2023-08-17T15:52:23.000",
    "request_status": "Pending",
    "responsible_agency": "Department of Public Works",
    "final_address": "1910 N Dorgenois St",
    "address_councildis": "D",
    "status": "Pending",
    "rowid": "1027337",
    "final_x": "3681326.49615",
    "final_y": "541164.482252",
    "longitude": "-90.0682819623966",
    "latitude": "29.98201995699922",
    "geocoded_column": {
      "latitude": "29.98201995699922",
      "longitude": "-90.0682819623966"
    }
  },
  {
    "service_request": "2023-1027336",
    "request_type": "Property Maintenance",
    "request_reason": "Property Maintenance",
    "date_created": "2023-08-17T15:51:31.000",
    "date_modified": "2023-08-17T15:51:32.000",
    "request_status": "Pending",
    "responsible_agency": "Department of Code Enforcement",
    "final_address": "4745 Sierra Madre Dr",
    "address_councildis": "E",
    "status": "Pending",
    "rowid": "1027336",
    "final_x": "3713965.30802",
    "final_y": "556490.594714",
    "longitude": "-89.96461584540114",
    "latitude": "30.02312965539914",
    "geocoded_column": {
      "latitude": "30.02312965539914",
      "longitude": "-89.96461584540114"
    }
  },
  {
    "service_request": "2023-1027335",
    "request_type": "Trash/Recycling",
    "request_reason": "Order Recycling Cart",
    "date_created": "2023-08-17T15:49:49.000",
    "date_modified": "2023-08-17T15:49:50.000",
    "request_status": "Pending",
    "responsible_agency": "Department of Sanitation",
    "final_address": "1240 Camp St",
    "address_councildis": "B",
    "status": "Pending",
    "rowid": "1027335",
    "final_x": "3680198.09986",
    "final_y": "525358.634365",
    "longitude": "-90.07239534849856",
    "latitude": "29.93859345473388",
    "geocoded_column": {
      "latitude": "29.93859345473388",
      "longitude": "-90.07239534849856"
    }
  },
  {
    "service_request": "2023-1027334",
    "request_type": "Traffic Signals/Signs/Striping/Streetlights",
    "request_reason": "Request for Stop Sign",
    "date_created": "2023-08-17T15:46:57.000",
    "date_modified": "2023-08-17T15:46:57.000",
    "request_status": "Pending",
    "responsible_agency": "Department of Public Works",
    "final_address": "FRERET ST & VALENCE ST",
    "address_councildis": "B",
    "status": "Pending",
    "rowid": "1027334",
    "final_x": "3669428.6",
    "final_y": "523937.68",
    "longitude": "-90.10644392655435",
    "latitude": "29.93500776557353",
    "geocoded_column": {
      "latitude": "29.93500776557353",
      "longitude": "-90.10644392655435"
    }
  },
  {
    "service_request": "2023-1027333",
    "request_type": "Trash/Recycling",
    "request_reason": "Missed Trash Pick-Up",
    "date_created": "2023-08-17T15:46:37.000",
    "date_modified": "2023-08-17T15:46:38.000",
    "request_status": "Pending",
    "responsible_agency": "Department of Sanitation",
    "final_address": "2300 Harmony St",
    "address_councildis": "B",
    "status": "Assigned to Contractor",
    "contractor": "Richards Disposal",
    "rowid": "1027333",
    "final_x": "3673684.10164",
    "final_y": "524077.994684",
    "longitude": "-90.09300452556485",
    "latitude": "29.9352676103742",
    "geocoded_column": {
      "latitude": "29.9352676103742",
      "longitude": "-90.09300452556485"
    }
  },
  {
    "service_request": "2023-1027332",
    "request_type": "Trash/Recycling",
    "request_reason": "Illegal Dumping",
    "date_created": "2023-08-17T15:44:12.000",
    "date_modified": "2023-08-17T15:44:13.000",
    "request_status": "Pending",
    "responsible_agency": "Department of Sanitation",
    "final_address": "4500 BLK Tullis Dr",
    "address_councildis": "C",
    "status": "Pending",
    "rowid": "1027332",
    "final_x": "3700494.7535",
    "final_y": "512059.242402",
    "longitude": "-90.00880244832543",
    "latitude": "29.901394923660828",
    "geocoded_column": {
      "latitude": "29.901394923660828",
      "longitude": "-90.00880244832543"
    }
  },
  {
    "service_request": "2023-1027331",
    "request_type": "Trash/Recycling",
    "request_reason": "Missed Trash Pick-Up",
    "date_created": "2023-08-17T15:41:05.000",
    "date_modified": "2023-08-17T15:42:05.000",
    "request_status": "Pending",
    "responsible_agency": "Department of Sanitation",
    "final_address": "620 Soraparu St",
    "address_councildis": "B",
    "status": "Assigned to Contractor",
    "contractor": "Richards Disposal",
    "rowid": "1027331",
    "final_x": "3679239.42933",
    "final_y": "520277.98508",
    "longitude": "-90.0755980373529",
    "latitude": "29.924652310462665",
    "geocoded_column": {
      "latitude": "29.924652310462665",
      "longitude": "-90.0755980373529"
    }
  },
  {
    "service_request": "2023-1027330",
    "request_type": "Abandoned Vehicles",
    "request_reason": "Abandoned/Junk Vehicles",
    "date_created": "2023-08-17T15:40:52.000",
    "date_modified": "2023-08-17T15:41:34.000",
    "request_status": "Pending",
    "responsible_agency": "Department of Public Works",
    "final_address": "BACCICH ST & CARNOT ST",
    "address_councildis": "D",
    "status": "Pending",
    "rowid": "1027330",
    "final_x": "3687744.6",
    "final_y": "550373.18",
    "longitude": "-90.04768422428931",
    "latitude": "30.007144164443655",
    "geocoded_column": {
      "latitude": "30.007144164443655",
      "longitude": "-90.04768422428931"
    }
  },
  {
    "service_request": "2023-1027329",
    "request_type": "Trash/Recycling",
    "request_reason": "Illegal Dumping",
    "date_created": "2023-08-17T15:39:37.000",
    "date_modified": "2023-08-17T15:40:10.000",
    "request_status": "Pending",
    "responsible_agency": "Department of Code Enforcement",
    "final_address": "500 BLK Whitney Ave",
    "address_councildis": "C",
    "status": "Pending",
    "rowid": "1027329",
    "final_x": "3690208.73044",
    "final_y": "529596.5236",
    "longitude": "-90.04063989965485",
    "latitude": "29.949939495760393",
    "geocoded_column": {
      "latitude": "29.949939495760393",
      "longitude": "-90.04063989965485"
    }
  },
  {
    "service_request": "2023-1027328",
    "request_type": "Trash/Recycling",
    "request_reason": "Return Recycling Cart",
    "date_created": "2023-08-17T15:36:56.000",
    "date_modified": "2023-08-17T15:36:57.000",
    "request_status": "Pending",
    "responsible_agency": "Department of Sanitation",
    "final_address": "6050 Chatham Dr",
    "address_councildis": "D",
    "status": "Pending",
    "rowid": "1027328",
    "final_x": "3679489.81269",
    "final_y": "554850.51804",
    "longitude": "-90.07360785452032",
    "latitude": "30.01970731580033",
    "geocoded_column": {
      "latitude": "30.01970731580033",
      "longitude": "-90.07360785452032"
    }
  },
  {
    "service_request": "2023-1027327",
    "request_type": "Trash/Recycling",
    "request_reason": "Request a Large Item Pick Up",
    "date_created": "2023-08-17T15:33:02.000",
    "date_modified": "2023-08-17T15:33:03.000",
    "request_status": "Pending",
    "responsible_agency": "Department of Sanitation",
    "final_address": "4927 Schindler Dr",
    "address_councildis": "E",
    "status": "Assigned to Contractor",
    "contractor": "Waste Pro",
    "rowid": "1027327",
    "final_x": "3714316.85874",
    "final_y": "557525.939611",
    "longitude": "-89.96346592368998",
    "latitude": "30.025964892483945",
    "geocoded_column": {
      "latitude": "30.025964892483945",
      "longitude": "-89.96346592368998"
    }
  },
  {
    "service_request": "2023-1027326",
    "request_type": "Trash/Recycling",
    "request_reason": "Request a Large Item Pick Up",
    "date_created": "2023-08-17T15:32:47.000",
    "date_modified": "2023-08-17T15:32:47.000",
    "request_status": "Pending",
    "responsible_agency": "Department of Sanitation",
    "final_address": "529 Whitney Ave",
    "address_councildis": "C",
    "status": "Assigned to Contractor",
    "contractor": "Richards Disposal",
    "rowid": "1027326",
    "final_x": "3690128.61603",
    "final_y": "529446.338625",
    "longitude": "-90.04089820589117",
    "latitude": "29.94952902372718",
    "geocoded_column": {
      "latitude": "29.94952902372718",
      "longitude": "-90.04089820589117"
    }
  },
  {
    "service_request": "2023-1027325",
    "request_type": "Trash/Recycling",
    "request_reason": "Order Recycling Cart",
    "date_created": "2023-08-17T15:29:46.000",
    "date_modified": "2023-08-17T15:29:47.000",
    "request_status": "Pending",
    "responsible_agency": "Department of Sanitation",
    "final_address": "5582 Jacquelyn Ct",
    "address_councildis": "A",
    "status": "Pending",
    "rowid": "1027325",
    "final_x": "3664465.30368",
    "final_y": "544963.041103",
    "longitude": "-90.12141102962498",
    "latitude": "29.992965795159215",
    "geocoded_column": {
      "latitude": "29.992965795159215",
      "longitude": "-90.12141102962498"
    }
  },
  {
    "service_request": "2023-1027324",
    "request_type": "Trash/Recycling",
    "request_reason": "Order Trash Cart",
    "date_created": "2023-08-17T15:28:54.000",
    "date_modified": "2023-08-17T15:28:54.000",
    "request_status": "Pending",
    "responsible_agency": "Department of Sanitation",
    "final_address": "5582 Jacquelyn Ct",
    "address_councildis": "A",
    "status": "Assigned to Contractor",
    "contractor": "IV Waste",
    "rowid": "1027324",
    "final_x": "3664465.30368",
    "final_y": "544963.041103",
    "longitude": "-90.12141102962498",
    "latitude": "29.992965795159215",
    "geocoded_column": {
      "latitude": "29.992965795159215",
      "longitude": "-90.12141102962498"
    }
  },
  {
    "service_request": "2023-1027323",
    "request_type": "Trash/Recycling",
    "request_reason": "Missed Trash Pick-Up",
    "date_created": "2023-08-17T15:28:16.000",
    "date_modified": "2023-08-17T15:28:17.000",
    "request_status": "Pending",
    "responsible_agency": "Department of Sanitation",
    "final_address": "3985 S Front St",
    "address_councildis": "B",
    "status": "Assigned to Contractor",
    "contractor": "Richards Disposal",
    "rowid": "1027323",
    "final_x": "3672763.90625",
    "final_y": "517394.923253",
    "longitude": "-90.09613739414934",
    "latitude": "29.916918665750345",
    "geocoded_column": {
      "latitude": "29.916918665750345",
      "longitude": "-90.09613739414934"
    }
  },
  {
    "service_request": "2023-1027322",
    "request_type": "Trash/Recycling",
    "request_reason": "Request a Large Item Pick Up",
    "date_created": "2023-08-17T15:24:16.000",
    "date_modified": "2023-08-17T15:24:17.000",
    "request_status": "Pending",
    "responsible_agency": "Department of Sanitation",
    "final_address": "5210 Chamberlain Dr",
    "address_councildis": "D",
    "status": "Assigned to Contractor",
    "contractor": "IV Waste",
    "rowid": "1027322",
    "final_x": "3679456.95759",
    "final_y": "551429.954837",
    "longitude": "-90.07383046542655",
    "latitude": "30.010302997265022",
    "geocoded_column": {
      "latitude": "30.010302997265022",
      "longitude": "-90.07383046542655"
    }
  },
  {
    "service_request": "2023-1027321",
    "request_type": "Trash/Recycling",
    "request_reason": "MIssed Recycling Pick-Up",
    "date_created": "2023-08-17T15:21:09.000",
    "date_modified": "2023-08-17T15:21:10.000",
    "request_status": "Pending",
    "responsible_agency": "Department of Sanitation",
    "final_address": "4457 Lonely Oak Dr",
    "address_councildis": "E",
    "status": "Assigned to Contractor",
    "contractor": "Waste Pro",
    "rowid": "1027321",
    "final_x": "3702528.02244",
    "final_y": "552854.418839",
    "longitude": "-90.00088851160852",
    "latitude": "30.013502257615357",
    "geocoded_column": {
      "latitude": "30.013502257615357",
      "longitude": "-90.00088851160852"
    }
  },
  {
    "service_request": "2023-1027320",
    "request_type": "Trash/Recycling",
    "request_reason": "MIssed Recycling Pick-Up",
    "date_created": "2023-08-17T15:21:08.000",
    "date_modified": "2023-08-17T15:21:09.000",
    "request_status": "Pending",
    "responsible_agency": "Department of Sanitation",
    "final_address": "4457 Lonely Oak Dr",
    "address_councildis": "E",
    "status": "Assigned to Contractor",
    "contractor": "Waste Pro",
    "rowid": "1027320",
    "final_x": "3702528.02244",
    "final_y": "552854.418839",
    "longitude": "-90.00088851160852",
    "latitude": "30.013502257615357",
    "geocoded_column": {
      "latitude": "30.013502257615357",
      "longitude": "-90.00088851160852"
    }
  },
  {
    "service_request": "2023-1027319",
    "request_type": "Trash/Recycling",
    "request_reason": "Order Recycling Cart",
    "date_created": "2023-08-17T15:18:28.000",
    "date_modified": "2023-08-17T15:18:29.000",
    "request_status": "Pending",
    "responsible_agency": "Department of Sanitation",
    "final_address": "6027 Annunciation St",
    "address_councildis": "A",
    "status": "Pending",
    "rowid": "1027319",
    "final_x": "3664024.01927",
    "final_y": "517961.106102",
    "longitude": "-90.12370540450176",
    "latitude": "29.91873207862178",
    "geocoded_column": {
      "latitude": "29.91873207862178",
      "longitude": "-90.12370540450176"
    }
  },
  {
    "service_request": "2023-1027318",
    "request_type": "Safety & Permits",
    "request_reason": "Safety & Permits Request (Cyber Incident Back Up)",
    "date_created": "2023-08-17T15:17:38.000",
    "date_modified": "2023-08-17T15:17:40.000",
    "request_status": "Pending",
    "responsible_agency": "Safety and Permits",
    "final_address": "2131 Canal St",
    "address_councildis": "B",
    "status": "Pending",
    "rowid": "1027318",
    "final_x": "3677134.82427",
    "final_y": "533888.556549",
    "longitude": "-90.08177229211942",
    "latitude": "29.962140230974867",
    "geocoded_column": {
      "latitude": "29.962140230974867",
      "longitude": "-90.08177229211942"
    }
  },
  {
    "service_request": "2023-1027317",
    "request_type": "Parks & Parkways",
    "request_reason": "Request Tree Service (Right of Way/Public Property)",
    "date_created": "2023-08-17T15:16:54.000",
    "date_modified": "2023-08-17T15:16:54.000",
    "request_status": "Pending",
    "responsible_agency": "Department of Parks & Parkway",
    "final_address": "MARSHALL FOCH ST & HARRISON AVE",
    "address_councildis": "A",
    "status": "Pending",
    "rowid": "1027317",
    "final_x": "3669997.6",
    "final_y": "549108.58",
    "longitude": "-90.10379490470092",
    "latitude": "30.004202537518502",
    "geocoded_column": {
      "latitude": "30.004202537518502",
      "longitude": "-90.10379490470092"
    }
  },
  {
    "service_request": "2023-1027316",
    "request_type": "Abandoned Vehicles",
    "request_reason": "Abandoned/Junk Vehicles",
    "date_created": "2023-08-17T15:11:43.000",
    "date_modified": "2023-08-17T15:11:43.000",
    "request_status": "Pending",
    "responsible_agency": "Department of Public Works",
    "final_address": "4840 Chestnut St",
    "address_councildis": "B",
    "status": "Pending",
    "rowid": "1027316",
    "final_x": "3669131.30484",
    "final_y": "519304.830199",
    "longitude": "-90.10753895217753",
    "latitude": "29.922277655627475",
    "geocoded_column": {
      "latitude": "29.922277655627475",
      "longitude": "-90.10753895217753"
    }
  },
  {
    "service_request": "2023-1027315",
    "request_type": "Roads/Drainage",
    "request_reason": "Pothole",
    "date_created": "2023-08-17T15:07:47.000",
    "date_modified": "2023-08-17T15:07:47.000",
    "request_status": "Pending",
    "responsible_agency": "Department of Public Works",
    "final_address": "1304 Esplanade Ave",
    "address_councildis": "C",
    "status": "Pending",
    "rowid": "1027315",
    "final_x": "3682076.16194",
    "final_y": "535891.643015",
    "longitude": "-90.06609834598694",
    "latitude": "29.96749870027791",
    "geocoded_column": {
      "latitude": "29.96749870027791",
      "longitude": "-90.06609834598694"
    }
  },
  {
    "service_request": "2023-1027314",
    "request_type": "Parks & Parkways",
    "request_reason": "Request Tree Service (Right of Way/Public Property)",
    "date_created": "2023-08-17T15:06:30.000",
    "date_modified": "2023-08-17T15:06:31.000",
    "request_status": "Pending",
    "responsible_agency": "Department of Parks & Parkway",
    "final_address": "3935 Magazine St",
    "address_councildis": "B",
    "status": "Pending",
    "rowid": "1027314",
    "final_x": "3672775.77288",
    "final_y": "519001.676983",
    "longitude": "-90.09604517453245",
    "latitude": "29.921336374466435",
    "geocoded_column": {
      "latitude": "29.921336374466435",
      "longitude": "-90.09604517453245"
    }
  },
  {
    "service_request": "2023-1027313",
    "request_type": "Trash/Recycling",
    "request_reason": "Replace Trash Cart",
    "date_created": "2023-08-17T15:05:21.000",
    "date_modified": "2023-08-17T15:05:22.000",
    "request_status": "Pending",
    "responsible_agency": "Department of Sanitation",
    "final_address": "3901 Third St",
    "address_councildis": "B",
    "status": "Assigned to Contractor",
    "contractor": "Richards Disposal",
    "rowid": "1027313",
    "final_x": "3672005.28807",
    "final_y": "529642.533953",
    "longitude": "-90.09811517591974",
    "latitude": "29.950618138221646",
    "geocoded_column": {
      "latitude": "29.950618138221646",
      "longitude": "-90.09811517591974"
    }
  },
  {
    "service_request": "2023-1027312",
    "request_type": "Trash/Recycling",
    "request_reason": "Replace Trash Cart",
    "date_created": "2023-08-17T15:02:46.000",
    "date_modified": "2023-08-17T15:02:46.000",
    "request_status": "Pending",
    "responsible_agency": "Department of Sanitation",
    "final_address": "4042 DHemecourt St",
    "address_councildis": "A",
    "status": "Assigned to Contractor",
    "contractor": "Richards Disposal",
    "rowid": "1027312",
    "final_x": "3669908.49722",
    "final_y": "536711.580487",
    "longitude": "-90.10449640940008",
    "latitude": "29.97011765872118",
    "geocoded_column": {
      "latitude": "29.97011765872118",
      "longitude": "-90.10449640940008"
    }
  },
  {
    "service_request": "2023-1027311",
    "request_type": "Traffic Signals/Signs/Striping/Streetlights",
    "request_reason": "Street Light Outage/Malfunction",
    "date_created": "2023-08-17T14:59:32.000",
    "date_modified": "2023-08-17T14:59:33.000",
    "request_status": "Pending",
    "responsible_agency": "Department of Public Works",
    "final_address": "14621 Sai Gon Dr",
    "address_councildis": "E",
    "status": "Assigned to Contractor",
    "contractor": "Legacy Professional Services",
    "rowid": "1027311",
    "final_x": "3731109.02138",
    "final_y": "563616.196449",
    "longitude": "-89.91016672067411",
    "latitude": "30.04214788251144",
    "geocoded_column": {
      "latitude": "30.04214788251144",
      "longitude": "-89.91016672067411"
    }
  },
  {
    "service_request": "2023-1027310",
    "request_type": "Trash/Recycling",
    "request_reason": "Order Trash Cart",
    "date_created": "2023-08-17T14:59:30.000",
    "date_modified": "2023-08-17T14:59:31.000",
    "request_status": "Pending",
    "responsible_agency": "Department of Sanitation",
    "final_address": "732 Governor Nicholls St",
    "address_councildis": "C",
    "status": "Assigned to Contractor",
    "contractor": "Empire Services",
    "rowid": "1027310",
    "final_x": "3683436.65519",
    "final_y": "534044.250565",
    "longitude": "-90.0618666242673",
    "latitude": "29.96237756492884",
    "geocoded_column": {
      "latitude": "29.96237756492884",
      "longitude": "-90.0618666242673"
    }
  },
  {
    "service_request": "2023-1027309",
    "request_type": "Traffic Signals/Signs/Striping/Streetlights",
    "request_reason": "Street Light Outage/Malfunction",
    "date_created": "2023-08-17T14:58:50.000",
    "date_modified": "2023-08-17T14:58:51.000",
    "request_status": "Pending",
    "responsible_agency": "Department of Public Works",
    "final_address": "3726 Herald St",
    "address_councildis": "C",
    "status": "Assigned to Contractor",
    "contractor": "Legacy Professional Services",
    "rowid": "1027309",
    "final_x": "3702243.62826",
    "final_y": "517277.080629",
    "longitude": "-90.00309199189272",
    "latitude": "29.915686502308155",
    "geocoded_column": {
      "latitude": "29.915686502308155",
      "longitude": "-90.00309199189272"
    }
  },
  {
    "service_request": "2023-1027308",
    "request_type": "Property Maintenance",
    "request_reason": "Property Maintenance",
    "date_created": "2023-08-17T14:53:34.000",
    "date_modified": "2023-08-17T14:53:34.000",
    "request_status": "Pending",
    "responsible_agency": "Department of Code Enforcement",
    "final_address": "514 S Salcedo St",
    "address_councildis": "B",
    "status": "Pending",
    "rowid": "1027308",
    "final_x": "3673080.29096",
    "final_y": "534620.464198",
    "longitude": "-90.09455093703228",
    "latitude": "29.96427388101359",
    "geocoded_column": {
      "latitude": "29.96427388101359",
      "longitude": "-90.09455093703228"
    }
  },
  {
    "service_request": "2023-1027307",
    "request_type": "Health Related Request",
    "request_reason": "Noise Ordinance Complaint",
    "date_created": "2023-08-17T14:52:48.000",
    "date_modified": "2023-08-17T14:52:48.000",
    "request_status": "Pending",
    "responsible_agency": "Health Department",
    "final_address": "118 City Park Ave",
    "address_councildis": "A",
    "status": "Pending",
    "rowid": "1027307",
    "final_x": "3667651.43245",
    "final_y": "540854.232907",
    "longitude": "-90.1114849682831",
    "latitude": "29.98157492613766",
    "geocoded_column": {
      "latitude": "29.98157492613766",
      "longitude": "-90.1114849682831"
    }
  },
  {
    "service_request": "2023-1027306",
    "request_type": "Trash/Recycling",
    "request_reason": "Request a Large Item Pick Up",
    "date_created": "2023-08-17T14:52:47.000",
    "date_modified": "2023-08-17T14:52:47.000",
    "request_status": "Pending",
    "responsible_agency": "Department of Sanitation",
    "final_address": "5234 N Claiborne Ave",
    "address_councildis": "E",
    "status": "Assigned to Contractor",
    "contractor": "Waste Pro",
    "rowid": "1027306",
    "final_x": "3697198.82416",
    "final_y": "535734.067591",
    "longitude": "-90.01834665558098",
    "latitude": "29.96659688390255",
    "geocoded_column": {
      "latitude": "29.96659688390255",
      "longitude": "-90.01834665558098"
    }
  },
  {
    "service_request": "2023-1027305",
    "request_type": "Trash/Recycling",
    "request_reason": "Order Trash Cart",
    "date_created": "2023-08-17T14:46:58.000",
    "date_modified": "2023-08-17T14:46:58.000",
    "request_status": "Pending",
    "responsible_agency": "Department of Sanitation",
    "final_address": "2421 Gladiolus St",
    "address_councildis": "D",
    "status": "Assigned to Contractor",
    "contractor": "IV Waste",
    "rowid": "1027305",
    "final_x": "3685802.0655",
    "final_y": "547451.283857",
    "longitude": "-90.05392428377849",
    "latitude": "29.999169794371166",
    "geocoded_column": {
      "latitude": "29.999169794371166",
      "longitude": "-90.05392428377849"
    }
  },
  {
    "service_request": "2023-1027304",
    "request_type": "Abandoned Vehicles",
    "request_reason": "Abandoned/Junk Vehicles",
    "date_created": "2023-08-17T14:45:02.000",
    "date_modified": "2023-08-17T14:45:02.000",
    "request_status": "Pending",
    "responsible_agency": "Department of Public Works",
    "final_address": "1623 Bodenger Blvd",
    "address_councildis": "C",
    "status": "Pending",
    "rowid": "1027304",
    "final_x": "3688416.21955",
    "final_y": "525597.641853",
    "longitude": "-90.04644147853342",
    "latitude": "29.938999416707464",
    "geocoded_column": {
      "latitude": "29.938999416707464",
      "longitude": "-90.04644147853342"
    }
  },
  {
    "service_request": "2023-1027303",
    "request_type": "Abandoned Vehicles",
    "request_reason": "Abandoned/Junk Vehicles",
    "date_created": "2023-08-17T14:40:49.000",
    "date_modified": "2023-08-17T14:40:49.000",
    "request_status": "Pending",
    "responsible_agency": "Department of Public Works",
    "final_address": "1605 Bodenger Blvd",
    "address_councildis": "C",
    "status": "Pending",
    "rowid": "1027303",
    "final_x": "3688423.83395",
    "final_y": "525784.497213",
    "longitude": "-90.04641081345707",
    "latitude": "29.939512970492878",
    "geocoded_column": {
      "latitude": "29.939512970492878",
      "longitude": "-90.04641081345707"
    }
  },
  {
    "service_request": "2023-1027301",
    "request_type": "Traffic Signals/Signs/Striping/Streetlights",
    "request_reason": "Additional signage",
    "date_created": "2023-08-17T14:40:36.000",
    "date_modified": "2023-08-17T14:40:36.000",
    "request_status": "Pending",
    "responsible_agency": "Department of Public Works",
    "final_address": "2100 BLK Perdido St",
    "address_councildis": "B",
    "status": "Pending",
    "rowid": "1027301",
    "final_x": "3675731.04384",
    "final_y": "531903.401532",
    "longitude": "-90.08627345093589",
    "latitude": "29.95672380719913",
    "geocoded_column": {
      "latitude": "29.95672380719913",
      "longitude": "-90.08627345093589"
    }
  },
  {
    "service_request": "2023-1027300",
    "request_type": "Abandoned Vehicles",
    "request_reason": "Abandoned/Junk Vehicles",
    "date_created": "2023-08-17T14:40:26.000",
    "date_modified": "2023-08-17T14:40:26.000",
    "request_status": "Pending",
    "responsible_agency": "Department of Public Works",
    "final_address": "1008 Touro St",
    "address_councildis": "C",
    "status": "Pending",
    "rowid": "1027300",
    "final_x": "3684227.30786",
    "final_y": "535969.755079",
    "longitude": "-90.059302252339",
    "latitude": "29.967647890472414",
    "geocoded_column": {
      "latitude": "29.967647890472414",
      "longitude": "-90.059302252339"
    }
  },
  {
    "service_request": "2023-1027299",
    "request_type": "Trash/Recycling",
    "request_reason": "Request a Large Item Pick Up",
    "date_created": "2023-08-17T14:36:38.000",
    "date_modified": "2023-08-17T14:36:39.000",
    "request_status": "Pending",
    "responsible_agency": "Department of Sanitation",
    "final_address": "818 Hagan St",
    "address_councildis": "A",
    "status": "Assigned to Contractor",
    "contractor": "Richards Disposal",
    "rowid": "1027299",
    "final_x": "3675021.88481",
    "final_y": "538881.724105",
    "longitude": "-90.0882733164016",
    "latitude": "29.975933039098337",
    "geocoded_column": {
      "latitude": "29.975933039098337",
      "longitude": "-90.0882733164016"
    }
  },
  {
    "service_request": "2023-1027298",
    "request_type": "Roads/Drainage",
    "request_reason": "Debris in Roadway",
    "date_created": "2023-08-17T14:35:10.000",
    "date_modified": "2023-08-17T14:35:10.000",
    "request_status": "Pending",
    "responsible_agency": "Department of Public Works",
    "final_address": "7501 Hickman St",
    "address_councildis": "E",
    "status": "Pending",
    "rowid": "1027298",
    "final_x": "3706420.44407",
    "final_y": "562972.875488",
    "longitude": "-89.9882153149863",
    "latitude": "30.041199032522098",
    "geocoded_column": {
      "latitude": "30.041199032522098",
      "longitude": "-89.9882153149863"
    }
  },
  {
    "service_request": "2023-1027297",
    "request_type": "Trash/Recycling",
    "request_reason": "Order Recycling Cart",
    "date_created": "2023-08-17T14:35:09.000",
    "date_modified": "2023-08-17T14:35:09.000",
    "request_status": "Pending",
    "responsible_agency": "Department of Sanitation",
    "final_address": "8000 BLK Saint Charles Ave",
    "address_councildis": "A",
    "status": "Pending",
    "rowid": "1027297",
    "final_x": "3660790.33849",
    "final_y": "526662.256503",
    "longitude": "-90.13362493697552",
    "latitude": "29.942750988327564",
    "geocoded_column": {
      "latitude": "29.942750988327564",
      "longitude": "-90.13362493697552"
    }
  },
  {
    "service_request": "2023-1027296",
    "request_type": "Roads/Drainage",
    "request_reason": "Catch Basin - Broken/Damage",
    "date_created": "2023-08-17T14:32:22.000",
    "date_modified": "2023-08-17T14:35:55.000",
    "request_status": "Pending",
    "responsible_agency": "Department of Public Works",
    "final_address": "New Orleans,LA",
    "address_councildis": "A",
    "rowid": "1027296",
    "final_x": "3667746.96461",
    "final_y": "553702.844375",
    "longitude": "-90.11075023311062",
    "latitude": "30.016901368712773",
    "geocoded_column": {
      "latitude": "30.016901368712773",
      "longitude": "-90.11075023311062"
    }
  },
  {
    "service_request": "2023-1027295",
    "request_type": "Traffic Signals/Signs/Striping/Streetlights",
    "request_reason": "Street Light Knocked Down/Leaning",
    "date_created": "2023-08-17T14:28:25.000",
    "date_modified": "2023-08-17T14:28:25.000",
    "request_status": "Pending",
    "responsible_agency": "Department of Public Works",
    "final_address": "600 BLK S Maestri Pl",
    "address_councildis": "B",
    "status": "Pending",
    "contractor": "Legacy Professional Services",
    "rowid": "1027295",
    "final_x": "3680768.05969",
    "final_y": "528690.668128",
    "longitude": "-90.07047998788093",
    "latitude": "29.947738176786",
    "geocoded_column": {
      "latitude": "29.947738176786",
      "longitude": "-90.07047998788093"
    }
  },
  {
    "service_request": "2023-1027294",
    "request_type": "Trash/Recycling",
    "request_reason": "Order Trash Cart",
    "date_created": "2023-08-17T14:25:51.000",
    "date_modified": "2023-08-17T14:25:52.000",
    "request_status": "Pending",
    "responsible_agency": "Department of Sanitation",
    "final_address": "2027 St Anthony St",
    "address_councildis": "D",
    "status": "Assigned to Contractor",
    "contractor": "IV Waste",
    "rowid": "1027294",
    "final_x": "3683270.7005",
    "final_y": "539707.184074",
    "longitude": "-90.06219230237402",
    "latitude": "29.977953733505377",
    "geocoded_column": {
      "latitude": "29.977953733505377",
      "longitude": "-90.06219230237402"
    }
  },
  {
    "service_request": "2023-1027293",
    "request_type": "Traffic Signals/Signs/Striping/Streetlights",
    "request_reason": "Street Name Sign Damaged or Missing",
    "date_created": "2023-08-17T14:22:04.000",
    "date_modified": "2023-08-17T14:22:04.000",
    "request_status": "Pending",
    "responsible_agency": "Department of Public Works",
    "final_address": "600 BLK S Maestri Pl",
    "address_councildis": "B",
    "status": "Pending",
    "rowid": "1027293",
    "final_x": "3680768.05969",
    "final_y": "528690.668128",
    "longitude": "-90.07047998788093",
    "latitude": "29.947738176786",
    "geocoded_column": {
      "latitude": "29.947738176786",
      "longitude": "-90.07047998788093"
    }
  },
  {
    "service_request": "2023-1027292",
    "request_type": "Trash/Recycling",
    "request_reason": "MIssed Recycling Pick-Up",
    "date_created": "2023-08-17T14:10:35.000",
    "date_modified": "2023-08-17T14:10:36.000",
    "request_status": "Pending",
    "responsible_agency": "Department of Sanitation",
    "final_address": "4920 S Derbigny St",
    "address_councildis": "B",
    "status": "Assigned to Contractor",
    "contractor": "Richards Disposal",
    "rowid": "1027292",
    "final_x": "3669068.63239",
    "final_y": "526299.806142",
    "longitude": "-90.10750056660598",
    "latitude": "29.94151344412894",
    "geocoded_column": {
      "latitude": "29.94151344412894",
      "longitude": "-90.10750056660598"
    }
  },
  {
    "service_request": "2023-1027291",
    "request_type": "Abandoned Vehicles",
    "request_reason": "Abandoned/Junk Vehicles",
    "date_created": "2023-08-17T14:06:40.000",
    "date_modified": "2023-08-17T14:06:40.000",
    "request_status": "Pending",
    "responsible_agency": "Department of Public Works",
    "final_address": "4411 San Remo St",
    "address_councildis": "E",
    "status": "Pending",
    "rowid": "1027291",
    "final_x": "3760575.74384",
    "final_y": "574039.913322",
    "longitude": "-89.8166070305171",
    "latitude": "30.06976912781633",
    "geocoded_column": {
      "latitude": "30.06976912781633",
      "longitude": "-89.8166070305171"
    }
  },
  {
    "service_request": "2023-1027290",
    "request_type": "Trash/Recycling",
    "request_reason": "MIssed Recycling Pick-Up",
    "date_created": "2023-08-17T14:05:38.000",
    "date_modified": "2023-08-17T14:05:39.000",
    "request_status": "Pending",
    "responsible_agency": "Department of Sanitation",
    "final_address": "2221 St Andrew St",
    "address_councildis": "B",
    "status": "Assigned to Contractor",
    "contractor": "Richards Disposal",
    "rowid": "1027290",
    "final_x": "3676687.80053",
    "final_y": "526101.662718",
    "longitude": "-90.08345215295915",
    "latitude": "29.940742288413517",
    "geocoded_column": {
      "latitude": "29.940742288413517",
      "longitude": "-90.08345215295915"
    }
  },
  {
    "service_request": "2023-1027289",
    "request_type": "Trash/Recycling",
    "request_reason": "Illegal Dumping",
    "date_created": "2023-08-17T14:05:20.000",
    "date_modified": "2023-08-17T14:05:21.000",
    "request_status": "Pending",
    "responsible_agency": "Department of Sanitation",
    "final_address": "3300 BLK S Saratoga St",
    "address_councildis": "B",
    "status": "Pending",
    "rowid": "1027289",
    "final_x": "3673683.03416",
    "final_y": "523275.37909",
    "longitude": "-90.09303532298316",
    "latitude": "29.933060709811063",
    "geocoded_column": {
      "latitude": "29.933060709811063",
      "longitude": "-90.09303532298316"
    }
  },
  {
    "service_request": "2023-1027288",
    "request_type": "Parks & Parkways",
    "request_reason": "Request Tree Service (Right of Way/Public Property)",
    "date_created": "2023-08-17T13:59:49.000",
    "date_modified": "2023-08-17T13:59:50.000",
    "request_status": "Pending",
    "responsible_agency": "Department of Parks & Parkway",
    "final_address": "710 Poland Ave",
    "address_councildis": "C",
    "status": "Pending",
    "rowid": "1027288",
    "final_x": "3692608.42774",
    "final_y": "533630.574853",
    "longitude": "-90.03291841660752",
    "latitude": "29.960957072647826",
    "geocoded_column": {
      "latitude": "29.960957072647826",
      "longitude": "-90.03291841660752"
    }
  },
  {
    "service_request": "2023-1027287",
    "request_type": "Trash/Recycling",
    "request_reason": "Request a Large Item Pick Up",
    "date_created": "2023-08-17T13:57:04.000",
    "date_modified": "2023-08-17T13:57:04.000",
    "request_status": "Pending",
    "responsible_agency": "Department of Sanitation",
    "final_address": "2221 Calhoun St",
    "address_councildis": "A",
    "status": "Assigned to Contractor",
    "contractor": "Richards Disposal",
    "rowid": "1027287",
    "final_x": "3665900.00122",
    "final_y": "525225.147837",
    "longitude": "-90.11754060127387",
    "latitude": "29.93865130723436",
    "geocoded_column": {
      "latitude": "29.93865130723436",
      "longitude": "-90.11754060127387"
    }
  },
  {
    "service_request": "2023-1027286",
    "request_type": "Trash/Recycling",
    "request_reason": "Missed Trash Pick-Up",
    "date_created": "2023-08-17T13:55:38.000",
    "date_modified": "2023-08-17T13:55:38.000",
    "request_status": "Pending",
    "responsible_agency": "Department of Sanitation",
    "final_address": "1744 Tennessee St",
    "address_councildis": "E",
    "status": "Assigned to Contractor",
    "contractor": "Waste Pro",
    "rowid": "1027286",
    "final_x": "3696363.97571",
    "final_y": "536919.198344",
    "longitude": "-90.02094021931799",
    "latitude": "29.96988188838239",
    "geocoded_column": {
      "latitude": "29.96988188838239",
      "longitude": "-90.02094021931799"
    }
  },
  {
    "service_request": "2023-1027285",
    "request_type": "Trash/Recycling",
    "request_reason": "Request a Large Item Pick Up",
    "date_created": "2023-08-17T13:54:46.000",
    "date_modified": "2023-08-17T13:54:47.000",
    "request_status": "Pending",
    "responsible_agency": "Department of Sanitation",
    "final_address": "3510 Rue Denise",
    "address_councildis": "C",
    "status": "Assigned to Contractor",
    "contractor": "Richards Disposal",
    "rowid": "1027285",
    "final_x": "3704333.06474",
    "final_y": "517749.33567",
    "longitude": "-89.99647959539396",
    "latitude": "29.916918177215685",
    "geocoded_column": {
      "latitude": "29.916918177215685",
      "longitude": "-89.99647959539396"
    }
  },
  {
    "service_request": "2023-1027284",
    "request_type": "Trash/Recycling",
    "request_reason": "Missed Trash Pick-Up",
    "date_created": "2023-08-17T13:50:11.000",
    "date_modified": "2023-08-17T13:52:22.000",
    "request_status": "Pending",
    "responsible_agency": "Department of Sanitation",
    "final_address": "5500 Rickert Dr",
    "address_councildis": "E",
    "status": "Assigned to Contractor",
    "contractor": "Waste Pro",
    "rowid": "1027284",
    "final_x": "3703225.9763",
    "final_y": "556136.312282",
    "longitude": "-89.99856257220046",
    "latitude": "30.02250387140223",
    "geocoded_column": {
      "latitude": "30.02250387140223",
      "longitude": "-89.99856257220046"
    }
  },
  {
    "service_request": "2023-1027283",
    "request_type": "Roads/Drainage",
    "request_reason": "Street Subsidence (Sinking)",
    "date_created": "2023-08-17T13:49:44.000",
    "date_modified": "2023-08-17T13:49:44.000",
    "request_status": "Pending",
    "responsible_agency": "Department of Public Works",
    "final_address": "0 BLK English Turn Pkwy",
    "address_councildis": "C",
    "status": "Pending",
    "rowid": "1027283",
    "final_x": "3714478.8315",
    "final_y": "516189.451005",
    "longitude": "-89.96451447055301",
    "latitude": "29.912299665809115",
    "geocoded_column": {
      "latitude": "29.912299665809115",
      "longitude": "-89.96451447055301"
    }
  },
  {
    "service_request": "2023-1027282",
    "request_type": "Trash/Recycling",
    "request_reason": "Return Recycling Cart",
    "date_created": "2023-08-17T13:48:48.000",
    "date_modified": "2023-08-17T13:48:49.000",
    "request_status": "Pending",
    "responsible_agency": "Department of Sanitation",
    "final_address": "5500 Rickert Dr",
    "address_councildis": "E",
    "status": "Pending",
    "rowid": "1027282",
    "final_x": "3703225.9763",
    "final_y": "556136.312282",
    "longitude": "-89.99856257220046",
    "latitude": "30.02250387140223",
    "geocoded_column": {
      "latitude": "30.02250387140223",
      "longitude": "-89.99856257220046"
    }
  },
  {
    "service_request": "2023-1027281",
    "request_type": "Trash/Recycling",
    "request_reason": "Request a Large Item Pick Up",
    "date_created": "2023-08-17T13:48:24.000",
    "date_modified": "2023-08-17T13:48:25.000",
    "request_status": "Pending",
    "responsible_agency": "Department of Sanitation",
    "final_address": "1907 Calhoun St",
    "address_councildis": "A",
    "status": "Assigned to Contractor",
    "contractor": "Richards Disposal",
    "rowid": "1027281",
    "final_x": "3665433.04372",
    "final_y": "524153.538364",
    "longitude": "-90.11905069482994",
    "latitude": "29.935718338466433",
    "geocoded_column": {
      "latitude": "29.935718338466433",
      "longitude": "-90.11905069482994"
    }
  },
  {
    "service_request": "2023-1027279",
    "request_type": "Abandoned Vehicles",
    "request_reason": "Abandoned/Junk Vehicles",
    "date_created": "2023-08-17T13:43:12.000",
    "date_modified": "2023-08-17T13:43:13.000",
    "request_status": "Pending",
    "responsible_agency": "Department of Public Works",
    "final_address": "1815 N Claiborne Ave",
    "address_councildis": "D",
    "status": "Pending",
    "rowid": "1027279",
    "final_x": "3683494.15836",
    "final_y": "538068.962057",
    "longitude": "-90.06154397304641",
    "latitude": "29.973442376050418",
    "geocoded_column": {
      "latitude": "29.973442376050418",
      "longitude": "-90.06154397304641"
    }
  },
  {
    "service_request": "2023-1027278",
    "request_type": "Abandoned Vehicles",
    "request_reason": "Abandoned/Junk Vehicles",
    "date_created": "2023-08-17T13:42:28.000",
    "date_modified": "2023-08-17T13:42:28.000",
    "request_status": "Pending",
    "responsible_agency": "Department of Public Works",
    "final_address": "2205 Dumaine St A",
    "address_councildis": "D",
    "status": "Pending",
    "rowid": "1027278",
    "final_x": "3678769.09723",
    "final_y": "536340.507847",
    "longitude": "-90.0765265749759",
    "latitude": "29.968833077497088",
    "geocoded_column": {
      "latitude": "29.968833077497088",
      "longitude": "-90.0765265749759"
    }
  },
  {
    "service_request": "2023-1027277",
    "request_type": "Roads/Drainage",
    "request_reason": "Damaged Sidewalk",
    "date_created": "2023-08-17T13:38:43.000",
    "date_modified": "2023-08-17T13:38:44.000",
    "request_status": "Pending",
    "responsible_agency": "Department of Public Works",
    "final_address": "1100 BLK State St",
    "address_councildis": "A",
    "status": "Pending",
    "rowid": "1027277",
    "final_x": "3665068.27055",
    "final_y": "520345.842298",
    "longitude": "-90.12032954952642",
    "latitude": "29.925259002818787",
    "geocoded_column": {
      "latitude": "29.925259002818787",
      "longitude": "-90.12032954952642"
    }
  },
  {
    "service_request": "2023-1027276",
    "request_type": "Trash/Recycling",
    "request_reason": "Request a Large Item Pick Up",
    "date_created": "2023-08-17T13:37:35.000",
    "date_modified": "2023-08-17T13:37:36.000",
    "request_status": "Pending",
    "responsible_agency": "Department of Sanitation",
    "final_address": "2214 Broadway St",
    "address_councildis": "A",
    "status": "Assigned to Contractor",
    "contractor": "Richards Disposal",
    "rowid": "1027276",
    "final_x": "3666166.39572",
    "final_y": "529570.057153",
    "longitude": "-90.11655389604924",
    "latitude": "29.950590632275492",
    "geocoded_column": {
      "latitude": "29.950590632275492",
      "longitude": "-90.11655389604924"
    }
  },
  {
    "service_request": "2023-1027275",
    "request_type": "Trash/Recycling",
    "request_reason": "MIssed Recycling Pick-Up",
    "date_created": "2023-08-17T13:34:57.000",
    "date_modified": "2023-08-17T13:34:58.000",
    "request_status": "Pending",
    "responsible_agency": "Department of Sanitation",
    "final_address": "5223 S Derbigny St",
    "address_councildis": "B",
    "status": "Assigned to Contractor",
    "contractor": "Richards Disposal",
    "rowid": "1027275",
    "final_x": "3668665.11527",
    "final_y": "526314.708158",
    "longitude": "-90.10877405106785",
    "latitude": "29.94156628366126",
    "geocoded_column": {
      "latitude": "29.94156628366126",
      "longitude": "-90.10877405106785"
    }
  },
  {
    "service_request": "2023-1027274",
    "request_type": "Trash/Recycling",
    "request_reason": "Request a Large Item Pick Up",
    "date_created": "2023-08-17T13:34:45.000",
    "date_modified": "2023-08-17T17:25:38.000",
    "request_status": "Pending",
    "responsible_agency": "Department of Sanitation",
    "final_address": "4819 Eunice Dr",
    "address_councildis": "E",
    "contractor": "Waste Pro",
    "rowid": "1027274",
    "final_x": "3710549.10872",
    "final_y": "556398.249114",
    "longitude": "-89.97541363977744",
    "latitude": "30.0229875022702",
    "geocoded_column": {
      "latitude": "30.0229875022702",
      "longitude": "-89.97541363977744"
    }
  },
  {
    "service_request": "2023-1027273",
    "request_type": "Parks & Parkways",
    "request_reason": "Request Tree Service (Right of Way/Public Property)",
    "date_created": "2023-08-17T13:34:07.000",
    "date_modified": "2023-08-17T13:34:08.000",
    "request_status": "Pending",
    "responsible_agency": "Department of Parks & Parkway",
    "final_address": "4700 St Roch Ave",
    "address_councildis": "D",
    "status": "Pending",
    "rowid": "1027273",
    "final_x": "3685225.62754",
    "final_y": "550223.853652",
    "longitude": "-90.05564759677586",
    "latitude": "30.006811044374896",
    "geocoded_column": {
      "latitude": "30.006811044374896",
      "longitude": "-90.05564759677586"
    }
  },
  {
    "service_request": "2023-1027272",
    "request_type": "Trash/Recycling",
    "request_reason": "MIssed Recycling Pick-Up",
    "date_created": "2023-08-17T13:27:44.000",
    "date_modified": "2023-08-17T13:27:45.000",
    "request_status": "Pending",
    "responsible_agency": "Department of Sanitation",
    "final_address": "8721 Aberdeen Rd",
    "address_councildis": "E",
    "status": "Assigned to Contractor",
    "contractor": "Waste Pro",
    "rowid": "1027272",
    "final_x": "3704685.75185",
    "final_y": "562367.240223",
    "longitude": "-89.99371988976154",
    "latitude": "30.03958965314262",
    "geocoded_column": {
      "latitude": "30.03958965314262",
      "longitude": "-89.99371988976154"
    }
  },
  {
    "service_request": "2023-1027271",
    "request_type": "Abandoned Vehicles",
    "request_reason": "Abandoned/Junk Vehicles",
    "date_created": "2023-08-17T13:26:02.000",
    "date_modified": "2023-08-17T13:26:02.000",
    "request_status": "Pending",
    "responsible_agency": "Department of Public Works",
    "final_address": "512 Hillary St",
    "address_councildis": "A",
    "status": "Pending",
    "rowid": "1027271",
    "final_x": "3661706.82656",
    "final_y": "525473.931837",
    "longitude": "-90.13077072775927",
    "latitude": "29.939457055834303",
    "geocoded_column": {
      "latitude": "29.939457055834303",
      "longitude": "-90.13077072775927"
    }
  },
  {
    "service_request": "2023-1027270",
    "request_type": "Trash/Recycling",
    "request_reason": "Missed Trash Pick-Up",
    "date_created": "2023-08-17T13:22:03.000",
    "date_modified": "2023-08-17T13:22:03.000",
    "request_status": "Pending",
    "responsible_agency": "Department of Sanitation",
    "final_address": "918 Brooklyn Ave",
    "address_councildis": "C",
    "status": "Assigned to Contractor",
    "contractor": "Richards Disposal",
    "rowid": "1027270",
    "final_x": "3686217.34396",
    "final_y": "528103.065919",
    "longitude": "-90.05329521038117",
    "latitude": "29.945956207040368",
    "geocoded_column": {
      "latitude": "29.945956207040368",
      "longitude": "-90.05329521038117"
    }
  },
  {
    "service_request": "2023-1027269",
    "request_type": "Tax and Revenue",
    "request_reason": "Sales Tax Question",
    "date_created": "2023-08-17T13:21:30.000",
    "date_modified": "2023-08-17T13:21:31.000",
    "request_status": "Pending",
    "responsible_agency": "Bureau of Revenue",
    "status": "Pending",
    "rowid": "1027269",
    "longitude": "0.0",
    "latitude": "0.0",
    "geocoded_column": {
      "latitude": "0.0",
      "longitude": "0.0"
    }
  },
  {
    "service_request": "2023-1027268",
    "request_type": "Trash/Recycling",
    "request_reason": "Order Trash Cart",
    "date_created": "2023-08-17T13:18:58.000",
    "date_modified": "2023-08-17T13:18:59.000",
    "request_status": "Pending",
    "responsible_agency": "Department of Sanitation",
    "final_address": "3818 Buchanan St",
    "address_councildis": "D",
    "status": "Assigned to Contractor",
    "contractor": "IV Waste",
    "rowid": "1027268",
    "final_x": "3677325.78088",
    "final_y": "546227.6756",
    "longitude": "-90.08074332756414",
    "latitude": "29.99606281579835",
    "geocoded_column": {
      "latitude": "29.99606281579835",
      "longitude": "-90.08074332756414"
    }
  },
  {
    "service_request": "2023-1027267",
    "request_type": "Trash/Recycling",
    "request_reason": "Repair Trash Cart",
    "date_created": "2023-08-17T13:17:19.000",
    "date_modified": "2023-08-17T13:17:19.000",
    "request_status": "Pending",
    "responsible_agency": "Department of Sanitation",
    "final_address": "3106 Annunciation St",
    "address_councildis": "B",
    "status": "Assigned to Contractor",
    "contractor": "Richards Disposal",
    "rowid": "1027267",
    "final_x": "3676677.55387",
    "final_y": "519207.683895",
    "longitude": "-90.08372186989459",
    "latitude": "29.921786401728532",
    "geocoded_column": {
      "latitude": "29.921786401728532",
      "longitude": "-90.08372186989459"
    }
  },
  {
    "service_request": "2023-1027266",
    "request_type": "Trash/Recycling",
    "request_reason": "Replace Trash Cart",
    "date_created": "2023-08-17T13:16:17.000",
    "date_modified": "2023-08-17T13:16:18.000",
    "request_status": "Pending",
    "responsible_agency": "Department of Sanitation",
    "final_address": "7720 Shubrick Ave",
    "address_councildis": "E",
    "status": "Assigned to Contractor",
    "contractor": "Waste Pro",
    "rowid": "1027266",
    "final_x": "3706577.50455",
    "final_y": "563935.670881",
    "longitude": "-89.98768321895258",
    "latitude": "30.043841266777484",
    "geocoded_column": {
      "latitude": "30.043841266777484",
      "longitude": "-89.98768321895258"
    }
  },
  {
    "service_request": "2023-1027265",
    "request_type": "Traffic Signals/Signs/Striping/Streetlights",
    "request_reason": "Street Light Outage/Malfunction",
    "date_created": "2023-08-17T13:14:37.000",
    "date_modified": "2023-08-17T13:14:39.000",
    "request_status": "Pending",
    "responsible_agency": "Department of Public Works",
    "final_address": "4323 Chestnut St",
    "address_councildis": "B",
    "status": "Assigned to Contractor",
    "contractor": "Legacy Professional Services",
    "rowid": "1027265",
    "final_x": "3671187.35508",
    "final_y": "519581.33292",
    "longitude": "-90.10103944403296",
    "latitude": "29.922977310352888",
    "geocoded_column": {
      "latitude": "29.922977310352888",
      "longitude": "-90.10103944403296"
    }
  },
  {
    "service_request": "2023-1027264",
    "request_type": "Trash/Recycling",
    "request_reason": "Request a Large Item Pick Up",
    "date_created": "2023-08-17T13:09:01.000",
    "date_modified": "2023-08-17T13:09:01.000",
    "request_status": "Pending",
    "responsible_agency": "Department of Sanitation",
    "final_address": "44 E Blue Ridge Ct",
    "address_councildis": "E",
    "status": "Assigned to Contractor",
    "contractor": "Waste Pro",
    "rowid": "1027264",
    "final_x": "3714301.4188",
    "final_y": "567489.161188",
    "longitude": "-89.96313824530559",
    "latitude": "30.053360244530438",
    "geocoded_column": {
      "latitude": "30.053360244530438",
      "longitude": "-89.96313824530559"
    }
  },
  {
    "service_request": "2023-1027263",
    "request_type": "Property Maintenance",
    "request_reason": "Property Maintenance",
    "date_created": "2023-08-17T13:08:43.000",
    "date_modified": "2023-08-17T13:11:20.000",
    "request_status": "Pending",
    "responsible_agency": "Department of Code Enforcement",
    "final_address": "3127 Martin Luther King, Jr. Blvd",
    "address_councildis": "B",
    "rowid": "1027263",
    "final_x": "3674610.52782",
    "final_y": "528548.446272",
    "longitude": "-90.08992664475367",
    "latitude": "29.947532278911957",
    "geocoded_column": {
      "latitude": "29.947532278911957",
      "longitude": "-90.08992664475367"
    }
  },