[
  {
    "service_request": "2026-1276940",
    "request_type": "Trash/Recycling",
    "request_reason": "Illegal Dumping",
    "date_created": "2026-04-27T23:28:31.000",
    "date_modified": "2026-04-27T23:28:33.000",
    "request_status": "Pending",
    "responsible_agency": "Department of Sanitation",
    "final_address": "9700 BLK Grant St",
    "address_councildis": "E",
    "status": "Pending",
    "rowid": "1276940",
    "final_x": "3711398.93773",
    "final_y": "555051.224003",
    "longitude": "-89.97277893547017",
    "latitude": "30.01925599185213",
    "geocoded_column": {
      "latitude": "30.01925599185213",
      "longitude": "-89.97277893547017"
    }
  },
  {
    "service_request": "2026-1276939",
    "request_type": "Trash/Recycling",
    "request_reason": "Order Trash Cart",
    "date_created": "2026-04-27T22:13:18.000",
    "date_modified": "2026-04-27T22:13:19.000",
    "request_status": "Pending",
    "responsible_agency": "Department of Sanitation",
    "final_address": "2645 Myrtle St",
    "address_councildis": "D",
    "status": "Assigned to Contractor",
    "contractor": "IV Waste",
    "rowid": "1276939",
    "final_x": "3687538.08732",
    "final_y": "546135.771024",
    "longitude": "-90.04848676468545",
    "latitude": "29.99549919594328",
    "geocoded_column": {
      "latitude": "29.99549919594328",
      "longitude": "-90.04848676468545"
    }
  },
  {
    "service_request": "2026-1276938",
    "request_type": "Property Maintenance",
    "request_reason": "Property Maintenance",
    "date_created": "2026-04-27T22:11:22.000",
    "date_modified": "2026-04-27T22:11:24.000",
    "request_status": "Pending",
    "responsible_agency": "Department of Code Enforcement",
    "final_address": "ROYAL ST & ANDRY ST",
    "address_councildis": "E",
    "status": "Pending",
    "rowid": "1276938",
    "final_x": "3696754.5",
    "final_y": "532484.98",
    "longitude": "-90.01986743570971",
    "latitude": "29.957677058742345",
    "geocoded_column": {
      "latitude": "29.957677058742345",
      "longitude": "-90.01986743570971"
    }
  },
  {
    "service_request": "2026-1276937",
    "request_type": "Trash/Recycling",
    "request_reason": "Request a Large Item Pick Up",
    "date_created": "2026-04-27T22:08:42.000",
    "date_modified": "2026-04-27T22:08:44.000",
    "request_status": "Pending",
    "responsible_agency": "Department of Sanitation",
    "final_address": "306 S Clark St",
    "address_councildis": "B",
    "status": "Assigned to Contractor",
    "contractor": "IV Waste",
    "rowid": "1276937",
    "final_x": "3672364.3931",
    "final_y": "536276.611527",
    "longitude": "-90.09675524680925",
    "latitude": "29.968848992027976",
    "geocoded_column": {
      "latitude": "29.968848992027976",
      "longitude": "-90.09675524680925"
    }
  },
  {
    "service_request": "2026-1276936",
    "request_type": "Health Related Request",
    "request_reason": "Noise Ordinance Complaint",
    "date_created": "2026-04-27T21:45:17.000",
    "date_modified": "2026-04-27T21:45:18.000",
    "request_status": "Pending",
    "responsible_agency": "Health Department",
    "final_address": "800 Bourbon St, New Orleans, Louisiana, 70116",
    "address_councildis": "C",
    "status": "Pending",
    "rowid": "1276936",
    "final_x": "3682553.51528",
    "final_y": "533013.631428",
    "longitude": "-90.06469148499534",
    "latitude": "29.95957063099051",
    "geocoded_column": {
      "latitude": "29.95957063099051",
      "longitude": "-90.06469148499534"
    }
  },
  {
    "service_request": "2026-1276935",
    "request_type": "Trash/Recycling",
    "request_reason": "Repair Trash Cart",
    "date_created": "2026-04-27T21:33:29.000",
    "date_modified": "2026-04-27T21:33:31.000",
    "request_status": "Pending",
    "responsible_agency": "Department of Sanitation",
    "final_address": "1713 W Homestead Dr",
    "address_councildis": "C",
    "status": "Assigned to Contractor",
    "contractor": "Richards Disposal",
    "rowid": "1276935",
    "final_x": "3696876.68407",
    "final_y": "525625.516221",
    "longitude": "-90.01972993029595",
    "latitude": "29.93881207868516",
    "geocoded_column": {
      "latitude": "29.93881207868516",
      "longitude": "-90.01972993029595"
    }
  },
  {
    "service_request": "2026-1276934",
    "request_type": "Trash/Recycling",
    "request_reason": "Request a Large Item Pick Up",
    "date_created": "2026-04-27T21:29:29.000",
    "date_modified": "2026-04-27T21:29:31.000",
    "request_status": "Pending",
    "responsible_agency": "Department of Sanitation",
    "final_address": "10130 Brookfield Dr",
    "address_councildis": "E",
    "status": "Assigned to Contractor",
    "contractor": "Waste Pro",
    "rowid": "1276934",
    "final_x": "3710048.50904",
    "final_y": "562830.161568",
    "longitude": "-89.97675479641984",
    "latitude": "30.040689019917604",
    "geocoded_column": {
      "latitude": "30.040689019917604",
      "longitude": "-89.97675479641984"
    }
  },
  {
    "service_request": "2026-1276933",
    "request_type": "Trash/Recycling",
    "request_reason": "Replace Trash Cart",
    "date_created": "2026-04-27T20:59:34.000",
    "date_modified": "2026-04-27T20:59:35.000",
    "request_status": "Pending",
    "responsible_agency": "Department of Sanitation",
    "final_address": "3701 Red Cypress Dr",
    "address_councildis": "C",
    "status": "Assigned to Contractor",
    "contractor": "Richards Disposal",
    "rowid": "1276933",
    "final_x": "3703085.26007",
    "final_y": "512177.390641",
    "longitude": "-90.00062271746364",
    "latitude": "29.901637198536832",
    "geocoded_column": {
      "latitude": "29.901637198536832",
      "longitude": "-90.00062271746364"
    }
  },
  {
    "service_request": "2026-1276932",
    "request_type": "Abandoned Vehicles",
    "request_reason": "Abandoned/Junk Vehicles",
    "date_created": "2026-04-27T20:56:12.000",
    "date_modified": "2026-04-27T20:56:14.000",
    "request_status": "Pending",
    "responsible_agency": "Department of Public Works",
    "final_address": "1415 Melpomene St",
    "address_councildis": "B",
    "status": "Pending",
    "rowid": "1276932",
    "final_x": "3679901.72795",
    "final_y": "525135.900349",
    "longitude": "-90.07333875809904",
    "latitude": "29.93798997447264",
    "geocoded_column": {
      "latitude": "29.93798997447264",
      "longitude": "-90.07333875809904"
    }
  },
  {
    "service_request": "2026-1276931",
    "request_type": "Trash/Recycling",
    "request_reason": "Repair Trash Cart",
    "date_created": "2026-04-27T20:47:25.000",
    "date_modified": "2026-04-27T20:47:26.000",
    "request_status": "Pending",
    "responsible_agency": "Department of Sanitation",
    "final_address": "425 Burgundy St",
    "address_councildis": "C",
    "status": "Assigned to Contractor",
    "contractor": "IV Waste",
    "rowid": "1276931",
    "final_x": "3681127.74869",
    "final_y": "532413.001603",
    "longitude": "-90.06921464798965",
    "latitude": "29.95796243145082",
    "geocoded_column": {
      "latitude": "29.95796243145082",
      "longitude": "-90.06921464798965"
    }
  },
  {
    "service_request": "2026-1276930",
    "request_type": "Streetlights",
    "request_reason": "Streetlight Outage/Malfunction",
    "date_created": "2026-04-27T20:37:00.000",
    "date_modified": "2026-04-27T20:37:03.000",
    "request_status": "Pending",
    "responsible_agency": "Department of Public Works",
    "final_address": "834 Verret St",
    "address_councildis": "C",
    "status": "Pending",
    "rowid": "1276930",
    "final_x": "3687202.50678",
    "final_y": "528436.413248",
    "longitude": "-90.05017293966917",
    "latitude": "29.946842500726138",
    "geocoded_column": {
      "latitude": "29.946842500726138",
      "longitude": "-90.05017293966917"
    }
  },
  {
    "service_request": "2026-1276929",
    "request_type": "Trash/Recycling",
    "request_reason": "Order Recycling Cart",
    "date_created": "2026-04-27T20:22:03.000",
    "date_modified": "2026-04-27T20:22:06.000",
    "request_status": "Pending",
    "responsible_agency": "Department of Sanitation",
    "final_address": "113 Vallette St",
    "address_councildis": "C",
    "status": "Pending",
    "rowid": "1276929",
    "final_x": "3687561.00713",
    "final_y": "531324.80845",
    "longitude": "-90.04893880109601",
    "latitude": "29.954773554760987",
    "geocoded_column": {
      "latitude": "29.954773554760987",
      "longitude": "-90.04893880109601"
    }
  },
  {
    "service_request": "2026-1276928",
    "request_type": "Trash/Recycling",
    "request_reason": "Replace Trash Cart",
    "date_created": "2026-04-27T19:59:48.000",
    "date_modified": "2026-04-27T19:59:49.000",
    "request_status": "Pending",
    "responsible_agency": "Department of Sanitation",
    "final_address": "5348 Bellaire Dr",
    "address_councildis": "A",
    "status": "Assigned to Contractor",
    "contractor": "IV Waste",
    "rowid": "1276928",
    "final_x": "3663925.19731",
    "final_y": "543495.383118",
    "longitude": "-90.12316610289099",
    "latitude": "29.98894592942321",
    "geocoded_column": {
      "latitude": "29.98894592942321",
      "longitude": "-90.12316610289099"
    }
  },
  {
    "service_request": "2026-1276927",
    "request_type": "Trash/Recycling",
    "request_reason": "Order Recycling Cart",
    "date_created": "2026-04-27T19:58:00.000",
    "date_modified": "2026-04-27T19:58:02.000",
    "request_status": "Pending",
    "responsible_agency": "Department of Sanitation",
    "final_address": "5348 Bellaire Dr",
    "address_councildis": "A",
    "status": "Pending",
    "rowid": "1276927",
    "final_x": "3663925.19731",
    "final_y": "543495.383118",
    "longitude": "-90.12316610289099",
    "latitude": "29.98894592942321",
    "geocoded_column": {
      "latitude": "29.98894592942321",
      "longitude": "-90.12316610289099"
    }
  },
  {
    "service_request": "2026-1276926",
    "request_type": "Trash/Recycling",
    "request_reason": "Replace Trash Cart",
    "date_created": "2026-04-27T19:56:16.000",
    "date_modified": "2026-04-27T19:56:18.000",
    "request_status": "Pending",
    "responsible_agency": "Department of Sanitation",
    "final_address": "8427 Beechwood Ct",
    "address_councildis": "E",
    "status": "Assigned to Contractor",
    "contractor": "Waste Pro",
    "rowid": "1276926",
    "final_x": "3704221.10826",
    "final_y": "560703.054366",
    "longitude": "-89.99524970980622",
    "latitude": "30.03502872408201",
    "geocoded_column": {
      "latitude": "30.03502872408201",
      "longitude": "-89.99524970980622"
    }
  },
  {
    "service_request": "2026-1276925",
    "request_type": "Trash/Recycling",
    "request_reason": "Request a Large Item Pick Up",
    "date_created": "2026-04-27T19:49:48.000",
    "date_modified": "2026-04-27T19:49:50.000",
    "request_status": "Pending",
    "responsible_agency": "Department of Sanitation",
    "final_address": "8521 Morrison Rd",
    "address_councildis": "E",
    "status": "Assigned to Contractor",
    "contractor": "Waste Pro",
    "rowid": "1276925",
    "final_x": "3704443.51031",
    "final_y": "561369.103262",
    "longitude": "-89.99452229678239",
    "latitude": "30.036852954107587",
    "geocoded_column": {
      "latitude": "30.036852954107587",
      "longitude": "-89.99452229678239"
    }
  },
  {
    "service_request": "2026-1276924",
    "request_type": "Mosquito, Termite & Rodent Control",
    "request_reason": "Non-Rodent Complaint (Possums & Snakes)",
    "date_created": "2026-04-27T19:47:24.000",
    "date_modified": "2026-04-27T19:47:27.000",
    "request_status": "Pending",
    "responsible_agency": "Mosquito, Termite & Rodent Control Board",
    "final_address": "5810 Pratt Dr",
    "address_councildis": "D",
    "status": "Pending",
    "rowid": "1276924",
    "final_x": "3680159.51439",
    "final_y": "554006.18204",
    "longitude": "-90.07152119517099",
    "latitude": "30.01736543739235",
    "geocoded_column": {
      "latitude": "30.01736543739235",
      "longitude": "-90.07152119517099"
    }
  },
  {
    "service_request": "2026-1276923",
    "request_type": "Utility Poles",
    "request_reason": "Wires Sagging/Hanging Low",
    "date_created": "2026-04-27T19:41:02.000",
    "date_modified": "2026-04-27T19:41:03.000",
    "request_status": "Pending",
    "responsible_agency": "Utility Company Collective",
    "final_address": "1863 Pleasure St",
    "address_councildis": "D",
    "status": "Pending",
    "rowid": "1276923",
    "final_x": "3681907.24674",
    "final_y": "545037.374095",
    "longitude": "-90.06631241405516",
    "latitude": "29.992651403366015",
    "geocoded_column": {
      "latitude": "29.992651403366015",
      "longitude": "-90.06631241405516"
    }
  },
  {
    "service_request": "2026-1276922",
    "request_type": "Trash/Recycling",
    "request_reason": "Request a Large Item Pick Up",
    "date_created": "2026-04-27T19:40:24.000",
    "date_modified": "2026-04-27T19:40:26.000",
    "request_status": "Pending",
    "responsible_agency": "Department of Sanitation",
    "final_address": "814 Audubon St",
    "address_councildis": "A",
    "status": "Assigned to Contractor",
    "contractor": "IV Waste",
    "rowid": "1276922",
    "final_x": "3663696.95143",
    "final_y": "525321.049149",
    "longitude": "-90.12449270303728",
    "latitude": "29.9389790962728",
    "geocoded_column": {
      "latitude": "29.9389790962728",
      "longitude": "-90.12449270303728"
    }
  },
  {
    "service_request": "2026-1276921",
    "request_type": "Trash/Recycling",
    "request_reason": "Request a Large Item Pick Up",
    "date_created": "2026-04-27T19:38:04.000",
    "date_modified": "2026-04-27T19:38:11.000",
    "request_status": "Pending",
    "responsible_agency": "Department of Sanitation",
    "final_address": "10821 Roger Dr",
    "address_councildis": "E",
    "status": "Assigned to Contractor",
    "contractor": "Waste Pro",
    "rowid": "1276921",
    "final_x": "3711728.0076",
    "final_y": "563182.724832",
    "longitude": "-89.9714338249306",
    "latitude": "30.041603647474425",
    "geocoded_column": {
      "latitude": "30.041603647474425",
      "longitude": "-89.9714338249306"
    }
  },
  {
    "service_request": "2026-1276920",
    "request_type": "Trash/Recycling",
    "request_reason": "Request a Large Item Pick Up",
    "date_created": "2026-04-27T19:36:01.000",
    "date_modified": "2026-04-27T19:36:02.000",
    "request_status": "Pending",
    "responsible_agency": "Department of Sanitation",
    "final_address": "10731 Roger Dr",
    "address_councildis": "E",
    "status": "Assigned to Contractor",
    "contractor": "Waste Pro",
    "rowid": "1276920",
    "final_x": "3711582.77387",
    "final_y": "563095.126112",
    "longitude": "-89.97189610143394",
    "latitude": "30.041367531709113",
    "geocoded_column": {
      "latitude": "30.041367531709113",
      "longitude": "-89.97189610143394"
    }
  },
  {
    "service_request": "2026-1276919",
    "request_type": "Trash/Recycling",
    "request_reason": "Illegal Dumping",
    "date_created": "2026-04-27T19:34:27.000",
    "date_modified": "2026-04-27T20:24:40.000",
    "request_status": "Pending",
    "responsible_agency": "Department of Code Enforcement",
    "final_address": "4627 Baccich St",
    "address_councildis": "D",
    "status": "Pending",
    "rowid": "1276919",
    "final_x": "3687822.79766",
    "final_y": "549933.14562",
    "longitude": "-90.04745277794852",
    "latitude": "30.005931817810335",
    "geocoded_column": {
      "latitude": "30.005931817810335",
      "longitude": "-90.04745277794852"
    }
  },
  {
    "service_request": "2026-1276918",
    "request_type": "Trash/Recycling",
    "request_reason": "Request a Large Item Pick Up",
    "date_created": "2026-04-27T19:33:00.000",
    "date_modified": "2026-04-27T19:33:02.000",
    "request_status": "Pending",
    "responsible_agency": "Department of Sanitation",
    "final_address": "10800 Roger Dr",
    "address_councildis": "E",
    "status": "Assigned to Contractor",
    "contractor": "Waste Pro",
    "rowid": "1276918",
    "final_x": "3711652.30936",
    "final_y": "563027.48848",
    "longitude": "-89.97167888673765",
    "latitude": "30.041179283472275",
    "geocoded_column": {
      "latitude": "30.041179283472275",
      "longitude": "-89.97167888673765"
    }
  },
  {
    "service_request": "2026-1276917",
    "request_type": "Tree Service",
    "request_reason": "Tree Trim",
    "date_created": "2026-04-27T19:32:27.000",
    "date_modified": "2026-04-27T19:32:29.000",
    "request_status": "Pending",
    "responsible_agency": "Department of Parks & Parkways",
    "final_address": "643 Park Blvd",
    "address_councildis": "C",
    "status": "Pending",
    "rowid": "1276917",
    "final_x": "3687932.21622",
    "final_y": "525851.355645",
    "longitude": "-90.04796054465093",
    "latitude": "29.939711981629372",
    "geocoded_column": {
      "latitude": "29.939711981629372",
      "longitude": "-90.04796054465093"
    }
  },
  {
    "service_request": "2026-1276916",
    "request_type": "General Services",
    "request_reason": "General Service Request",
    "date_created": "2026-04-27T19:32:05.000",
    "date_modified": "2026-04-27T19:32:07.000",
    "request_status": "Pending",
    "responsible_agency": "Orleans Parish Communication District",
    "final_address": "4627 Baccich St",
    "address_councildis": "D",
    "status": "Pending",
    "rowid": "1276916",
    "final_x": "3687822.79766",
    "final_y": "549933.14562",
    "longitude": "-90.04745277794852",
    "latitude": "30.005931817810335",
    "geocoded_column": {
      "latitude": "30.005931817810335",
      "longitude": "-90.04745277794852"
    }
  },
  {
    "service_request": "2026-1276915",
    "request_type": "Trash/Recycling",
    "request_reason": "Request a Large Item Pick Up",
    "date_created": "2026-04-27T19:25:58.000",
    "date_modified": "2026-04-27T19:26:00.000",
    "request_status": "Pending",
    "responsible_agency": "Department of Sanitation",
    "final_address": "920 Aline St",
    "address_councildis": "B",
    "status": "Assigned to Contractor",
    "contractor": "IV Waste",
    "rowid": "1276915",
    "final_x": "3674596.22062",
    "final_y": "518865.304183",
    "longitude": "-90.09030348488687",
    "latitude": "29.92090721612749",
    "geocoded_column": {
      "latitude": "29.92090721612749",
      "longitude": "-90.09030348488687"
    }
  },
  {
    "service_request": "2026-1276914",
    "request_type": "Utility Poles",
    "request_reason": "Wires Sagging/Hanging Low",
    "date_created": "2026-04-27T19:22:45.000",
    "date_modified": "2026-04-27T19:22:48.000",
    "request_status": "Pending",
    "responsible_agency": "Utility Company Collective",
    "final_address": "1621 Second St",
    "address_councildis": "B",
    "status": "Pending",
    "rowid": "1276914",
    "final_x": "3676601.62702",
    "final_y": "523246.920635",
    "longitude": "-90.08382250151332",
    "latitude": "29.93289526839372",
    "geocoded_column": {
      "latitude": "29.93289526839372",
      "longitude": "-90.08382250151332"
    }
  },
  {
    "service_request": "2026-1276913",
    "request_type": "Trash/Recycling",
    "request_reason": "Request a Large Item Pick Up",
    "date_created": "2026-04-27T19:06:21.000",
    "date_modified": "2026-04-27T19:06:23.000",
    "request_status": "Pending",
    "responsible_agency": "Department of Sanitation",
    "final_address": "10 S Oak Ridge Ct",
    "address_councildis": "E",
    "status": "Assigned to Contractor",
    "contractor": "Waste Pro",
    "rowid": "1276913",
    "final_x": "3713407.32498",
    "final_y": "567597.882276",
    "longitude": "-89.965960111648",
    "latitude": "30.053688550446058",
    "geocoded_column": {
      "latitude": "30.053688550446058",
      "longitude": "-89.965960111648"
    }
  },
  {
    "service_request": "2026-1276912",
    "request_type": "Trash/Recycling",
    "request_reason": "Return Trash Cart",
    "date_created": "2026-04-27T19:05:32.000",
    "date_modified": "2026-04-27T19:05:33.000",
    "request_status": "Pending",
    "responsible_agency": "Department of Sanitation",
    "final_address": "1500 State St",
    "address_councildis": "A",
    "status": "Assigned to Contractor",
    "contractor": "IV Waste",
    "rowid": "1276912",
    "final_x": "3665484.62964",
    "final_y": "521858.67769",
    "longitude": "-90.11896461875835",
    "latitude": "29.929406696702195",
    "geocoded_column": {
      "latitude": "29.929406696702195",
      "longitude": "-90.11896461875835"
    }
  },
  {
    "service_request": "2026-1276911",
    "request_type": "Trash/Recycling",
    "request_reason": "Order Recycling Cart",
    "date_created": "2026-04-27T18:53:19.000",
    "date_modified": "2026-04-27T18:53:20.000",
    "request_status": "Pending",
    "responsible_agency": "Department of Sanitation",
    "final_address": "2800 DAbadie St Unit A",
    "address_councildis": "D",
    "status": "Pending",
    "rowid": "1276911",
    "final_x": "3678905.7284",
    "final_y": "541191.9099",
    "longitude": "-90.0759269574803",
    "latitude": "29.982168639162374",
    "geocoded_column": {
      "latitude": "29.982168639162374",
      "longitude": "-90.0759269574803"
    }
  },
  {
    "service_request": "2026-1276910",
    "request_type": "Trash/Recycling",
    "request_reason": "Request a Large Item Pick Up",
    "date_created": "2026-04-27T18:52:59.000",
    "date_modified": "2026-04-27T18:53:00.000",
    "request_status": "Pending",
    "responsible_agency": "Department of Sanitation",
    "final_address": "8517 Green St",
    "address_councildis": "A",
    "status": "Assigned to Contractor",
    "contractor": "IV Waste",
    "rowid": "1276910",
    "final_x": "3661974.67463",
    "final_y": "530789.809922",
    "longitude": "-90.1297488043274",
    "latitude": "29.954066288115676",
    "geocoded_column": {
      "latitude": "29.954066288115676",
      "longitude": "-90.1297488043274"
    }
  },
  {
    "service_request": "2026-1276909",
    "request_type": "Trash/Recycling",
    "request_reason": "Request a Large Item Pick Up",
    "date_created": "2026-04-27T18:50:39.000",
    "date_modified": "2026-04-27T18:50:42.000",
    "request_status": "Pending",
    "responsible_agency": "Department of Sanitation",
    "final_address": "5844 Louis Xiv St",
    "address_councildis": "A",
    "status": "Assigned to Contractor",
    "contractor": "IV Waste",
    "rowid": "1276909",
    "final_x": "3667930.93741",
    "final_y": "546413.305489",
    "longitude": "-90.11041476605872",
    "latitude": "29.996852280134146",
    "geocoded_column": {
      "latitude": "29.996852280134146",
      "longitude": "-90.11041476605872"
    }
  },
  {
    "service_request": "2026-1276908",
    "request_type": "Parks & Grass Service",
    "request_reason": "Request Grass Cutting Service (City Owned Property)",
    "date_created": "2026-04-27T18:44:04.000",
    "date_modified": "2026-04-27T18:44:07.000",
    "request_status": "Pending",
    "responsible_agency": "Department of Parks & Parkways",
    "final_address": "2712 Verbena St",
    "address_councildis": "D",
    "status": "Pending",
    "rowid": "1276908",
    "final_x": "3687851.9174",
    "final_y": "547781.698898",
    "longitude": "-90.04743705914153",
    "latitude": "30.00001522298953",
    "geocoded_column": {
      "latitude": "30.00001522298953",
      "longitude": "-90.04743705914153"
    }
  },
  {
    "service_request": "2026-1276907",
    "request_type": "Trash/Recycling",
    "request_reason": "Request a Large Item Pick Up",
    "date_created": "2026-04-27T18:38:38.000",
    "date_modified": "2026-04-27T18:38:40.000",
    "request_status": "Pending",
    "responsible_agency": "Department of Sanitation",
    "final_address": "5412 York St",
    "address_councildis": "B",
    "status": "Assigned to Contractor",
    "contractor": "IV Waste",
    "rowid": "1276907",
    "final_x": "3668861.31015",
    "final_y": "528597.22432",
    "longitude": "-90.10807756463196",
    "latitude": "29.94783669544483",
    "geocoded_column": {
      "latitude": "29.94783669544483",
      "longitude": "-90.10807756463196"
    }
  },
  {
    "service_request": "2026-1276906",
    "request_type": "Trash/Recycling",
    "request_reason": "Damaged Caused By Contractor",
    "date_created": "2026-04-27T18:26:53.000",
    "date_modified": "2026-04-27T18:26:56.000",
    "request_status": "Pending",
    "responsible_agency": "Department of Sanitation",
    "final_address": "7441 Benson St",
    "address_councildis": "E",
    "status": "Assigned to Contractor",
    "contractor": "Waste Pro",
    "rowid": "1276906",
    "final_x": "3704679.18833",
    "final_y": "562074.494047",
    "longitude": "-89.99375144823989",
    "latitude": "30.038784927517863",
    "geocoded_column": {
      "latitude": "30.038784927517863",
      "longitude": "-89.99375144823989"
    }
  },
  {
    "service_request": "2026-1276905",
    "request_type": "Health Related Request",
    "request_reason": "Noise Ordinance Complaint",
    "date_created": "2026-04-27T18:08:54.000",
    "date_modified": "2026-04-27T18:08:56.000",
    "request_status": "Pending",
    "responsible_agency": "Health Department",
    "final_address": "1436 Josephine St",
    "address_councildis": "B",
    "status": "Pending",
    "rowid": "1276905",
    "final_x": "3678328.17704",
    "final_y": "523342.823931",
    "longitude": "-90.07836859528354",
    "latitude": "29.93310708835733",
    "geocoded_column": {
      "latitude": "29.93310708835733",
      "longitude": "-90.07836859528354"
    }
  },
  {
    "service_request": "2026-1276904",
    "request_type": "Property Maintenance",
    "request_reason": "Property Maintenance",
    "date_created": "2026-04-27T18:05:20.000",
    "date_modified": "2026-04-27T18:05:21.000",
    "request_status": "Pending",
    "responsible_agency": "Department of Code Enforcement",
    "final_address": "1121 Kerlerec St",
    "address_councildis": "C",
    "status": "Pending",
    "rowid": "1276904",
    "final_x": "3682993.18076",
    "final_y": "535713.559879",
    "longitude": "-90.06320861968643",
    "latitude": "29.96698111497834",
    "geocoded_column": {
      "latitude": "29.96698111497834",
      "longitude": "-90.06320861968643"
    }
  },
  {
    "service_request": "2026-1276903",
    "request_type": "Roads and Streets",
    "request_reason": "Pothole",
    "date_created": "2026-04-27T18:03:43.000",
    "date_modified": "2026-04-27T18:03:44.000",
    "request_status": "Pending",
    "responsible_agency": "Department of Public Works",
    "final_address": "4600 Shalimar Dr",
    "address_councildis": "D",
    "status": "Pending",
    "rowid": "1276903",
    "final_x": "3697184.64976",
    "final_y": "553448.538007",
    "longitude": "-90.01774912557677",
    "latitude": "30.01530562940862",
    "geocoded_column": {
      "latitude": "30.01530562940862",
      "longitude": "-90.01774912557677"
    }
  },
  {
    "service_request": "2026-1276902",
    "request_type": "Trash/Recycling",
    "request_reason": "Order Trash Cart",
    "date_created": "2026-04-27T18:03:23.000",
    "date_modified": "2026-04-27T18:03:25.000",
    "request_status": "Pending",
    "responsible_agency": "Department of Sanitation",
    "final_address": "2810 Robert St",
    "address_councildis": "B",
    "status": "Assigned to Contractor",
    "contractor": "IV Waste",
    "rowid": "1276902",
    "final_x": "3668812.30817",
    "final_y": "525748.670909",
    "longitude": "-90.1083284379347",
    "latitude": "29.940005537916225",
    "geocoded_column": {
      "latitude": "29.940005537916225",
      "longitude": "-90.1083284379347"
    }
  },
  {
    "service_request": "2026-1276901",
    "request_type": "Abandoned Vehicles",
    "request_reason": "Abandoned/Junk Vehicles",
    "date_created": "2026-04-27T18:02:30.000",
    "date_modified": "2026-04-27T18:02:31.000",
    "request_status": "Pending",
    "responsible_agency": "Department of Public Works",
    "final_address": "1612 Ursulines Ave",
    "address_councildis": "C",
    "status": "Pending",
    "rowid": "1276901",
    "final_x": "3680840.75528",
    "final_y": "535603.101702",
    "longitude": "-90.07000982913375",
    "latitude": "29.966742821120697",
    "geocoded_column": {
      "latitude": "29.966742821120697",
      "longitude": "-90.07000982913375"
    }
  },
  {
    "service_request": "2026-1276900",
    "request_type": "Trash/Recycling",
    "request_reason": "Request a Large Item Pick Up",
    "date_created": "2026-04-27T18:01:26.000",
    "date_modified": "2026-04-27T18:01:28.000",
    "request_status": "Pending",
    "responsible_agency": "Department of Sanitation",
    "final_address": "203 Walker St",
    "address_councildis": "A",
    "status": "Assigned to Contractor",
    "contractor": "IV Waste",
    "rowid": "1276900",
    "final_x": "3667189.63265",
    "final_y": "554129.934616",
    "longitude": "-90.11249679909052",
    "latitude": "30.018092055464933",
    "geocoded_column": {
      "latitude": "30.018092055464933",
      "longitude": "-90.11249679909052"
    }
  },
  {
    "service_request": "2026-1276899",
    "request_type": "Tree Service",
    "request_reason": "Dead or Dying Tree",
    "date_created": "2026-04-27T17:58:24.000",
    "date_modified": "2026-04-27T17:58:25.000",
    "request_status": "Pending",
    "responsible_agency": "Department of Parks & Parkways",
    "final_address": "1477 Westbrook Dr",
    "address_councildis": "D",
    "status": "Pending",
    "rowid": "1276899",
    "final_x": "3678465.55861",
    "final_y": "549545.453523",
    "longitude": "-90.07702794561139",
    "latitude": "30.00515121949572",
    "geocoded_column": {
      "latitude": "30.00515121949572",
      "longitude": "-90.07702794561139"
    }
  },
  {
    "service_request": "2026-1276898",
    "request_type": "Property Maintenance",
    "request_reason": "Property Maintenance",
    "date_created": "2026-04-27T17:58:07.000",
    "date_modified": "2026-04-27T17:58:10.000",
    "request_status": "Pending",
    "responsible_agency": "Department of Code Enforcement",
    "final_address": "204 Rhodes Ave",
    "address_councildis": "C",
    "status": "Pending",
    "rowid": "1276898",
    "final_x": "3706272.37227",
    "final_y": "519475.386167",
    "longitude": "-89.99029452122822",
    "latitude": "29.92160186072703",
    "geocoded_column": {
      "latitude": "29.92160186072703",
      "longitude": "-89.99029452122822"
    }
  },
  {
    "service_request": "2026-1276897",
    "request_type": "Trash/Recycling",
    "request_reason": "Request a Large Item Pick Up",
    "date_created": "2026-04-27T17:56:28.000",
    "date_modified": "2026-04-27T17:56:29.000",
    "request_status": "Pending",
    "responsible_agency": "Department of Sanitation",
    "final_address": "7919 Means Ave",
    "address_councildis": "E",
    "status": "Assigned to Contractor",
    "contractor": "Waste Pro",
    "rowid": "1276897",
    "final_x": "3707621.78769",
    "final_y": "565639.86813",
    "longitude": "-89.98431944650785",
    "latitude": "30.048493365502853",
    "geocoded_column": {
      "latitude": "30.048493365502853",
      "longitude": "-89.98431944650785"
    }
  },
  {
    "service_request": "2026-1276896",
    "request_type": "Trash/Recycling",
    "request_reason": "Replace Trash Cart",
    "date_created": "2026-04-27T17:52:46.000",
    "date_modified": "2026-04-27T17:52:47.000",
    "request_status": "Pending",
    "responsible_agency": "Department of Sanitation",
    "final_address": "1014 Thalia St",
    "address_councildis": "B",
    "status": "Assigned to Contractor",
    "contractor": "IV Waste",
    "rowid": "1276896",
    "final_x": "3680769.08667",
    "final_y": "525149.815037",
    "longitude": "-90.0705999491253",
    "latitude": "29.93800198125377",
    "geocoded_column": {
      "latitude": "29.93800198125377",
      "longitude": "-90.0705999491253"
    }
  },
  {
    "service_request": "2026-1276895",
    "request_type": "General Services",
    "request_reason": "General Service Request",
    "date_created": "2026-04-27T17:52:37.000",
    "date_modified": "2026-04-27T17:52:39.000",
    "request_status": "Pending",
    "responsible_agency": "Orleans Parish Communication District",
    "final_address": "432 Red Allen Way",
    "address_councildis": "C",
    "status": "Pending",
    "rowid": "1276895",
    "final_x": "3686795.93014",
    "final_y": "528752.787392",
    "longitude": "-90.05144547290246",
    "latitude": "29.947724934922945",
    "geocoded_column": {
      "latitude": "29.947724934922945",
      "longitude": "-90.05144547290246"
    }
  },
  {
    "service_request": "2026-1276894",
    "request_type": "Trash/Recycling",
    "request_reason": "Request a Large Item Pick Up",
    "date_created": "2026-04-27T17:46:03.000",
    "date_modified": "2026-04-27T17:46:05.000",
    "request_status": "Pending",
    "responsible_agency": "Department of Sanitation",
    "final_address": "7526 Freret St",
    "address_councildis": "A",
    "status": "Assigned to Contractor",
    "contractor": "IV Waste",
    "rowid": "1276894",
    "final_x": "3662876.75085",
    "final_y": "526551.892286",
    "longitude": "-90.12704127572809",
    "latitude": "29.94238729048523",
    "geocoded_column": {
      "latitude": "29.94238729048523",
      "longitude": "-90.12704127572809"
    }
  },
  {
    "service_request": "2026-1276893",
    "request_type": "Abandoned Vehicles",
    "request_reason": "Abandoned/Junk Vehicles",
    "date_created": "2026-04-27T17:45:40.000",
    "date_modified": "2026-04-27T17:45:41.000",
    "request_status": "Pending",
    "responsible_agency": "Department of Public Works",
    "final_address": "5900 S Front St",
    "address_councildis": "A",
    "status": "Pending",
    "rowid": "1276893",
    "final_x": "3664719.50714",
    "final_y": "516953.021685",
    "longitude": "-90.12154375493147",
    "latitude": "29.915939953717547",
    "geocoded_column": {
      "latitude": "29.915939953717547",
      "longitude": "-90.12154375493147"
    }
  },
  {
    "service_request": "2026-1276892",
    "request_type": "Trash/Recycling",
    "request_reason": "Replace Trash Cart",
    "date_created": "2026-04-27T17:41:45.000",
    "date_modified": "2026-04-27T17:41:47.000",
    "request_status": "Pending",
    "responsible_agency": "Department of Sanitation",
    "final_address": "1261 Milton St",
    "address_councildis": "D",
    "status": "Assigned to Contractor",
    "contractor": "IV Waste",
    "rowid": "1276892",
    "final_x": "3677127.05493",
    "final_y": "546082.053264",
    "longitude": "-90.08137611425177",
    "latitude": "29.995668377405764",
    "geocoded_column": {
      "latitude": "29.995668377405764",
      "longitude": "-90.08137611425177"
    }
  },
  {
    "service_request": "2026-1276891",
    "request_type": "Trash/Recycling",
    "request_reason": "Replace Trash Cart",
    "date_created": "2026-04-27T17:41:44.000",
    "date_modified": "2026-04-27T17:41:47.000",
    "request_status": "Pending",
    "responsible_agency": "Department of Sanitation",
    "final_address": "1261 Milton St",
    "address_councildis": "D",
    "status": "Assigned to Contractor",
    "contractor": "IV Waste",
    "rowid": "1276891",
    "final_x": "3677127.05493",
    "final_y": "546082.053264",
    "longitude": "-90.08137611425177",
    "latitude": "29.995668377405764",
    "geocoded_column": {
      "latitude": "29.995668377405764",
      "longitude": "-90.08137611425177"
    }
  },
  {
    "service_request": "2026-1276890",
    "request_type": "Trash/Recycling",
    "request_reason": "Request a Large Item Pick Up",
    "date_created": "2026-04-27T17:30:31.000",
    "date_modified": "2026-04-27T17:30:34.000",
    "request_status": "Pending",
    "responsible_agency": "Department of Sanitation",
    "final_address": "4312 Bienville Ave",
    "address_councildis": "A",
    "status": "Assigned to Contractor",
    "contractor": "IV Waste",
    "rowid": "1276890",
    "final_x": "3670612.13147",
    "final_y": "539613.007178",
    "longitude": "-90.10217580181877",
    "latitude": "29.978074835581875",
    "geocoded_column": {
      "latitude": "29.978074835581875",
      "longitude": "-90.10217580181877"
    }
  },
  {
    "service_request": "2026-1276889",
    "request_type": "Abandoned Vehicles",
    "request_reason": "Abandoned/Junk Vehicles",
    "date_created": "2026-04-27T17:10:06.000",
    "date_modified": "2026-04-27T17:10:07.000",
    "request_status": "Pending",
    "responsible_agency": "Department of Public Works",
    "final_address": "2509 Frenchmen St",
    "address_councildis": "D",
    "status": "Pending",
    "rowid": "1276889",
    "final_x": "3684197.15567",
    "final_y": "541526.355596",
    "longitude": "-90.05920234789465",
    "latitude": "29.982927523857484",
    "geocoded_column": {
      "latitude": "29.982927523857484",
      "longitude": "-90.05920234789465"
    }
  },
  {
    "service_request": "2026-1276888",
    "request_type": "Trash/Recycling",
    "request_reason": "Order Trash Cart",
    "date_created": "2026-04-27T17:09:00.000",
    "date_modified": "2026-04-27T17:09:02.000",
    "request_status": "Pending",
    "responsible_agency": "Department of Sanitation",
    "final_address": "1921 Benton St",
    "address_councildis": "E",
    "status": "Assigned to Contractor",
    "contractor": "Waste Pro",
    "rowid": "1276888",
    "final_x": "3700076.3208",
    "final_y": "536584.413703",
    "longitude": "-90.00922857386766",
    "latitude": "29.96884391523911",
    "geocoded_column": {
      "latitude": "29.96884391523911",
      "longitude": "-90.00922857386766"
    }
  },
  {
    "service_request": "2026-1276887",
    "request_type": "Abandoned Vehicles",
    "request_reason": "Abandoned/Junk Vehicles",
    "date_created": "2026-04-27T17:06:24.000",
    "date_modified": "2026-04-27T17:06:27.000",
    "request_status": "Pending",
    "responsible_agency": "Department of Public Works",
    "final_address": "2509 Frenchmen St",
    "address_councildis": "D",
    "status": "Pending",
    "rowid": "1276887",
    "final_x": "3684197.15567",
    "final_y": "541526.355596",
    "longitude": "-90.05920234789465",
    "latitude": "29.982927523857484",
    "geocoded_column": {
      "latitude": "29.982927523857484",
      "longitude": "-90.05920234789465"
    }
  },
  {
    "service_request": "2026-1276886",
    "request_type": "Streetlights",
    "request_reason": "Streetlight Outage/Malfunction",
    "date_created": "2026-04-27T17:04:20.000",
    "date_modified": "2026-04-27T17:04:22.000",
    "request_status": "Pending",
    "responsible_agency": "Department of Public Works",
    "final_address": "6104 Willow St",
    "address_councildis": "A",
    "status": "Pending",
    "rowid": "1276886",
    "final_x": "3666694.92551",
    "final_y": "525737.708221",
    "longitude": "-90.11501372519184",
    "latitude": "29.940037467692147",
    "geocoded_column": {
      "latitude": "29.940037467692147",
      "longitude": "-90.11501372519184"
    }
  },
  {
    "service_request": "2026-1276885",
    "request_type": "Safety & Permits",
    "request_reason": "Zoning Enforcement",
    "date_created": "2026-04-27T16:53:27.000",
    "date_modified": "2026-04-27T16:53:29.000",
    "request_status": "Pending",
    "responsible_agency": "Safety and Permits",
    "final_address": "2426 Esplanade Ave",
    "address_councildis": "C",
    "status": "Pending",
    "rowid": "1276885",
    "final_x": "3678785.64533",
    "final_y": "538352.185737",
    "longitude": "-90.0764046258249",
    "latitude": "29.974364002399764",
    "geocoded_column": {
      "latitude": "29.974364002399764",
      "longitude": "-90.0764046258249"
    }
  },
  {
    "service_request": "2026-1276884",
    "request_type": "Abandoned Vehicles",
    "request_reason": "Abandoned/Junk Vehicles",
    "date_created": "2026-04-27T16:45:04.000",
    "date_modified": "2026-04-27T16:45:06.000",
    "request_status": "Pending",
    "responsible_agency": "Department of Public Works",
    "final_address": "1300 St Roch Ave",
    "address_councildis": "C",
    "status": "Pending",
    "rowid": "1276884",
    "final_x": "3686363.62108",
    "final_y": "537184.316104",
    "longitude": "-90.05251286325623",
    "latitude": "29.970922024112713",
    "geocoded_column": {
      "latitude": "29.970922024112713",
      "longitude": "-90.05251286325623"
    }
  },
  {
    "service_request": "2026-1276883",
    "request_type": "Roads and Streets",
    "request_reason": "Abandoned Service Cut",
    "date_created": "2026-04-27T16:42:56.000",
    "date_modified": "2026-04-27T16:43:17.000",
    "request_status": "Pending",
    "responsible_agency": "Department of Public Works",
    "final_address": "5347 Tchoupitoulas St",
    "address_councildis": "B",
    "status": "Pending",
    "rowid": "1276883",
    "final_x": "3666871.86196",
    "final_y": "517215.580981",
    "longitude": "-90.11474124773156",
    "latitude": "29.916599145063238",
    "geocoded_column": {
      "latitude": "29.916599145063238",
      "longitude": "-90.11474124773156"
    }
  },
  {
    "service_request": "2026-1276882",
    "request_type": "Trash/Recycling",
    "request_reason": "Order Recycling Cart",
    "date_created": "2026-04-27T16:37:20.000",
    "date_modified": "2026-04-27T16:37:21.000",
    "request_status": "Pending",
    "responsible_agency": "Department of Sanitation",
    "final_address": "2618 Lapeyrouse St",
    "address_councildis": "D",
    "status": "Pending",
    "rowid": "1276882",
    "final_x": "3678922.68994",
    "final_y": "540232.090443",
    "longitude": "-90.07590665272792",
    "latitude": "29.979528956829594",
    "geocoded_column": {
      "latitude": "29.979528956829594",
      "longitude": "-90.07590665272792"
    }
  },
  {
    "service_request": "2026-1276881",
    "request_type": "Abandoned Vehicles",
    "request_reason": "Abandoned/Junk Vehicles",
    "date_created": "2026-04-27T16:37:15.000",
    "date_modified": "2026-04-27T16:37:16.000",
    "request_status": "Pending",
    "responsible_agency": "Department of Public Works",
    "final_address": "N MIRO ST & BARTHOLOMEW ST",
    "address_councildis": "D",
    "status": "Pending",
    "rowid": "1276881",
    "final_x": "3692832.1",
    "final_y": "539449.98",
    "longitude": "-90.03200340199471",
    "latitude": "29.976951395286395",
    "geocoded_column": {
      "latitude": "29.976951395286395",
      "longitude": "-90.03200340199471"
    }
  },
  {
    "service_request": "2026-1276880",
    "request_type": "Trash/Recycling",
    "request_reason": "Order Trash Cart",
    "date_created": "2026-04-27T16:37:03.000",
    "date_modified": "2026-04-27T16:37:05.000",
    "request_status": "Pending",
    "responsible_agency": "Department of Sanitation",
    "final_address": "614 Park Blvd",
    "address_councildis": "C",
    "status": "Assigned to Contractor",
    "contractor": "Richards Disposal",
    "rowid": "1276880",
    "final_x": "3687732.1215",
    "final_y": "525942.746109",
    "longitude": "-90.04858903506725",
    "latitude": "29.93996944488249",
    "geocoded_column": {
      "latitude": "29.93996944488249",
      "longitude": "-90.04858903506725"
    }
  },
  {
    "service_request": "2026-1276879",
    "request_type": "Trash/Recycling",
    "request_reason": "Illegal Dumping",
    "date_created": "2026-04-27T16:36:06.000",
    "date_modified": "2026-04-27T16:36:07.000",
    "request_status": "Pending",
    "responsible_agency": "Department of Sanitation",
    "final_address": "7530 Forest Glen Rd",
    "address_councildis": "E",
    "status": "Pending",
    "rowid": "1276879",
    "final_x": "3709889.80619",
    "final_y": "564533.618849",
    "longitude": "-89.97719263085686",
    "latitude": "30.04537801053571",
    "geocoded_column": {
      "latitude": "30.04537801053571",
      "longitude": "-89.97719263085686"
    }
  },
  {
    "service_request": "2026-1276878",
    "request_type": "Trash/Recycling",
    "request_reason": "Return Trash Cart",
    "date_created": "2026-04-27T16:35:37.000",
    "date_modified": "2026-04-27T16:35:39.000",
    "request_status": "Pending",
    "responsible_agency": "Department of Sanitation",
    "final_address": "2618 Lapeyrouse St",
    "address_councildis": "D",
    "status": "Assigned to Contractor",
    "contractor": "IV Waste",
    "rowid": "1276878",
    "final_x": "3678922.68994",
    "final_y": "540232.090443",
    "longitude": "-90.07590665272792",
    "latitude": "29.979528956829594",
    "geocoded_column": {
      "latitude": "29.979528956829594",
      "longitude": "-90.07590665272792"
    }
  },
  {
    "service_request": "2026-1276877",
    "request_type": "Trash/Recycling",
    "request_reason": "Replace Recycling Cart",
    "date_created": "2026-04-27T16:35:02.000",
    "date_modified": "2026-04-27T16:35:04.000",
    "request_status": "Pending",
    "responsible_agency": "Department of Sanitation",
    "final_address": "4121 Elba St",
    "address_councildis": "B",
    "status": "Pending",
    "rowid": "1276877",
    "final_x": "3670455.17614",
    "final_y": "530047.946689",
    "longitude": "-90.1029958999674",
    "latitude": "29.95177874668212",
    "geocoded_column": {
      "latitude": "29.95177874668212",
      "longitude": "-90.1029958999674"
    }
  },
  {
    "service_request": "2026-1276876",
    "request_type": "Property Maintenance",
    "request_reason": "Property Maintenance",
    "date_created": "2026-04-27T16:28:40.000",
    "date_modified": "2026-04-27T16:28:41.000",
    "request_status": "Pending",
    "responsible_agency": "Department of Code Enforcement",
    "final_address": "5302 Warrington Dr",
    "address_councildis": "D",
    "status": "Pending",
    "rowid": "1276876",
    "final_x": "3680847.82178",
    "final_y": "552107.616278",
    "longitude": "-90.06941258986369",
    "latitude": "30.0121242107545",
    "geocoded_column": {
      "latitude": "30.0121242107545",
      "longitude": "-90.06941258986369"
    }
  },
  {
    "service_request": "2026-1276875",
    "request_type": "Abandoned Vehicles",
    "request_reason": "Abandoned/Junk Vehicles",
    "date_created": "2026-04-27T16:22:23.000",
    "date_modified": "2026-04-27T16:22:25.000",
    "request_status": "Pending",
    "responsible_agency": "Department of Public Works",
    "final_address": "1940 Mirabeau Ave",
    "address_councildis": "D",
    "status": "Pending",
    "rowid": "1276875",
    "final_x": "3681955.99861",
    "final_y": "550477.978516",
    "longitude": "-90.0659683305305",
    "latitude": "30.00760963860658",
    "geocoded_column": {
      "latitude": "30.00760963860658",
      "longitude": "-90.0659683305305"
    }
  },
  {
    "service_request": "2026-1276874",
    "request_type": "Property Maintenance",
    "request_reason": "Property Maintenance",
    "date_created": "2026-04-27T16:21:53.000",
    "date_modified": "2026-04-27T16:21:56.000",
    "request_status": "Pending",
    "responsible_agency": "Department of Code Enforcement",
    "final_address": "1739 Filmore Ave",
    "address_councildis": "D",
    "status": "Pending",
    "rowid": "1276874",
    "final_x": "3680183.43496",
    "final_y": "552064.798166",
    "longitude": "-90.07151316443434",
    "latitude": "30.012026610479175",
    "geocoded_column": {
      "latitude": "30.012026610479175",
      "longitude": "-90.07151316443434"
    }
  },
  {
    "service_request": "2026-1276873",
    "request_type": "Property Maintenance",
    "request_reason": "Property Maintenance",
    "date_created": "2026-04-27T16:18:09.000",
    "date_modified": "2026-04-27T16:18:11.000",
    "request_status": "Pending",
    "responsible_agency": "Department of Code Enforcement",
    "final_address": "1748 Filmore Ave",
    "address_councildis": "D",
    "status": "Pending",
    "rowid": "1276873",
    "final_x": "3680228.72603",
    "final_y": "551841.126102",
    "longitude": "-90.07137785340946",
    "latitude": "30.01141022155532",
    "geocoded_column": {
      "latitude": "30.01141022155532",
      "longitude": "-90.07137785340946"
    }
  },
  {
    "service_request": "2026-1276872",
    "request_type": "Trash/Recycling",
    "request_reason": "Request a Large Item Pick Up",
    "date_created": "2026-04-27T16:17:08.000",
    "date_modified": "2026-04-27T16:17:09.000",
    "request_status": "Pending",
    "responsible_agency": "Department of Sanitation",
    "final_address": "4859 Gawain Dr",
    "address_councildis": "E",
    "status": "Assigned to Contractor",
    "contractor": "Waste Pro",
    "rowid": "1276872",
    "final_x": "3706952.88068",
    "final_y": "556358.546522",
    "longitude": "-89.9867782933876",
    "latitude": "30.02299502996935",
    "geocoded_column": {
      "latitude": "30.02299502996935",
      "longitude": "-89.9867782933876"
    }
  },
  {
    "service_request": "2026-1276871",
    "request_type": "Trash/Recycling",
    "request_reason": "Replace Recycling Cart",
    "date_created": "2026-04-27T16:14:42.000",
    "date_modified": "2026-04-27T16:14:43.000",
    "request_status": "Pending",
    "responsible_agency": "Department of Sanitation",
    "final_address": "2203 Ursulines Ave",
    "address_councildis": "C",
    "status": "Pending",
    "rowid": "1276871",
    "final_x": "3679261.60981",
    "final_y": "536955.133448",
    "longitude": "-90.07494987304965",
    "latitude": "29.970508224165766",
    "geocoded_column": {
      "latitude": "29.970508224165766",
      "longitude": "-90.07494987304965"
    }
  },
  {
    "service_request": "2026-1276870",
    "request_type": "Trash/Recycling",
    "request_reason": "Request a Large Item Pick Up",
    "date_created": "2026-04-27T16:14:15.000",
    "date_modified": "2026-04-27T16:14:17.000",
    "request_status": "Pending",
    "responsible_agency": "Department of Sanitation",
    "final_address": "11160 S Idlewood Ct",
    "address_councildis": "E",
    "status": "Assigned to Contractor",
    "contractor": "Waste Pro",
    "rowid": "1276870",
    "final_x": "3716408.07916",
    "final_y": "559358.127965",
    "longitude": "-89.95678846339267",
    "latitude": "30.030933769332734",
    "geocoded_column": {
      "latitude": "30.030933769332734",
      "longitude": "-89.95678846339267"
    }
  },
  {
    "service_request": "2026-1276869",
    "request_type": "Property Maintenance",
    "request_reason": "Property Maintenance",
    "date_created": "2026-04-27T16:13:46.000",
    "date_modified": "2026-04-27T16:13:48.000",
    "request_status": "Pending",
    "responsible_agency": "Department of Code Enforcement",
    "final_address": "5350 Pratt Dr",
    "address_councildis": "D",
    "status": "Pending",
    "rowid": "1276869",
    "final_x": "3680308.32155",
    "final_y": "552074.866582",
    "longitude": "-90.07111824376224",
    "latitude": "30.01205051288932",
    "geocoded_column": {
      "latitude": "30.01205051288932",
      "longitude": "-90.07111824376224"
    }
  },
  {
    "service_request": "2026-1276868",
    "request_type": "Tree Service",
    "request_reason": "Street or Sidewalk Blocked",
    "date_created": "2026-04-27T16:06:34.000",
    "date_modified": "2026-04-27T16:06:36.000",
    "request_status": "Pending",
    "responsible_agency": "Department of Parks & Parkways",
    "final_address": "2805 Josephine St",
    "address_councildis": "B",
    "status": "Pending",
    "rowid": "1276868",
    "final_x": "3675322.05608",
    "final_y": "527366.848447",
    "longitude": "-90.08772062750913",
    "latitude": "29.9442620254536",
    "geocoded_column": {
      "latitude": "29.9442620254536",
      "longitude": "-90.08772062750913"
    }
  },
  {
    "service_request": "2026-1276867",
    "request_type": "Roads and Streets",
    "request_reason": "Street Subsidence (Sinking)",
    "date_created": "2026-04-27T16:06:17.000",
    "date_modified": "2026-04-27T20:25:44.000",
    "request_status": "Pending",
    "responsible_agency": "Sewerage & Water Board",
    "final_address": "2400 Filmore Ave",
    "address_councildis": "D",
    "status": "Pending",
    "rowid": "1276867",
    "final_x": "3685234.46364",
    "final_y": "552467.72591",
    "longitude": "-90.05554062793307",
    "latitude": "30.012980604678486",
    "geocoded_column": {
      "latitude": "30.012980604678486",
      "longitude": "-90.05554062793307"
    }
  },
  {
    "service_request": "2026-1276866",
    "request_type": "Trash/Recycling",
    "request_reason": "Request a Large Item Pick Up",
    "date_created": "2026-04-27T16:06:13.000",
    "date_modified": "2026-04-27T16:06:16.000",
    "request_status": "Pending",
    "responsible_agency": "Department of Sanitation",
    "final_address": "4759 Warren Dr",
    "address_councildis": "E",
    "status": "Assigned to Contractor",
    "contractor": "Waste Pro",
    "rowid": "1276866",
    "final_x": "3713513.14642",
    "final_y": "556441.914522",
    "longitude": "-89.96604639716669",
    "latitude": "30.023010647377525",
    "geocoded_column": {
      "latitude": "30.023010647377525",
      "longitude": "-89.96604639716669"
    }
  },
  {
    "service_request": "2026-1276865",
    "request_type": "Trash/Recycling",
    "request_reason": "Request a Large Item Pick Up",
    "date_created": "2026-04-27T16:02:29.000",
    "date_modified": "2026-04-27T16:02:31.000",
    "request_status": "Pending",
    "responsible_agency": "Department of Sanitation",
    "final_address": "4874 Strasbourg Pl",
    "address_councildis": "E",
    "status": "Assigned to Contractor",
    "contractor": "Waste Pro",
    "rowid": "1276865",
    "final_x": "3725689.71411",
    "final_y": "561484.354847",
    "longitude": "-89.9273762264783",
    "latitude": "30.036470160127596",
    "geocoded_column": {
      "latitude": "30.036470160127596",
      "longitude": "-89.9273762264783"
    }
  },
  {
    "service_request": "2026-1276864",
    "request_type": "Trash/Recycling",
    "request_reason": "Request a Large Item Pick Up",
    "date_created": "2026-04-27T15:59:59.000",
    "date_modified": "2026-04-27T16:00:04.000",
    "request_status": "Pending",
    "responsible_agency": "Department of Sanitation",
    "final_address": "5117 Louisa Dr",
    "address_councildis": "D",
    "status": "Assigned to Contractor",
    "contractor": "IV Waste",
    "rowid": "1276864",
    "final_x": "3690683.46115",
    "final_y": "552677.394902",
    "longitude": "-90.0383173129536",
    "latitude": "30.013388909754312",
    "geocoded_column": {
      "latitude": "30.013388909754312",
      "longitude": "-90.0383173129536"
    }
  },
  {
    "service_request": "2026-1276863",
    "request_type": "Trash/Recycling",
    "request_reason": "Request a Large Item Pick Up",
    "date_created": "2026-04-27T15:59:36.000",
    "date_modified": "2026-04-27T15:59:38.000",
    "request_status": "Pending",
    "responsible_agency": "Department of Sanitation",
    "final_address": "1335 Mazant St",
    "address_councildis": "D",
    "status": "Assigned to Contractor",
    "contractor": "IV Waste",
    "rowid": "1276863",
    "final_x": "3692401.16336",
    "final_y": "536235.089927",
    "longitude": "-90.033479615752",
    "latitude": "29.968125038984855",
    "geocoded_column": {
      "latitude": "29.968125038984855",
      "longitude": "-90.033479615752"
    }
  },
  {
    "service_request": "2026-1276862",
    "request_type": "Tree Service",
    "request_reason": "Tree Trim",
    "date_created": "2026-04-27T15:59:12.000",
    "date_modified": "2026-04-27T15:59:14.000",
    "request_status": "Pending",
    "responsible_agency": "Department of Parks & Parkways",
    "final_address": "5217 De Montluzin St",
    "address_councildis": "D",
    "status": "Pending",
    "rowid": "1276862",
    "final_x": "3687050.67874",
    "final_y": "552401.836694",
    "longitude": "-90.04980471491486",
    "latitude": "30.012743618251342",
    "geocoded_column": {
      "latitude": "30.012743618251342",
      "longitude": "-90.04980471491486"
    }
  },
  {
    "service_request": "2026-1276861",
    "request_type": "Abandoned Vehicles",
    "request_reason": "Abandoned/Junk Vehicles",
    "date_created": "2026-04-27T15:56:51.000",
    "date_modified": "2026-04-27T15:56:53.000",
    "request_status": "Pending",
    "responsible_agency": "Department of Public Works",
    "final_address": "2328 Laurel St",
    "address_councildis": "B",
    "status": "Pending",
    "rowid": "1276861",
    "final_x": "3678809.02171",
    "final_y": "521066.616185",
    "longitude": "-90.07692939334484",
    "latitude": "29.926833772552868",
    "geocoded_column": {
      "latitude": "29.926833772552868",
      "longitude": "-90.07692939334484"
    }
  },
  {
    "service_request": "2026-1276860",
    "request_type": "Trash/Recycling",
    "request_reason": "Request a Large Item Pick Up",
    "date_created": "2026-04-27T15:55:16.000",
    "date_modified": "2026-04-27T15:58:04.000",
    "request_status": "Pending",
    "responsible_agency": "Department of Sanitation",
    "final_address": "1122 Third St",
    "address_councildis": "B",
    "status": "Assigned to Contractor",
    "contractor": "IV Waste",
    "rowid": "1276860",
    "final_x": "3677432.1437",
    "final_y": "521279.148985",
    "longitude": "-90.08126850123219",
    "latitude": "29.92745960961082",
    "geocoded_column": {
      "latitude": "29.92745960961082",
      "longitude": "-90.08126850123219"
    }
  },
  {
    "service_request": "2026-1276859",
    "request_type": "Trash/Recycling",
    "request_reason": "Request a Large Item Pick Up",
    "date_created": "2026-04-27T15:54:17.000",
    "date_modified": "2026-04-27T15:54:18.000",
    "request_status": "Pending",
    "responsible_agency": "Department of Sanitation",
    "final_address": "7121 Read Blvd",
    "address_councildis": "E",
    "status": "Assigned to Contractor",
    "contractor": "Waste Pro",
    "rowid": "1276859",
    "final_x": "3709664.32619",
    "final_y": "562663.278816",
    "longitude": "-89.97797517078331",
    "latitude": "30.040242659727653",
    "geocoded_column": {
      "latitude": "30.040242659727653",
      "longitude": "-89.97797517078331"
    }
  },
  {
    "service_request": "2026-1276858",
    "request_type": "Trash/Recycling",
    "request_reason": "Order Trash Cart",
    "date_created": "2026-04-27T15:53:45.000",
    "date_modified": "2026-04-27T15:53:49.000",
    "request_status": "Pending",
    "responsible_agency": "Department of Sanitation",
    "final_address": "2653 N Tonti St",
    "address_councildis": "D",
    "status": "Assigned to Contractor",
    "contractor": "IV Waste",
    "rowid": "1276858",
    "final_x": "3687764.13065",
    "final_y": "541012.073803",
    "longitude": "-90.04795427967818",
    "latitude": "29.981403888766355",
    "geocoded_column": {
      "latitude": "29.981403888766355",
      "longitude": "-90.04795427967818"
    }
  },
  {
    "service_request": "2026-1276857",
    "request_type": "Trash/Recycling",
    "request_reason": "Order Trash Cart",
    "date_created": "2026-04-27T15:52:22.000",
    "date_modified": "2026-04-27T15:52:23.000",
    "request_status": "Pending",
    "responsible_agency": "Department of Sanitation",
    "final_address": "7008 Crowder Blvd",
    "address_councildis": "E",
    "status": "Assigned to Contractor",
    "contractor": "Waste Pro",
    "rowid": "1276857",
    "final_x": "3704365.70206",
    "final_y": "559483.213853",
    "longitude": "-89.99483780424933",
    "latitude": "30.0316699962335",
    "geocoded_column": {
      "latitude": "30.0316699962335",
      "longitude": "-89.99483780424933"
    }
  },
  {
    "service_request": "2026-1276856",
    "request_type": "Abandoned Vehicles",
    "request_reason": "Abandoned/Junk Vehicles",
    "date_created": "2026-04-27T15:52:09.000",
    "date_modified": "2026-04-27T15:52:10.000",
    "request_status": "Pending",
    "responsible_agency": "Department of Public Works",
    "final_address": "1301 Amelia St",
    "address_councildis": "B",
    "status": "Pending",
    "rowid": "1276856",
    "final_x": "3673505.03758",
    "final_y": "519903.41388",
    "longitude": "-90.09371240974926",
    "latitude": "29.923794189193448",
    "geocoded_column": {
      "latitude": "29.923794189193448",
      "longitude": "-90.09371240974926"
    }
  },
  {
    "service_request": "2026-1276855",
    "request_type": "Traffic Signals",
    "request_reason": "Traffic Signal Malfunctioning or Damaged",
    "date_created": "2026-04-27T15:50:08.000",
    "date_modified": "2026-04-27T15:50:12.000",
    "request_status": "Pending",
    "responsible_agency": "Department of Public Works",
    "final_address": "ESPLANADE AVE & N BROAD ST",
    "address_councildis": "A",
    "status": "Pending",
    "rowid": "1276855",
    "final_x": "3678149.22",
    "final_y": "538964.74",
    "longitude": "-90.07839342059656",
    "latitude": "29.976067496615002",
    "geocoded_column": {
      "latitude": "29.976067496615002",
      "longitude": "-90.07839342059656"
    }
  },
  {
    "service_request": "2026-1276854",
    "request_type": "General Services",
    "request_reason": "General Service Request",
    "date_created": "2026-04-27T15:49:15.000",
    "date_modified": "2026-04-27T15:54:48.000",
    "case_close_date": "2026-04-27T10:54:47.000",
    "request_status": "Closed",
    "responsible_agency": "Orleans Parish Communication District",
    "final_address": "1410 Thalia St",
    "address_councildis": "B",
    "status": "Referred to External Agency",
    "rowid": "1276854",
    "final_x": "3679969.49877",
    "final_y": "525375.765245",
    "longitude": "-90.0731164711927",
    "latitude": "29.938647474163314",
    "geocoded_column": {
      "latitude": "29.938647474163314",
      "longitude": "-90.0731164711927"
    }
  },
  {
    "service_request": "2026-1276853",
    "request_type": "Streetlights",
    "request_reason": "Streetlight Outage/Malfunction",
    "date_created": "2026-04-27T15:48:06.000",
    "date_modified": "2026-04-27T15:48:07.000",
    "request_status": "Pending",
    "responsible_agency": "Department of Public Works",
    "final_address": "11111 Winchester Park Dr",
    "address_councildis": "E",
    "status": "Pending",
    "rowid": "1276853",
    "final_x": "3714890.66168",
    "final_y": "561140.842206",
    "longitude": "-89.9615160479269",
    "latitude": "30.03588555575477",
    "geocoded_column": {
      "latitude": "30.03588555575477",
      "longitude": "-89.9615160479269"
    }
  },
  {
    "service_request": "2026-1276852",
    "request_type": "Traffic Signals",
    "request_reason": "Traffic Signal Malfunctioning or Damaged",
    "date_created": "2026-04-27T15:47:48.000",
    "date_modified": "2026-04-27T15:47:50.000",
    "request_status": "Pending",
    "responsible_agency": "Department of Public Works",
    "final_address": "FRERET ST & NAPOLEON AVE",
    "address_councildis": "B",
    "status": "Pending",
    "rowid": "1276852",
    "final_x": "3670575.6",
    "final_y": "524047.98",
    "longitude": "-90.10281910815539",
    "latitude": "29.935277235589393",
    "geocoded_column": {
      "latitude": "29.935277235589393",
      "longitude": "-90.10281910815539"
    }
  },
  {
    "service_request": "2026-1276851",
    "request_type": "Trash/Recycling",
    "request_reason": "Request a Large Item Pick Up",
    "date_created": "2026-04-27T15:46:38.000",
    "date_modified": "2026-04-27T15:46:40.000",
    "request_status": "Pending",
    "responsible_agency": "Department of Sanitation",
    "final_address": "5521 Atlanta St",
    "address_councildis": "A",
    "status": "Assigned to Contractor",
    "contractor": "IV Waste",
    "rowid": "1276851",
    "final_x": "3666728.87117",
    "final_y": "520987.228217",
    "longitude": "-90.11506601323747",
    "latitude": "29.926974169351983",
    "geocoded_column": {
      "latitude": "29.926974169351983",
      "longitude": "-90.11506601323747"
    }
  },
  {
    "service_request": "2026-1276850",
    "request_type": "Tree Service",
    "request_reason": "Tree Trim",
    "date_created": "2026-04-27T15:45:36.000",
    "date_modified": "2026-04-27T15:45:37.000",
    "request_status": "Pending",
    "responsible_agency": "Department of Parks & Parkways",
    "final_address": "1428 Burbank Dr",
    "address_councildis": "D",
    "status": "Pending",
    "rowid": "1276850",
    "final_x": "3677705.01717",
    "final_y": "554234.256024",
    "longitude": "-90.07926853819262",
    "latitude": "30.018066650519753",
    "geocoded_column": {
      "latitude": "30.018066650519753",
      "longitude": "-90.07926853819262"
    }
  },
  {
    "service_request": "2026-1276849",
    "request_type": "Streetlights",
    "request_reason": "Streetlight Outage/Malfunction",
    "date_created": "2026-04-27T15:45:29.000",
    "date_modified": "2026-04-27T15:45:31.000",
    "request_status": "Pending",
    "responsible_agency": "Department of Public Works",
    "final_address": "LAKE FOREST BLVD & WRIGHT RD",
    "address_councildis": "E",
    "status": "Pending",
    "rowid": "1276849",
    "final_x": "3715045.4",
    "final_y": "560759.98",
    "longitude": "-89.96104146622037",
    "latitude": "30.034833242951315",
    "geocoded_column": {
      "latitude": "30.034833242951315",
      "longitude": "-89.96104146622037"
    }
  },
  {
    "service_request": "2026-1276848",
    "request_type": "Drainage",
    "request_reason": "Catch Basin Not Draining",
    "date_created": "2026-04-27T15:41:19.000",
    "date_modified": "2026-04-27T15:43:57.000",
    "request_status": "Pending",
    "responsible_agency": "Sewerage & Water Board",
    "final_address": "6569 Avenue A",
    "address_councildis": "A",
    "status": "Pending",
    "rowid": "1276848",
    "final_x": "3666059.63936",
    "final_y": "551868.122006",
    "longitude": "-90.11614307933128",
    "latitude": "30.011905919951936",
    "geocoded_column": {
      "latitude": "30.011905919951936",
      "longitude": "-90.11614307933128"
    }
  },
  {
    "service_request": "2026-1276847",
    "request_type": "Streetlights",
    "request_reason": "Streetlight Outage/Malfunction",
    "date_created": "2026-04-27T15:41:02.000",
    "date_modified": "2026-04-27T15:41:04.000",
    "request_status": "Pending",
    "responsible_agency": "Department of Public Works",
    "final_address": "5200 BLK N Prieur St",
    "address_councildis": "E",
    "status": "Pending",
    "rowid": "1276847",
    "final_x": "3697502.64269",
    "final_y": "537078.574909",
    "longitude": "-90.01733844032988",
    "latitude": "29.970284207353615",
    "geocoded_column": {
      "latitude": "29.970284207353615",
      "longitude": "-90.01733844032988"
    }
  },
  {
    "service_request": "2026-1276846",
    "request_type": "Property Maintenance",
    "request_reason": "Property Maintenance",
    "date_created": "2026-04-27T15:35:05.000",
    "date_modified": "2026-04-27T15:35:06.000",
    "request_status": "Pending",
    "responsible_agency": "Department of Code Enforcement",
    "final_address": "1717 Bayou Rd",
    "address_councildis": "C",
    "status": "Pending",
    "rowid": "1276846",
    "final_x": "3680852.66677",
    "final_y": "536388.673479",
    "longitude": "-90.06994485939329",
    "latitude": "29.96890251268673",
    "geocoded_column": {
      "latitude": "29.96890251268673",
      "longitude": "-90.06994485939329"
    }
  },
  {
    "service_request": "2026-1276845",
    "request_type": "Trash/Recycling",
    "request_reason": "Replace Trash Cart",
    "date_created": "2026-04-27T15:31:57.000",
    "date_modified": "2026-04-27T15:31:59.000",
    "request_status": "Pending",
    "responsible_agency": "Department of Sanitation",
    "final_address": "4915 Eastview Dr",
    "address_councildis": "E",
    "status": "Assigned to Contractor",
    "contractor": "Waste Pro",
    "rowid": "1276845",
    "final_x": "3705065.51582",
    "final_y": "556191.839322",
    "longitude": "-89.99274806026268",
    "latitude": "30.02259750059205",
    "geocoded_column": {
      "latitude": "30.02259750059205",
      "longitude": "-89.99274806026268"
    }
  },
  {
    "service_request": "2026-1276844",
    "request_type": "Trash/Recycling",
    "request_reason": "Request a Large Item Pick Up",
    "date_created": "2026-04-27T15:30:22.000",
    "date_modified": "2026-04-27T15:30:24.000",
    "request_status": "Pending",
    "responsible_agency": "Department of Sanitation",
    "final_address": "25 N Oak Ridge Ct",
    "address_councildis": "E",
    "status": "Assigned to Contractor",
    "contractor": "Waste Pro",
    "rowid": "1276844",
    "final_x": "3713625.51717",
    "final_y": "567976.797349",
    "longitude": "-89.96525616884027",
    "latitude": "30.054723250758112",
    "geocoded_column": {
      "latitude": "30.054723250758112",
      "longitude": "-89.96525616884027"
    }
  },
  {
    "service_request": "2026-1276843",
    "request_type": "Trash/Recycling",
    "request_reason": "Request a Large Item Pick Up",
    "date_created": "2026-04-27T15:28:53.000",
    "date_modified": "2026-04-27T15:28:55.000",
    "request_status": "Pending",
    "responsible_agency": "Department of Sanitation",
    "final_address": "631 Tricou St",
    "address_councildis": "E",
    "status": "Assigned to Contractor",
    "contractor": "Waste Pro",
    "rowid": "1276843",
    "final_x": "3699556.04298",
    "final_y": "531537.318787",
    "longitude": "-90.01105556635497",
    "latitude": "29.954982727334027",
    "geocoded_column": {
      "latitude": "29.954982727334027",
      "longitude": "-90.01105556635497"
    }
  },
  {
    "service_request": "2026-1276842",
    "request_type": "Trash/Recycling",
    "request_reason": "Missed Trash Pick-Up",
    "date_created": "2026-04-27T15:27:07.000",
    "date_modified": "2026-04-27T15:27:08.000",
    "request_status": "Pending",
    "responsible_agency": "Department of Sanitation",
    "final_address": "8910 Tilford Rd",
    "address_councildis": "E",
    "status": "Assigned to Contractor",
    "contractor": "Waste Pro",
    "rowid": "1276842",
    "final_x": "3707928.6899",
    "final_y": "557209.386331",
    "longitude": "-89.98366331459664",
    "latitude": "30.02530294024195",
    "geocoded_column": {
      "latitude": "30.02530294024195",
      "longitude": "-89.98366331459664"
    }
  },
  {
    "service_request": "2026-1276841",
    "request_type": "Health Related Request",
    "request_reason": "Homeless Encampment Complaint",
    "date_created": "2026-04-27T15:24:46.000",
    "date_modified": "2026-04-27T15:24:48.000",
    "request_status": "Pending",
    "responsible_agency": "Office Of Homeless Services And Strategy",
    "final_address": "1650 Sere St",
    "address_councildis": "D",
    "status": "Pending",
    "rowid": "1276841",
    "final_x": "3680215.32591",
    "final_y": "545519.410448",
    "longitude": "-90.07164011282063",
    "latitude": "29.994028166487894",
    "geocoded_column": {
      "latitude": "29.994028166487894",
      "longitude": "-90.07164011282063"
    }
  },
  {
    "service_request": "2026-1276840",
    "request_type": "Trash/Recycling",
    "request_reason": "Request a Large Item Pick Up",
    "date_created": "2026-04-27T15:24:23.000",
    "date_modified": "2026-04-27T15:24:25.000",
    "request_status": "Pending",
    "responsible_agency": "Department of Sanitation",
    "final_address": "7720 Shaw Ave",
    "address_councildis": "E",
    "status": "Assigned to Contractor",
    "contractor": "Waste Pro",
    "rowid": "1276840",
    "final_x": "3707000.23729",
    "final_y": "564517.056481",
    "longitude": "-89.98632560997274",
    "latitude": "30.04542618821065",
    "geocoded_column": {
      "latitude": "30.04542618821065",
      "longitude": "-89.98632560997274"
    }
  },
  {
    "service_request": "2026-1276839",
    "request_type": "Property Maintenance",
    "request_reason": "Property Maintenance",
    "date_created": "2026-04-27T15:23:25.000",
    "date_modified": "2026-04-27T15:23:27.000",
    "request_status": "Pending",
    "responsible_agency": "Department of Code Enforcement",
    "final_address": "1650 Sere St",
    "address_councildis": "D",
    "status": "Pending",
    "rowid": "1276839",
    "final_x": "3680215.32591",
    "final_y": "545519.410448",
    "longitude": "-90.07164011282063",
    "latitude": "29.994028166487894",
    "geocoded_column": {
      "latitude": "29.994028166487894",
      "longitude": "-90.07164011282063"
    }
  },
  {
    "service_request": "2026-1276838",
    "request_type": "Trash/Recycling",
    "request_reason": "Request a Large Item Pick Up",
    "date_created": "2026-04-27T15:19:24.000",
    "date_modified": "2026-04-27T15:19:27.000",
    "request_status": "Pending",
    "responsible_agency": "Department of Sanitation",
    "final_address": "5271 E Idlewood Ct",
    "address_councildis": "E",
    "status": "Assigned to Contractor",
    "contractor": "Waste Pro",
    "rowid": "1276838",
    "final_x": "3716620.97733",
    "final_y": "560117.558045",
    "longitude": "-89.95608686245332",
    "latitude": "30.0330148628467",
    "geocoded_column": {
      "latitude": "30.0330148628467",
      "longitude": "-89.95608686245332"
    }
  },
  {
    "service_request": "2026-1276837",
    "request_type": "Trash/Recycling",
    "request_reason": "Request a Large Item Pick Up",
    "date_created": "2026-04-27T15:15:55.000",
    "date_modified": "2026-04-27T15:15:57.000",
    "request_status": "Pending",
    "responsible_agency": "Department of Sanitation",
    "final_address": "1838 Audubon St",
    "address_councildis": "A",
    "status": "Assigned to Contractor",
    "contractor": "IV Waste",
    "rowid": "1276837",
    "final_x": "3665740.6386",
    "final_y": "528383.197824",
    "longitude": "-90.11793797279248",
    "latitude": "29.947339578090958",
    "geocoded_column": {
      "latitude": "29.947339578090958",
      "longitude": "-90.11793797279248"
    }
  },
  {
    "service_request": "2026-1276836",
    "request_type": "Trash/Recycling",
    "request_reason": "Request a Large Item Pick Up",
    "date_created": "2026-04-27T15:12:36.000",
    "date_modified": "2026-04-27T16:22:42.000",
    "request_status": "Pending",
    "responsible_agency": "Department of Sanitation",
    "final_address": "1501 Burbank Dr",
    "address_councildis": "D",
    "status": "Assigned to Contractor",
    "contractor": "IV Waste",
    "rowid": "1276836",
    "final_x": "3678382.22722",
    "final_y": "554369.49372",
    "longitude": "-90.07712412600742",
    "latitude": "30.018418108263035",
    "geocoded_column": {
      "latitude": "30.018418108263035",
      "longitude": "-90.07712412600742"
    }
  },
  {
    "service_request": "2026-1276835",
    "request_type": "Trash/Recycling",
    "request_reason": "Order Trash Cart",
    "date_created": "2026-04-27T15:10:37.000",
    "date_modified": "2026-04-27T15:10:39.000",
    "request_status": "Pending",
    "responsible_agency": "Department of Sanitation",
    "final_address": "3035 Piety St",
    "address_councildis": "D",
    "status": "Assigned to Contractor",
    "contractor": "IV Waste",
    "rowid": "1276835",
    "final_x": "3691826.88758",
    "final_y": "543580.005006",
    "longitude": "-90.03503037595546",
    "latitude": "29.988338835411234",
    "geocoded_column": {
      "latitude": "29.988338835411234",
      "longitude": "-90.03503037595546"
    }
  },
  {
    "service_request": "2026-1276834",
    "request_type": "Safety & Permits",
    "request_reason": "Zoning Enforcement",
    "date_created": "2026-04-27T15:10:28.000",
    "date_modified": "2026-04-27T15:10:30.000",
    "request_status": "Pending",
    "responsible_agency": "Safety and Permits",
    "final_address": "2517 Chartres St",
    "address_councildis": "C",
    "status": "Pending",
    "rowid": "1276834",
    "final_x": "3686426.52463",
    "final_y": "534639.934598",
    "longitude": "-90.05240403441695",
    "latitude": "29.963923926534644",
    "geocoded_column": {
      "latitude": "29.963923926534644",
      "longitude": "-90.05240403441695"
    }
  },
  {
    "service_request": "2026-1276833",
    "request_type": "Trash/Recycling",
    "request_reason": "Request a Large Item Pick Up",
    "date_created": "2026-04-27T15:07:46.000",
    "date_modified": "2026-04-27T15:07:48.000",
    "request_status": "Pending",
    "responsible_agency": "Department of Sanitation",
    "final_address": "3139 N Claiborne Ave",
    "address_councildis": "D",
    "status": "Assigned to Contractor",
    "contractor": "IV Waste",
    "rowid": "1276833",
    "final_x": "3689781.96291",
    "final_y": "537817.904264",
    "longitude": "-90.04169478141017",
    "latitude": "29.97255866058806",
    "geocoded_column": {
      "latitude": "29.97255866058806",
      "longitude": "-90.04169478141017"
    }
  },
  {
    "service_request": "2026-1276832",
    "request_type": "Streetlights",
    "request_reason": "Streetlight Outage/Malfunction",
    "date_created": "2026-04-27T15:07:28.000",
    "date_modified": "2026-04-27T15:07:30.000",
    "request_status": "Pending",
    "responsible_agency": "Department of Public Works",
    "final_address": "NAPOLEON AVE & S DORGENOIS ST",
    "address_councildis": "B",
    "status": "Pending",
    "rowid": "1276832",
    "final_x": "3670098.0",
    "final_y": "528830.38",
    "longitude": "-90.1041649354439",
    "latitude": "29.94844137775102",
    "geocoded_column": {
      "latitude": "29.94844137775102",
      "longitude": "-90.1041649354439"
    }
  },
  {
    "service_request": "2026-1276831",
    "request_type": "Trash/Recycling",
    "request_reason": "Missed Trash Pick-Up",
    "date_created": "2026-04-27T15:04:43.000",
    "date_modified": "2026-04-27T15:18:06.000",
    "case_close_date": "2026-04-27T10:18:05.000",
    "request_status": "Closed",
    "responsible_agency": "Department of Sanitation",
    "final_address": "2726 N Claiborne Ave",
    "address_councildis": "C",
    "status": "Duplicate Request",
    "contractor": "IV Waste",
    "contractor_action": "Duplicate",
    "rowid": "1276831",
    "final_x": "3688111.04457",
    "final_y": "538140.495177",
    "longitude": "-90.046960390208",
    "latitude": "29.973497356896967",
    "geocoded_column": {
      "latitude": "29.973497356896967",
      "longitude": "-90.046960390208"
    }
  },
  {
    "service_request": "2026-1276830",
    "request_type": "Trash/Recycling",
    "request_reason": "Request a Large Item Pick Up",
    "date_created": "2026-04-27T15:02:20.000",
    "date_modified": "2026-04-27T15:02:22.000",
    "request_status": "Pending",
    "responsible_agency": "Department of Sanitation",
    "final_address": "4840 Camelia St",
    "address_councildis": "E",
    "status": "Assigned to Contractor",
    "contractor": "Waste Pro",
    "rowid": "1276830",
    "final_x": "3701413.9978",
    "final_y": "554750.286936",
    "longitude": "-90.00433874792937",
    "latitude": "30.01875074561822",
    "geocoded_column": {
      "latitude": "30.01875074561822",
      "longitude": "-90.00433874792937"
    }
  },
  {
    "service_request": "2026-1276829",
    "request_type": "Trash/Recycling",
    "request_reason": "Request a Large Item Pick Up",
    "date_created": "2026-04-27T15:02:18.000",
    "date_modified": "2026-04-27T15:02:20.000",
    "request_status": "Pending",
    "responsible_agency": "Department of Sanitation",
    "final_address": "2726 N Claiborne Ave",
    "address_councildis": "C",
    "status": "Assigned to Contractor",
    "contractor": "IV Waste",
    "rowid": "1276829",
    "final_x": "3688111.04457",
    "final_y": "538140.495177",
    "longitude": "-90.046960390208",
    "latitude": "29.973497356896967",
    "geocoded_column": {
      "latitude": "29.973497356896967",
      "longitude": "-90.046960390208"
    }
  },
  {
    "service_request": "2026-1276828",
    "request_type": "Tree Service",
    "request_reason": "Tree Trim",
    "date_created": "2026-04-27T15:00:39.000",
    "date_modified": "2026-04-27T15:00:41.000",
    "request_status": "Pending",
    "responsible_agency": "Department of Parks & Parkways",
    "final_address": "2518 Bienville Ave",
    "address_councildis": "B",
    "status": "Pending",
    "rowid": "1276828",
    "final_x": "3676438.01902",
    "final_y": "535173.340166",
    "longitude": "-90.08392846198602",
    "latitude": "29.965693860649086",
    "geocoded_column": {
      "latitude": "29.965693860649086",
      "longitude": "-90.08392846198602"
    }
  },
  {
    "service_request": "2026-1276827",
    "request_type": "Trash/Recycling",
    "request_reason": "Repair Trash Cart",
    "date_created": "2026-04-27T14:58:22.000",
    "date_modified": "2026-04-27T14:58:24.000",
    "request_status": "Pending",
    "responsible_agency": "Department of Sanitation",
    "final_address": "6628 Lincoln Beach Blvd",
    "address_councildis": "E",
    "status": "Assigned to Contractor",
    "contractor": "Waste Pro",
    "rowid": "1276827",
    "final_x": "3697129.83395",
    "final_y": "560679.75715",
    "longitude": "-90.01765998116193",
    "latitude": "30.035190455712396",
    "geocoded_column": {
      "latitude": "30.035190455712396",
      "longitude": "-90.01765998116193"
    }
  },
  {
    "service_request": "2026-1276826",
    "request_type": "Tree Service",
    "request_reason": "Tree Trim",
    "date_created": "2026-04-27T14:57:31.000",
    "date_modified": "2026-04-27T14:57:33.000",
    "request_status": "Pending",
    "responsible_agency": "Department of Parks & Parkways",
    "final_address": "4525 Piety Dr",
    "address_councildis": "D",
    "status": "Pending",
    "rowid": "1276826",
    "final_x": "3691812.60464",
    "final_y": "550967.137493",
    "longitude": "-90.03481106380431",
    "latitude": "30.008651197679526",
    "geocoded_column": {
      "latitude": "30.008651197679526",
      "longitude": "-90.03481106380431"
    }
  },
  {
    "service_request": "2026-1276825",
    "request_type": "Tree Service",
    "request_reason": "Tree Trim",
    "date_created": "2026-04-27T14:56:13.000",
    "date_modified": "2026-04-27T14:56:14.000",
    "request_status": "Pending",
    "responsible_agency": "Department of Parks & Parkways",
    "final_address": "7430 Mayo Rd",
    "address_councildis": "E",
    "status": "Pending",
    "rowid": "1276825",
    "final_x": "3700862.87441",
    "final_y": "560192.657117",
    "longitude": "-90.00588087509776",
    "latitude": "30.03373273326242",
    "geocoded_column": {
      "latitude": "30.03373273326242",
      "longitude": "-90.00588087509776"
    }
  },
  {
    "service_request": "2026-1276824",
    "request_type": "Drainage",
    "request_reason": "Catch Basin Not Draining",
    "date_created": "2026-04-27T14:55:22.000",
    "date_modified": "2026-04-27T14:55:24.000",
    "request_status": "Pending",
    "responsible_agency": "Sewerage & Water Board",
    "final_address": "1335 Ferry Pl",
    "address_councildis": "A",
    "status": "Pending",
    "rowid": "1276824",
    "final_x": "3660191.36333",
    "final_y": "530832.17165",
    "longitude": "-90.1353784117631",
    "latitude": "29.954234155020252",
    "geocoded_column": {
      "latitude": "29.954234155020252",
      "longitude": "-90.1353784117631"
    }
  },
  {
    "service_request": "2026-1276823",
    "request_type": "Trash/Recycling",
    "request_reason": "Illegal Dumping",
    "date_created": "2026-04-27T14:54:12.000",
    "date_modified": "2026-04-27T14:54:14.000",
    "request_status": "Pending",
    "responsible_agency": "Department of Sanitation",
    "final_address": "4525 Piety Dr",
    "address_councildis": "D",
    "status": "Pending",
    "rowid": "1276823",
    "final_x": "3691812.60464",
    "final_y": "550967.137493",
    "longitude": "-90.03481106380431",
    "latitude": "30.008651197679526",
    "geocoded_column": {
      "latitude": "30.008651197679526",
      "longitude": "-90.03481106380431"
    }
  },
  {
    "service_request": "2026-1276822",
    "request_type": "Trash/Recycling",
    "request_reason": "Request a Large Item Pick Up",
    "date_created": "2026-04-27T14:52:04.000",
    "date_modified": "2026-04-27T14:52:06.000",
    "request_status": "Pending",
    "responsible_agency": "Department of Sanitation",
    "final_address": "5128 Annunciation St",
    "address_councildis": "B",
    "status": "Assigned to Contractor",
    "contractor": "IV Waste",
    "rowid": "1276822",
    "final_x": "3668065.8393",
    "final_y": "517522.66015",
    "longitude": "-90.11096221355535",
    "latitude": "29.91740854736074",
    "geocoded_column": {
      "latitude": "29.91740854736074",
      "longitude": "-90.11096221355535"
    }
  },
  {
    "service_request": "2026-1276821",
    "request_type": "Trash/Recycling",
    "request_reason": "Order Trash Cart",
    "date_created": "2026-04-27T14:51:20.000",
    "date_modified": "2026-04-27T15:10:24.000",
    "request_status": "Pending",
    "responsible_agency": "Department of Sanitation",
    "final_address": "3033 Piety St",
    "address_councildis": "D",
    "status": "Assigned to Contractor",
    "contractor": "IV Waste",
    "rowid": "1276821",
    "final_x": "3691824.80425",
    "final_y": "543569.171662",
    "longitude": "-90.03503734422056",
    "latitude": "29.98830911253082",
    "geocoded_column": {
      "latitude": "29.98830911253082",
      "longitude": "-90.03503734422056"
    }
  },
  {
    "service_request": "2026-1276820",
    "request_type": "Trash/Recycling",
    "request_reason": "Repair Trash Cart",
    "date_created": "2026-04-27T14:49:51.000",
    "date_modified": "2026-04-27T15:11:03.000",
    "request_status": "Pending",
    "responsible_agency": "Department of Sanitation",
    "final_address": "2032 Piety St",
    "address_councildis": "D",
    "status": "Assigned to Contractor",
    "contractor": "IV Waste",
    "rowid": "1276820",
    "final_x": "3690676.27363",
    "final_y": "539454.82337",
    "longitude": "-90.03881199243361",
    "latitude": "29.977031858341274",
    "geocoded_column": {
      "latitude": "29.977031858341274",
      "longitude": "-90.03881199243361"
    }
  },
  {
    "service_request": "2026-1276819",
    "request_type": "Roads and Streets",
    "request_reason": "Pothole",
    "date_created": "2026-04-27T14:48:58.000",
    "date_modified": "2026-04-27T14:49:00.000",
    "request_status": "Pending",
    "responsible_agency": "Department of Public Works",
    "final_address": "800 BLK Union St",
    "address_councildis": "B",
    "status": "Pending",
    "rowid": "1276819",
    "final_x": "3680274.58003",
    "final_y": "530078.812333",
    "longitude": "-90.07198985006315",
    "latitude": "29.951570052640147",
    "geocoded_column": {
      "latitude": "29.951570052640147",
      "longitude": "-90.07198985006315"
    }
  },
  {
    "service_request": "2026-1276818",
    "request_type": "Trash/Recycling",
    "request_reason": "Return Recycling Cart",
    "date_created": "2026-04-27T14:48:15.000",
    "date_modified": "2026-04-27T14:48:17.000",
    "request_status": "Pending",
    "responsible_agency": "Department of Sanitation",
    "final_address": "943 N Broad St",
    "address_councildis": "C",
    "status": "Pending",
    "rowid": "1276818",
    "final_x": "3677276.54651",
    "final_y": "537858.744265",
    "longitude": "-90.0811877502462",
    "latitude": "29.973052639081843",
    "geocoded_column": {
      "latitude": "29.973052639081843",
      "longitude": "-90.0811877502462"
    }
  },
  {
    "service_request": "2026-1276817",
    "request_type": "Roads and Streets",
    "request_reason": "Street Subsidence (Sinking)",
    "date_created": "2026-04-27T14:47:57.000",
    "date_modified": "2026-04-27T14:47:58.000",
    "request_status": "Pending",
    "responsible_agency": "Sewerage & Water Board",
    "final_address": "PANOLA ST & LOWERLINE ST",
    "address_councildis": "A",
    "status": "Pending",
    "rowid": "1276817",
    "final_x": "3665456.7",
    "final_y": "529470.18",
    "longitude": "-90.11879810126668",
    "latitude": "29.95033670579189",
    "geocoded_column": {
      "latitude": "29.95033670579189",
      "longitude": "-90.11879810126668"
    }
  },
  {
    "service_request": "2026-1276816",
    "request_type": "Trash/Recycling",
    "request_reason": "Return Trash Cart",
    "date_created": "2026-04-27T14:47:39.000",
    "date_modified": "2026-04-27T14:47:40.000",
    "request_status": "Pending",
    "responsible_agency": "Department of Sanitation",
    "final_address": "941 N Broad St",
    "address_councildis": "C",
    "status": "Assigned to Contractor",
    "contractor": "IV Waste",
    "rowid": "1276816",
    "final_x": "3677268.01672",
    "final_y": "537845.949449",
    "longitude": "-90.08121513057121",
    "latitude": "29.97301771401547",
    "geocoded_column": {
      "latitude": "29.97301771401547",
      "longitude": "-90.08121513057121"
    }
  },
  {
    "service_request": "2026-1276815",
    "request_type": "Trash/Recycling",
    "request_reason": "Request a Large Item Pick Up",
    "date_created": "2026-04-27T14:42:54.000",
    "date_modified": "2026-04-27T14:42:56.000",
    "request_status": "Pending",
    "responsible_agency": "Department of Sanitation",
    "final_address": "7569 Avalon Way",
    "address_councildis": "E",
    "status": "Assigned to Contractor",
    "contractor": "Waste Pro",
    "rowid": "1276815",
    "final_x": "3709173.9155",
    "final_y": "564402.016289",
    "longitude": "-89.97946008676786",
    "latitude": "30.04503943378443",
    "geocoded_column": {
      "latitude": "30.04503943378443",
      "longitude": "-89.97946008676786"
    }
  },
  {
    "service_request": "2026-1276814",
    "request_type": "Abandoned Vehicles",
    "request_reason": "Abandoned/Junk Vehicles",
    "date_created": "2026-04-27T14:40:34.000",
    "date_modified": "2026-04-27T14:40:35.000",
    "request_status": "Pending",
    "responsible_agency": "Department of Public Works",
    "final_address": "1300 BLK Gallier St",
    "address_councildis": "C",
    "status": "Pending",
    "rowid": "1276814",
    "final_x": "3690692.18223",
    "final_y": "536556.159943",
    "longitude": "-90.03886517202017",
    "latitude": "29.969061065037707",
    "geocoded_column": {
      "latitude": "29.969061065037707",
      "longitude": "-90.03886517202017"
    }
  },
  {
    "service_request": "2026-1276813",
    "request_type": "Abandoned Vehicles",
    "request_reason": "Abandoned/Junk Vehicles",
    "date_created": "2026-04-27T14:40:09.000",
    "date_modified": "2026-04-27T14:40:11.000",
    "request_status": "Pending",
    "responsible_agency": "Department of Public Works",
    "final_address": "2000 BLK Sumpter St",
    "address_councildis": "D",
    "status": "Pending",
    "rowid": "1276813",
    "final_x": "3682986.57133",
    "final_y": "549487.063215",
    "longitude": "-90.06274717056485",
    "latitude": "30.004853596445905",
    "geocoded_column": {
      "latitude": "30.004853596445905",
      "longitude": "-90.06274717056485"
    }
  },
  {
    "service_request": "2026-1276812",
    "request_type": "Property Maintenance",
    "request_reason": "Property Maintenance",
    "date_created": "2026-04-27T14:33:51.000",
    "date_modified": "2026-04-27T14:33:53.000",
    "request_status": "Pending",
    "responsible_agency": "Department of Code Enforcement",
    "final_address": "1140 Frenchmen St",
    "address_councildis": "C",
    "status": "Pending",
    "rowid": "1276812",
    "final_x": "3684532.95471",
    "final_y": "536589.508423",
    "longitude": "-90.05831523526206",
    "latitude": "29.96934264931081",
    "geocoded_column": {
      "latitude": "29.96934264931081",
      "longitude": "-90.05831523526206"
    }
  },
  {
    "service_request": "2026-1276811",
    "request_type": "Trash/Recycling",
    "request_reason": "Order Recycling Cart",
    "date_created": "2026-04-27T14:32:23.000",
    "date_modified": "2026-04-27T14:32:24.000",
    "request_status": "Pending",
    "responsible_agency": "Department of Sanitation",
    "final_address": "5642 Canal Blvd",
    "address_councildis": "A",
    "status": "Pending",
    "rowid": "1276811",
    "final_x": "3668119.51098",
    "final_y": "545187.105615",
    "longitude": "-90.10986042922397",
    "latitude": "29.993475116953185",
    "geocoded_column": {
      "latitude": "29.993475116953185",
      "longitude": "-90.10986042922397"
    }
  },
  {
    "service_request": "2026-1276810",
    "request_type": "Roads and Streets",
    "request_reason": "Street Subsidence (Sinking)",
    "date_created": "2026-04-27T14:31:33.000",
    "date_modified": "2026-04-27T14:31:35.000",
    "request_status": "Pending",
    "responsible_agency": "Sewerage & Water Board",
    "final_address": "5557 Vermillion Blvd",
    "address_councildis": "D",
    "status": "Pending",
    "rowid": "1276810",
    "final_x": "3683327.89269",
    "final_y": "553464.742039",
    "longitude": "-90.0615293915343",
    "latitude": "30.015780358469488",
    "geocoded_column": {
      "latitude": "30.015780358469488",
      "longitude": "-90.0615293915343"
    }
  },
  {
    "service_request": "2026-1276809",
    "request_type": "Trash/Recycling",
    "request_reason": "Replace Trash Cart",
    "date_created": "2026-04-27T14:30:28.000",
    "date_modified": "2026-04-27T14:30:29.000",
    "request_status": "Pending",
    "responsible_agency": "Department of Sanitation",
    "final_address": "11420 Melvin Pl",
    "address_councildis": "E",
    "status": "Assigned to Contractor",
    "contractor": "Waste Pro",
    "rowid": "1276809",
    "final_x": "3717941.51564",
    "final_y": "561644.136351",
    "longitude": "-89.95185572614153",
    "latitude": "30.0371686274145",
    "geocoded_column": {
      "latitude": "30.0371686274145",
      "longitude": "-89.95185572614153"
    }
  },
  {
    "service_request": "2026-1276808",
    "request_type": "Tree Service",
    "request_reason": "Tree Trim",
    "date_created": "2026-04-27T14:23:39.000",
    "date_modified": "2026-04-27T14:27:58.000",
    "request_status": "Pending",
    "responsible_agency": "Department of Parks & Parkways",
    "final_address": "13626 Dwyer Blvd",
    "address_councildis": "E",
    "status": "Pending",
    "rowid": "1276808",
    "final_x": "3726612.3767",
    "final_y": "562112.468767",
    "longitude": "-89.92443606219479",
    "latitude": "30.038166052770492",
    "geocoded_column": {
      "latitude": "30.038166052770492",
      "longitude": "-89.92443606219479"
    }
  },
  {
    "service_request": "2026-1276807",
    "request_type": "Trash/Recycling",
    "request_reason": "Illegal Dumping",
    "date_created": "2026-04-27T14:20:41.000",
    "date_modified": "2026-04-27T14:20:42.000",
    "request_status": "Pending",
    "responsible_agency": "Department of Sanitation",
    "final_address": "1005 Josephine St",
    "address_councildis": "B",
    "status": "Pending",
    "rowid": "1276807",
    "final_x": "3679402.01423",
    "final_y": "522070.515066",
    "longitude": "-90.07502267325984",
    "latitude": "29.929576274017826",
    "geocoded_column": {
      "latitude": "29.929576274017826",
      "longitude": "-90.07502267325984"
    }
  },
  {
    "service_request": "2026-1276806",
    "request_type": "Trash/Recycling",
    "request_reason": "Request a Large Item Pick Up",
    "date_created": "2026-04-27T14:19:11.000",
    "date_modified": "2026-04-27T14:19:14.000",
    "request_status": "Pending",
    "responsible_agency": "Department of Sanitation",
    "final_address": "4445 Francesco Rd",
    "address_councildis": "E",
    "status": "Assigned to Contractor",
    "contractor": "Waste Pro",
    "rowid": "1276806",
    "final_x": "3762121.91158",
    "final_y": "572974.448553",
    "longitude": "-89.81176405453807",
    "latitude": "30.06678322739087",
    "geocoded_column": {
      "latitude": "30.06678322739087",
      "longitude": "-89.81176405453807"
    }
  },
  {
    "service_request": "2026-1276805",
    "request_type": "Trash/Recycling",
    "request_reason": "Request a Large Item Pick Up",
    "date_created": "2026-04-27T14:17:52.000",
    "date_modified": "2026-04-27T14:17:55.000",
    "request_status": "Pending",
    "responsible_agency": "Department of Sanitation",
    "final_address": "14509 Duane Rd",
    "address_councildis": "E",
    "status": "Assigned to Contractor",
    "contractor": "Waste Pro",
    "rowid": "1276805",
    "final_x": "3720443.36838",
    "final_y": "573212.052841",
    "longitude": "-89.94350599701112",
    "latitude": "30.06889242498519",
    "geocoded_column": {
      "latitude": "30.06889242498519",
      "longitude": "-89.94350599701112"
    }
  },
  {
    "service_request": "2026-1276804",
    "request_type": "Trash/Recycling",
    "request_reason": "Replace Trash Cart",
    "date_created": "2026-04-27T14:16:25.000",
    "date_modified": "2026-04-27T14:16:27.000",
    "request_status": "Pending",
    "responsible_agency": "Department of Sanitation",
    "final_address": "11420 Melvin Pl",
    "address_councildis": "E",
    "status": "Assigned to Contractor",
    "contractor": "Waste Pro",
    "rowid": "1276804",
    "final_x": "3717941.51564",
    "final_y": "561644.136351",
    "longitude": "-89.95185572614153",
    "latitude": "30.0371686274145",
    "geocoded_column": {
      "latitude": "30.0371686274145",
      "longitude": "-89.95185572614153"
    }
  },
  {
    "service_request": "2026-1276803",
    "request_type": "Trash/Recycling",
    "request_reason": "MIssed Recycling Pick-Up",
    "date_created": "2026-04-27T14:16:21.000",
    "date_modified": "2026-04-27T14:51:14.000",
    "case_close_date": "2026-04-27T09:51:13.000",
    "request_status": "Closed",
    "responsible_agency": "Department of Sanitation",
    "final_address": "1236 Moss St",
    "address_councildis": "A",
    "status": "Invalid Request",
    "contractor": "IV Waste",
    "contractor_action": "Invalid Request",
    "rowid": "1276803",
    "final_x": "3675304.70395",
    "final_y": "540045.267339",
    "longitude": "-90.08734013140189",
    "latitude": "29.979123931418517",
    "geocoded_column": {
      "latitude": "29.979123931418517",
      "longitude": "-90.08734013140189"
    }
  },
  {
    "service_request": "2026-1276802",
    "request_type": "Trash/Recycling",
    "request_reason": "Missed Trash Pick-Up",
    "date_created": "2026-04-27T14:15:26.000",
    "date_modified": "2026-04-27T14:54:59.000",
    "case_close_date": "2026-04-27T09:54:59.000",
    "request_status": "Closed",
    "responsible_agency": "Department of Sanitation",
    "final_address": "1236 Moss St",
    "address_councildis": "A",
    "status": "Invalid Request",
    "contractor": "IV Waste",
    "contractor_action": "Invalid Request",
    "rowid": "1276802",
    "final_x": "3675304.70395",
    "final_y": "540045.267339",
    "longitude": "-90.08734013140189",
    "latitude": "29.979123931418517",
    "geocoded_column": {
      "latitude": "29.979123931418517",
      "longitude": "-90.08734013140189"
    }
  },