[
  {
    "service_request": "2024-1153708",
    "request_type": "Trash/Recycling",
    "request_reason": "Order Trash Cart",
    "date_created": "2024-12-08T23:50:51.000",
    "date_modified": "2024-12-08T23:50:52.000",
    "request_status": "Pending",
    "responsible_agency": "Department of Sanitation",
    "final_address": "4337 Annette St",
    "address_councildis": "D",
    "status": "Assigned to Contractor",
    "contractor": "IV Waste",
    "rowid": "1153708",
    "final_x": "3682192.42978",
    "final_y": "548625.572307",
    "longitude": "-90.06528614111294",
    "latitude": "30.002508995217795",
    "geocoded_column": {
      "latitude": "30.002508995217795",
      "longitude": "-90.06528614111294"
    }
  },
  {
    "service_request": "2024-1153707",
    "request_type": "Streetlights",
    "request_reason": "Streetlight Outage/Malfunction",
    "date_created": "2024-12-08T23:09:06.000",
    "date_modified": "2024-12-08T23:09:07.000",
    "request_status": "Pending",
    "responsible_agency": "Department of Public Works",
    "final_address": "3928 Palmyra St",
    "address_councildis": "A",
    "status": "Pending",
    "contractor": "Legacy Professional Services",
    "rowid": "1153707",
    "final_x": "3671071.72993",
    "final_y": "537281.000584",
    "longitude": "-90.10080344878524",
    "latitude": "29.971649019431585",
    "geocoded_column": {
      "latitude": "29.971649019431585",
      "longitude": "-90.10080344878524"
    }
  },
  {
    "service_request": "2024-1153706",
    "request_type": "Streetlights",
    "request_reason": "Streetlight Outage/Malfunction",
    "date_created": "2024-12-08T22:59:21.000",
    "date_modified": "2024-12-08T22:59:22.000",
    "request_status": "Pending",
    "responsible_agency": "Department of Public Works",
    "final_address": "3414 Clermont Dr",
    "address_councildis": "D",
    "status": "Pending",
    "contractor": "Legacy Professional Services",
    "rowid": "1153706",
    "final_x": "3686085.08489",
    "final_y": "545208.124239",
    "longitude": "-90.05310939355999",
    "latitude": "29.992993218945013",
    "geocoded_column": {
      "latitude": "29.992993218945013",
      "longitude": "-90.05310939355999"
    }
  },
  {
    "service_request": "2024-1153705",
    "request_type": "Traffic Signals",
    "request_reason": "Traffic Signal Malfunctioning or Damaged",
    "date_created": "2024-12-08T21:25:06.000",
    "date_modified": "2024-12-08T21:25:06.000",
    "request_status": "Pending",
    "responsible_agency": "Department of Public Works",
    "final_address": "CANAL ST & DECATUR ST & MAGAZINE ST",
    "address_councildis": "C",
    "status": "Pending",
    "rowid": "1153705",
    "final_x": "3681822.3",
    "final_y": "530252.08",
    "longitude": "-90.06709685805245",
    "latitude": "29.95199954248446",
    "geocoded_column": {
      "latitude": "29.95199954248446",
      "longitude": "-90.06709685805245"
    }
  },
  {
    "service_request": "2024-1153704",
    "request_type": "Abandoned Vehicles",
    "request_reason": "Abandoned/Junk Vehicles",
    "date_created": "2024-12-08T20:02:36.000",
    "date_modified": "2024-12-08T20:02:36.000",
    "request_status": "Pending",
    "responsible_agency": "Department of Public Works",
    "final_address": "4046 Banks St",
    "address_councildis": "A",
    "status": "Pending",
    "rowid": "1153704",
    "final_x": "3670416.05658",
    "final_y": "537273.377992",
    "longitude": "-90.10287442825191",
    "latitude": "29.971647436337477",
    "geocoded_column": {
      "latitude": "29.971647436337477",
      "longitude": "-90.10287442825191"
    }
  },
  {
    "service_request": "2024-1153703",
    "request_type": "Abandoned Vehicles",
    "request_reason": "Abandoned/Junk Vehicles",
    "date_created": "2024-12-08T20:01:32.000",
    "date_modified": "2024-12-08T20:01:32.000",
    "request_status": "Pending",
    "responsible_agency": "Department of Public Works",
    "final_address": "4046 Banks St",
    "address_councildis": "A",
    "status": "Pending",
    "rowid": "1153703",
    "final_x": "3670416.05658",
    "final_y": "537273.377992",
    "longitude": "-90.10287442825191",
    "latitude": "29.971647436337477",
    "geocoded_column": {
      "latitude": "29.971647436337477",
      "longitude": "-90.10287442825191"
    }
  },
  {
    "service_request": "2024-1153702",
    "request_type": "Trash/Recycling",
    "request_reason": "Request a Large Item Pick Up",
    "date_created": "2024-12-08T19:41:15.000",
    "date_modified": "2024-12-08T19:41:16.000",
    "request_status": "Pending",
    "responsible_agency": "Department of Sanitation",
    "final_address": "27 Honeysuckle Ln",
    "address_councildis": "E",
    "status": "Assigned to Contractor",
    "contractor": "Waste Pro",
    "rowid": "1153702",
    "final_x": "3713039.35275",
    "final_y": "568522.473637",
    "longitude": "-89.96708832220801",
    "latitude": "30.056242867478442",
    "geocoded_column": {
      "latitude": "30.056242867478442",
      "longitude": "-89.96708832220801"
    }
  },
  {
    "service_request": "2024-1153701",
    "request_type": "Abandoned Vehicles",
    "request_reason": "Abandoned/Junk Vehicles",
    "date_created": "2024-12-08T18:53:53.000",
    "date_modified": "2024-12-08T18:53:53.000",
    "request_status": "Pending",
    "responsible_agency": "Department of Public Works",
    "final_address": "6032 Bellaire Dr",
    "address_councildis": "A",
    "status": "Pending",
    "rowid": "1153701",
    "final_x": "3664187.20999",
    "final_y": "547901.562642",
    "longitude": "-90.12219137019666",
    "latitude": "30.001053810449676",
    "geocoded_column": {
      "latitude": "30.001053810449676",
      "longitude": "-90.12219137019666"
    }
  },
  {
    "service_request": "2024-1153700",
    "request_type": "General Services",
    "request_reason": "General Service Request",
    "date_created": "2024-12-08T17:34:33.000",
    "date_modified": "2024-12-08T17:34:33.000",
    "request_status": "Pending",
    "responsible_agency": "Orleans Parish Communication District",
    "final_address": "7052 Bunker Hill Rd",
    "address_councildis": "E",
    "status": "Pending",
    "rowid": "1153700",
    "final_x": "3705814.98775",
    "final_y": "560541.157278",
    "longitude": "-89.99021883708043",
    "latitude": "30.034532295895726",
    "geocoded_column": {
      "latitude": "30.034532295895726",
      "longitude": "-89.99021883708043"
    }
  },
  {
    "service_request": "2024-1153699",
    "request_type": "Alley Ways",
    "request_reason": "Alley Way Regrading",
    "date_created": "2024-12-08T17:07:14.000",
    "date_modified": "2024-12-08T17:07:14.000",
    "request_status": "Pending",
    "responsible_agency": "Department of Public Works",
    "final_address": "6640 Marshal Foch St",
    "address_councildis": "A",
    "status": "Pending",
    "rowid": "1153699",
    "final_x": "3670135.72046",
    "final_y": "551564.072853",
    "longitude": "-90.10327528077804",
    "latitude": "30.010950205521738",
    "geocoded_column": {
      "latitude": "30.010950205521738",
      "longitude": "-90.10327528077804"
    }
  },
  {
    "service_request": "2024-1153698",
    "request_type": "Healthy Homes",
    "request_reason": "Healthy Homes",
    "date_created": "2024-12-08T16:59:35.000",
    "date_modified": "2024-12-08T16:59:35.000",
    "request_status": "Pending",
    "responsible_agency": "Department of Code Enforcement",
    "final_address": "2437 Calhoun St",
    "address_councildis": "A",
    "status": "Pending",
    "rowid": "1153698",
    "final_x": "3666211.81089",
    "final_y": "525972.591357",
    "longitude": "-90.11653112195386",
    "latitude": "29.940697436455373",
    "geocoded_column": {
      "latitude": "29.940697436455373",
      "longitude": "-90.11653112195386"
    }
  },
  {
    "service_request": "2024-1153697",
    "request_type": "Drainage",
    "request_reason": "Street Flooding",
    "date_created": "2024-12-08T16:48:26.000",
    "date_modified": "2024-12-08T16:48:26.000",
    "request_status": "Pending",
    "responsible_agency": "Department of Public Works",
    "final_address": "907 Dauphine St",
    "address_councildis": "C",
    "status": "Pending",
    "rowid": "1153697",
    "final_x": "3682454.96373",
    "final_y": "533560.886853",
    "longitude": "-90.06498355901505",
    "latitude": "29.961078396270416",
    "geocoded_column": {
      "latitude": "29.961078396270416",
      "longitude": "-90.06498355901505"
    }
  },
  {
    "service_request": "2024-1153696",
    "request_type": "Trash/Recycling",
    "request_reason": "Request a Large Item Pick Up",
    "date_created": "2024-12-08T16:47:17.000",
    "date_modified": "2024-12-08T16:47:19.000",
    "request_status": "Pending",
    "responsible_agency": "Department of Sanitation",
    "final_address": "6220 Vermillion Blvd",
    "address_councildis": "D",
    "status": "Assigned to Contractor",
    "contractor": "IV Waste",
    "rowid": "1153696",
    "final_x": "3682955.5661",
    "final_y": "555996.615641",
    "longitude": "-90.06261706028168",
    "latitude": "30.02275344085742",
    "geocoded_column": {
      "latitude": "30.02275344085742",
      "longitude": "-90.06261706028168"
    }
  },
  {
    "service_request": "2024-1153695",
    "request_type": "Roads and Streets",
    "request_reason": "Debris in Driving Lanes",
    "date_created": "2024-12-08T16:37:12.000",
    "date_modified": "2024-12-08T16:37:12.000",
    "request_status": "Pending",
    "responsible_agency": "Department of Public Works",
    "final_address": "7016 Queensway Dr",
    "address_councildis": "E",
    "status": "Pending",
    "rowid": "1153695",
    "final_x": "3719232.28153",
    "final_y": "569316.449894",
    "longitude": "-89.94748341819445",
    "latitude": "30.05822148251955",
    "geocoded_column": {
      "latitude": "30.05822148251955",
      "longitude": "-89.94748341819445"
    }
  },
  {
    "service_request": "2024-1153694",
    "request_type": "Trash/Recycling",
    "request_reason": "Replace Trash Cart",
    "date_created": "2024-12-08T16:35:28.000",
    "date_modified": "2024-12-08T16:35:29.000",
    "request_status": "Pending",
    "responsible_agency": "Department of Sanitation",
    "final_address": "1731 Terpsichore St",
    "address_councildis": "B",
    "status": "Assigned to Contractor",
    "contractor": "IV Waste",
    "rowid": "1153694",
    "final_x": "3678435.634",
    "final_y": "525686.900157",
    "longitude": "-90.07794828541044",
    "latitude": "29.939549289443292",
    "geocoded_column": {
      "latitude": "29.939549289443292",
      "longitude": "-90.07794828541044"
    }
  },
  {
    "service_request": "2024-1153693",
    "request_type": "Trash/Recycling",
    "request_reason": "Replace Trash Cart",
    "date_created": "2024-12-08T16:29:25.000",
    "date_modified": "2024-12-08T16:29:26.000",
    "request_status": "Pending",
    "responsible_agency": "Department of Sanitation",
    "final_address": "1731 Terpsichore St",
    "address_councildis": "B",
    "status": "Assigned to Contractor",
    "contractor": "IV Waste",
    "rowid": "1153693",
    "final_x": "3678435.634",
    "final_y": "525686.900157",
    "longitude": "-90.07794828541044",
    "latitude": "29.939549289443292",
    "geocoded_column": {
      "latitude": "29.939549289443292",
      "longitude": "-90.07794828541044"
    }
  },
  {
    "service_request": "2024-1153692",
    "request_type": "Streetlights",
    "request_reason": "Streetlight Outage/Malfunction",
    "date_created": "2024-12-08T16:15:02.000",
    "date_modified": "2024-12-08T16:15:03.000",
    "request_status": "Pending",
    "responsible_agency": "Department of Public Works",
    "final_address": "41 Stilt St",
    "address_councildis": "D",
    "status": "Pending",
    "contractor": "Legacy Professional Services",
    "rowid": "1153692",
    "final_x": "3673501.52904",
    "final_y": "557308.542171",
    "longitude": "-90.09244479678645",
    "latitude": "30.026645658177287",
    "geocoded_column": {
      "latitude": "30.026645658177287",
      "longitude": "-90.09244479678645"
    }
  },
  {
    "service_request": "2024-1153691",
    "request_type": "Streetlights",
    "request_reason": "Streetlight Outage/Malfunction",
    "date_created": "2024-12-08T16:14:13.000",
    "date_modified": "2024-12-08T16:14:14.000",
    "request_status": "Pending",
    "responsible_agency": "Department of Public Works",
    "final_address": "1 Stilt St",
    "address_councildis": "D",
    "status": "Pending",
    "contractor": "Legacy Professional Services",
    "rowid": "1153691",
    "final_x": "3672496.91329",
    "final_y": "557237.030235",
    "longitude": "-90.09562172212512",
    "latitude": "30.026478902537917",
    "geocoded_column": {
      "latitude": "30.026478902537917",
      "longitude": "-90.09562172212512"
    }
  },
  {
    "service_request": "2024-1153690",
    "request_type": "Streetlights",
    "request_reason": "Streetlight Outage/Malfunction",
    "date_created": "2024-12-08T16:12:55.000",
    "date_modified": "2024-12-08T16:12:56.000",
    "request_status": "Pending",
    "responsible_agency": "Department of Public Works",
    "final_address": "15 Stilt St",
    "address_councildis": "D",
    "status": "Pending",
    "contractor": "Legacy Professional Services",
    "rowid": "1153690",
    "final_x": "3672848.60507",
    "final_y": "557236.927323",
    "longitude": "-90.09451041705806",
    "latitude": "30.026468169295587",
    "geocoded_column": {
      "latitude": "30.026468169295587",
      "longitude": "-90.09451041705806"
    }
  },
  {
    "service_request": "2024-1153689",
    "request_type": "Roads and Streets",
    "request_reason": "Pothole",
    "date_created": "2024-12-08T16:07:17.000",
    "date_modified": "2024-12-08T16:07:17.000",
    "request_status": "Pending",
    "responsible_agency": "Department of Public Works",
    "final_address": "2443 Dauphine St",
    "address_councildis": "C",
    "status": "Pending",
    "rowid": "1153689",
    "final_x": "3686265.00246",
    "final_y": "535349.080646",
    "longitude": "-90.05288908041109",
    "latitude": "29.96587879620598",
    "geocoded_column": {
      "latitude": "29.96587879620598",
      "longitude": "-90.05288908041109"
    }
  },
  {
    "service_request": "2024-1153688",
    "request_type": "Trash/Recycling",
    "request_reason": "Request a Large Item Pick Up",
    "date_created": "2024-12-08T15:59:00.000",
    "date_modified": "2024-12-08T15:59:01.000",
    "request_status": "Pending",
    "responsible_agency": "Department of Sanitation",
    "final_address": "7803 Birch St",
    "address_councildis": "A",
    "status": "Assigned to Contractor",
    "contractor": "IV Waste",
    "rowid": "1153688",
    "final_x": "3663732.51111",
    "final_y": "528712.37152",
    "longitude": "-90.12426746042033",
    "latitude": "29.948303115764087",
    "geocoded_column": {
      "latitude": "29.948303115764087",
      "longitude": "-90.12426746042033"
    }
  },
  {
    "service_request": "2024-1153687",
    "request_type": "Trash/Recycling",
    "request_reason": "Dead Animal Pick Up",
    "date_created": "2024-12-08T15:50:22.000",
    "date_modified": "2024-12-08T15:50:23.000",
    "request_status": "Pending",
    "responsible_agency": "Department of Sanitation",
    "final_address": "1800 Lapeyrouse St",
    "address_councildis": "D",
    "status": "Assigned to Contractor",
    "contractor": "IV Waste",
    "rowid": "1153687",
    "final_x": "3681552.44584",
    "final_y": "538213.605961",
    "longitude": "-90.06767125456373",
    "latitude": "29.973899212814658",
    "geocoded_column": {
      "latitude": "29.973899212814658",
      "longitude": "-90.06767125456373"
    }
  },
  {
    "service_request": "2024-1153686",
    "request_type": "Trash/Recycling",
    "request_reason": "Missed Trash Pick-Up",
    "date_created": "2024-12-08T15:02:03.000",
    "date_modified": "2024-12-08T15:02:04.000",
    "request_status": "Pending",
    "responsible_agency": "Department of Sanitation",
    "final_address": "Bourbon St, New Orleans, Louisiana, 70112",
    "address_councildis": "C",
    "status": "Assigned to Contractor",
    "contractor": "Empire Services",
    "rowid": "1153686",
    "final_x": "3681146.39893",
    "final_y": "531272.414338",
    "longitude": "-90.06919549071922",
    "latitude": "29.95482563751313",
    "geocoded_column": {
      "latitude": "29.95482563751313",
      "longitude": "-90.06919549071922"
    }
  },
  {
    "service_request": "2024-1153685",
    "request_type": "Drainage",
    "request_reason": "Catch Basin Damaged",
    "date_created": "2024-12-08T14:55:54.000",
    "date_modified": "2024-12-08T14:55:54.000",
    "request_status": "Pending",
    "responsible_agency": "Department of Public Works",
    "final_address": "2319 Prentiss Ave",
    "address_councildis": "D",
    "status": "Pending",
    "rowid": "1153685",
    "final_x": "3684512.41442",
    "final_y": "553974.389208",
    "longitude": "-90.05776891814072",
    "latitude": "30.017145497681515",
    "geocoded_column": {
      "latitude": "30.017145497681515",
      "longitude": "-90.05776891814072"
    }
  },
  {
    "service_request": "2024-1153684",
    "request_type": "Trash/Recycling",
    "request_reason": "Request a Large Item Pick Up",
    "date_created": "2024-12-08T14:47:54.000",
    "date_modified": "2024-12-08T14:47:56.000",
    "request_status": "Pending",
    "responsible_agency": "Department of Sanitation",
    "final_address": "5540 Maple Ridge Dr",
    "address_councildis": "E",
    "status": "Assigned to Contractor",
    "contractor": "Waste Pro",
    "rowid": "1153684",
    "final_x": "3724381.38342",
    "final_y": "563882.763361",
    "longitude": "-89.93141802575504",
    "latitude": "30.043108870404946",
    "geocoded_column": {
      "latitude": "30.043108870404946",
      "longitude": "-89.93141802575504"
    }
  },
  {
    "service_request": "2024-1153683",
    "request_type": "Trash/Recycling",
    "request_reason": "Request a Large Item Pick Up",
    "date_created": "2024-12-08T14:46:19.000",
    "date_modified": "2024-12-08T14:46:20.000",
    "request_status": "Pending",
    "responsible_agency": "Department of Sanitation",
    "final_address": "7678 Forum Blvd",
    "address_councildis": "E",
    "status": "Assigned to Contractor",
    "contractor": "Waste Pro",
    "rowid": "1153683",
    "final_x": "3719784.03941",
    "final_y": "573247.472297",
    "longitude": "-89.9455889058327",
    "latitude": "30.069011786231687",
    "geocoded_column": {
      "latitude": "30.069011786231687",
      "longitude": "-89.9455889058327"
    }
  },
  {
    "service_request": "2024-1153682",
    "request_type": "Trash/Recycling",
    "request_reason": "Illegal Dumping",
    "date_created": "2024-12-08T14:44:50.000",
    "date_modified": "2024-12-08T14:44:50.000",
    "request_status": "Pending",
    "responsible_agency": "Department of Sanitation",
    "final_address": "4528 Elba St",
    "address_councildis": "B",
    "status": "Pending",
    "rowid": "1153682",
    "final_x": "3669272.89255",
    "final_y": "530661.622658",
    "longitude": "-90.10670825473696",
    "latitude": "29.95350100754141",
    "geocoded_column": {
      "latitude": "29.95350100754141",
      "longitude": "-90.10670825473696"
    }
  },
  {
    "service_request": "2024-1153681",
    "request_type": "Drainage",
    "request_reason": "Catch Basin Clogged",
    "date_created": "2024-12-08T14:37:25.000",
    "date_modified": "2024-12-08T14:37:25.000",
    "request_status": "Pending",
    "responsible_agency": "Department of Public Works",
    "final_address": "1305 N Dorgenois St",
    "address_councildis": "D",
    "status": "Pending",
    "rowid": "1153681",
    "final_x": "3678486.67784",
    "final_y": "538469.484361",
    "longitude": "-90.07734477554322",
    "latitude": "29.974695547430247",
    "geocoded_column": {
      "latitude": "29.974695547430247",
      "longitude": "-90.07734477554322"
    }
  },
  {
    "service_request": "2024-1153680",
    "request_type": "Street and Traffic Signs",
    "request_reason": "Traffic or Parking Sign Damaged or Missing",
    "date_created": "2024-12-08T14:37:03.000",
    "date_modified": "2024-12-08T14:37:03.000",
    "request_status": "Pending",
    "responsible_agency": "Department of Public Works",
    "final_address": "2300 BLK General De Gaulle Dr",
    "address_councildis": "C",
    "status": "Pending",
    "rowid": "1153680",
    "final_x": "3692384.97543",
    "final_y": "522551.204029",
    "longitude": "-90.0340207600538",
    "latitude": "29.930499592433673",
    "geocoded_column": {
      "latitude": "29.930499592433673",
      "longitude": "-90.0340207600538"
    }
  },
  {
    "service_request": "2024-1153678",
    "request_type": "Streetlights",
    "request_reason": "Streetlight Outage/Malfunction",
    "date_created": "2024-12-08T14:04:58.000",
    "date_modified": "2024-12-08T14:04:59.000",
    "request_status": "Pending",
    "responsible_agency": "Department of Public Works",
    "final_address": "1901 Ellen Park Pl",
    "address_councildis": "C",
    "status": "Pending",
    "contractor": "Legacy Professional Services",
    "rowid": "1153678",
    "final_x": "3702880.71447",
    "final_y": "523961.918012",
    "longitude": "-90.00083575010268",
    "latitude": "29.93404713917782",
    "geocoded_column": {
      "latitude": "29.93404713917782",
      "longitude": "-90.00083575010268"
    }
  },
  {
    "service_request": "2024-1153677",
    "request_type": "Trash/Recycling",
    "request_reason": "Repair Trash Cart",
    "date_created": "2024-12-08T13:46:43.000",
    "date_modified": "2024-12-08T13:46:44.000",
    "request_status": "Pending",
    "responsible_agency": "Department of Sanitation",
    "final_address": "5641 Bentley Dr",
    "address_councildis": "E",
    "status": "Assigned to Contractor",
    "contractor": "Waste Pro",
    "rowid": "1153677",
    "final_x": "3703884.21924",
    "final_y": "556877.195738",
    "longitude": "-89.99645538442498",
    "latitude": "30.024519914722408",
    "geocoded_column": {
      "latitude": "30.024519914722408",
      "longitude": "-89.99645538442498"
    }
  },
  {
    "service_request": "2024-1153676",
    "request_type": "Roads and Streets",
    "request_reason": "Sidewalk Damaged or Missing",
    "date_created": "2024-12-08T13:41:07.000",
    "date_modified": "2024-12-08T13:41:07.000",
    "request_status": "Pending",
    "responsible_agency": "Department of Public Works",
    "final_address": "2737 Banks St",
    "address_councildis": "B",
    "status": "Pending",
    "rowid": "1153676",
    "final_x": "3674387.28833",
    "final_y": "534406.146309",
    "longitude": "-90.09043088223622",
    "latitude": "29.963645661184604",
    "geocoded_column": {
      "latitude": "29.963645661184604",
      "longitude": "-90.09043088223622"
    }
  },
  {
    "service_request": "2024-1153675",
    "request_type": "Trash/Recycling",
    "request_reason": "Request a Large Item Pick Up",
    "date_created": "2024-12-08T13:27:47.000",
    "date_modified": "2024-12-08T13:27:48.000",
    "request_status": "Pending",
    "responsible_agency": "Department of Sanitation",
    "final_address": "8336 Apple St",
    "address_councildis": "A",
    "status": "Assigned to Contractor",
    "contractor": "IV Waste",
    "rowid": "1153675",
    "final_x": "3664567.35079",
    "final_y": "532775.672644",
    "longitude": "-90.12149583109972",
    "latitude": "29.95945162656521",
    "geocoded_column": {
      "latitude": "29.95945162656521",
      "longitude": "-90.12149583109972"
    }
  },
  {
    "service_request": "2024-1153674",
    "request_type": "Property Maintenance",
    "request_reason": "Property Maintenance",
    "date_created": "2024-12-08T13:25:28.000",
    "date_modified": "2024-12-08T13:25:28.000",
    "request_status": "Pending",
    "responsible_agency": "Department of Code Enforcement",
    "final_address": "13020 Dwyer Blvd",
    "address_councildis": "E",
    "status": "Pending",
    "rowid": "1153674",
    "final_x": "3723916.45196",
    "final_y": "561135.879902",
    "longitude": "-89.93299347505851",
    "latitude": "30.035571704118507",
    "geocoded_column": {
      "latitude": "30.035571704118507",
      "longitude": "-89.93299347505851"
    }
  },
  {
    "service_request": "2024-1153673",
    "request_type": "Abandoned Vehicles",
    "request_reason": "Abandoned/Junk Vehicles",
    "date_created": "2024-12-08T12:56:37.000",
    "date_modified": "2024-12-08T12:56:37.000",
    "request_status": "Pending",
    "responsible_agency": "Department of Public Works",
    "final_address": "314 S Olympia St",
    "address_councildis": "A",
    "status": "Pending",
    "rowid": "1153673",
    "final_x": "3668879.35079",
    "final_y": "538847.749449",
    "longitude": "-90.10767440757911",
    "latitude": "29.976021714161657",
    "geocoded_column": {
      "latitude": "29.976021714161657",
      "longitude": "-90.10767440757911"
    }
  },
  {
    "service_request": "2024-1153672",
    "request_type": "Trash/Recycling",
    "request_reason": "Request a Large Item Pick Up",
    "date_created": "2024-12-08T12:50:53.000",
    "date_modified": "2024-12-08T12:50:54.000",
    "request_status": "Pending",
    "responsible_agency": "Department of Sanitation",
    "final_address": "4306 Palmyra St",
    "address_councildis": "A",
    "status": "Assigned to Contractor",
    "contractor": "IV Waste",
    "rowid": "1153672",
    "final_x": "3669705.68526",
    "final_y": "538364.658633",
    "longitude": "-90.10508095145349",
    "latitude": "29.974669047279562",
    "geocoded_column": {
      "latitude": "29.974669047279562",
      "longitude": "-90.10508095145349"
    }
  },
  {
    "service_request": "2024-1153671",
    "request_type": "Property Maintenance",
    "request_reason": "Property Maintenance",
    "date_created": "2024-12-08T12:31:12.000",
    "date_modified": "2024-12-08T12:31:12.000",
    "request_status": "Pending",
    "responsible_agency": "Department of Code Enforcement",
    "final_address": "10310 Deerfield Dr",
    "address_councildis": "E",
    "status": "Pending",
    "rowid": "1153671",
    "final_x": "3710183.09489",
    "final_y": "563530.097568",
    "longitude": "-89.9763032665622",
    "latitude": "30.04260918197349",
    "geocoded_column": {
      "latitude": "30.04260918197349",
      "longitude": "-89.9763032665622"
    }
  },
  {
    "service_request": "2024-1153670",
    "request_type": "Trash/Recycling",
    "request_reason": "Replace Trash Cart",
    "date_created": "2024-12-08T12:16:21.000",
    "date_modified": "2024-12-08T12:16:22.000",
    "request_status": "Pending",
    "responsible_agency": "Department of Sanitation",
    "final_address": "3314 Palmyra St",
    "address_councildis": "B",
    "status": "Assigned to Contractor",
    "contractor": "IV Waste",
    "rowid": "1153670",
    "final_x": "3672942.1691",
    "final_y": "535828.554375",
    "longitude": "-90.09494588346462",
    "latitude": "29.96759982824493",
    "geocoded_column": {
      "latitude": "29.96759982824493",
      "longitude": "-90.09494588346462"
    }
  },
  {
    "service_request": "2024-1153669",
    "request_type": "Trash/Recycling",
    "request_reason": "Order Second Trash Cart",
    "date_created": "2024-12-08T12:04:57.000",
    "date_modified": "2024-12-08T12:04:58.000",
    "request_status": "Pending",
    "responsible_agency": "Department of Sanitation",
    "final_address": "1331 Nashville Ave",
    "address_councildis": "A",
    "status": "Assigned to Contractor",
    "contractor": "IV Waste",
    "rowid": "1153669",
    "final_x": "3666020.96992",
    "final_y": "520949.602809",
    "longitude": "-90.11730194106387",
    "latitude": "29.926891387730766",
    "geocoded_column": {
      "latitude": "29.926891387730766",
      "longitude": "-90.11730194106387"
    }
  },
  {
    "service_request": "2024-1153668",
    "request_type": "Drainage",
    "request_reason": "Catch Basin Clogged",
    "date_created": "2024-12-08T11:39:55.000",
    "date_modified": "2024-12-08T11:39:55.000",
    "request_status": "Pending",
    "responsible_agency": "Department of Public Works",
    "final_address": "6201 Colbert St",
    "address_councildis": "A",
    "status": "Pending",
    "rowid": "1153668",
    "final_x": "3667633.57082",
    "final_y": "548737.983507",
    "longitude": "-90.11127581505758",
    "latitude": "30.003253064517377",
    "geocoded_column": {
      "latitude": "30.003253064517377",
      "longitude": "-90.11127581505758"
    }
  },
  {
    "service_request": "2024-1153667",
    "request_type": "Property Maintenance",
    "request_reason": "Property Maintenance",
    "date_created": "2024-12-08T11:36:36.000",
    "date_modified": "2024-12-08T11:36:36.000",
    "request_status": "Pending",
    "responsible_agency": "Department of Code Enforcement",
    "final_address": "3105 Patterson St",
    "address_councildis": "C",
    "status": "Pending",
    "rowid": "1153667",
    "final_x": "3695845.54851",
    "final_y": "528538.070656",
    "longitude": "-90.02288016165049",
    "latitude": "29.946853057751845",
    "geocoded_column": {
      "latitude": "29.946853057751845",
      "longitude": "-90.02288016165049"
    }
  },
  {
    "service_request": "2024-1153666",
    "request_type": "Trash/Recycling",
    "request_reason": "Request a Large Item Pick Up",
    "date_created": "2024-12-08T11:26:25.000",
    "date_modified": "2024-12-08T11:26:26.000",
    "request_status": "Pending",
    "responsible_agency": "Department of Sanitation",
    "final_address": "13001 Sevres St",
    "address_councildis": "E",
    "status": "Assigned to Contractor",
    "contractor": "Waste Pro",
    "rowid": "1153666",
    "final_x": "3723874.14854",
    "final_y": "560182.019037",
    "longitude": "-89.93316399353245",
    "latitude": "30.032950398591936",
    "geocoded_column": {
      "latitude": "30.032950398591936",
      "longitude": "-89.93316399353245"
    }
  },
  {
    "service_request": "2024-1153665",
    "request_type": "Abandoned Vehicles",
    "request_reason": "Abandoned/Junk Vehicles",
    "date_created": "2024-12-08T11:03:06.000",
    "date_modified": "2024-12-08T11:03:06.000",
    "request_status": "Pending",
    "responsible_agency": "Department of Public Works",
    "final_address": "5609 N Rampart St",
    "address_councildis": "E",
    "status": "Pending",
    "rowid": "1153665",
    "final_x": "3698017.85469",
    "final_y": "533342.379844",
    "longitude": "-90.01584702276811",
    "latitude": "29.959994724181623",
    "geocoded_column": {
      "latitude": "29.959994724181623",
      "longitude": "-90.01584702276811"
    }
  },
  {
    "service_request": "2024-1153664",
    "request_type": "Healthy Homes",
    "request_reason": "Healthy Homes",
    "date_created": "2024-12-08T11:01:50.000",
    "date_modified": "2024-12-08T11:01:50.000",
    "request_status": "Pending",
    "responsible_agency": "Department of Code Enforcement",
    "final_address": "936 N Robertson St",
    "address_councildis": "C",
    "status": "Pending",
    "rowid": "1153664",
    "final_x": "3680720.71816",
    "final_y": "535166.935878",
    "longitude": "-90.07040408729792",
    "latitude": "29.965547152993377",
    "geocoded_column": {
      "latitude": "29.965547152993377",
      "longitude": "-90.07040408729792"
    }
  },
  {
    "service_request": "2024-1153663",
    "request_type": "Healthy Homes",
    "request_reason": "Healthy Homes",
    "date_created": "2024-12-08T10:57:57.000",
    "date_modified": "2024-12-08T10:57:57.000",
    "request_status": "Pending",
    "responsible_agency": "Department of Code Enforcement",
    "final_address": "936 N Robertson St",
    "address_councildis": "C",
    "status": "Pending",
    "rowid": "1153663",
    "final_x": "3680720.71816",
    "final_y": "535166.935878",
    "longitude": "-90.07040408729792",
    "latitude": "29.965547152993377",
    "geocoded_column": {
      "latitude": "29.965547152993377",
      "longitude": "-90.07040408729792"
    }
  },
  {
    "service_request": "2024-1153662",
    "request_type": "Property Maintenance",
    "request_reason": "Property Maintenance",
    "date_created": "2024-12-08T10:51:10.000",
    "date_modified": "2024-12-08T10:51:10.000",
    "request_status": "Pending",
    "responsible_agency": "Department of Code Enforcement",
    "final_address": "2839 Laurel St",
    "address_councildis": "B",
    "status": "Pending",
    "rowid": "1153662",
    "final_x": "3677161.09685",
    "final_y": "520066.908984",
    "longitude": "-90.08216591475184",
    "latitude": "29.924134483973564",
    "geocoded_column": {
      "latitude": "29.924134483973564",
      "longitude": "-90.08216591475184"
    }
  },
  {
    "service_request": "2024-1153661",
    "request_type": "Property Maintenance",
    "request_reason": "Property Maintenance",
    "date_created": "2024-12-08T10:49:30.000",
    "date_modified": "2024-12-08T10:49:30.000",
    "request_status": "Pending",
    "responsible_agency": "Department of Code Enforcement",
    "final_address": "2843 Laurel St",
    "address_councildis": "B",
    "status": "Pending",
    "rowid": "1153661",
    "final_x": "3677131.42338",
    "final_y": "520052.635704",
    "longitude": "-90.08226007544351",
    "latitude": "29.924096127967033",
    "geocoded_column": {
      "latitude": "29.924096127967033",
      "longitude": "-90.08226007544351"
    }
  },
  {
    "service_request": "2024-1153660",
    "request_type": "Trash/Recycling",
    "request_reason": "Replace Trash Cart",
    "date_created": "2024-12-08T10:48:40.000",
    "date_modified": "2024-12-08T10:48:41.000",
    "request_status": "Pending",
    "responsible_agency": "Department of Sanitation",
    "final_address": "3100 BLK Saint Philip St",
    "address_councildis": "A",
    "status": "Assigned to Contractor",
    "contractor": "IV Waste",
    "rowid": "1153660",
    "final_x": "3675812.83206",
    "final_y": "539078.94722",
    "longitude": "-90.08576849381738",
    "latitude": "29.97645167987778",
    "geocoded_column": {
      "latitude": "29.97645167987778",
      "longitude": "-90.08576849381738"
    }
  },
  {
    "service_request": "2024-1153659",
    "request_type": "Drainage",
    "request_reason": "Catch Basin Damaged",
    "date_created": "2024-12-08T10:44:23.000",
    "date_modified": "2024-12-08T10:44:23.000",
    "request_status": "Pending",
    "responsible_agency": "Department of Public Works",
    "final_address": "5621 Elysian Fields Ave",
    "address_councildis": "D",
    "status": "Pending",
    "rowid": "1153659",
    "final_x": "3683790.80393",
    "final_y": "553703.192471",
    "longitude": "-90.06005843120654",
    "latitude": "30.016421874191074",
    "geocoded_column": {
      "latitude": "30.016421874191074",
      "longitude": "-90.06005843120654"
    }
  },
  {
    "service_request": "2024-1153658",
    "request_type": "Drainage",
    "request_reason": "Catch Basin Damaged",
    "date_created": "2024-12-08T10:41:23.000",
    "date_modified": "2024-12-08T10:41:23.000",
    "request_status": "Pending",
    "responsible_agency": "Department of Public Works",
    "final_address": "2319 Prentiss Ave",
    "address_councildis": "D",
    "status": "Pending",
    "rowid": "1153658",
    "final_x": "3684512.41442",
    "final_y": "553974.389208",
    "longitude": "-90.05776891814072",
    "latitude": "30.017145497681515",
    "geocoded_column": {
      "latitude": "30.017145497681515",
      "longitude": "-90.05776891814072"
    }
  },
  {
    "service_request": "2024-1153657",
    "request_type": "Abandoned Vehicles",
    "request_reason": "Abandoned/Junk Vehicles",
    "date_created": "2024-12-08T10:39:03.000",
    "date_modified": "2024-12-08T10:39:03.000",
    "request_status": "Pending",
    "responsible_agency": "Department of Public Works",
    "final_address": "1417 Constantinople St",
    "address_councildis": "B",
    "status": "Pending",
    "rowid": "1153657",
    "final_x": "3672388.44852",
    "final_y": "520611.792248",
    "longitude": "-90.09721296070275",
    "latitude": "29.925775171087935",
    "geocoded_column": {
      "latitude": "29.925775171087935",
      "longitude": "-90.09721296070275"
    }
  },
  {
    "service_request": "2024-1153656",
    "request_type": "General Services",
    "request_reason": "General Service Request",
    "date_created": "2024-12-08T10:39:01.000",
    "date_modified": "2024-12-08T10:39:01.000",
    "request_status": "Pending",
    "responsible_agency": "Orleans Parish Communication District",
    "final_address": "New Orleans,LA",
    "status": "Pending",
    "rowid": "1153656",
    "longitude": "0.0",
    "latitude": "0.0",
    "geocoded_column": {
      "latitude": "0.0",
      "longitude": "0.0"
    }
  },
  {
    "service_request": "2024-1153655",
    "request_type": "Roads and Streets",
    "request_reason": "Pothole",
    "date_created": "2024-12-08T10:37:47.000",
    "date_modified": "2024-12-08T10:37:47.000",
    "request_status": "Pending",
    "responsible_agency": "Department of Public Works",
    "final_address": "2300 BLK Prentiss Ave",
    "address_councildis": "D",
    "status": "Pending",
    "rowid": "1153655",
    "final_x": "3684543.60036",
    "final_y": "553918.171151",
    "longitude": "-90.05767236096682",
    "latitude": "30.016989964030568",
    "geocoded_column": {
      "latitude": "30.016989964030568",
      "longitude": "-90.05767236096682"
    }
  },
  {
    "service_request": "2024-1153654",
    "request_type": "Trash/Recycling",
    "request_reason": "Request a Large Item Pick Up",
    "date_created": "2024-12-08T10:27:57.000",
    "date_modified": "2024-12-08T10:27:58.000",
    "request_status": "Pending",
    "responsible_agency": "Department of Sanitation",
    "final_address": "4925 S Rocheblave St",
    "address_councildis": "B",
    "status": "Assigned to Contractor",
    "contractor": "IV Waste",
    "rowid": "1153654",
    "final_x": "3669113.11591",
    "final_y": "528433.837376",
    "longitude": "-90.10728803121452",
    "latitude": "29.947380028494923",
    "geocoded_column": {
      "latitude": "29.947380028494923",
      "longitude": "-90.10728803121452"
    }
  },
  {
    "service_request": "2024-1153653",
    "request_type": "Trash/Recycling",
    "request_reason": "Replace Trash Cart",
    "date_created": "2024-12-08T10:18:21.000",
    "date_modified": "2024-12-08T10:18:22.000",
    "request_status": "Pending",
    "responsible_agency": "Department of Sanitation",
    "final_address": "4115 Toulouse St",
    "address_councildis": "A",
    "status": "Assigned to Contractor",
    "contractor": "IV Waste",
    "rowid": "1153653",
    "final_x": "3672184.89371",
    "final_y": "539811.721866",
    "longitude": "-90.09720167999733",
    "latitude": "29.978574674073393",
    "geocoded_column": {
      "latitude": "29.978574674073393",
      "longitude": "-90.09720167999733"
    }
  },
  {
    "service_request": "2024-1153652",
    "request_type": "Trash/Recycling",
    "request_reason": "Request a Large Item Pick Up",
    "date_created": "2024-12-08T10:13:19.000",
    "date_modified": "2024-12-08T10:13:20.000",
    "request_status": "Pending",
    "responsible_agency": "Department of Sanitation",
    "final_address": "4653 Press Dr",
    "address_councildis": "D",
    "status": "Assigned to Contractor",
    "contractor": "IV Waste",
    "rowid": "1153652",
    "final_x": "3689778.6815",
    "final_y": "550493.85762",
    "longitude": "-90.0412537232611",
    "latitude": "30.00741307262872",
    "geocoded_column": {
      "latitude": "30.00741307262872",
      "longitude": "-90.0412537232611"
    }
  },
  {
    "service_request": "2024-1153651",
    "request_type": "Trash/Recycling",
    "request_reason": "Dead Animal Pick Up",
    "date_created": "2024-12-08T09:27:12.000",
    "date_modified": "2024-12-08T12:28:59.000",
    "case_close_date": "2024-12-08T06:28:59.000",
    "request_status": "Closed",
    "responsible_agency": "Department of Sanitation",
    "final_address": "1714 Toledano St",
    "address_councildis": "B",
    "status": "Assigned to Contractor",
    "contractor": "IV Waste",
    "contractor_action": "Completed",
    "rowid": "1153651",
    "final_x": "3674333.38062",
    "final_y": "522176.599226",
    "longitude": "-90.09101982982531",
    "latitude": "29.93002004885039",
    "geocoded_column": {
      "latitude": "29.93002004885039",
      "longitude": "-90.09101982982531"
    }
  },
  {
    "service_request": "2024-1153650",
    "request_type": "Parks & Parkways",
    "request_reason": "Park Maintenance/Clean Up",
    "date_created": "2024-12-08T09:18:34.000",
    "date_modified": "2024-12-08T09:18:34.000",
    "request_status": "Pending",
    "responsible_agency": "Department of Parks & Parkway",
    "final_address": "900 BLK Pleasant St",
    "address_councildis": "B",
    "status": "Pending",
    "rowid": "1153650",
    "final_x": "3675802.9689",
    "final_y": "519374.75533",
    "longitude": "-90.08647682594369",
    "latitude": "29.922271991547763",
    "geocoded_column": {
      "latitude": "29.922271991547763",
      "longitude": "-90.08647682594369"
    }
  },
  {
    "service_request": "2024-1153649",
    "request_type": "Trash/Recycling",
    "request_reason": "Request a Large Item Pick Up",
    "date_created": "2024-12-08T09:00:22.000",
    "date_modified": "2024-12-08T09:00:23.000",
    "request_status": "Pending",
    "responsible_agency": "Department of Sanitation",
    "final_address": "2011 Washington Ave",
    "address_councildis": "B",
    "status": "Assigned to Contractor",
    "contractor": "IV Waste",
    "rowid": "1153649",
    "final_x": "3675097.84846",
    "final_y": "523850.157627",
    "longitude": "-90.08854913526439",
    "latitude": "29.93459897807159",
    "geocoded_column": {
      "latitude": "29.93459897807159",
      "longitude": "-90.08854913526439"
    }
  },
  {
    "service_request": "2024-1153648",
    "request_type": "Drainage",
    "request_reason": "Street Flooding",
    "date_created": "2024-12-08T08:40:35.000",
    "date_modified": "2024-12-08T08:40:35.000",
    "request_status": "Pending",
    "responsible_agency": "Department of Public Works",
    "final_address": "ESPLANADE AVE & N DORGENOIS ST",
    "address_councildis": "D",
    "status": "Pending",
    "rowid": "1153648",
    "final_x": "3678630.72",
    "final_y": "538582.89",
    "longitude": "-90.07688592730652",
    "latitude": "29.975003031713594",
    "geocoded_column": {
      "latitude": "29.975003031713594",
      "longitude": "-90.07688592730652"
    }
  },
  {
    "service_request": "2024-1153647",
    "request_type": "Health Related Request",
    "request_reason": "Noise Ordinance Complaint",
    "date_created": "2024-12-08T08:17:36.000",
    "date_modified": "2024-12-08T08:17:36.000",
    "request_status": "Pending",
    "responsible_agency": "Health Department",
    "final_address": "830 Deslonde St",
    "address_councildis": "E",
    "status": "Pending",
    "rowid": "1153647",
    "final_x": "3695096.40342",
    "final_y": "533527.162116",
    "longitude": "-90.02506562237743",
    "latitude": "29.960594850123556",
    "geocoded_column": {
      "latitude": "29.960594850123556",
      "longitude": "-90.02506562237743"
    }
  },
  {
    "service_request": "2024-1153646",
    "request_type": "Trash/Recycling",
    "request_reason": "Request a Large Item Pick Up",
    "date_created": "2024-12-08T08:15:46.000",
    "date_modified": "2024-12-08T08:15:47.000",
    "request_status": "Pending",
    "responsible_agency": "Department of Sanitation",
    "final_address": "11 Richmond Pl",
    "address_councildis": "A",
    "status": "Assigned to Contractor",
    "contractor": "IV Waste",
    "rowid": "1153646",
    "final_x": "3666614.04365",
    "final_y": "523737.125115",
    "longitude": "-90.11533622133872",
    "latitude": "29.93453886879972",
    "geocoded_column": {
      "latitude": "29.93453886879972",
      "longitude": "-90.11533622133872"
    }
  },
  {
    "service_request": "2024-1153645",
    "request_type": "Trash/Recycling",
    "request_reason": "Request a Large Item Pick Up",
    "date_created": "2024-12-08T08:01:20.000",
    "date_modified": "2024-12-08T08:01:21.000",
    "request_status": "Pending",
    "responsible_agency": "Department of Sanitation",
    "final_address": "5575 Jacquelyn Ct",
    "address_councildis": "A",
    "status": "Assigned to Contractor",
    "contractor": "IV Waste",
    "rowid": "1153645",
    "final_x": "3664531.53306",
    "final_y": "544794.791375",
    "longitude": "-90.1212074438025",
    "latitude": "29.992501239349508",
    "geocoded_column": {
      "latitude": "29.992501239349508",
      "longitude": "-90.1212074438025"
    }
  },
  {
    "service_request": "2024-1153644",
    "request_type": "General Services",
    "request_reason": "General Service Request",
    "date_created": "2024-12-08T07:39:19.000",
    "date_modified": "2024-12-08T07:39:19.000",
    "request_status": "Pending",
    "responsible_agency": "Orleans Parish Communication District",
    "final_address": "5725 General Diaz St",
    "address_councildis": "A",
    "status": "Pending",
    "rowid": "1153644",
    "final_x": "3669398.32666",
    "final_y": "545538.721616",
    "longitude": "-90.10580894181041",
    "latitude": "29.99440433255263",
    "geocoded_column": {
      "latitude": "29.99440433255263",
      "longitude": "-90.10580894181041"
    }
  },
  {
    "service_request": "2024-1153643",
    "request_type": "Abandoned Vehicles",
    "request_reason": "Abandoned/Junk Vehicles",
    "date_created": "2024-12-08T06:56:25.000",
    "date_modified": "2024-12-08T06:56:25.000",
    "request_status": "Pending",
    "responsible_agency": "Department of Public Works",
    "final_address": "3258 Chippewa St",
    "address_councildis": "B",
    "status": "Pending",
    "rowid": "1153643",
    "final_x": "3676117.18696",
    "final_y": "518352.261366",
    "longitude": "-90.08552011604151",
    "latitude": "29.919451056817913",
    "geocoded_column": {
      "latitude": "29.919451056817913",
      "longitude": "-90.08552011604151"
    }
  },
  {
    "service_request": "2024-1153642",
    "request_type": "Streetlights",
    "request_reason": "Streetlight Outage/Malfunction",
    "date_created": "2024-12-08T03:45:02.000",
    "date_modified": "2024-12-08T03:45:03.000",
    "request_status": "Pending",
    "responsible_agency": "Department of Public Works",
    "final_address": "2900 Toledano St",
    "address_councildis": "B",
    "status": "Pending",
    "contractor": "Legacy Professional Services",
    "rowid": "1153642",
    "final_x": "3672698.98036",
    "final_y": "525755.773053",
    "longitude": "-90.09605736530874",
    "latitude": "29.939910240021483",
    "geocoded_column": {
      "latitude": "29.939910240021483",
      "longitude": "-90.09605736530874"
    }
  },
  {
    "service_request": "2024-1153641",
    "request_type": "Trash/Recycling",
    "request_reason": "Request a Large Item Pick Up",
    "date_created": "2024-12-07T23:14:04.000",
    "date_modified": "2024-12-07T23:14:06.000",
    "request_status": "Pending",
    "responsible_agency": "Department of Sanitation",
    "final_address": "2233 Marengo St",
    "address_councildis": "B",
    "status": "Assigned to Contractor",
    "contractor": "IV Waste",
    "rowid": "1153641",
    "final_x": "3671758.07796",
    "final_y": "523411.239099",
    "longitude": "-90.09910766904835",
    "latitude": "29.933491433924548",
    "geocoded_column": {
      "latitude": "29.933491433924548",
      "longitude": "-90.09910766904835"
    }
  },
  {
    "service_request": "2024-1153640",
    "request_type": "Street and Traffic Signs",
    "request_reason": "Stop Sign Missing or Damaged",
    "date_created": "2024-12-07T22:45:02.000",
    "date_modified": "2024-12-07T22:45:02.000",
    "request_status": "Pending",
    "responsible_agency": "Department of Public Works",
    "final_address": "BURGUNDY ST & PIETY ST",
    "address_councildis": "C",
    "status": "Pending",
    "rowid": "1153640",
    "final_x": "3689638.2",
    "final_y": "535004.98",
    "longitude": "-90.04224890698487",
    "latitude": "29.964828561650005",
    "geocoded_column": {
      "latitude": "29.964828561650005",
      "longitude": "-90.04224890698487"
    }
  },
  {
    "service_request": "2024-1153639",
    "request_type": "Trash/Recycling",
    "request_reason": "Request a Large Item Pick Up",
    "date_created": "2024-12-07T21:28:11.000",
    "date_modified": "2024-12-07T21:28:12.000",
    "request_status": "Pending",
    "responsible_agency": "Department of Sanitation",
    "final_address": "2233 Marengo St",
    "address_councildis": "B",
    "status": "Assigned to Contractor",
    "contractor": "IV Waste",
    "rowid": "1153639",
    "final_x": "3671758.07796",
    "final_y": "523411.239099",
    "longitude": "-90.09910766904835",
    "latitude": "29.933491433924548",
    "geocoded_column": {
      "latitude": "29.933491433924548",
      "longitude": "-90.09910766904835"
    }
  },
  {
    "service_request": "2024-1153638",
    "request_type": "General Services",
    "request_reason": "General Service Request",
    "date_created": "2024-12-07T18:44:03.000",
    "date_modified": "2024-12-07T18:44:03.000",
    "request_status": "Pending",
    "responsible_agency": "Orleans Parish Communication District",
    "final_address": "ESPLANADE AVE & N CLAIBORNE AVE",
    "address_councildis": "D",
    "status": "Pending",
    "rowid": "1153638",
    "final_x": "3681314.4",
    "final_y": "536499.88",
    "longitude": "-90.06848280042382",
    "latitude": "29.969194285734545",
    "geocoded_column": {
      "latitude": "29.969194285734545",
      "longitude": "-90.06848280042382"
    }
  },
  {
    "service_request": "2024-1153637",
    "request_type": "Drainage",
    "request_reason": "Catch Basin Clogged",
    "date_created": "2024-12-07T18:05:03.000",
    "date_modified": "2024-12-07T18:05:03.000",
    "request_status": "Pending",
    "responsible_agency": "Department of Public Works",
    "final_address": "3024 Jackson Ave",
    "address_councildis": "B",
    "status": "Pending",
    "rowid": "1153637",
    "final_x": "3674158.23048",
    "final_y": "528122.353023",
    "longitude": "-90.09136930711328",
    "latitude": "29.946374150864685",
    "geocoded_column": {
      "latitude": "29.946374150864685",
      "longitude": "-90.09136930711328"
    }
  },
  {
    "service_request": "2024-1153636",
    "request_type": "Abandoned Vehicles",
    "request_reason": "Abandoned/Junk Vehicles",
    "date_created": "2024-12-07T17:44:26.000",
    "date_modified": "2024-12-07T17:44:26.000",
    "request_status": "Pending",
    "responsible_agency": "Department of Public Works",
    "final_address": "1304 Lowerline St",
    "address_councildis": "A",
    "status": "Pending",
    "rowid": "1153636",
    "final_x": "3663852.6544",
    "final_y": "527191.300863",
    "longitude": "-90.12393880712274",
    "latitude": "29.94411717352941",
    "geocoded_column": {
      "latitude": "29.94411717352941",
      "longitude": "-90.12393880712274"
    }
  },
  {
    "service_request": "2024-1153635",
    "request_type": "Healthy Homes",
    "request_reason": "Healthy Homes",
    "date_created": "2024-12-07T17:34:47.000",
    "date_modified": "2024-12-07T17:34:47.000",
    "request_status": "Pending",
    "responsible_agency": "Department of Code Enforcement",
    "final_address": "3821 Texas Dr Apt D",
    "address_councildis": "C",
    "status": "Pending",
    "rowid": "1153635",
    "final_x": "3696473.9672",
    "final_y": "517636.709366",
    "longitude": "-90.02129014447847",
    "latitude": "29.916858277113654",
    "geocoded_column": {
      "latitude": "29.916858277113654",
      "longitude": "-90.02129014447847"
    }
  },
  {
    "service_request": "2024-1153634",
    "request_type": "Trash/Recycling",
    "request_reason": "Replace Recycling Cart",
    "date_created": "2024-12-07T17:33:21.000",
    "date_modified": "2024-12-07T17:33:21.000",
    "request_status": "Pending",
    "responsible_agency": "Department of Sanitation",
    "final_address": "818 Toledano St",
    "address_councildis": "B",
    "status": "Pending",
    "rowid": "1153634",
    "final_x": "3675744.71265",
    "final_y": "518889.313655",
    "longitude": "-90.08667738879039",
    "latitude": "29.920938926103634",
    "geocoded_column": {
      "latitude": "29.920938926103634",
      "longitude": "-90.08667738879039"
    }
  },
  {
    "service_request": "2024-1153633",
    "request_type": "Trash/Recycling",
    "request_reason": "Replace Trash Cart",
    "date_created": "2024-12-07T17:31:53.000",
    "date_modified": "2024-12-07T17:31:54.000",
    "request_status": "Pending",
    "responsible_agency": "Department of Sanitation",
    "final_address": "818 Toledano St",
    "address_councildis": "B",
    "status": "Assigned to Contractor",
    "contractor": "IV Waste",
    "rowid": "1153633",
    "final_x": "3675744.71265",
    "final_y": "518889.313655",
    "longitude": "-90.08667738879039",
    "latitude": "29.920938926103634",
    "geocoded_column": {
      "latitude": "29.920938926103634",
      "longitude": "-90.08667738879039"
    }
  },
  {
    "service_request": "2024-1153632",
    "request_type": "Trash/Recycling",
    "request_reason": "Request a Large Item Pick Up",
    "date_created": "2024-12-07T17:24:44.000",
    "date_modified": "2024-12-07T17:24:45.000",
    "request_status": "Pending",
    "responsible_agency": "Department of Sanitation",
    "final_address": "13056 Biscay St",
    "address_councildis": "E",
    "status": "Assigned to Contractor",
    "contractor": "Waste Pro",
    "rowid": "1153632",
    "final_x": "3724136.74291",
    "final_y": "561606.397343",
    "longitude": "-89.93227914606689",
    "latitude": "30.036858029649977",
    "geocoded_column": {
      "latitude": "30.036858029649977",
      "longitude": "-89.93227914606689"
    }
  },
  {
    "service_request": "2024-1153631",
    "request_type": "Street and Traffic Signs",
    "request_reason": "One Way Sign Missing or Damaged",
    "date_created": "2024-12-07T17:14:52.000",
    "date_modified": "2024-12-07T17:14:52.000",
    "request_status": "Pending",
    "responsible_agency": "Department of Public Works",
    "final_address": "7100 BLK Coliseum St",
    "address_councildis": "A",
    "status": "Pending",
    "rowid": "1153631",
    "final_x": "3661412.7877",
    "final_y": "522107.193762",
    "longitude": "-90.13181051017193",
    "latitude": "29.930208068604735",
    "geocoded_column": {
      "latitude": "29.930208068604735",
      "longitude": "-90.13181051017193"
    }
  },
  {
    "service_request": "2024-1153630",
    "request_type": "Trash/Recycling",
    "request_reason": "Request a Large Item Pick Up",
    "date_created": "2024-12-07T17:11:55.000",
    "date_modified": "2024-12-07T17:11:56.000",
    "request_status": "Pending",
    "responsible_agency": "Department of Sanitation",
    "final_address": "535 Belleville St",
    "address_councildis": "C",
    "status": "Assigned to Contractor",
    "contractor": "Richards Disposal",
    "rowid": "1153630",
    "final_x": "3687790.07535",
    "final_y": "529639.179457",
    "longitude": "-90.048275185763",
    "latitude": "29.950131591368322",
    "geocoded_column": {
      "latitude": "29.950131591368322",
      "longitude": "-90.048275185763"
    }
  },
  {
    "service_request": "2024-1153629",
    "request_type": "Roads and Streets",
    "request_reason": "Sidewalk Damaged or Missing",
    "date_created": "2024-12-07T16:42:24.000",
    "date_modified": "2024-12-07T16:42:24.000",
    "request_status": "Pending",
    "responsible_agency": "Department of Public Works",
    "final_address": "6110 Lafaye St",
    "address_councildis": "D",
    "status": "Pending",
    "rowid": "1153629",
    "final_x": "3687040.72073",
    "final_y": "555730.210329",
    "longitude": "-90.0497183742899",
    "latitude": "30.021895724083542",
    "geocoded_column": {
      "latitude": "30.021895724083542",
      "longitude": "-90.0497183742899"
    }
  },
  {
    "service_request": "2024-1153628",
    "request_type": "Trash/Recycling",
    "request_reason": "Request a Large Item Pick Up",
    "date_created": "2024-12-07T16:01:47.000",
    "date_modified": "2024-12-07T16:01:48.000",
    "request_status": "Pending",
    "responsible_agency": "Department of Sanitation",
    "final_address": "3820 Ursula Spencer Way",
    "address_councildis": "D",
    "status": "Assigned to Contractor",
    "contractor": "IV Waste",
    "rowid": "1153628",
    "final_x": "3693303.23523",
    "final_y": "545981.143952",
    "longitude": "-90.03028083710898",
    "latitude": "29.994895016396505",
    "geocoded_column": {
      "latitude": "29.994895016396505",
      "longitude": "-90.03028083710898"
    }
  },
  {
    "service_request": "2024-1153627",
    "request_type": "Trash/Recycling",
    "request_reason": "Request a Large Item Pick Up",
    "date_created": "2024-12-07T16:01:26.000",
    "date_modified": "2024-12-07T16:01:27.000",
    "request_status": "Pending",
    "responsible_agency": "Department of Sanitation",
    "final_address": "416 S Scott St",
    "address_councildis": "B",
    "status": "Assigned to Contractor",
    "contractor": "IV Waste",
    "rowid": "1153627",
    "final_x": "3670963.49076",
    "final_y": "536693.355847",
    "longitude": "-90.10116524222146",
    "latitude": "29.970036394995805",
    "geocoded_column": {
      "latitude": "29.970036394995805",
      "longitude": "-90.10116524222146"
    }
  },
  {
    "service_request": "2024-1153626",
    "request_type": "Abandoned Vehicles",
    "request_reason": "Abandoned/Junk Vehicles",
    "date_created": "2024-12-07T16:01:07.000",
    "date_modified": "2024-12-07T16:01:07.000",
    "request_status": "Pending",
    "responsible_agency": "Department of Public Works",
    "final_address": "314 S Olympia St",
    "address_councildis": "A",
    "status": "Pending",
    "rowid": "1153626",
    "final_x": "3668879.35079",
    "final_y": "538847.749449",
    "longitude": "-90.10767440757911",
    "latitude": "29.976021714161657",
    "geocoded_column": {
      "latitude": "29.976021714161657",
      "longitude": "-90.10767440757911"
    }
  },
  {
    "service_request": "2024-1153625",
    "request_type": "Trash/Recycling",
    "request_reason": "Request a Large Item Pick Up",
    "date_created": "2024-12-07T15:54:09.000",
    "date_modified": "2024-12-07T15:54:10.000",
    "request_status": "Pending",
    "responsible_agency": "Department of Sanitation",
    "final_address": "14544 Duane Rd",
    "address_councildis": "E",
    "status": "Assigned to Contractor",
    "contractor": "Waste Pro",
    "rowid": "1153625",
    "final_x": "3720821.2183",
    "final_y": "573338.248874",
    "longitude": "-89.94230669864447",
    "latitude": "30.069226803721783",
    "geocoded_column": {
      "latitude": "30.069226803721783",
      "longitude": "-89.94230669864447"
    }
  },
  {
    "service_request": "2024-1153624",
    "request_type": "Trash/Recycling",
    "request_reason": "Return Trash Cart",
    "date_created": "2024-12-07T15:46:42.000",
    "date_modified": "2024-12-07T15:46:43.000",
    "request_status": "Pending",
    "responsible_agency": "Department of Sanitation",
    "final_address": "3300 Chestnut St",
    "address_councildis": "B",
    "status": "Assigned to Contractor",
    "contractor": "IV Waste",
    "rowid": "1153624",
    "final_x": "3675090.84219",
    "final_y": "520428.677432",
    "longitude": "-90.08868858341386",
    "latitude": "29.925191226170174",
    "geocoded_column": {
      "latitude": "29.925191226170174",
      "longitude": "-90.08868858341386"
    }
  },
  {
    "service_request": "2024-1153623",
    "request_type": "Trash/Recycling",
    "request_reason": "Request a Large Item Pick Up",
    "date_created": "2024-12-07T15:26:53.000",
    "date_modified": "2024-12-07T15:26:54.000",
    "request_status": "Pending",
    "responsible_agency": "Department of Sanitation",
    "final_address": "3334 State Street Dr",
    "address_councildis": "A",
    "status": "Assigned to Contractor",
    "contractor": "IV Waste",
    "rowid": "1153623",
    "final_x": "3667712.26893",
    "final_y": "528667.07136",
    "longitude": "-90.11170320581219",
    "latitude": "29.948062486678708",
    "geocoded_column": {
      "latitude": "29.948062486678708",
      "longitude": "-90.11170320581219"
    }
  },
  {
    "service_request": "2024-1153622",
    "request_type": "Trash/Recycling",
    "request_reason": "Request a Large Item Pick Up",
    "date_created": "2024-12-07T15:23:20.000",
    "date_modified": "2024-12-07T15:23:21.000",
    "request_status": "Pending",
    "responsible_agency": "Department of Sanitation",
    "final_address": "3334 State Street Dr",
    "address_councildis": "A",
    "status": "Assigned to Contractor",
    "contractor": "IV Waste",
    "rowid": "1153622",
    "final_x": "3667712.26893",
    "final_y": "528667.07136",
    "longitude": "-90.11170320581219",
    "latitude": "29.948062486678708",
    "geocoded_column": {
      "latitude": "29.948062486678708",
      "longitude": "-90.11170320581219"
    }
  },
  {
    "service_request": "2024-1153621",
    "request_type": "Street and Traffic Signs",
    "request_reason": "Stop Sign Missing or Damaged",
    "date_created": "2024-12-07T15:16:42.000",
    "date_modified": "2024-12-07T15:16:42.000",
    "request_status": "Pending",
    "responsible_agency": "Department of Public Works",
    "final_address": "140 Fairway Dr",
    "address_councildis": "A",
    "status": "Pending",
    "rowid": "1153621",
    "final_x": "3664072.54324",
    "final_y": "540672.728971",
    "longitude": "-90.12279487290925",
    "latitude": "29.981180300589518",
    "geocoded_column": {
      "latitude": "29.981180300589518",
      "longitude": "-90.12279487290925"
    }
  },
  {
    "service_request": "2024-1153620",
    "request_type": "Trash/Recycling",
    "request_reason": "Request a Large Item Pick Up",
    "date_created": "2024-12-07T15:08:45.000",
    "date_modified": "2024-12-07T15:08:46.000",
    "request_status": "Pending",
    "responsible_agency": "Department of Sanitation",
    "final_address": "4915 Painters St",
    "address_councildis": "D",
    "status": "Assigned to Contractor",
    "contractor": "IV Waste",
    "rowid": "1153620",
    "final_x": "3686221.55138",
    "final_y": "551051.853973",
    "longitude": "-90.05247197564893",
    "latitude": "30.009057170733488",
    "geocoded_column": {
      "latitude": "30.009057170733488",
      "longitude": "-90.05247197564893"
    }
  },
  {
    "service_request": "2024-1153619",
    "request_type": "Trash/Recycling",
    "request_reason": "Replace Trash Cart",
    "date_created": "2024-12-07T14:38:11.000",
    "date_modified": "2024-12-07T14:38:12.000",
    "request_status": "Pending",
    "responsible_agency": "Department of Sanitation",
    "final_address": "1726 Bienville Ave",
    "address_councildis": "B",
    "status": "Assigned to Contractor",
    "contractor": "IV Waste",
    "rowid": "1153619",
    "final_x": "3678595.17499",
    "final_y": "533536.102789",
    "longitude": "-90.0771729240522",
    "latitude": "29.961127162272025",
    "geocoded_column": {
      "latitude": "29.961127162272025",
      "longitude": "-90.0771729240522"
    }
  },
  {
    "service_request": "2024-1153618",
    "request_type": "Trash/Recycling",
    "request_reason": "Order Trash Cart",
    "date_created": "2024-12-07T14:31:43.000",
    "date_modified": "2024-12-07T14:31:44.000",
    "request_status": "Pending",
    "responsible_agency": "Department of Sanitation",
    "final_address": "6141 Mandeville St",
    "address_councildis": "D",
    "status": "Assigned to Contractor",
    "contractor": "IV Waste",
    "rowid": "1153618",
    "final_x": "3684297.8493",
    "final_y": "555719.906073",
    "longitude": "-90.0583854899433",
    "latitude": "30.021951593160047",
    "geocoded_column": {
      "latitude": "30.021951593160047",
      "longitude": "-90.0583854899433"
    }
  },
  {
    "service_request": "2024-1153617",
    "request_type": "Trash/Recycling",
    "request_reason": "Request a Large Item Pick Up",
    "date_created": "2024-12-07T14:23:34.000",
    "date_modified": "2024-12-07T14:23:35.000",
    "request_status": "Pending",
    "responsible_agency": "Department of Sanitation",
    "final_address": "6933 Lake Willow Dr",
    "address_councildis": "E",
    "status": "Assigned to Contractor",
    "contractor": "Waste Pro",
    "rowid": "1153617",
    "final_x": "3702796.48682",
    "final_y": "558824.772316",
    "longitude": "-89.99982078445142",
    "latitude": "30.02990984665359",
    "geocoded_column": {
      "latitude": "30.02990984665359",
      "longitude": "-89.99982078445142"
    }
  },
  {
    "service_request": "2024-1153616",
    "request_type": "Trash/Recycling",
    "request_reason": "Dead Animal Pick Up",
    "date_created": "2024-12-07T14:10:23.000",
    "date_modified": "2024-12-08T12:28:21.000",
    "case_close_date": "2024-12-08T06:28:21.000",
    "request_status": "Closed",
    "responsible_agency": "Department of Sanitation",
    "final_address": "2300 St Claude Ave",
    "address_councildis": "C",
    "status": "Assigned to Contractor",
    "contractor": "IV Waste",
    "contractor_action": "Completed",
    "rowid": "1153616",
    "final_x": "3685972.92796",
    "final_y": "536198.830855",
    "longitude": "-90.05378147430721",
    "latitude": "29.96822428536932",
    "geocoded_column": {
      "latitude": "29.96822428536932",
      "longitude": "-90.05378147430721"
    }
  },
  {
    "service_request": "2024-1153615",
    "request_type": "Trash/Recycling",
    "request_reason": "Request a Large Item Pick Up",
    "date_created": "2024-12-07T13:41:10.000",
    "date_modified": "2024-12-07T13:41:12.000",
    "request_status": "Pending",
    "responsible_agency": "Department of Sanitation",
    "final_address": "7320 Symmes Ave",
    "address_councildis": "E",
    "status": "Assigned to Contractor",
    "contractor": "Waste Pro",
    "rowid": "1153615",
    "final_x": "3708348.17579",
    "final_y": "563633.051553",
    "longitude": "-89.98209845240433",
    "latitude": "30.04295188897291",
    "geocoded_column": {
      "latitude": "30.04295188897291",
      "longitude": "-89.98209845240433"
    }
  },
  {
    "service_request": "2024-1153614",
    "request_type": "Trash/Recycling",
    "request_reason": "Order Recycling Cart",
    "date_created": "2024-12-07T13:22:20.000",
    "date_modified": "2024-12-07T13:22:20.000",
    "request_status": "Pending",
    "responsible_agency": "Department of Sanitation",
    "final_address": "12 Park Island Dr",
    "address_councildis": "A",
    "status": "Pending",
    "rowid": "1153614",
    "final_x": "3676142.16885",
    "final_y": "547877.723154",
    "longitude": "-90.08442545921098",
    "latitude": "30.000635390090014",
    "geocoded_column": {
      "latitude": "30.000635390090014",
      "longitude": "-90.08442545921098"
    }
  },
  {
    "service_request": "2024-1153613",
    "request_type": "Trash/Recycling",
    "request_reason": "Request a Large Item Pick Up",
    "date_created": "2024-12-07T13:15:53.000",
    "date_modified": "2024-12-07T13:15:54.000",
    "request_status": "Pending",
    "responsible_agency": "Department of Sanitation",
    "final_address": "7100 Wayside Dr",
    "address_councildis": "E",
    "status": "Assigned to Contractor",
    "contractor": "Waste Pro",
    "rowid": "1153613",
    "final_x": "3717507.48024",
    "final_y": "567863.865124",
    "longitude": "-89.95299057640362",
    "latitude": "30.054284721305013",
    "geocoded_column": {
      "latitude": "30.054284721305013",
      "longitude": "-89.95299057640362"
    }
  },
  {
    "service_request": "2024-1153612",
    "request_type": "Street and Traffic Signs",
    "request_reason": "Street Name Sign Damaged or Missing",
    "date_created": "2024-12-07T13:10:00.000",
    "date_modified": "2024-12-07T13:10:00.000",
    "request_status": "Pending",
    "responsible_agency": "Department of Public Works",
    "final_address": "S CLAIBORNE AVE & MONTICELLO AVE",
    "address_councildis": "A",
    "status": "Pending",
    "rowid": "1153612",
    "final_x": "3661800.0",
    "final_y": "534377.78",
    "longitude": "-90.13018139848843",
    "latitude": "29.963937085916985",
    "geocoded_column": {
      "latitude": "29.963937085916985",
      "longitude": "-90.13018139848843"
    }
  },
  {
    "service_request": "2024-1153611",
    "request_type": "Street and Traffic Signs",
    "request_reason": "Street Name Sign Damaged or Missing",
    "date_created": "2024-12-07T13:09:20.000",
    "date_modified": "2024-12-07T13:09:20.000",
    "request_status": "Pending",
    "responsible_agency": "Department of Public Works",
    "final_address": "S CLAIBORNE AVE & EAGLE ST",
    "address_councildis": "A",
    "status": "Pending",
    "rowid": "1153611",
    "final_x": "3662970.1",
    "final_y": "533166.38",
    "longitude": "-90.12652660404831",
    "latitude": "29.96057229654851",
    "geocoded_column": {
      "latitude": "29.96057229654851",
      "longitude": "-90.12652660404831"
    }
  },
  {
    "service_request": "2024-1153610",
    "request_type": "Street and Traffic Signs",
    "request_reason": "Street Name Sign Damaged or Missing",
    "date_created": "2024-12-07T13:08:42.000",
    "date_modified": "2024-12-07T13:08:42.000",
    "request_status": "Pending",
    "responsible_agency": "Department of Public Works",
    "final_address": "S CLAIBORNE AVE & LEONIDAS ST",
    "address_councildis": "A",
    "status": "Pending",
    "rowid": "1153610",
    "final_x": "3663560.2",
    "final_y": "532773.18",
    "longitude": "-90.12467627447951",
    "latitude": "29.95947402250255",
    "geocoded_column": {
      "latitude": "29.95947402250255",
      "longitude": "-90.12467627447951"
    }
  },
  {
    "service_request": "2024-1153609",
    "request_type": "Property Maintenance",
    "request_reason": "Property Maintenance",
    "date_created": "2024-12-07T13:01:20.000",
    "date_modified": "2024-12-07T13:01:20.000",
    "request_status": "Pending",
    "responsible_agency": "Department of Code Enforcement",
    "final_address": "225 Decatur St",
    "address_councildis": "C",
    "status": "Pending",
    "rowid": "1153609",
    "final_x": "3682151.08552",
    "final_y": "530732.09709",
    "longitude": "-90.06604194590034",
    "latitude": "29.953309432481966",
    "geocoded_column": {
      "latitude": "29.953309432481966",
      "longitude": "-90.06604194590034"
    }
  },
  {
    "service_request": "2024-1153608",
    "request_type": "Trash/Recycling",
    "request_reason": "Request a Large Item Pick Up",
    "date_created": "2024-12-07T12:31:24.000",
    "date_modified": "2024-12-07T12:31:25.000",
    "request_status": "Pending",
    "responsible_agency": "Department of Sanitation",
    "final_address": "6984 Queensway Dr",
    "address_councildis": "E",
    "status": "Assigned to Contractor",
    "contractor": "Waste Pro",
    "rowid": "1153608",
    "final_x": "3719355.27429",
    "final_y": "569152.90007",
    "longitude": "-89.94710091030844",
    "latitude": "30.057767697791764",
    "geocoded_column": {
      "latitude": "30.057767697791764",
      "longitude": "-89.94710091030844"
    }
  },
  {
    "service_request": "2024-1153607",
    "request_type": "General Services",
    "request_reason": "General Service Request",
    "date_created": "2024-12-07T12:22:42.000",
    "date_modified": "2024-12-07T12:22:42.000",
    "request_status": "Pending",
    "responsible_agency": "Orleans Parish Communication District",
    "final_address": "1218 N Rendon St",
    "address_councildis": "A",
    "status": "Pending",
    "rowid": "1153607",
    "final_x": "3676024.99099",
    "final_y": "539665.770826",
    "longitude": "-90.08507824076263",
    "latitude": "29.978058890235715",
    "geocoded_column": {
      "latitude": "29.978058890235715",
      "longitude": "-90.08507824076263"
    }
  },
  {
    "service_request": "2024-1153606",
    "request_type": "Trash/Recycling",
    "request_reason": "Request a Large Item Pick Up",
    "date_created": "2024-12-07T11:46:40.000",
    "date_modified": "2024-12-07T11:46:41.000",
    "request_status": "Pending",
    "responsible_agency": "Department of Sanitation",
    "final_address": "631 S Dupre St",
    "address_councildis": "B",
    "status": "Assigned to Contractor",
    "contractor": "IV Waste",
    "rowid": "1153606",
    "final_x": "3673243.06171",
    "final_y": "534006.393029",
    "longitude": "-90.09405789262209",
    "latitude": "29.962580551523185",
    "geocoded_column": {
      "latitude": "29.962580551523185",
      "longitude": "-90.09405789262209"
    }
  },
  {
    "service_request": "2024-1153605",
    "request_type": "Abandoned Vehicles",
    "request_reason": "Abandoned/Junk Vehicles",
    "date_created": "2024-12-07T11:44:38.000",
    "date_modified": "2024-12-07T11:44:38.000",
    "request_status": "Pending",
    "responsible_agency": "Department of Public Works",
    "final_address": "4217 Baudin St",
    "address_councildis": "A",
    "status": "Pending",
    "rowid": "1153605",
    "final_x": "3669540.85742",
    "final_y": "537587.578056",
    "longitude": "-90.10562781550783",
    "latitude": "29.972537194164378",
    "geocoded_column": {
      "latitude": "29.972537194164378",
      "longitude": "-90.10562781550783"
    }
  },
  {
    "service_request": "2024-1153604",
    "request_type": "Trash/Recycling",
    "request_reason": "Request a Large Item Pick Up",
    "date_created": "2024-12-07T11:42:54.000",
    "date_modified": "2024-12-07T11:42:55.000",
    "request_status": "Pending",
    "responsible_agency": "Department of Sanitation",
    "final_address": "4217 Baudin St",
    "address_councildis": "A",
    "status": "Assigned to Contractor",
    "contractor": "IV Waste",
    "rowid": "1153604",
    "final_x": "3669540.85742",
    "final_y": "537587.578056",
    "longitude": "-90.10562781550783",
    "latitude": "29.972537194164378",
    "geocoded_column": {
      "latitude": "29.972537194164378",
      "longitude": "-90.10562781550783"
    }
  },
  {
    "service_request": "2024-1153603",
    "request_type": "Trash/Recycling",
    "request_reason": "Request a Large Item Pick Up",
    "date_created": "2024-12-07T11:24:41.000",
    "date_modified": "2024-12-07T11:24:41.000",
    "request_status": "Pending",
    "responsible_agency": "Department of Sanitation",
    "final_address": "2212 Jefferson Ave",
    "address_councildis": "A",
    "status": "Assigned to Contractor",
    "contractor": "IV Waste",
    "rowid": "1153603",
    "final_x": "3667787.33505",
    "final_y": "523785.405563",
    "longitude": "-90.11163052971469",
    "latitude": "29.93463727914601",
    "geocoded_column": {
      "latitude": "29.93463727914601",
      "longitude": "-90.11163052971469"
    }
  },
  {
    "service_request": "2024-1153598",
    "request_type": "Abandoned Vehicles",
    "request_reason": "Abandoned/Junk Vehicles",
    "date_created": "2024-12-07T10:51:06.000",
    "date_modified": "2024-12-07T10:51:06.000",
    "request_status": "Pending",
    "responsible_agency": "Department of Public Works",
    "final_address": "5840 Brunswick Ct",
    "address_councildis": "C",
    "status": "Pending",
    "rowid": "1153598",
    "final_x": "3705303.07787",
    "final_y": "517184.860597",
    "longitude": "-89.99343868632837",
    "latitude": "29.915334911506523",
    "geocoded_column": {
      "latitude": "29.915334911506523",
      "longitude": "-89.99343868632837"
    }
  },
  {
    "service_request": "2024-1153597",
    "request_type": "Abandoned Vehicles",
    "request_reason": "Abandoned/Junk Vehicles",
    "date_created": "2024-12-07T10:47:02.000",
    "date_modified": "2024-12-07T10:47:02.000",
    "request_status": "Pending",
    "responsible_agency": "Department of Public Works",
    "final_address": "5851 Brighton Pl",
    "address_councildis": "C",
    "status": "Pending",
    "rowid": "1153597",
    "final_x": "3705320.27319",
    "final_y": "520011.253304",
    "longitude": "-89.9932800800956",
    "latitude": "29.923105959927607",
    "geocoded_column": {
      "latitude": "29.923105959927607",
      "longitude": "-89.9932800800956"
    }
  },
  {
    "service_request": "2024-1153596",
    "request_type": "Abandoned Vehicles",
    "request_reason": "Abandoned/Junk Vehicles",
    "date_created": "2024-12-07T10:43:55.000",
    "date_modified": "2024-12-07T10:43:55.000",
    "request_status": "Pending",
    "responsible_agency": "Department of Public Works",
    "final_address": "527 S Hennessey St",
    "address_councildis": "A",
    "status": "Pending",
    "rowid": "1153596",
    "final_x": "3669160.60839",
    "final_y": "537519.130056",
    "longitude": "-90.10683102758017",
    "latitude": "29.972360182204437",
    "geocoded_column": {
      "latitude": "29.972360182204437",
      "longitude": "-90.10683102758017"
    }
  },
  {
    "service_request": "2024-1153595",
    "request_type": "Abandoned Vehicles",
    "request_reason": "Abandoned/Junk Vehicles",
    "date_created": "2024-12-07T10:38:09.000",
    "date_modified": "2024-12-07T10:38:09.000",
    "request_status": "Pending",
    "responsible_agency": "Department of Public Works",
    "final_address": "2601 St Peter St",
    "address_councildis": "D",
    "status": "Pending",
    "rowid": "1153595",
    "final_x": "3677090.14965",
    "final_y": "536582.780231",
    "longitude": "-90.08182044213778",
    "latitude": "29.96954977327811",
    "geocoded_column": {
      "latitude": "29.96954977327811",
      "longitude": "-90.08182044213778"
    }
  },
  {
    "service_request": "2024-1153594",
    "request_type": "Abandoned Vehicles",
    "request_reason": "Abandoned/Junk Vehicles",
    "date_created": "2024-12-07T10:36:48.000",
    "date_modified": "2024-12-07T10:36:48.000",
    "request_status": "Pending",
    "responsible_agency": "Department of Public Works",
    "final_address": "527 S Hennessey St",
    "address_councildis": "A",
    "status": "Pending",
    "rowid": "1153594",
    "final_x": "3669160.60839",
    "final_y": "537519.130056",
    "longitude": "-90.10683102758017",
    "latitude": "29.972360182204437",
    "geocoded_column": {
      "latitude": "29.972360182204437",
      "longitude": "-90.10683102758017"
    }
  },
  {
    "service_request": "2024-1153593",
    "request_type": "Abandoned Vehicles",
    "request_reason": "Abandoned/Junk Vehicles",
    "date_created": "2024-12-07T10:35:57.000",
    "date_modified": "2024-12-07T10:35:57.000",
    "request_status": "Pending",
    "responsible_agency": "Department of Public Works",
    "final_address": "5827 Brighton Pl",
    "address_councildis": "C",
    "status": "Pending",
    "rowid": "1153593",
    "final_x": "3705123.11479",
    "final_y": "520053.0462",
    "longitude": "-89.9939008861738",
    "latitude": "29.92322721445709",
    "geocoded_column": {
      "latitude": "29.92322721445709",
      "longitude": "-89.9939008861738"
    }
  },
  {
    "service_request": "2024-1153592",
    "request_type": "Abandoned Vehicles",
    "request_reason": "Abandoned/Junk Vehicles",
    "date_created": "2024-12-07T10:33:28.000",
    "date_modified": "2024-12-07T10:33:28.000",
    "request_status": "Pending",
    "responsible_agency": "Department of Public Works",
    "final_address": "631 N Dorgenois St",
    "address_councildis": "D",
    "status": "Pending",
    "rowid": "1153592",
    "final_x": "3676900.89781",
    "final_y": "536460.654599",
    "longitude": "-90.08242232637785",
    "latitude": "29.969219651720664",
    "geocoded_column": {
      "latitude": "29.969219651720664",
      "longitude": "-90.08242232637785"
    }
  },
  {
    "service_request": "2024-1153591",
    "request_type": "Roads and Streets",
    "request_reason": "Pothole",
    "date_created": "2024-12-07T10:32:22.000",
    "date_modified": "2024-12-07T10:32:22.000",
    "request_status": "Pending",
    "responsible_agency": "Department of Public Works",
    "final_address": "5850 Brighton Pl",
    "address_councildis": "C",
    "status": "Pending",
    "rowid": "1153591",
    "final_x": "3705331.2915",
    "final_y": "520127.84268",
    "longitude": "-89.9932409956365",
    "latitude": "29.92342618585244",
    "geocoded_column": {
      "latitude": "29.92342618585244",
      "longitude": "-89.9932409956365"
    }
  },
  {
    "service_request": "2024-1153590",
    "request_type": "Streetlights",
    "request_reason": "Streetlight Outage/Malfunction",
    "date_created": "2024-12-07T10:32:11.000",
    "date_modified": "2024-12-07T10:32:13.000",
    "request_status": "Pending",
    "responsible_agency": "Department of Public Works",
    "final_address": "3435 Parkview Pl",
    "address_councildis": "A",
    "status": "Pending",
    "contractor": "Legacy Professional Services",
    "rowid": "1153590",
    "final_x": "3675608.9883",
    "final_y": "543427.191566",
    "longitude": "-90.08626283152094",
    "latitude": "29.988413953488056",
    "geocoded_column": {
      "latitude": "29.988413953488056",
      "longitude": "-90.08626283152094"
    }
  },
  {
    "service_request": "2024-1153589",
    "request_type": "Roads and Streets",
    "request_reason": "Debris in Driving Lanes",
    "date_created": "2024-12-07T10:30:30.000",
    "date_modified": "2024-12-07T10:30:30.000",
    "request_status": "Pending",
    "responsible_agency": "Department of Public Works",
    "final_address": "6130 Shetland Dr",
    "address_councildis": "C",
    "status": "Pending",
    "rowid": "1153589",
    "final_x": "3705432.81163",
    "final_y": "520143.560312",
    "longitude": "-89.99291995683419",
    "latitude": "29.923466138786033",
    "geocoded_column": {
      "latitude": "29.923466138786033",
      "longitude": "-89.99291995683419"
    }
  },
  {
    "service_request": "2024-1153588",
    "request_type": "Roads and Streets",
    "request_reason": "Push-up/Pavement Expansion",
    "date_created": "2024-12-07T10:13:46.000",
    "date_modified": "2024-12-07T10:13:46.000",
    "request_status": "Pending",
    "responsible_agency": "Department of Public Works",
    "final_address": "1648 Tropic Dr",
    "address_councildis": "C",
    "status": "Pending",
    "rowid": "1153588",
    "final_x": "3699536.94858",
    "final_y": "524572.937084",
    "longitude": "-90.01136956880836",
    "latitude": "29.93583372592589",
    "geocoded_column": {
      "latitude": "29.93583372592589",
      "longitude": "-90.01136956880836"
    }
  },
  {
    "service_request": "2024-1153587",
    "request_type": "Streetlights",
    "request_reason": "Streetlight Knocked Down/Leaning",
    "date_created": "2024-12-07T10:13:34.000",
    "date_modified": "2024-12-07T10:13:35.000",
    "request_status": "Pending",
    "responsible_agency": "Department of Public Works",
    "final_address": "GRAVIER ST & LOYOLA AVE",
    "address_councildis": "B",
    "status": "Pending",
    "contractor": "Legacy Professional Services",
    "rowid": "1153587",
    "final_x": "3679188.1",
    "final_y": "530787.08",
    "longitude": "-90.07539587633175",
    "latitude": "29.95355039196535",
    "geocoded_column": {
      "latitude": "29.95355039196535",
      "longitude": "-90.07539587633175"
    }
  },
  {
    "service_request": "2024-1153586",
    "request_type": "Drainage",
    "request_reason": "Street Flooding",
    "date_created": "2024-12-07T10:04:23.000",
    "date_modified": "2024-12-07T10:04:23.000",
    "request_status": "Pending",
    "responsible_agency": "Department of Public Works",
    "final_address": "5824 Marshal Foch St",
    "address_councildis": "A",
    "status": "Pending",
    "rowid": "1153586",
    "final_x": "3669627.32212",
    "final_y": "546058.939472",
    "longitude": "-90.10506795738348",
    "latitude": "29.995828004686874",
    "geocoded_column": {
      "latitude": "29.995828004686874",
      "longitude": "-90.10506795738348"
    }
  },
  {
    "service_request": "2024-1153585",
    "request_type": "Abandoned Vehicles",
    "request_reason": "Abandoned/Junk Vehicles",
    "date_created": "2024-12-07T10:03:19.000",
    "date_modified": "2024-12-07T10:03:19.000",
    "request_status": "Pending",
    "responsible_agency": "Department of Public Works",
    "final_address": "645 N Dorgenois St",
    "address_councildis": "D",
    "status": "Pending",
    "rowid": "1153585",
    "final_x": "3677037.38613",
    "final_y": "536507.057287",
    "longitude": "-90.08198968549227",
    "latitude": "29.96934314549711",
    "geocoded_column": {
      "latitude": "29.96934314549711",
      "longitude": "-90.08198968549227"
    }
  },
  {
    "service_request": "2024-1153584",
    "request_type": "Trash/Recycling",
    "request_reason": "Request a Large Item Pick Up",
    "date_created": "2024-12-07T09:55:41.000",
    "date_modified": "2024-12-07T09:55:42.000",
    "request_status": "Pending",
    "responsible_agency": "Department of Sanitation",
    "final_address": "37 Spanish Fort Blvd",
    "address_councildis": "D",
    "status": "Assigned to Contractor",
    "contractor": "IV Waste",
    "rowid": "1153584",
    "final_x": "3674095.50177",
    "final_y": "555092.447897",
    "longitude": "-90.09064384876098",
    "latitude": "30.02053449867548",
    "geocoded_column": {
      "latitude": "30.02053449867548",
      "longitude": "-90.09064384876098"
    }
  },
  {
    "service_request": "2024-1153583",
    "request_type": "Streetlights",
    "request_reason": "Streetlight Outage/Malfunction",
    "date_created": "2024-12-07T09:22:59.000",
    "date_modified": "2024-12-07T09:23:00.000",
    "request_status": "Pending",
    "responsible_agency": "Department of Public Works",
    "final_address": "6155 S Laverne St",
    "address_councildis": "D",
    "status": "Pending",
    "contractor": "Legacy Professional Services",
    "rowid": "1153583",
    "final_x": "3696873.31626",
    "final_y": "555490.922329",
    "longitude": "-90.01865875096503",
    "latitude": "30.02093123955977",
    "geocoded_column": {
      "latitude": "30.02093123955977",
      "longitude": "-90.01865875096503"
    }
  },
  {
    "service_request": "2024-1153582",
    "request_type": "Trash/Recycling",
    "request_reason": "Replace Trash Cart",
    "date_created": "2024-12-07T09:17:09.000",
    "date_modified": "2024-12-07T09:17:10.000",
    "request_status": "Pending",
    "responsible_agency": "Department of Sanitation",
    "final_address": "329 Lowerline St",
    "address_councildis": "A",
    "status": "Assigned to Contractor",
    "contractor": "IV Waste",
    "rowid": "1153582",
    "final_x": "3661536.41658",
    "final_y": "523552.803195",
    "longitude": "-90.13137236076453",
    "latitude": "29.93417947531416",
    "geocoded_column": {
      "latitude": "29.93417947531416",
      "longitude": "-90.13137236076453"
    }
  },
  {
    "service_request": "2024-1153581",
    "request_type": "Roads and Streets",
    "request_reason": "Sidewalk Damaged or Missing",
    "date_created": "2024-12-07T09:11:20.000",
    "date_modified": "2024-12-07T09:11:20.000",
    "request_status": "Closed",
    "responsible_agency": "Department of Public Works",
    "final_address": "1234 Chartres St",
    "address_councildis": "C",
    "status": "Referred to External Agency",
    "rowid": "1153581",
    "final_x": "3684118.27682",
    "final_y": "533877.608325",
    "longitude": "-90.05972001252022",
    "latitude": "29.961898541351673",
    "geocoded_column": {
      "latitude": "29.961898541351673",
      "longitude": "-90.05972001252022"
    }
  },
  {
    "service_request": "2024-1153580",
    "request_type": "Alley Ways",
    "request_reason": "Alley Way Regrading",
    "date_created": "2024-12-07T09:10:00.000",
    "date_modified": "2024-12-07T09:10:00.000",
    "request_status": "Pending",
    "responsible_agency": "Department of Public Works",
    "final_address": "6153 General Haig St",
    "address_councildis": "A",
    "status": "Pending",
    "rowid": "1153580",
    "final_x": "3670677.66932",
    "final_y": "548147.300818",
    "longitude": "-90.10167907952194",
    "latitude": "30.001539272547998",
    "geocoded_column": {
      "latitude": "30.001539272547998",
      "longitude": "-90.10167907952194"
    }
  },
  {
    "service_request": "2024-1153579",
    "request_type": "Trash/Recycling",
    "request_reason": "Missed Trash Pick-Up",
    "date_created": "2024-12-07T08:27:59.000",
    "date_modified": "2024-12-07T08:27:59.000",
    "request_status": "Pending",
    "responsible_agency": "Department of Sanitation",
    "final_address": "5410 Rhodes Ave",
    "address_councildis": "C",
    "status": "Assigned to Contractor",
    "contractor": "Richards Disposal",
    "rowid": "1153579",
    "final_x": "3704048.99748",
    "final_y": "519988.131256",
    "longitude": "-89.99729382850445",
    "latitude": "29.92308320174977",
    "geocoded_column": {
      "latitude": "29.92308320174977",
      "longitude": "-89.99729382850445"
    }
  },
  {
    "service_request": "2024-1153578",
    "request_type": "Traffic Signals",
    "request_reason": "Traffic Signal Malfunctioning or Damaged",
    "date_created": "2024-12-07T07:47:40.000",
    "date_modified": "2024-12-07T07:47:40.000",
    "request_status": "Pending",
    "responsible_agency": "Department of Public Works",
    "final_address": "POYDRAS ST & CAMP ST",
    "address_councildis": "B",
    "status": "Pending",
    "rowid": "1153578",
    "final_x": "3681126.1",
    "final_y": "529304.08",
    "longitude": "-90.06932814891445",
    "latitude": "29.949413998119116",
    "geocoded_column": {
      "latitude": "29.949413998119116",
      "longitude": "-90.06932814891445"
    }
  },
  {
    "service_request": "2024-1153577",
    "request_type": "Streetlights",
    "request_reason": "Streetlight Outage/Malfunction",
    "date_created": "2024-12-07T06:59:37.000",
    "date_modified": "2024-12-07T06:59:38.000",
    "request_status": "Pending",
    "responsible_agency": "Department of Public Works",
    "final_address": "6062 General Meyer Ave",
    "address_councildis": "C",
    "status": "Pending",
    "contractor": "Legacy Professional Services",
    "rowid": "1153577",
    "final_x": "3706430.23083",
    "final_y": "521210.517241",
    "longitude": "-89.98973201094871",
    "latitude": "29.926367777218733",
    "geocoded_column": {
      "latitude": "29.926367777218733",
      "longitude": "-89.98973201094871"
    }
  },
  {
    "service_request": "2024-1153575",
    "request_type": "Trash/Recycling",
    "request_reason": "Request a Large Item Pick Up",
    "date_created": "2024-12-06T22:26:32.000",
    "date_modified": "2024-12-06T22:26:34.000",
    "request_status": "Pending",
    "responsible_agency": "Department of Sanitation",
    "final_address": "1320 Spain St",
    "address_councildis": "C",
    "status": "Assigned to Contractor",
    "contractor": "IV Waste",
    "rowid": "1153575",
    "final_x": "3686029.03644",
    "final_y": "537305.913608",
    "longitude": "-90.05356523315157",
    "latitude": "29.971266654245923",
    "geocoded_column": {
      "latitude": "29.971266654245923",
      "longitude": "-90.05356523315157"
    }
  },
  {
    "service_request": "2024-1153574",
    "request_type": "Drainage",
    "request_reason": "Catch Basin Damaged",
    "date_created": "2024-12-06T22:22:53.000",
    "date_modified": "2024-12-07T09:57:21.000",
    "case_close_date": "2024-12-07T03:57:21.000",
    "request_status": "Closed",
    "responsible_agency": "Department of Public Works",
    "final_address": "11301 S Parkwood Ct",
    "address_councildis": "E",
    "status": "Referred to External Agency",
    "rowid": "1153574",
    "final_x": "3716862.77432",
    "final_y": "559213.925084",
    "longitude": "-89.95535711082726",
    "latitude": "30.030522241796408",
    "geocoded_column": {
      "latitude": "30.030522241796408",
      "longitude": "-89.95535711082726"
    }
  },
  {
    "service_request": "2024-1153573",
    "request_type": "Streetlights",
    "request_reason": "Streetlight Outage/Malfunction",
    "date_created": "2024-12-06T22:21:07.000",
    "date_modified": "2024-12-06T22:21:09.000",
    "request_status": "Pending",
    "responsible_agency": "Department of Public Works",
    "final_address": "3000 BLK Paris Ave",
    "address_councildis": "D",
    "status": "Pending",
    "contractor": "Legacy Professional Services",
    "rowid": "1153573",
    "final_x": "3679817.74564",
    "final_y": "543484.782569",
    "longitude": "-90.07296670773562",
    "latitude": "29.98844568720907",
    "geocoded_column": {
      "latitude": "29.98844568720907",
      "longitude": "-90.07296670773562"
    }
  },
  {
    "service_request": "2024-1153572",
    "request_type": "Streetlights",
    "request_reason": "Streetlight Outage/Malfunction",
    "date_created": "2024-12-06T22:18:15.000",
    "date_modified": "2024-12-06T22:18:16.000",
    "request_status": "Pending",
    "responsible_agency": "Department of Public Works",
    "final_address": "4300 BLK Paris Ave",
    "address_councildis": "D",
    "status": "Pending",
    "contractor": "Legacy Professional Services",
    "rowid": "1153572",
    "final_x": "3679422.23331",
    "final_y": "548278.956051",
    "longitude": "-90.07404958039099",
    "latitude": "30.00163992737879",
    "geocoded_column": {
      "latitude": "30.00163992737879",
      "longitude": "-90.07404958039099"
    }
  },
  {
    "service_request": "2024-1153570",
    "request_type": "Trash/Recycling",
    "request_reason": "Order Trash Cart",
    "date_created": "2024-12-06T20:32:43.000",
    "date_modified": "2024-12-06T20:32:44.000",
    "request_status": "Pending",
    "responsible_agency": "Department of Sanitation",
    "final_address": "1200 Mandeville St",
    "address_councildis": "C",
    "status": "Assigned to Contractor",
    "contractor": "IV Waste",
    "rowid": "1153570",
    "final_x": "3685709.2326",
    "final_y": "536758.86132",
    "longitude": "-90.05459449659045",
    "latitude": "29.969772268514152",
    "geocoded_column": {
      "latitude": "29.969772268514152",
      "longitude": "-90.05459449659045"
    }
  },
  {
    "service_request": "2024-1153569",
    "request_type": "Streetlights",
    "request_reason": "Streetlight Outage/Malfunction",
    "date_created": "2024-12-06T20:03:54.000",
    "date_modified": "2024-12-06T20:03:55.000",
    "request_status": "Pending",
    "responsible_agency": "Department of Public Works",
    "final_address": "45 Warbler St",
    "address_councildis": "D",
    "status": "Pending",
    "contractor": "Legacy Professional Services",
    "rowid": "1153569",
    "final_x": "3673342.8548",
    "final_y": "556537.650074",
    "longitude": "-90.09297256004078",
    "latitude": "30.024530707311076",
    "geocoded_column": {
      "latitude": "30.024530707311076",
      "longitude": "-90.09297256004078"
    }
  },
  {
    "service_request": "2024-1153568",
    "request_type": "Trash/Recycling",
    "request_reason": "Replace Trash Cart",
    "date_created": "2024-12-06T19:47:42.000",
    "date_modified": "2024-12-06T19:47:43.000",
    "request_status": "Pending",
    "responsible_agency": "Department of Sanitation",
    "final_address": "8130 Belfast St",
    "address_councildis": "A",
    "status": "Assigned to Contractor",
    "contractor": "IV Waste",
    "rowid": "1153568",
    "final_x": "3665404.71994",
    "final_y": "532481.452868",
    "longitude": "-90.1188614524517",
    "latitude": "29.95861824088328",
    "geocoded_column": {
      "latitude": "29.95861824088328",
      "longitude": "-90.1188614524517"
    }
  },
  {
    "service_request": "2024-1153567",
    "request_type": "Trash/Recycling",
    "request_reason": "Replace Recycling Cart",
    "date_created": "2024-12-06T19:47:34.000",
    "date_modified": "2024-12-06T19:47:34.000",
    "request_status": "Pending",
    "responsible_agency": "Department of Sanitation",
    "final_address": "6221 Tchoupitoulas St",
    "address_councildis": "A",
    "status": "Pending",
    "rowid": "1153567",
    "final_x": "3662964.33619",
    "final_y": "518051.559222",
    "longitude": "-90.12704728020587",
    "latitude": "29.91901151405797",
    "geocoded_column": {
      "latitude": "29.91901151405797",
      "longitude": "-90.12704728020587"
    }
  },
  {
    "service_request": "2024-1153566",
    "request_type": "Property Maintenance",
    "request_reason": "Property Maintenance",
    "date_created": "2024-12-06T19:29:07.000",
    "date_modified": "2024-12-06T19:29:07.000",
    "request_status": "Pending",
    "responsible_agency": "Department of Code Enforcement",
    "final_address": "1722 Monroe St",
    "address_councildis": "A",
    "status": "Pending",
    "rowid": "1153566",
    "final_x": "3661673.26899",
    "final_y": "531278.832514",
    "longitude": "-90.13068431917554",
    "latitude": "29.95541964434273",
    "geocoded_column": {
      "latitude": "29.95541964434273",
      "longitude": "-90.13068431917554"
    }
  },
  {
    "service_request": "2024-1153565",
    "request_type": "Trash/Recycling",
    "request_reason": "Replace Trash Cart",
    "date_created": "2024-12-06T19:15:28.000",
    "date_modified": "2024-12-06T19:15:29.000",
    "request_status": "Pending",
    "responsible_agency": "Department of Sanitation",
    "final_address": "8134 Freret St",
    "address_councildis": "A",
    "status": "Assigned to Contractor",
    "contractor": "IV Waste",
    "rowid": "1153565",
    "final_x": "3661258.30138",
    "final_y": "528017.572991",
    "longitude": "-90.13210260039614",
    "latitude": "29.946464196405227",
    "geocoded_column": {
      "latitude": "29.946464196405227",
      "longitude": "-90.13210260039614"
    }
  },
  {
    "service_request": "2024-1153564",
    "request_type": "Trash/Recycling",
    "request_reason": "Request a Large Item Pick Up",
    "date_created": "2024-12-06T19:11:44.000",
    "date_modified": "2024-12-06T19:11:45.000",
    "request_status": "Pending",
    "responsible_agency": "Department of Sanitation",
    "final_address": "4219 N Prieur St",
    "address_councildis": "D",
    "status": "Assigned to Contractor",
    "contractor": "IV Waste",
    "rowid": "1153564",
    "final_x": "3693300.15785",
    "final_y": "538221.113161",
    "longitude": "-90.03056925917456",
    "latitude": "29.97355782528889",
    "geocoded_column": {
      "latitude": "29.97355782528889",
      "longitude": "-90.03056925917456"
    }
  },
  {
    "service_request": "2024-1153563",
    "request_type": "Abandoned Vehicles",
    "request_reason": "Abandoned/Junk Vehicles",
    "date_created": "2024-12-06T18:57:36.000",
    "date_modified": "2024-12-06T18:57:36.000",
    "request_status": "Pending",
    "responsible_agency": "Department of Public Works",
    "final_address": "1100 BLK Leboeuf St",
    "address_councildis": "C",
    "status": "Pending",
    "rowid": "1153563",
    "final_x": "3689734.00173",
    "final_y": "527298.197816",
    "longitude": "-90.04222060285404",
    "latitude": "29.943634605429487",
    "geocoded_column": {
      "latitude": "29.943634605429487",
      "longitude": "-90.04222060285404"
    }
  },