[
  {
    "service_request": "2022-947369",
    "request_type": "Traffic Signals/Signs/Striping/Streetlights",
    "request_reason": "Street Light Outage/Malfunction",
    "date_created": "2022-11-29T00:58:53.000",
    "date_modified": "2022-11-29T00:58:53.000",
    "request_status": "Pending",
    "responsible_agency": "Department of Public Works",
    "final_address": "3626 Blair St",
    "address_councildis": "C",
    "status": "Pending",
    "contractor": "Legacy Professional Services",
    "rowid": "947369",
    "final_x": "3709348.40357",
    "final_y": "517364.905653",
    "longitude": "-89.98066355501977",
    "latitude": "29.915699281915867",
    "geocoded_column": {
      "latitude": "29.915699281915867",
      "longitude": "-89.98066355501977"
    }
  },
  {
    "service_request": "2022-947368",
    "request_type": "Health Related Request",
    "request_reason": "Noise Ordinance Complaint",
    "date_created": "2022-11-29T00:03:30.000",
    "date_modified": "2022-11-29T00:03:30.000",
    "request_status": "Pending",
    "responsible_agency": "Health Department",
    "final_address": "2308 Dauphine St",
    "address_councildis": "C",
    "status": "Pending",
    "rowid": "947368",
    "final_x": "3685603.80105",
    "final_y": "535244.20519",
    "longitude": "-90.0549808244843",
    "latitude": "29.965610724972848",
    "geocoded_column": {
      "latitude": "29.965610724972848",
      "longitude": "-90.0549808244843"
    }
  },
  {
    "service_request": "2022-947367",
    "request_type": "Trash/Recycling",
    "request_reason": "Replace Trash Cart",
    "date_created": "2022-11-28T22:54:53.000",
    "date_modified": "2022-11-28T22:54:54.000",
    "request_status": "Pending",
    "responsible_agency": "Department of Sanitation",
    "final_address": "3529 Republic St",
    "address_councildis": "D",
    "status": "Assigned to Contractor",
    "contractor": "IV Waste",
    "rowid": "947367",
    "final_x": "3680513.52104",
    "final_y": "545451.437712",
    "longitude": "-90.07070052266663",
    "latitude": "29.9938322338053",
    "geocoded_column": {
      "latitude": "29.9938322338053",
      "longitude": "-90.07070052266663"
    }
  },
  {
    "service_request": "2022-947366",
    "request_type": "Trash/Recycling",
    "request_reason": "Order Trash Cart",
    "date_created": "2022-11-28T22:52:27.000",
    "date_modified": "2022-11-28T22:52:27.000",
    "request_status": "Pending",
    "responsible_agency": "Department of Sanitation",
    "final_address": "3537 Republic St",
    "address_councildis": "D",
    "status": "Assigned to Contractor",
    "contractor": "IV Waste",
    "rowid": "947366",
    "final_x": "3680505.59976",
    "final_y": "545487.173648",
    "longitude": "-90.07072430093648",
    "latitude": "29.993930734999136",
    "geocoded_column": {
      "latitude": "29.993930734999136",
      "longitude": "-90.07072430093648"
    }
  },
  {
    "service_request": "2022-947365",
    "request_type": "Trash/Recycling",
    "request_reason": "Order Recycling Cart",
    "date_created": "2022-11-28T22:52:04.000",
    "date_modified": "2022-11-28T22:52:04.000",
    "request_status": "Pending",
    "responsible_agency": "Department of Sanitation",
    "final_address": "4170 Vincennes Pl",
    "address_councildis": "B",
    "status": "Pending",
    "rowid": "947365",
    "final_x": "3668614.56334",
    "final_y": "531038.76077",
    "longitude": "-90.10877425979879",
    "latitude": "29.954557375343313",
    "geocoded_column": {
      "latitude": "29.954557375343313",
      "longitude": "-90.10877425979879"
    }
  },
  {
    "service_request": "2022-947364",
    "request_type": "Abandoned Vehicles",
    "request_reason": "Vehicle Blocking Your Driveway",
    "date_created": "2022-11-28T22:37:53.000",
    "date_modified": "2022-11-28T22:37:53.000",
    "request_status": "Pending",
    "responsible_agency": "Department of Public Works",
    "final_address": "12530 N Lake Carmel Dr",
    "address_councildis": "E",
    "status": "Pending",
    "rowid": "947364",
    "final_x": "3715780.55167",
    "final_y": "567862.104164",
    "longitude": "-89.95844900185763",
    "latitude": "30.05433696790557",
    "geocoded_column": {
      "latitude": "30.05433696790557",
      "longitude": "-89.95844900185763"
    }
  },
  {
    "service_request": "2022-947362",
    "request_type": "Traffic Signals/Signs/Striping/Streetlights",
    "request_reason": "Street Light Outage/Malfunction",
    "date_created": "2022-11-28T22:13:01.000",
    "date_modified": "2022-11-28T22:13:02.000",
    "request_status": "Pending",
    "responsible_agency": "Department of Public Works",
    "final_address": "1930 Esplanade Ave",
    "address_councildis": "D",
    "status": "Pending",
    "contractor": "Legacy Professional Services",
    "rowid": "947362",
    "final_x": "3680162.51323",
    "final_y": "537348.926792",
    "longitude": "-90.07209102831996",
    "latitude": "29.971563784833346",
    "geocoded_column": {
      "latitude": "29.971563784833346",
      "longitude": "-90.07209102831996"
    }
  },
  {
    "service_request": "2022-947361",
    "request_type": "Trash/Recycling",
    "request_reason": "MIssed Recycling Pick-Up",
    "date_created": "2022-11-28T22:12:28.000",
    "date_modified": "2022-11-28T22:12:28.000",
    "request_status": "Pending",
    "responsible_agency": "Department of Sanitation",
    "final_address": "637 Herald St",
    "address_councildis": "C",
    "status": "Assigned to Contractor",
    "contractor": "Richards Disposal",
    "rowid": "947361",
    "final_x": "3702239.41201",
    "final_y": "520239.229816",
    "longitude": "-90.00299674918365",
    "latitude": "29.92383152902379",
    "geocoded_column": {
      "latitude": "29.92383152902379",
      "longitude": "-90.00299674918365"
    }
  },
  {
    "service_request": "2022-947360",
    "request_type": "Traffic Signals/Signs/Striping/Streetlights",
    "request_reason": "Street Light Outage/Malfunction",
    "date_created": "2022-11-28T22:09:21.000",
    "date_modified": "2022-11-28T22:09:21.000",
    "request_status": "Pending",
    "responsible_agency": "Department of Public Works",
    "final_address": "328 Olivier St",
    "address_councildis": "C",
    "status": "Pending",
    "contractor": "Legacy Professional Services",
    "rowid": "947360",
    "final_x": "3687282.08956",
    "final_y": "530539.589378",
    "longitude": "-90.04984728642488",
    "latitude": "29.952623065557578",
    "geocoded_column": {
      "latitude": "29.952623065557578",
      "longitude": "-90.04984728642488"
    }
  },
  {
    "service_request": "2022-947359",
    "request_type": "Traffic Signals/Signs/Striping/Streetlights",
    "request_reason": "Street Light Outage/Malfunction",
    "date_created": "2022-11-28T22:03:16.000",
    "date_modified": "2022-11-28T22:06:03.000",
    "request_status": "Pending",
    "responsible_agency": "Department of Public Works",
    "final_address": "328 Olivier St",
    "address_councildis": "C",
    "status": "Pending",
    "contractor": "Legacy Professional Services",
    "rowid": "947359",
    "final_x": "3687282.08956",
    "final_y": "530539.589378",
    "longitude": "-90.04984728642488",
    "latitude": "29.952623065557578",
    "geocoded_column": {
      "latitude": "29.952623065557578",
      "longitude": "-90.04984728642488"
    }
  },
  {
    "service_request": "2022-947358",
    "request_type": "Roads/Drainage",
    "request_reason": "Street Subsidence (Sinking)",
    "date_created": "2022-11-28T21:56:05.000",
    "date_modified": "2022-11-28T21:56:05.000",
    "request_status": "Pending",
    "responsible_agency": "Department of Public Works",
    "final_address": "7320 General Haig St",
    "address_councildis": "D",
    "status": "Pending",
    "rowid": "947358",
    "final_x": "3671193.68219",
    "final_y": "555325.569177",
    "longitude": "-90.09980481803319",
    "latitude": "30.02126171316125",
    "geocoded_column": {
      "latitude": "30.02126171316125",
      "longitude": "-90.09980481803319"
    }
  },
  {
    "service_request": "2022-947357",
    "request_type": "Roads/Drainage",
    "request_reason": "Catch Basin - Broken/Damage",
    "date_created": "2022-11-28T21:42:34.000",
    "date_modified": "2022-11-28T21:42:34.000",
    "request_status": "Pending",
    "responsible_agency": "Department of Public Works",
    "final_address": "2407 Spain St",
    "address_councildis": "D",
    "status": "Pending",
    "rowid": "947357",
    "final_x": "3685787.53468",
    "final_y": "541251.36174",
    "longitude": "-90.05418882913922",
    "latitude": "29.98212266612475",
    "geocoded_column": {
      "latitude": "29.98212266612475",
      "longitude": "-90.05418882913922"
    }
  },
  {
    "service_request": "2022-947356",
    "request_type": "Roads/Drainage",
    "request_reason": "Pothole",
    "date_created": "2022-11-28T21:38:08.000",
    "date_modified": "2022-11-28T21:38:08.000",
    "request_status": "Pending",
    "responsible_agency": "Department of Public Works",
    "final_address": "2193 Hope St",
    "address_councildis": "D",
    "status": "Pending",
    "rowid": "947356",
    "final_x": "3684431.25084",
    "final_y": "542226.628045",
    "longitude": "-90.05843834829034",
    "latitude": "29.984845866509442",
    "geocoded_column": {
      "latitude": "29.984845866509442",
      "longitude": "-90.05843834829034"
    }
  },
  {
    "service_request": "2022-947355",
    "request_type": "Abandoned Vehicles",
    "request_reason": "Abandoned/Junk Vehicles",
    "date_created": "2022-11-28T21:14:27.000",
    "date_modified": "2022-11-28T21:14:27.000",
    "request_status": "Pending",
    "responsible_agency": "Department of Public Works",
    "final_address": "12530 N Lake Carmel Dr",
    "address_councildis": "E",
    "status": "Pending",
    "rowid": "947355",
    "final_x": "3715780.55167",
    "final_y": "567862.104164",
    "longitude": "-89.95844900185763",
    "latitude": "30.05433696790557",
    "geocoded_column": {
      "latitude": "30.05433696790557",
      "longitude": "-89.95844900185763"
    }
  },
  {
    "service_request": "2022-947354",
    "request_type": "Trash/Recycling",
    "request_reason": "Missed Trash Pick-Up",
    "date_created": "2022-11-28T20:52:17.000",
    "date_modified": "2022-11-28T20:52:17.000",
    "request_status": "Pending",
    "responsible_agency": "Department of Sanitation",
    "final_address": "139 N Genois St",
    "address_councildis": "B",
    "status": "Assigned to Contractor",
    "contractor": "Richards Disposal",
    "rowid": "947354",
    "final_x": "3672762.56603",
    "final_y": "537571.66068",
    "longitude": "-90.09545360574924",
    "latitude": "29.97239811841257",
    "geocoded_column": {
      "latitude": "29.97239811841257",
      "longitude": "-90.09545360574924"
    }
  },
  {
    "service_request": "2022-947353",
    "request_type": "Abandoned Vehicles",
    "request_reason": "Vehicle Blocking Your Driveway",
    "date_created": "2022-11-28T20:41:47.000",
    "date_modified": "2022-11-28T20:41:47.000",
    "request_status": "Pending",
    "responsible_agency": "Department of Public Works",
    "final_address": "7201 Voyageur Dr",
    "address_councildis": "E",
    "status": "Pending",
    "rowid": "947353",
    "final_x": "3726763.67072",
    "final_y": "568921.422053",
    "longitude": "-89.92369322259694",
    "latitude": "30.056882712158902",
    "geocoded_column": {
      "latitude": "30.056882712158902",
      "longitude": "-89.92369322259694"
    }
  },
  {
    "service_request": "2022-947352",
    "request_type": "Trash/Recycling",
    "request_reason": "Order Recycling Cart",
    "date_created": "2022-11-28T20:40:22.000",
    "date_modified": "2022-11-28T20:40:22.000",
    "request_status": "Pending",
    "responsible_agency": "Department of Sanitation",
    "final_address": "6830 Manchester St",
    "address_councildis": "E",
    "status": "Pending",
    "rowid": "947352",
    "final_x": "3698591.07613",
    "final_y": "559896.172317",
    "longitude": "-90.01307077655628",
    "latitude": "30.032989685425093",
    "geocoded_column": {
      "latitude": "30.032989685425093",
      "longitude": "-90.01307077655628"
    }
  },
  {
    "service_request": "2022-947351",
    "request_type": "Abandoned Vehicles",
    "request_reason": "Vehicle Blocking Your Driveway",
    "date_created": "2022-11-28T20:36:15.000",
    "date_modified": "2022-11-28T20:36:15.000",
    "request_status": "Pending",
    "responsible_agency": "Department of Public Works",
    "final_address": "7201 Voyageur Dr",
    "address_councildis": "E",
    "status": "Pending",
    "rowid": "947351",
    "final_x": "3726763.67072",
    "final_y": "568921.422053",
    "longitude": "-89.92369322259694",
    "latitude": "30.056882712158902",
    "geocoded_column": {
      "latitude": "30.056882712158902",
      "longitude": "-89.92369322259694"
    }
  },
  {
    "service_request": "2022-947350",
    "request_type": "Trash/Recycling",
    "request_reason": "Order Recycling Cart",
    "date_created": "2022-11-28T20:30:40.000",
    "date_modified": "2022-11-28T20:30:40.000",
    "request_status": "Pending",
    "responsible_agency": "Department of Sanitation",
    "final_address": "1722 Abundance St",
    "address_councildis": "D",
    "status": "Pending",
    "rowid": "947350",
    "final_x": "3680880.07387",
    "final_y": "543341.19195",
    "longitude": "-90.06961615366818",
    "latitude": "29.98801869085835",
    "geocoded_column": {
      "latitude": "29.98801869085835",
      "longitude": "-90.06961615366818"
    }
  },
  {
    "service_request": "2022-947349",
    "request_type": "Abandoned Vehicles",
    "request_reason": "Abandoned/Junk Vehicles",
    "date_created": "2022-11-28T20:30:38.000",
    "date_modified": "2022-11-28T20:30:38.000",
    "request_status": "Pending",
    "responsible_agency": "Department of Public Works",
    "final_address": "4600 Freret St",
    "address_councildis": "B",
    "status": "Pending",
    "rowid": "947349",
    "final_x": "3669720.76724",
    "final_y": "523924.498876",
    "longitude": "-90.10552200026258",
    "latitude": "29.93496291660013",
    "geocoded_column": {
      "latitude": "29.93496291660013",
      "longitude": "-90.10552200026258"
    }
  },
  {
    "service_request": "2022-947348",
    "request_type": "Trash/Recycling",
    "request_reason": "Missed Trash Pick-Up",
    "date_created": "2022-11-28T20:27:29.000",
    "date_modified": "2022-11-28T20:27:30.000",
    "request_status": "Pending",
    "responsible_agency": "Department of Sanitation",
    "final_address": "829 N Lopez St",
    "address_councildis": "A",
    "status": "Assigned to Contractor",
    "contractor": "Richards Disposal",
    "rowid": "947348",
    "final_x": "3675535.05064",
    "final_y": "538580.663369",
    "longitude": "-90.08666293486168",
    "latitude": "29.975089882926152",
    "geocoded_column": {
      "latitude": "29.975089882926152",
      "longitude": "-90.08666293486168"
    }
  },
  {
    "service_request": "2022-947347",
    "request_type": "Roads/Drainage",
    "request_reason": "Pothole",
    "date_created": "2022-11-28T20:26:12.000",
    "date_modified": "2022-11-28T20:26:12.000",
    "request_status": "Pending",
    "responsible_agency": "Department of Public Works",
    "final_address": "6479 Memphis St",
    "address_councildis": "A",
    "status": "Pending",
    "rowid": "947347",
    "final_x": "3669584.40474",
    "final_y": "550584.160916",
    "longitude": "-90.10505029704869",
    "latitude": "30.008272053735055",
    "geocoded_column": {
      "latitude": "30.008272053735055",
      "longitude": "-90.10505029704869"
    }
  },
  {
    "service_request": "2022-947346",
    "request_type": "Traffic Signals/Signs/Striping/Streetlights",
    "request_reason": "Street Light Outage/Malfunction",
    "date_created": "2022-11-28T20:20:44.000",
    "date_modified": "2022-11-28T20:20:45.000",
    "request_status": "Pending",
    "responsible_agency": "Department of Public Works",
    "final_address": "6052 Canal Blvd",
    "address_councildis": "A",
    "status": "Pending",
    "contractor": "Legacy Professional Services",
    "rowid": "947346",
    "final_x": "3668390.52782",
    "final_y": "547782.911186",
    "longitude": "-90.10891670659126",
    "latitude": "30.00060472721618",
    "geocoded_column": {
      "latitude": "30.00060472721618",
      "longitude": "-90.10891670659126"
    }
  },
  {
    "service_request": "2022-947345",
    "request_type": "Traffic Signals/Signs/Striping/Streetlights",
    "request_reason": "Street Light Outage/Malfunction",
    "date_created": "2022-11-28T20:16:58.000",
    "date_modified": "2022-11-28T20:16:59.000",
    "request_status": "Pending",
    "responsible_agency": "Department of Public Works",
    "final_address": "6479 Memphis St",
    "address_councildis": "A",
    "status": "Pending",
    "contractor": "Legacy Professional Services",
    "rowid": "947345",
    "final_x": "3669584.40474",
    "final_y": "550584.160916",
    "longitude": "-90.10505029704869",
    "latitude": "30.008272053735055",
    "geocoded_column": {
      "latitude": "30.008272053735055",
      "longitude": "-90.10505029704869"
    }
  },
  {
    "service_request": "2022-947344",
    "request_type": "Roads/Drainage",
    "request_reason": "Street Subsidence (Sinking)",
    "date_created": "2022-11-28T19:49:36.000",
    "date_modified": "2022-11-28T19:49:37.000",
    "request_status": "Pending",
    "responsible_agency": "Department of Public Works",
    "final_address": "346 West Robert E Lee Blvd",
    "address_councildis": "A",
    "status": "Pending",
    "rowid": "947344",
    "final_x": "3665113.75175",
    "final_y": "554881.68188",
    "longitude": "-90.1190306534984",
    "latitude": "30.020219747796055",
    "geocoded_column": {
      "latitude": "30.020219747796055",
      "longitude": "-90.1190306534984"
    }
  },
  {
    "service_request": "2022-947343",
    "request_type": "Trash/Recycling",
    "request_reason": "Order Recycling Cart",
    "date_created": "2022-11-28T19:46:55.000",
    "date_modified": "2022-11-28T19:46:55.000",
    "request_status": "Pending",
    "responsible_agency": "Department of Sanitation",
    "final_address": "7337 Means Ave",
    "address_councildis": "E",
    "status": "Pending",
    "rowid": "947343",
    "final_x": "3708583.42897",
    "final_y": "563884.247969",
    "longitude": "-89.9813455957941",
    "latitude": "30.04363494861244",
    "geocoded_column": {
      "latitude": "30.04363494861244",
      "longitude": "-89.9813455957941"
    }
  },
  {
    "service_request": "2022-947342",
    "request_type": "Trash/Recycling",
    "request_reason": "Order Recycling Cart",
    "date_created": "2022-11-28T19:42:41.000",
    "date_modified": "2022-11-28T19:42:41.000",
    "request_status": "Pending",
    "responsible_agency": "Department of Sanitation",
    "final_address": "4484 Painters St",
    "address_councildis": "D",
    "status": "Pending",
    "rowid": "947342",
    "final_x": "3686206.55369",
    "final_y": "549511.675795",
    "longitude": "-90.05257374713486",
    "latitude": "30.004822702146402",
    "geocoded_column": {
      "latitude": "30.004822702146402",
      "longitude": "-90.05257374713486"
    }
  },
  {
    "service_request": "2022-947341",
    "request_type": "Trash/Recycling",
    "request_reason": "Order Recycling Cart",
    "date_created": "2022-11-28T19:32:49.000",
    "date_modified": "2022-11-28T19:32:49.000",
    "request_status": "Pending",
    "responsible_agency": "Department of Sanitation",
    "final_address": "3311 St Ann St",
    "address_councildis": "A",
    "status": "Pending",
    "rowid": "947341",
    "final_x": "3674836.62312",
    "final_y": "538845.117961",
    "longitude": "-90.08885968234804",
    "latitude": "29.975837918563485",
    "geocoded_column": {
      "latitude": "29.975837918563485",
      "longitude": "-90.08885968234804"
    }
  },
  {
    "service_request": "2022-947340",
    "request_type": "Trash/Recycling",
    "request_reason": "Missed Trash Pick-Up",
    "date_created": "2022-11-28T19:24:10.000",
    "date_modified": "2022-11-28T19:24:11.000",
    "request_status": "Pending",
    "responsible_agency": "Department of Sanitation",
    "final_address": "1124 St Charles Ave Apt 2A",
    "address_councildis": "B",
    "status": "Assigned to Contractor",
    "contractor": "Richards Disposal",
    "rowid": "947340",
    "final_x": "3679894.45135",
    "final_y": "526439.825918",
    "longitude": "-90.0733164629379",
    "latitude": "29.941575557127855",
    "geocoded_column": {
      "latitude": "29.941575557127855",
      "longitude": "-90.0733164629379"
    }
  },
  {
    "service_request": "2022-947339",
    "request_type": "Trash/Recycling",
    "request_reason": "Missed Trash Pick-Up",
    "date_created": "2022-11-28T19:24:00.000",
    "date_modified": "2022-11-28T19:24:01.000",
    "request_status": "Pending",
    "responsible_agency": "Department of Sanitation",
    "final_address": "4011 DHemecourt St",
    "address_councildis": "A",
    "status": "Assigned to Contractor",
    "contractor": "Richards Disposal",
    "rowid": "947339",
    "final_x": "3670180.48948",
    "final_y": "536661.804807",
    "longitude": "-90.1036391146166",
    "latitude": "29.969972768916328",
    "geocoded_column": {
      "latitude": "29.969972768916328",
      "longitude": "-90.1036391146166"
    }
  },
  {
    "service_request": "2022-947338",
    "request_type": "Trash/Recycling",
    "request_reason": "MIssed Recycling Pick-Up",
    "date_created": "2022-11-28T19:19:03.000",
    "date_modified": "2022-11-28T19:19:04.000",
    "request_status": "Pending",
    "responsible_agency": "Department of Sanitation",
    "final_address": "328 Olivier St",
    "address_councildis": "C",
    "status": "Assigned to Contractor",
    "contractor": "Richards Disposal",
    "rowid": "947338",
    "final_x": "3687282.08956",
    "final_y": "530539.589378",
    "longitude": "-90.04984728642488",
    "latitude": "29.952623065557578",
    "geocoded_column": {
      "latitude": "29.952623065557578",
      "longitude": "-90.04984728642488"
    }
  },
  {
    "service_request": "2022-947336",
    "request_type": "Trash/Recycling",
    "request_reason": "Missed Trash Pick-Up",
    "date_created": "2022-11-28T18:55:25.000",
    "date_modified": "2022-11-28T18:55:26.000",
    "request_status": "Pending",
    "responsible_agency": "Department of Sanitation",
    "final_address": "1005 N Carrollton Ave",
    "address_councildis": "A",
    "status": "Assigned to Contractor",
    "contractor": "Richards Disposal",
    "rowid": "947336",
    "final_x": "3673637.85179",
    "final_y": "541262.045388",
    "longitude": "-90.092563091099",
    "latitude": "29.982519387665906",
    "geocoded_column": {
      "latitude": "29.982519387665906",
      "longitude": "-90.092563091099"
    }
  },
  {
    "service_request": "2022-947335",
    "request_type": "Trash/Recycling",
    "request_reason": "Request a Large Item Pick Up",
    "date_created": "2022-11-28T18:51:29.000",
    "date_modified": "2022-11-28T18:51:30.000",
    "request_status": "Pending",
    "responsible_agency": "Department of Sanitation",
    "final_address": "739 Bourbon St",
    "address_councildis": "C",
    "status": "Assigned to Contractor",
    "contractor": "Empire Services",
    "rowid": "947335",
    "final_x": "3682453.08591",
    "final_y": "532960.399812",
    "longitude": "-90.06501047802857",
    "latitude": "29.959427319255727",
    "geocoded_column": {
      "latitude": "29.959427319255727",
      "longitude": "-90.06501047802857"
    }
  },
  {
    "service_request": "2022-947334",
    "request_type": "Trash/Recycling",
    "request_reason": "Missed Trash Pick-Up",
    "date_created": "2022-11-28T18:45:11.000",
    "date_modified": "2022-11-28T18:45:12.000",
    "request_status": "Pending",
    "responsible_agency": "Department of Sanitation",
    "final_address": "1800 BLK Benefit St",
    "address_councildis": "D",
    "status": "Assigned to Contractor",
    "contractor": "IV Waste",
    "rowid": "947334",
    "final_x": "3681863.97383",
    "final_y": "544204.906128",
    "longitude": "-90.06647817842068",
    "latitude": "29.990363726545166",
    "geocoded_column": {
      "latitude": "29.990363726545166",
      "longitude": "-90.06647817842068"
    }
  },
  {
    "service_request": "2022-947333",
    "request_type": "Trash/Recycling",
    "request_reason": "Request a Large Item Pick Up",
    "date_created": "2022-11-28T18:33:45.000",
    "date_modified": "2022-11-28T18:33:46.000",
    "request_status": "Pending",
    "responsible_agency": "Department of Sanitation",
    "final_address": "1220 Park Island Dr",
    "address_councildis": "D",
    "status": "Assigned to Contractor",
    "contractor": "IV Waste",
    "rowid": "947333",
    "final_x": "3676743.5444",
    "final_y": "547813.499218",
    "longitude": "-90.08252788578244",
    "latitude": "30.000440760175863",
    "geocoded_column": {
      "latitude": "30.000440760175863",
      "longitude": "-90.08252788578244"
    }
  },
  {
    "service_request": "2022-947330",
    "request_type": "Property Maintenance",
    "request_reason": "Property Maintenance",
    "date_created": "2022-11-28T18:32:44.000",
    "date_modified": "2022-11-28T18:32:44.000",
    "request_status": "Pending",
    "responsible_agency": "Department of Code Enforcement",
    "final_address": "2510 Orleans Ave",
    "address_councildis": "D",
    "status": "Pending",
    "rowid": "947330",
    "final_x": "3677430.4139",
    "final_y": "536437.001287",
    "longitude": "-90.08075089095324",
    "latitude": "29.96913870756965",
    "geocoded_column": {
      "latitude": "29.96913870756965",
      "longitude": "-90.08075089095324"
    }
  },
  {
    "service_request": "2022-947329",
    "request_type": "Trash/Recycling",
    "request_reason": "Request a Large Item Pick Up",
    "date_created": "2022-11-28T18:26:10.000",
    "date_modified": "2022-11-28T18:26:10.000",
    "request_status": "Pending",
    "responsible_agency": "Department of Sanitation",
    "final_address": "230 S Dupre St",
    "address_councildis": "B",
    "status": "Assigned to Contractor",
    "contractor": "Richards Disposal",
    "rowid": "947329",
    "final_x": "3674228.30376",
    "final_y": "535051.024774",
    "longitude": "-90.09091085887941",
    "latitude": "29.96542360081309",
    "geocoded_column": {
      "latitude": "29.96542360081309",
      "longitude": "-90.09091085887941"
    }
  },
  {
    "service_request": "2022-947328",
    "request_type": "Property Maintenance",
    "request_reason": "Property Maintenance",
    "date_created": "2022-11-28T18:24:52.000",
    "date_modified": "2022-11-28T18:24:52.000",
    "request_status": "Pending",
    "responsible_agency": "Department of Code Enforcement",
    "final_address": "2510 Orleans Ave",
    "address_councildis": "D",
    "status": "Pending",
    "rowid": "947328",
    "final_x": "3677430.4139",
    "final_y": "536437.001287",
    "longitude": "-90.08075089095324",
    "latitude": "29.96913870756965",
    "geocoded_column": {
      "latitude": "29.96913870756965",
      "longitude": "-90.08075089095324"
    }
  },
  {
    "service_request": "2022-947327",
    "request_type": "Trash/Recycling",
    "request_reason": "Replace Trash Cart",
    "date_created": "2022-11-28T18:24:43.000",
    "date_modified": "2022-11-28T18:24:44.000",
    "request_status": "Pending",
    "responsible_agency": "Department of Sanitation",
    "final_address": "4 Richmond Pl",
    "address_councildis": "A",
    "status": "Assigned to Contractor",
    "contractor": "Richards Disposal",
    "rowid": "947327",
    "final_x": "3666381.44525",
    "final_y": "523499.679355",
    "longitude": "-90.11607849523949",
    "latitude": "29.93389276503911",
    "geocoded_column": {
      "latitude": "29.93389276503911",
      "longitude": "-90.11607849523949"
    }
  },
  {
    "service_request": "2022-947326",
    "request_type": "Trash/Recycling",
    "request_reason": "MIssed Recycling Pick-Up",
    "date_created": "2022-11-28T18:20:46.000",
    "date_modified": "2022-11-28T18:20:47.000",
    "request_status": "Pending",
    "responsible_agency": "Department of Sanitation",
    "final_address": "5006 N Galvez St",
    "address_councildis": "E",
    "status": "Assigned to Contractor",
    "contractor": "Waste Pro",
    "rowid": "947326",
    "final_x": "3697065.836",
    "final_y": "537903.945161",
    "longitude": "-90.01868800928291",
    "latitude": "29.972567466573878",
    "geocoded_column": {
      "latitude": "29.972567466573878",
      "longitude": "-90.01868800928291"
    }
  },
  {
    "service_request": "2022-947325",
    "request_type": "Safety & Permits",
    "request_reason": "Licenses & Permits",
    "date_created": "2022-11-28T18:18:34.000",
    "date_modified": "2022-11-28T18:18:34.000",
    "request_status": "Pending",
    "responsible_agency": "Safety and Permits",
    "final_address": "7200 Forshey St",
    "address_councildis": "B",
    "status": "Pending",
    "rowid": "947325",
    "final_x": "3668181.81402",
    "final_y": "532777.759556",
    "longitude": "-90.11008209742317",
    "latitude": "29.959351759953996",
    "geocoded_column": {
      "latitude": "29.959351759953996",
      "longitude": "-90.11008209742317"
    }
  },
  {
    "service_request": "2022-947324",
    "request_type": "Trash/Recycling",
    "request_reason": "Repair Trash Cart",
    "date_created": "2022-11-28T18:11:03.000",
    "date_modified": "2022-11-28T18:11:04.000",
    "request_status": "Pending",
    "responsible_agency": "Department of Sanitation",
    "final_address": "2304 Spain St",
    "address_councildis": "D",
    "status": "Assigned to Contractor",
    "contractor": "IV Waste",
    "rowid": "947324",
    "final_x": "3685738.43503",
    "final_y": "540850.666187",
    "longitude": "-90.05435803559728",
    "latitude": "29.981022401811853",
    "geocoded_column": {
      "latitude": "29.981022401811853",
      "longitude": "-90.05435803559728"
    }
  },
  {
    "service_request": "2022-947323",
    "request_type": "Traffic Signals/Signs/Striping/Streetlights",
    "request_reason": "Street Light Outage/Malfunction",
    "date_created": "2022-11-28T18:03:17.000",
    "date_modified": "2022-11-28T18:03:18.000",
    "request_status": "Pending",
    "responsible_agency": "Department of Public Works",
    "final_address": "12 Spanish Fort Shell Rd",
    "address_councildis": "D",
    "status": "Pending",
    "contractor": "Legacy Professional Services",
    "rowid": "947323",
    "final_x": "3676681.78472",
    "final_y": "554533.741272",
    "longitude": "-90.08249123762927",
    "latitude": "30.01892087972666",
    "geocoded_column": {
      "latitude": "30.01892087972666",
      "longitude": "-90.08249123762927"
    }
  },
  {
    "service_request": "2022-947322",
    "request_type": "Trash/Recycling",
    "request_reason": "Missed Trash Pick-Up",
    "date_created": "2022-11-28T17:58:16.000",
    "date_modified": "2022-11-28T17:58:17.000",
    "request_status": "Pending",
    "responsible_agency": "Department of Sanitation",
    "final_address": "2900 St Peter St",
    "address_councildis": "A",
    "status": "Assigned to Contractor",
    "contractor": "Richards Disposal",
    "rowid": "947322",
    "final_x": "3675873.25333",
    "final_y": "537398.609864",
    "longitude": "-90.08563545268144",
    "latitude": "29.971829517306773",
    "geocoded_column": {
      "latitude": "29.971829517306773",
      "longitude": "-90.08563545268144"
    }
  },
  {
    "service_request": "2022-947321",
    "request_type": "Trash/Recycling",
    "request_reason": "Request a Large Item Pick Up",
    "date_created": "2022-11-28T17:56:27.000",
    "date_modified": "2022-11-28T17:56:27.000",
    "request_status": "Pending",
    "responsible_agency": "Department of Sanitation",
    "final_address": "1498 Madrid St",
    "address_councildis": "D",
    "status": "Assigned to Contractor",
    "contractor": "IV Waste",
    "rowid": "947321",
    "final_x": "3678258.81736",
    "final_y": "554530.029016",
    "longitude": "-90.07750849667777",
    "latitude": "30.018863241767622",
    "geocoded_column": {
      "latitude": "30.018863241767622",
      "longitude": "-90.07750849667777"
    }
  },
  {
    "service_request": "2022-947320",
    "request_type": "Trash/Recycling",
    "request_reason": "Request a Large Item Pick Up",
    "date_created": "2022-11-28T17:45:56.000",
    "date_modified": "2022-11-28T17:45:56.000",
    "request_status": "Pending",
    "responsible_agency": "Department of Sanitation",
    "final_address": "12910 Mcraven Ct",
    "address_councildis": "E",
    "status": "Assigned to Contractor",
    "contractor": "Waste Pro",
    "rowid": "947320",
    "final_x": "3716406.47928",
    "final_y": "568130.969253",
    "longitude": "-89.95646040006928",
    "latitude": "30.055055570511488",
    "geocoded_column": {
      "latitude": "30.055055570511488",
      "longitude": "-89.95646040006928"
    }
  },
  {
    "service_request": "2022-947319",
    "request_type": "Trash/Recycling",
    "request_reason": "Request a Large Item Pick Up",
    "date_created": "2022-11-28T17:45:28.000",
    "date_modified": "2022-11-28T17:45:29.000",
    "request_status": "Pending",
    "responsible_agency": "Department of Sanitation",
    "final_address": "7722 Willow St A",
    "address_councildis": "A",
    "status": "Assigned to Contractor",
    "contractor": "Richards Disposal",
    "rowid": "947319",
    "final_x": "3663359.50247",
    "final_y": "527995.912959",
    "longitude": "-90.12546905412044",
    "latitude": "29.946343901979596",
    "geocoded_column": {
      "latitude": "29.946343901979596",
      "longitude": "-90.12546905412044"
    }
  },
  {
    "service_request": "2022-947318",
    "request_type": "Trash/Recycling",
    "request_reason": "Request a Large Item Pick Up",
    "date_created": "2022-11-28T17:39:43.000",
    "date_modified": "2022-11-28T17:39:43.000",
    "request_status": "Pending",
    "responsible_agency": "Department of Sanitation",
    "final_address": "6862 Orleans Ave",
    "address_councildis": "A",
    "status": "Assigned to Contractor",
    "contractor": "IV Waste",
    "rowid": "947318",
    "final_x": "3671336.9074",
    "final_y": "552955.696535",
    "longitude": "-90.09943290132011",
    "latitude": "30.01474116738942",
    "geocoded_column": {
      "latitude": "30.01474116738942",
      "longitude": "-90.09943290132011"
    }
  },
  {
    "service_request": "2022-947317",
    "request_type": "Trash/Recycling",
    "request_reason": "Order Trash Cart",
    "date_created": "2022-11-28T17:34:35.000",
    "date_modified": "2022-11-28T17:34:36.000",
    "request_status": "Pending",
    "responsible_agency": "Department of Sanitation",
    "final_address": "7512 Sandy Cove Dr",
    "address_councildis": "E",
    "status": "Assigned to Contractor",
    "contractor": "Waste Pro",
    "rowid": "947317",
    "final_x": "3715947.13394",
    "final_y": "568776.917349",
    "longitude": "-89.95788777060528",
    "latitude": "30.056846830468817",
    "geocoded_column": {
      "latitude": "30.056846830468817",
      "longitude": "-89.95788777060528"
    }
  },
  {
    "service_request": "2022-947316",
    "request_type": "Trash/Recycling",
    "request_reason": "Missed Trash Pick-Up",
    "date_created": "2022-11-28T17:32:43.000",
    "date_modified": "2022-11-28T17:32:43.000",
    "request_status": "Pending",
    "responsible_agency": "Department of Sanitation",
    "final_address": "4514 Allen St",
    "address_councildis": "D",
    "status": "Assigned to Contractor",
    "contractor": "IV Waste",
    "rowid": "947316",
    "final_x": "3681681.9517",
    "final_y": "549149.793171",
    "longitude": "-90.06688050156178",
    "latitude": "30.003965938121787",
    "geocoded_column": {
      "latitude": "30.003965938121787",
      "longitude": "-90.06688050156178"
    }
  },
  {
    "service_request": "2022-947315",
    "request_type": "Property Maintenance",
    "request_reason": "Property Maintenance",
    "date_created": "2022-11-28T17:20:29.000",
    "date_modified": "2022-11-28T17:20:29.000",
    "request_status": "Pending",
    "responsible_agency": "Department of Code Enforcement",
    "final_address": "531 S Derbigny St",
    "address_councildis": "B",
    "status": "Pending",
    "rowid": "947315",
    "final_x": "3677114.01525",
    "final_y": "531443.016067",
    "longitude": "-90.08192234561402",
    "latitude": "29.95541644300432",
    "geocoded_column": {
      "latitude": "29.95541644300432",
      "longitude": "-90.08192234561402"
    }
  },
  {
    "service_request": "2022-947314",
    "request_type": "Trash/Recycling",
    "request_reason": "Request a Large Item Pick Up",
    "date_created": "2022-11-28T17:18:25.000",
    "date_modified": "2022-11-28T17:18:25.000",
    "request_status": "Pending",
    "responsible_agency": "Department of Sanitation",
    "final_address": "1725 Bordeaux St",
    "address_councildis": "B",
    "status": "Assigned to Contractor",
    "contractor": "Richards Disposal",
    "rowid": "947314",
    "final_x": "3669360.34023",
    "final_y": "521308.012537",
    "longitude": "-90.10674829129596",
    "latitude": "29.927779031288992",
    "geocoded_column": {
      "latitude": "29.927779031288992",
      "longitude": "-90.10674829129596"
    }
  },
  {
    "service_request": "2022-947313",
    "request_type": "Trash/Recycling",
    "request_reason": "Order Recycling Cart",
    "date_created": "2022-11-28T17:16:19.000",
    "date_modified": "2022-11-28T17:16:19.000",
    "request_status": "Pending",
    "responsible_agency": "Department of Sanitation",
    "final_address": "6110 Press Dr",
    "address_councildis": "D",
    "status": "Pending",
    "rowid": "947313",
    "final_x": "3688798.30659",
    "final_y": "555816.679961",
    "longitude": "-90.04416179828661",
    "latitude": "30.022079228275985",
    "geocoded_column": {
      "latitude": "30.022079228275985",
      "longitude": "-90.04416179828661"
    }
  },
  {
    "service_request": "2022-947312",
    "request_type": "Trash/Recycling",
    "request_reason": "Repair Recycling Cart",
    "date_created": "2022-11-28T17:04:33.000",
    "date_modified": "2022-11-28T17:04:33.000",
    "request_status": "Pending",
    "responsible_agency": "Department of Sanitation",
    "final_address": "884 Pontalba St",
    "address_councildis": "A",
    "status": "Pending",
    "rowid": "947312",
    "final_x": "3669437.25927",
    "final_y": "544287.866191",
    "longitude": "-90.1057282908485",
    "latitude": "29.990963763504233",
    "geocoded_column": {
      "latitude": "29.990963763504233",
      "longitude": "-90.1057282908485"
    }
  },
  {
    "service_request": "2022-947311",
    "request_type": "Trash/Recycling",
    "request_reason": "Request a Large Item Pick Up",
    "date_created": "2022-11-28T17:04:20.000",
    "date_modified": "2022-11-28T17:04:20.000",
    "request_status": "Pending",
    "responsible_agency": "Department of Sanitation",
    "final_address": "7620 Weaver Ave",
    "address_councildis": "E",
    "status": "Assigned to Contractor",
    "contractor": "Waste Pro",
    "rowid": "947311",
    "final_x": "3707354.56369",
    "final_y": "564384.512609",
    "longitude": "-89.9852107040684",
    "latitude": "30.04505028765451",
    "geocoded_column": {
      "latitude": "30.04505028765451",
      "longitude": "-89.9852107040684"
    }
  },
  {
    "service_request": "2022-947310",
    "request_type": "Trash/Recycling",
    "request_reason": "Return Trash Cart",
    "date_created": "2022-11-28T17:04:10.000",
    "date_modified": "2022-11-28T17:04:47.000",
    "case_close_date": "2022-11-24T18:00:00.000",
    "request_status": "Pending",
    "responsible_agency": "Department of Sanitation",
    "final_address": "5849 E Louis Prima Dr",
    "address_councildis": "E",
    "status": "Assigned to Contractor",
    "contractor": "Waste Pro",
    "rowid": "947310",
    "final_x": "3715653.83647",
    "final_y": "563066.78608",
    "longitude": "-89.95903130355391",
    "latitude": "30.041155979095276",
    "geocoded_column": {
      "latitude": "30.041155979095276",
      "longitude": "-89.95903130355391"
    }
  },
  {
    "service_request": "2022-947309",
    "request_type": "Trash/Recycling",
    "request_reason": "Order Trash Cart",
    "date_created": "2022-11-28T16:59:35.000",
    "date_modified": "2022-11-28T16:59:35.000",
    "request_status": "Pending",
    "responsible_agency": "Department of Sanitation",
    "final_address": "2141 Pauger St",
    "address_councildis": "C",
    "status": "Assigned to Contractor",
    "contractor": "IV Waste",
    "rowid": "947309",
    "final_x": "3683828.80047",
    "final_y": "537654.127304",
    "longitude": "-90.06050165852412",
    "latitude": "29.9722915076073",
    "geocoded_column": {
      "latitude": "29.9722915076073",
      "longitude": "-90.06050165852412"
    }
  },
  {
    "service_request": "2022-947308",
    "request_type": "Trash/Recycling",
    "request_reason": "Order Trash Cart",
    "date_created": "2022-11-28T16:59:17.000",
    "date_modified": "2022-11-28T16:59:18.000",
    "request_status": "Pending",
    "responsible_agency": "Department of Sanitation",
    "final_address": "2139 Pauger St",
    "address_councildis": "C",
    "status": "Assigned to Contractor",
    "contractor": "IV Waste",
    "rowid": "947308",
    "final_x": "3683828.79925",
    "final_y": "537654.127304",
    "longitude": "-90.06050166237708",
    "latitude": "29.97229150764455",
    "geocoded_column": {
      "latitude": "29.97229150764455",
      "longitude": "-90.06050166237708"
    }
  },
  {
    "service_request": "2022-947307",
    "request_type": "Trash/Recycling",
    "request_reason": "Order Trash Cart",
    "date_created": "2022-11-28T16:57:15.000",
    "date_modified": "2022-11-28T16:57:16.000",
    "request_status": "Pending",
    "responsible_agency": "Department of Sanitation",
    "final_address": "2433 Arts St",
    "address_councildis": "D",
    "status": "Assigned to Contractor",
    "contractor": "IV Waste",
    "rowid": "947307",
    "final_x": "3686838.35574",
    "final_y": "541566.508748",
    "longitude": "-90.05085869602487",
    "latitude": "29.982956911565026",
    "geocoded_column": {
      "latitude": "29.982956911565026",
      "longitude": "-90.05085869602487"
    }
  },
  {
    "service_request": "2022-947306",
    "request_type": "Abandoned Vehicles",
    "request_reason": "Abandoned/Junk Vehicles",
    "date_created": "2022-11-28T16:54:24.000",
    "date_modified": "2022-11-28T16:54:24.000",
    "request_status": "Pending",
    "responsible_agency": "Department of Public Works",
    "final_address": "2300 BLK Eads St",
    "address_councildis": "D",
    "status": "Inspected",
    "rowid": "947306",
    "final_x": "3687900.28328",
    "final_y": "541260.409393",
    "longitude": "-90.04751544644878",
    "latitude": "29.982082523193885",
    "geocoded_column": {
      "latitude": "29.982082523193885",
      "longitude": "-90.04751544644878"
    }
  },
  {
    "service_request": "2022-947305",
    "request_type": "Roads/Drainage",
    "request_reason": "Catch Basin - Clogged",
    "date_created": "2022-11-28T16:53:41.000",
    "date_modified": "2022-11-28T16:59:31.000",
    "request_status": "Pending",
    "responsible_agency": "Department of Public Works",
    "final_address": "527 Passera Ct",
    "address_councildis": "A",
    "status": "Pending",
    "rowid": "947305",
    "final_x": "3670595.87867",
    "final_y": "540897.508683",
    "longitude": "-90.10218354448236",
    "latitude": "29.981607258592007",
    "geocoded_column": {
      "latitude": "29.981607258592007",
      "longitude": "-90.10218354448236"
    }
  },
  {
    "service_request": "2022-947304",
    "request_type": "Trash/Recycling",
    "request_reason": "Replace Trash Cart",
    "date_created": "2022-11-28T16:53:18.000",
    "date_modified": "2022-11-28T16:53:19.000",
    "request_status": "Pending",
    "responsible_agency": "Department of Sanitation",
    "final_address": "465 Lowerline St",
    "address_councildis": "A",
    "status": "Assigned to Contractor",
    "contractor": "Richards Disposal",
    "rowid": "947304",
    "final_x": "3662090.64634",
    "final_y": "524299.751932",
    "longitude": "-90.12959789522175",
    "latitude": "29.93621735103016",
    "geocoded_column": {
      "latitude": "29.93621735103016",
      "longitude": "-90.12959789522175"
    }
  },
  {
    "service_request": "2022-947303",
    "request_type": "Roads/Drainage",
    "request_reason": "Ditch Issue",
    "date_created": "2022-11-28T16:52:44.000",
    "date_modified": "2022-11-28T16:52:45.000",
    "request_status": "Pending",
    "responsible_agency": "Department of Public Works",
    "final_address": "501 Passera Ct",
    "address_councildis": "A",
    "status": "Pending",
    "rowid": "947303",
    "final_x": "3670473.53793",
    "final_y": "540719.306315",
    "longitude": "-90.1025760001852",
    "latitude": "29.98112087653102",
    "geocoded_column": {
      "latitude": "29.98112087653102",
      "longitude": "-90.1025760001852"
    }
  },
  {
    "service_request": "2022-947302",
    "request_type": "Trash/Recycling",
    "request_reason": "Repair Trash Cart",
    "date_created": "2022-11-28T16:52:27.000",
    "date_modified": "2022-11-28T16:52:28.000",
    "request_status": "Pending",
    "responsible_agency": "Department of Sanitation",
    "final_address": "7721 Butterfield Rd",
    "address_councildis": "E",
    "status": "Assigned to Contractor",
    "contractor": "Waste Pro",
    "rowid": "947302",
    "final_x": "3699677.80874",
    "final_y": "560714.079902",
    "longitude": "-90.00960676226724",
    "latitude": "30.0352041400389",
    "geocoded_column": {
      "latitude": "30.0352041400389",
      "longitude": "-90.00960676226724"
    }
  },
  {
    "service_request": "2022-947300",
    "request_type": "Trash/Recycling",
    "request_reason": "Replace Recycling Cart",
    "date_created": "2022-11-28T16:49:47.000",
    "date_modified": "2022-11-28T16:49:48.000",
    "request_status": "Pending",
    "responsible_agency": "Department of Sanitation",
    "final_address": "4317 St Claude Ave",
    "address_councildis": "D",
    "status": "Pending",
    "rowid": "947300",
    "final_x": "3692867.48521",
    "final_y": "535201.949254",
    "longitude": "-90.03204401232561",
    "latitude": "29.965269712984625",
    "geocoded_column": {
      "latitude": "29.965269712984625",
      "longitude": "-90.03204401232561"
    }
  },
  {
    "service_request": "2022-947301",
    "request_type": "Trash/Recycling",
    "request_reason": "Missed Trash Pick-Up",
    "date_created": "2022-11-28T16:49:47.000",
    "date_modified": "2022-11-28T16:50:24.000",
    "request_status": "Pending",
    "responsible_agency": "Department of Sanitation",
    "final_address": "6900 BLK Edgefield Dr",
    "address_councildis": "E",
    "status": "Assigned to Contractor",
    "contractor": "Waste Pro",
    "rowid": "947301",
    "final_x": "3718990.98357",
    "final_y": "568851.399486",
    "longitude": "-89.94826389441519",
    "latitude": "30.05695080938963",
    "geocoded_column": {
      "latitude": "30.05695080938963",
      "longitude": "-89.94826389441519"
    }
  },
  {
    "service_request": "2022-947298",
    "request_type": "Abandoned Vehicles",
    "request_reason": "Abandoned/Junk Vehicles",
    "date_created": "2022-11-28T16:49:10.000",
    "date_modified": "2022-11-28T16:51:19.000",
    "request_status": "Pending",
    "responsible_agency": "Department of Public Works",
    "final_address": "4700 Euphrosine St",
    "address_councildis": "B",
    "status": "Pending",
    "rowid": "947298",
    "final_x": "3670089.7099",
    "final_y": "533238.95354",
    "longitude": "-90.10404177598079",
    "latitude": "29.960563747791145",
    "geocoded_column": {
      "latitude": "29.960563747791145",
      "longitude": "-90.10404177598079"
    }
  },
  {
    "service_request": "2022-947297",
    "request_type": "Trash/Recycling",
    "request_reason": "Repair Trash Cart",
    "date_created": "2022-11-28T16:47:44.000",
    "date_modified": "2022-11-28T16:47:44.000",
    "request_status": "Pending",
    "responsible_agency": "Department of Sanitation",
    "final_address": "5655 Milne St",
    "address_councildis": "A",
    "status": "Assigned to Contractor",
    "contractor": "IV Waste",
    "rowid": "947297",
    "final_x": "3666885.66356",
    "final_y": "545212.409615",
    "longitude": "-90.11375712193089",
    "latitude": "29.99358086166174",
    "geocoded_column": {
      "latitude": "29.99358086166174",
      "longitude": "-90.11375712193089"
    }
  },
  {
    "service_request": "2022-947296",
    "request_type": "Traffic Signals/Signs/Striping/Streetlights",
    "request_reason": "Street Light Outage/Malfunction",
    "date_created": "2022-11-28T16:47:37.000",
    "date_modified": "2022-11-28T16:47:38.000",
    "request_status": "Pending",
    "responsible_agency": "Department of Public Works",
    "final_address": "2222 General Pershing St",
    "address_councildis": "B",
    "status": "Pending",
    "contractor": "Legacy Professional Services",
    "rowid": "947296",
    "final_x": "3670972.59911",
    "final_y": "523223.548987",
    "longitude": "-90.10159375722967",
    "latitude": "29.932998587282455",
    "geocoded_column": {
      "latitude": "29.932998587282455",
      "longitude": "-90.10159375722967"
    }
  },
  {
    "service_request": "2022-947295",
    "request_type": "Trash/Recycling",
    "request_reason": "Missed Trash Pick-Up",
    "date_created": "2022-11-28T16:46:49.000",
    "date_modified": "2022-11-28T16:46:52.000",
    "request_status": "Pending",
    "responsible_agency": "Department of Sanitation",
    "final_address": "32 Park Timbers Dr",
    "address_councildis": "C",
    "status": "Assigned to Contractor",
    "contractor": "Richards Disposal",
    "rowid": "947295",
    "final_x": "3699279.65744",
    "final_y": "517497.80447",
    "longitude": "-90.0124393230512",
    "latitude": "29.91638770036931",
    "geocoded_column": {
      "latitude": "29.91638770036931",
      "longitude": "-90.0124393230512"
    }
  },
  {
    "service_request": "2022-947294",
    "request_type": "Trash/Recycling",
    "request_reason": "Order Recycling Cart",
    "date_created": "2022-11-28T16:46:17.000",
    "date_modified": "2022-11-28T16:46:17.000",
    "request_status": "Pending",
    "responsible_agency": "Department of Sanitation",
    "final_address": "1738 Reynes St",
    "address_councildis": "E",
    "status": "Pending",
    "rowid": "947294",
    "final_x": "3696597.33136",
    "final_y": "536820.730056",
    "longitude": "-90.02020682764945",
    "latitude": "29.969603784599954",
    "geocoded_column": {
      "latitude": "29.969603784599954",
      "longitude": "-90.02020682764945"
    }
  },
  {
    "service_request": "2022-947293",
    "request_type": "Trash/Recycling",
    "request_reason": "Request a Large Item Pick Up",
    "date_created": "2022-11-28T16:45:38.000",
    "date_modified": "2022-11-28T16:45:39.000",
    "request_status": "Pending",
    "responsible_agency": "Department of Sanitation",
    "final_address": "6502 Beauregard Ave",
    "address_councildis": "D",
    "status": "Assigned to Contractor",
    "contractor": "IV Waste",
    "rowid": "947293",
    "final_x": "3676217.32328",
    "final_y": "556201.489946",
    "longitude": "-90.08390131463571",
    "latitude": "30.023520518492756",
    "geocoded_column": {
      "latitude": "30.023520518492756",
      "longitude": "-90.08390131463571"
    }
  },
  {
    "service_request": "2022-947292",
    "request_type": "Property Maintenance",
    "request_reason": "Property Maintenance",
    "date_created": "2022-11-28T16:44:42.000",
    "date_modified": "2022-11-28T16:44:42.000",
    "request_status": "Pending",
    "responsible_agency": "Department of Code Enforcement",
    "final_address": "2160 Robin St",
    "address_councildis": "D",
    "status": "Pending",
    "rowid": "947292",
    "final_x": "3683529.855",
    "final_y": "551789.004245",
    "longitude": "-90.06095007552754",
    "latitude": "30.01116652495809",
    "geocoded_column": {
      "latitude": "30.01116652495809",
      "longitude": "-90.06095007552754"
    }
  },
  {
    "service_request": "2022-947291",
    "request_type": "Trash/Recycling",
    "request_reason": "Request a Large Item Pick Up",
    "date_created": "2022-11-28T16:43:33.000",
    "date_modified": "2022-11-28T16:43:34.000",
    "request_status": "Pending",
    "responsible_agency": "Department of Sanitation",
    "final_address": "5625 Franklin Ave",
    "address_councildis": "D",
    "status": "Assigned to Contractor",
    "contractor": "IV Waste",
    "rowid": "947291",
    "final_x": "3686605.07586",
    "final_y": "553859.916887",
    "longitude": "-90.05116102438839",
    "latitude": "30.01676652005989",
    "geocoded_column": {
      "latitude": "30.01676652005989",
      "longitude": "-90.05116102438839"
    }
  },
  {
    "service_request": "2022-947290",
    "request_type": "Trash/Recycling",
    "request_reason": "Replace Trash Cart",
    "date_created": "2022-11-28T16:42:20.000",
    "date_modified": "2022-11-28T16:42:21.000",
    "request_status": "Pending",
    "responsible_agency": "Department of Sanitation",
    "final_address": "5625 Franklin Ave",
    "address_councildis": "D",
    "status": "Assigned to Contractor",
    "contractor": "IV Waste",
    "rowid": "947290",
    "final_x": "3686605.07586",
    "final_y": "553859.916887",
    "longitude": "-90.05116102438839",
    "latitude": "30.01676652005989",
    "geocoded_column": {
      "latitude": "30.01676652005989",
      "longitude": "-90.05116102438839"
    }
  },
  {
    "service_request": "2022-947289",
    "request_type": "Trash/Recycling",
    "request_reason": "Request a Large Item Pick Up",
    "date_created": "2022-11-28T16:42:06.000",
    "date_modified": "2022-11-28T16:42:07.000",
    "request_status": "Pending",
    "responsible_agency": "Department of Sanitation",
    "final_address": "3631 Forest Park Ln",
    "address_councildis": "C",
    "status": "Assigned to Contractor",
    "contractor": "Richards Disposal",
    "rowid": "947289",
    "final_x": "3702932.51268",
    "final_y": "511161.763568",
    "longitude": "-90.00114204023461",
    "latitude": "29.898849451089955",
    "geocoded_column": {
      "latitude": "29.898849451089955",
      "longitude": "-90.00114204023461"
    }
  },
  {
    "service_request": "2022-947288",
    "request_type": "Trash/Recycling",
    "request_reason": "Missed Trash Pick-Up",
    "date_created": "2022-11-28T16:39:17.000",
    "date_modified": "2022-11-28T16:39:18.000",
    "request_status": "Pending",
    "responsible_agency": "Department of Sanitation",
    "final_address": "315 S Scott St",
    "address_councildis": "A",
    "status": "Assigned to Contractor",
    "contractor": "Richards Disposal",
    "rowid": "947288",
    "final_x": "3671178.79291",
    "final_y": "537110.68628",
    "longitude": "-90.10047111418812",
    "latitude": "29.97117754542914",
    "geocoded_column": {
      "latitude": "29.97117754542914",
      "longitude": "-90.10047111418812"
    }
  },
  {
    "service_request": "2022-947287",
    "request_type": "Trash/Recycling",
    "request_reason": "Missed Trash Pick-Up",
    "date_created": "2022-11-28T16:38:21.000",
    "date_modified": "2022-11-28T16:38:22.000",
    "request_status": "Pending",
    "responsible_agency": "Department of Sanitation",
    "final_address": "7110 Cove Dr",
    "address_councildis": "E",
    "status": "Assigned to Contractor",
    "contractor": "Waste Pro",
    "rowid": "947287",
    "final_x": "3700172.81015",
    "final_y": "558591.886876",
    "longitude": "-90.00812004993217",
    "latitude": "30.02935319754831",
    "geocoded_column": {
      "latitude": "30.02935319754831",
      "longitude": "-90.00812004993217"
    }
  },
  {
    "service_request": "2022-947286",
    "request_type": "Trash/Recycling",
    "request_reason": "Return Trash Cart",
    "date_created": "2022-11-28T16:37:16.000",
    "date_modified": "2022-11-28T16:37:16.000",
    "request_status": "Pending",
    "responsible_agency": "Department of Sanitation",
    "final_address": "400 Sharon Dr",
    "address_councildis": "A",
    "status": "Assigned to Contractor",
    "contractor": "IV Waste",
    "rowid": "947286",
    "final_x": "3664444.82432",
    "final_y": "547089.621905",
    "longitude": "-90.12140467112474",
    "latitude": "29.99881376219454",
    "geocoded_column": {
      "latitude": "29.99881376219454",
      "longitude": "-90.12140467112474"
    }
  },
  {
    "service_request": "2022-947285",
    "request_type": "Trash/Recycling",
    "request_reason": "Repair Trash Cart",
    "date_created": "2022-11-28T16:36:39.000",
    "date_modified": "2022-11-28T16:36:40.000",
    "request_status": "Pending",
    "responsible_agency": "Department of Sanitation",
    "final_address": "1026 Numa St",
    "address_councildis": "C",
    "status": "Assigned to Contractor",
    "contractor": "Richards Disposal",
    "rowid": "947285",
    "final_x": "3691882.00451",
    "final_y": "527535.656767",
    "longitude": "-90.03543032389568",
    "latitude": "29.94422081021113",
    "geocoded_column": {
      "latitude": "29.94422081021113",
      "longitude": "-90.03543032389568"
    }
  },
  {
    "service_request": "2022-947284",
    "request_type": "Trash/Recycling",
    "request_reason": "Order Trash Cart",
    "date_created": "2022-11-28T16:36:37.000",
    "date_modified": "2022-11-28T16:36:38.000",
    "request_status": "Pending",
    "responsible_agency": "Department of Sanitation",
    "final_address": "14120 Kingswood Dr",
    "address_councildis": "E",
    "status": "Assigned to Contractor",
    "contractor": "Waste Pro",
    "rowid": "947284",
    "final_x": "3719891.13932",
    "final_y": "568828.869349",
    "longitude": "-89.94541953358177",
    "latitude": "30.05685891192946",
    "geocoded_column": {
      "latitude": "30.05685891192946",
      "longitude": "-89.94541953358177"
    }
  },
  {
    "service_request": "2022-947283",
    "request_type": "Trash/Recycling",
    "request_reason": "Replace Trash Cart",
    "date_created": "2022-11-28T16:36:20.000",
    "date_modified": "2022-11-28T16:36:21.000",
    "request_status": "Pending",
    "responsible_agency": "Department of Sanitation",
    "final_address": "7170 Ridgefield Dr",
    "address_councildis": "E",
    "status": "Assigned to Contractor",
    "contractor": "Waste Pro",
    "rowid": "947283",
    "final_x": "3718906.64735",
    "final_y": "570126.741991",
    "longitude": "-89.94848174533561",
    "latitude": "30.060460273589722",
    "geocoded_column": {
      "latitude": "30.060460273589722",
      "longitude": "-89.94848174533561"
    }
  },
  {
    "service_request": "2022-947282",
    "request_type": "Trash/Recycling",
    "request_reason": "Order Recycling Cart",
    "date_created": "2022-11-28T16:36:18.000",
    "date_modified": "2022-11-28T16:36:19.000",
    "request_status": "Pending",
    "responsible_agency": "Department of Sanitation",
    "final_address": "1026 Numa St",
    "address_councildis": "C",
    "status": "Pending",
    "rowid": "947282",
    "final_x": "3691882.00451",
    "final_y": "527535.656767",
    "longitude": "-90.03543032389568",
    "latitude": "29.94422081021113",
    "geocoded_column": {
      "latitude": "29.94422081021113",
      "longitude": "-90.03543032389568"
    }
  },
  {
    "service_request": "2022-947281",
    "request_type": "Trash/Recycling",
    "request_reason": "MIssed Recycling Pick-Up",
    "date_created": "2022-11-28T16:35:40.000",
    "date_modified": "2022-11-28T16:35:41.000",
    "request_status": "Pending",
    "responsible_agency": "Department of Sanitation",
    "final_address": "2425 Burgundy St",
    "address_councildis": "C",
    "status": "Assigned to Contractor",
    "contractor": "IV Waste",
    "rowid": "947281",
    "final_x": "3686046.42217",
    "final_y": "535693.762439",
    "longitude": "-90.05356719146813",
    "latitude": "29.966833265917185",
    "geocoded_column": {
      "latitude": "29.966833265917185",
      "longitude": "-90.05356719146813"
    }
  },
  {
    "service_request": "2022-947280",
    "request_type": "Trash/Recycling",
    "request_reason": "Missed Trash Pick-Up",
    "date_created": "2022-11-28T16:33:56.000",
    "date_modified": "2022-11-28T16:36:16.000",
    "request_status": "Pending",
    "responsible_agency": "Department of Sanitation",
    "final_address": "3436 Seine St",
    "address_councildis": "C",
    "status": "Assigned to Contractor",
    "contractor": "Richards Disposal",
    "rowid": "947280",
    "final_x": "3696705.53655",
    "final_y": "519519.115255",
    "longitude": "-90.02049114260225",
    "latitude": "29.92202696260067",
    "geocoded_column": {
      "latitude": "29.92202696260067",
      "longitude": "-90.02049114260225"
    }
  },
  {
    "service_request": "2022-947279",
    "request_type": "Trash/Recycling",
    "request_reason": "Missed Trash Pick-Up",
    "date_created": "2022-11-28T16:33:25.000",
    "date_modified": "2022-11-28T16:33:26.000",
    "request_status": "Pending",
    "responsible_agency": "Department of Sanitation",
    "final_address": "849 Olga St",
    "address_councildis": "A",
    "status": "Assigned to Contractor",
    "contractor": "Richards Disposal",
    "rowid": "947279",
    "final_x": "3673303.3876",
    "final_y": "540157.306763",
    "longitude": "-90.09365724713349",
    "latitude": "29.979491688927357",
    "geocoded_column": {
      "latitude": "29.979491688927357",
      "longitude": "-90.09365724713349"
    }
  },
  {
    "service_request": "2022-947278",
    "request_type": "Trash/Recycling",
    "request_reason": "Start Trash Service",
    "date_created": "2022-11-28T16:32:29.000",
    "date_modified": "2022-11-28T16:32:29.000",
    "request_status": "Pending",
    "responsible_agency": "Department of Sanitation",
    "final_address": "25548 Chef Menteur Hwy",
    "address_councildis": "E",
    "status": "Assigned to Contractor",
    "contractor": "Waste Pro",
    "rowid": "947278",
    "final_x": "3780629.15333",
    "final_y": "599987.547074",
    "longitude": "-89.75208324073508",
    "latitude": "30.14036705441701",
    "geocoded_column": {
      "latitude": "30.14036705441701",
      "longitude": "-89.75208324073508"
    }
  },
  {
    "service_request": "2022-947277",
    "request_type": "Trash/Recycling",
    "request_reason": "Missed Trash Pick-Up",
    "date_created": "2022-11-28T16:29:39.000",
    "date_modified": "2022-11-28T16:30:18.000",
    "request_status": "Pending",
    "responsible_agency": "Department of Sanitation",
    "final_address": "809 Roosevelt Pl",
    "address_councildis": "A",
    "status": "Assigned to Contractor",
    "contractor": "Richards Disposal",
    "rowid": "947277",
    "final_x": "3673517.18868",
    "final_y": "539777.193098",
    "longitude": "-90.09299497240089",
    "latitude": "29.978440144276952",
    "geocoded_column": {
      "latitude": "29.978440144276952",
      "longitude": "-90.09299497240089"
    }
  },
  {
    "service_request": "2022-947275",
    "request_type": "Trash/Recycling",
    "request_reason": "Order Recycling Cart",
    "date_created": "2022-11-28T16:26:35.000",
    "date_modified": "2022-11-28T16:26:35.000",
    "request_status": "Pending",
    "responsible_agency": "Department of Sanitation",
    "final_address": "2936 Dublin St",
    "address_councildis": "A",
    "status": "Pending",
    "rowid": "947275",
    "final_x": "3665990.24935",
    "final_y": "533376.214276",
    "longitude": "-90.11698250338773",
    "latitude": "29.961061463830443",
    "geocoded_column": {
      "latitude": "29.961061463830443",
      "longitude": "-90.11698250338773"
    }
  },
  {
    "service_request": "2022-947272",
    "request_type": "Parks & Parkways",
    "request_reason": "Request Tree Service (Right of Way/Public Property)",
    "date_created": "2022-11-28T16:25:29.000",
    "date_modified": "2022-11-28T16:25:30.000",
    "request_status": "Pending",
    "responsible_agency": "Department of Parks & Parkway",
    "final_address": "1501 Napoleon Ave",
    "address_councildis": "B",
    "status": "Pending",
    "rowid": "947272",
    "final_x": "3670970.04583",
    "final_y": "520612.199864",
    "longitude": "-90.10169042938571",
    "latitude": "29.925818290073597",
    "geocoded_column": {
      "latitude": "29.925818290073597",
      "longitude": "-90.10169042938571"
    }
  },
  {
    "service_request": "2022-947270",
    "request_type": "Trash/Recycling",
    "request_reason": "Repair Trash Cart",
    "date_created": "2022-11-28T16:19:58.000",
    "date_modified": "2022-11-28T16:19:59.000",
    "request_status": "Pending",
    "responsible_agency": "Department of Sanitation",
    "final_address": "2563 Lavender St",
    "address_councildis": "D",
    "status": "Assigned to Contractor",
    "contractor": "IV Waste",
    "rowid": "947270",
    "final_x": "3686867.16246",
    "final_y": "546941.739985",
    "longitude": "-90.05057764644793",
    "latitude": "29.997735989360162",
    "geocoded_column": {
      "latitude": "29.997735989360162",
      "longitude": "-90.05057764644793"
    }
  },
  {
    "service_request": "2022-947269",
    "request_type": "Trash/Recycling",
    "request_reason": "Repair Trash Cart",
    "date_created": "2022-11-28T16:14:58.000",
    "date_modified": "2022-11-28T16:14:59.000",
    "request_status": "Pending",
    "responsible_agency": "Department of Sanitation",
    "final_address": "2407 Orleans Ave",
    "address_councildis": "D",
    "status": "Assigned to Contractor",
    "contractor": "Richards Disposal",
    "rowid": "947269",
    "final_x": "3677851.96098",
    "final_y": "536289.997575",
    "longitude": "-90.07942469486125",
    "latitude": "29.96872181991093",
    "geocoded_column": {
      "latitude": "29.96872181991093",
      "longitude": "-90.07942469486125"
    }
  },
  {
    "service_request": "2022-947268",
    "request_type": "Trash/Recycling",
    "request_reason": "MIssed Recycling Pick-Up",
    "date_created": "2022-11-28T16:13:40.000",
    "date_modified": "2022-11-28T16:13:41.000",
    "request_status": "Pending",
    "responsible_agency": "Department of Sanitation",
    "final_address": "4609 Francisco Verrett Dr",
    "address_councildis": "E",
    "status": "Assigned to Contractor",
    "contractor": "Waste Pro",
    "rowid": "947268",
    "final_x": "3704379.3667",
    "final_y": "554384.292376",
    "longitude": "-89.99498282254734",
    "latitude": "30.01764949821385",
    "geocoded_column": {
      "latitude": "30.01764949821385",
      "longitude": "-89.99498282254734"
    }
  },
  {
    "service_request": "2022-947267",
    "request_type": "Trash/Recycling",
    "request_reason": "Order Trash Cart",
    "date_created": "2022-11-28T16:11:31.000",
    "date_modified": "2022-11-28T16:11:32.000",
    "request_status": "Pending",
    "responsible_agency": "Department of Sanitation",
    "final_address": "3601 Napoleon Ave",
    "address_councildis": "B",
    "status": "Assigned to Contractor",
    "contractor": "Richards Disposal",
    "rowid": "947267",
    "final_x": "3670250.01978",
    "final_y": "527885.630207",
    "longitude": "-90.10371695501902",
    "latitude": "29.945839139505978",
    "geocoded_column": {
      "latitude": "29.945839139505978",
      "longitude": "-90.10371695501902"
    }
  },
  {
    "service_request": "2022-947266",
    "request_type": "Trash/Recycling",
    "request_reason": "Order Trash Cart",
    "date_created": "2022-11-28T16:10:43.000",
    "date_modified": "2022-11-28T16:10:45.000",
    "request_status": "Pending",
    "responsible_agency": "Department of Sanitation",
    "final_address": "5310 Bundy Rd",
    "address_councildis": "E",
    "status": "Assigned to Contractor",
    "contractor": "Waste Pro",
    "rowid": "947266",
    "final_x": "3708601.34481",
    "final_y": "557645.435355",
    "longitude": "-89.98152159024367",
    "latitude": "30.02648010154748",
    "geocoded_column": {
      "latitude": "30.02648010154748",
      "longitude": "-89.98152159024367"
    }
  },
  {
    "service_request": "2022-947265",
    "request_type": "Trash/Recycling",
    "request_reason": "Order Recycling Cart",
    "date_created": "2022-11-28T16:09:24.000",
    "date_modified": "2022-11-28T16:09:25.000",
    "request_status": "Pending",
    "responsible_agency": "Department of Sanitation",
    "final_address": "5310 Bundy Rd",
    "address_councildis": "E",
    "status": "Pending",
    "rowid": "947265",
    "final_x": "3708601.34481",
    "final_y": "557645.435355",
    "longitude": "-89.98152159024367",
    "latitude": "30.02648010154748",
    "geocoded_column": {
      "latitude": "30.02648010154748",
      "longitude": "-89.98152159024367"
    }
  },
  {
    "service_request": "2022-947264",
    "request_type": "Trash/Recycling",
    "request_reason": "Missed Trash Pick-Up",
    "date_created": "2022-11-28T16:08:13.000",
    "date_modified": "2022-11-28T16:08:14.000",
    "request_status": "Pending",
    "responsible_agency": "Department of Sanitation",
    "final_address": "2719 Jonquil St",
    "address_councildis": "D",
    "status": "Assigned to Contractor",
    "contractor": "IV Waste",
    "rowid": "947264",
    "final_x": "3687995.14012",
    "final_y": "547378.131025",
    "longitude": "-90.04699892480802",
    "latitude": "29.998901137276476",
    "geocoded_column": {
      "latitude": "29.998901137276476",
      "longitude": "-90.04699892480802"
    }
  },
  {
    "service_request": "2022-947263",
    "request_type": "Trash/Recycling",
    "request_reason": "Missed Trash Pick-Up",
    "date_created": "2022-11-28T16:07:59.000",
    "date_modified": "2022-11-28T16:08:00.000",
    "request_status": "Pending",
    "responsible_agency": "Department of Sanitation",
    "final_address": "8530 S Claiborne Ave",
    "address_councildis": "A",
    "status": "Assigned to Contractor",
    "contractor": "Richards Disposal",
    "rowid": "947263",
    "final_x": "3663524.64448",
    "final_y": "532601.408964",
    "longitude": "-90.12479427194197",
    "latitude": "29.959002739326035",
    "geocoded_column": {
      "latitude": "29.959002739326035",
      "longitude": "-90.12479427194197"
    }
  },
  {
    "service_request": "2022-947262",
    "request_type": "Trash/Recycling",
    "request_reason": "Missed Trash Pick-Up",
    "date_created": "2022-11-28T16:07:02.000",
    "date_modified": "2022-11-28T16:07:02.000",
    "request_status": "Pending",
    "responsible_agency": "Department of Sanitation",
    "final_address": "5120 Michoud Blvd",
    "address_councildis": "E",
    "status": "Assigned to Contractor",
    "contractor": "Waste Pro",
    "rowid": "947262",
    "final_x": "3724709.39046",
    "final_y": "562214.401375",
    "longitude": "-89.93044595779796",
    "latitude": "30.038510525421948",
    "geocoded_column": {
      "latitude": "30.038510525421948",
      "longitude": "-89.93044595779796"
    }
  },
  {
    "service_request": "2022-947261",
    "request_type": "Parks & Parkways",
    "request_reason": "Request Tree Service (Right of Way/Public Property)",
    "date_created": "2022-11-28T16:06:27.000",
    "date_modified": "2022-11-28T16:06:27.000",
    "request_status": "Pending",
    "responsible_agency": "Department of Parks & Parkway",
    "final_address": "2928 Ursulines Ave",
    "address_councildis": "A",
    "status": "Pending",
    "rowid": "947261",
    "final_x": "3676594.07797",
    "final_y": "538858.358793",
    "longitude": "-90.08330868078811",
    "latitude": "29.975821725612974",
    "geocoded_column": {
      "latitude": "29.975821725612974",
      "longitude": "-90.08330868078811"
    }
  },
  {
    "service_request": "2022-947259",
    "request_type": "Trash/Recycling",
    "request_reason": "Missed Trash Pick-Up",
    "date_created": "2022-11-28T15:59:16.000",
    "date_modified": "2022-11-28T15:59:17.000",
    "request_status": "Pending",
    "responsible_agency": "Department of Sanitation",
    "final_address": "1500 BLK Sixth St",
    "address_councildis": "B",
    "status": "Assigned to Contractor",
    "contractor": "Richards Disposal",
    "rowid": "947259",
    "final_x": "3675649.45214",
    "final_y": "522017.075832",
    "longitude": "-90.086870684131",
    "latitude": "29.92954211124138",
    "geocoded_column": {
      "latitude": "29.92954211124138",
      "longitude": "-90.086870684131"
    }
  },
  {
    "service_request": "2022-947257",
    "request_type": "Property Maintenance",
    "request_reason": "Property Maintenance",
    "date_created": "2022-11-28T15:54:37.000",
    "date_modified": "2022-11-28T15:54:37.000",
    "request_status": "Pending",
    "responsible_agency": "Department of Code Enforcement",
    "final_address": "217 N Prieur St",
    "address_councildis": "B",
    "status": "Pending",
    "rowid": "947257",
    "final_x": "3677800.92373",
    "final_y": "533987.327749",
    "longitude": "-90.07966543638403",
    "latitude": "29.962391796172422",
    "geocoded_column": {
      "latitude": "29.962391796172422",
      "longitude": "-90.07966543638403"
    }
  },
  {
    "service_request": "2022-947256",
    "request_type": "Roads/Drainage",
    "request_reason": "Pothole",
    "date_created": "2022-11-28T15:49:31.000",
    "date_modified": "2022-11-28T16:06:18.000",
    "request_status": "Pending",
    "responsible_agency": "Department of Public Works",
    "final_address": "New Orleans,LA",
    "address_councildis": "B",
    "rowid": "947256",
    "final_x": "3679218.7",
    "final_y": "520977.18",
    "longitude": "-90.07563924712257",
    "latitude": "29.926575494117074",
    "geocoded_column": {
      "latitude": "29.926575494117074",
      "longitude": "-90.07563924712257"
    }
  },
  {
    "service_request": "2022-947253",
    "request_type": "Trash/Recycling",
    "request_reason": "Order Recycling Cart",
    "date_created": "2022-11-28T15:42:42.000",
    "date_modified": "2022-11-28T15:44:16.000",
    "request_status": "Pending",
    "responsible_agency": "Department of Sanitation",
    "final_address": "6323 Burgundy St",
    "address_councildis": "E",
    "status": "Pending",
    "rowid": "947253",
    "final_x": "3700034.32976",
    "final_y": "532343.434371",
    "longitude": "-90.0095159187939",
    "latitude": "29.957184073928868",
    "geocoded_column": {
      "latitude": "29.957184073928868",
      "longitude": "-90.0095159187939"
    }
  },
  {
    "service_request": "2022-947252",
    "request_type": "Trash/Recycling",
    "request_reason": "Repair Recycling Cart",
    "date_created": "2022-11-28T15:40:04.000",
    "date_modified": "2022-11-28T15:40:05.000",
    "request_status": "Pending",
    "responsible_agency": "Department of Sanitation",
    "final_address": "2950 Grand Route St John St",
    "address_councildis": "A",
    "status": "Pending",
    "rowid": "947252",
    "final_x": "3677186.00277",
    "final_y": "540234.048651",
    "longitude": "-90.08139174216915",
    "latitude": "29.9795866301665",
    "geocoded_column": {
      "latitude": "29.9795866301665",
      "longitude": "-90.08139174216915"
    }
  },
  {
    "service_request": "2022-947251",
    "request_type": "Roads/Drainage",
    "request_reason": "Street Subsidence (Sinking)",
    "date_created": "2022-11-28T15:39:24.000",
    "date_modified": "2022-11-28T15:44:44.000",
    "case_close_date": "2022-11-28T09:44:44.000",
    "request_status": "Closed",
    "responsible_agency": "Department of Public Works",
    "final_address": "HUMANITY ST & LOUISA ST",
    "address_councildis": "D",
    "status": "Duplicate Request",
    "rowid": "947251",
    "final_x": "3691720.03",
    "final_y": "544538.29",
    "longitude": "-90.03533361486599",
    "latitude": "29.99097710160772",
    "geocoded_column": {
      "latitude": "29.99097710160772",
      "longitude": "-90.03533361486599"
    }
  },
  {
    "service_request": "2022-947250",
    "request_type": "Trash/Recycling",
    "request_reason": "Replace Trash Cart",
    "date_created": "2022-11-28T15:35:52.000",
    "date_modified": "2022-11-28T15:35:53.000",
    "request_status": "Pending",
    "responsible_agency": "Department of Sanitation",
    "final_address": "4623 Baudin St",
    "address_councildis": "A",
    "status": "Assigned to Contractor",
    "contractor": "Richards Disposal",
    "rowid": "947250",
    "final_x": "3668331.19578",
    "final_y": "538465.713481",
    "longitude": "-90.10941853336135",
    "latitude": "29.974987354576115",
    "geocoded_column": {
      "latitude": "29.974987354576115",
      "longitude": "-90.10941853336135"
    }
  },
  {
    "service_request": "2022-947249",
    "request_type": "Trash/Recycling",
    "request_reason": "MIssed Recycling Pick-Up",
    "date_created": "2022-11-28T15:35:11.000",
    "date_modified": "2022-11-28T15:35:12.000",
    "request_status": "Pending",
    "responsible_agency": "Department of Sanitation",
    "final_address": "502 S Scott St",
    "address_councildis": "B",
    "status": "Assigned to Contractor",
    "contractor": "Richards Disposal",
    "rowid": "947249",
    "final_x": "3670824.25217",
    "final_y": "536445.320263",
    "longitude": "-90.10161339303356",
    "latitude": "29.969358496726638",
    "geocoded_column": {
      "latitude": "29.969358496726638",
      "longitude": "-90.10161339303356"
    }
  },
  {
    "service_request": "2022-947248",
    "request_type": "Trash/Recycling",
    "request_reason": "MIssed Recycling Pick-Up",
    "date_created": "2022-11-28T15:33:11.000",
    "date_modified": "2022-11-28T15:33:12.000",
    "request_status": "Pending",
    "responsible_agency": "Department of Sanitation",
    "final_address": "502 S Scott St",
    "address_councildis": "B",
    "status": "Assigned to Contractor",
    "contractor": "Richards Disposal",
    "rowid": "947248",
    "final_x": "3670824.25217",
    "final_y": "536445.320263",
    "longitude": "-90.10161339303356",
    "latitude": "29.969358496726638",
    "geocoded_column": {
      "latitude": "29.969358496726638",
      "longitude": "-90.10161339303356"
    }
  },
  {
    "service_request": "2022-947247",
    "request_type": "Trash/Recycling",
    "request_reason": "Missed Trash Pick-Up",
    "date_created": "2022-11-28T15:32:37.000",
    "date_modified": "2022-11-28T15:32:38.000",
    "request_status": "Pending",
    "responsible_agency": "Department of Sanitation",
    "final_address": "466 Flood St",
    "address_councildis": "E",
    "status": "Assigned to Contractor",
    "contractor": "Waste Pro",
    "rowid": "947247",
    "final_x": "3697066.36298",
    "final_y": "531634.081539",
    "longitude": "-90.0189134905032",
    "latitude": "29.95532755481381",
    "geocoded_column": {
      "latitude": "29.95532755481381",
      "longitude": "-90.0189134905032"
    }
  },
  {
    "service_request": "2022-947246",
    "request_type": "Trash/Recycling",
    "request_reason": "Missed Trash Pick-Up",
    "date_created": "2022-11-28T15:26:36.000",
    "date_modified": "2022-11-28T15:32:46.000",
    "request_status": "Pending",
    "responsible_agency": "Department of Sanitation",
    "final_address": "7631 Sycamore St",
    "address_councildis": "A",
    "status": "Assigned to Contractor",
    "contractor": "Richards Disposal",
    "rowid": "947246",
    "final_x": "3665517.34554",
    "final_y": "529942.066369",
    "longitude": "-90.11859081793266",
    "latitude": "29.951632472632483",
    "geocoded_column": {
      "latitude": "29.951632472632483",
      "longitude": "-90.11859081793266"
    }
  },
  {
    "service_request": "2022-947245",
    "request_type": "Trash/Recycling",
    "request_reason": "Missed Trash Pick-Up",
    "date_created": "2022-11-28T15:25:58.000",
    "date_modified": "2022-11-28T15:25:59.000",
    "request_status": "Pending",
    "responsible_agency": "Department of Sanitation",
    "final_address": "205 Norland Ave",
    "address_councildis": "C",
    "status": "Assigned to Contractor",
    "contractor": "Richards Disposal",
    "rowid": "947245",
    "final_x": "3706292.04049",
    "final_y": "520327.67244",
    "longitude": "-89.9902009025948",
    "latitude": "29.923944717172876",
    "geocoded_column": {
      "latitude": "29.923944717172876",
      "longitude": "-89.9902009025948"
    }
  },
  {
    "service_request": "2022-947244",
    "request_type": "Trash/Recycling",
    "request_reason": "Replace Trash Cart",
    "date_created": "2022-11-28T15:23:52.000",
    "date_modified": "2022-11-28T15:30:42.000",
    "case_close_date": "2022-11-28T09:30:42.000",
    "request_status": "Closed",
    "responsible_agency": "Department of Sanitation",
    "final_address": "1982 Hope St",
    "address_councildis": "D",
    "status": "Assigned to Contractor",
    "contractor": "IV Waste",
    "contractor_action": "Completed",
    "rowid": "947244",
    "final_x": "3682132.85032",
    "final_y": "541964.082764",
    "longitude": "-90.06570717218574",
    "latitude": "29.98419407484522",
    "geocoded_column": {
      "latitude": "29.98419407484522",
      "longitude": "-90.06570717218574"
    }
  },
  {
    "service_request": "2022-947243",
    "request_type": "Roads/Drainage",
    "request_reason": "Pothole",
    "date_created": "2022-11-28T15:22:59.000",
    "date_modified": "2022-11-28T15:22:59.000",
    "request_status": "Pending",
    "responsible_agency": "Department of Public Works",
    "final_address": "CYPRESS ACRES DR & WESTPARK CT",
    "address_councildis": "C",
    "status": "Pending",
    "rowid": "947243",
    "final_x": "3696199.6",
    "final_y": "522367.18",
    "longitude": "-90.02198527719017",
    "latitude": "29.929874099909103",
    "geocoded_column": {
      "latitude": "29.929874099909103",
      "longitude": "-90.02198527719017"
    }
  },
  {
    "service_request": "2022-947242",
    "request_type": "Trash/Recycling",
    "request_reason": "Request a Large Item Pick Up",
    "date_created": "2022-11-28T15:18:55.000",
    "date_modified": "2022-11-28T15:18:55.000",
    "request_status": "Pending",
    "responsible_agency": "Department of Sanitation",
    "final_address": "917 Hillary St",
    "address_councildis": "A",
    "status": "Assigned to Contractor",
    "contractor": "Richards Disposal",
    "rowid": "947242",
    "final_x": "3662665.65216",
    "final_y": "526423.723262",
    "longitude": "-90.12771202280595",
    "latitude": "29.94204097557979",
    "geocoded_column": {
      "latitude": "29.94204097557979",
      "longitude": "-90.12771202280595"
    }
  },
  {
    "service_request": "2022-947241",
    "request_type": "Trash/Recycling",
    "request_reason": "Missed Trash Pick-Up",
    "date_created": "2022-11-28T15:14:51.000",
    "date_modified": "2022-11-28T15:14:52.000",
    "request_status": "Pending",
    "responsible_agency": "Department of Sanitation",
    "final_address": "2200 BLK Lowerline St",
    "address_councildis": "A",
    "status": "Assigned to Contractor",
    "contractor": "Richards Disposal",
    "rowid": "947241",
    "final_x": "3665755.67436",
    "final_y": "529912.665028",
    "longitude": "-90.11783927224846",
    "latitude": "29.951544679025186",
    "geocoded_column": {
      "latitude": "29.951544679025186",
      "longitude": "-90.11783927224846"
    }
  },
  {
    "service_request": "2022-947240",
    "request_type": "Property Maintenance",
    "request_reason": "Property Maintenance",
    "date_created": "2022-11-28T15:13:31.000",
    "date_modified": "2022-11-28T15:13:31.000",
    "request_status": "Pending",
    "responsible_agency": "Department of Code Enforcement",
    "final_address": "527 Conrad St",
    "address_councildis": "A",
    "status": "Pending",
    "rowid": "947240",
    "final_x": "3668632.36186",
    "final_y": "554391.805848",
    "longitude": "-90.10792945738224",
    "latitude": "30.018769763389326",
    "geocoded_column": {
      "latitude": "30.018769763389326",
      "longitude": "-90.10792945738224"
    }
  },
  {
    "service_request": "2022-947239",
    "request_type": "Abandoned Vehicles",
    "request_reason": "Abandoned/Junk Vehicles",
    "date_created": "2022-11-28T15:11:14.000",
    "date_modified": "2022-11-28T17:01:02.000",
    "request_status": "Pending",
    "responsible_agency": "Department of Public Works",
    "final_address": "New Orleans,LA",
    "address_councildis": "B",
    "rowid": "947239",
    "final_x": "3670131.0",
    "final_y": "520493.78",
    "longitude": "-90.10434306294441",
    "latitude": "29.92551744515919",
    "geocoded_column": {
      "latitude": "29.92551744515919",
      "longitude": "-90.10434306294441"
    }
  },
  {
    "service_request": "2022-947238",
    "request_type": "Trash/Recycling",
    "request_reason": "MIssed Recycling Pick-Up",
    "date_created": "2022-11-28T15:11:02.000",
    "date_modified": "2022-11-28T15:11:03.000",
    "request_status": "Pending",
    "responsible_agency": "Department of Sanitation",
    "final_address": "434 S Murat St",
    "address_councildis": "A",
    "status": "Assigned to Contractor",
    "contractor": "Richards Disposal",
    "rowid": "947238",
    "final_x": "3668810.55911",
    "final_y": "538144.199753",
    "longitude": "-90.10791543562159",
    "latitude": "29.97408921221019",
    "geocoded_column": {
      "latitude": "29.97408921221019",
      "longitude": "-90.10791543562159"
    }
  },
  {
    "service_request": "2022-947237",
    "request_type": "Trash/Recycling",
    "request_reason": "MIssed Recycling Pick-Up",
    "date_created": "2022-11-28T15:11:02.000",
    "date_modified": "2022-11-28T15:11:02.000",
    "request_status": "Pending",
    "responsible_agency": "Department of Sanitation",
    "final_address": "434 S Murat St",
    "address_councildis": "A",
    "status": "Assigned to Contractor",
    "contractor": "Richards Disposal",
    "rowid": "947237",
    "final_x": "3668810.55911",
    "final_y": "538144.199753",
    "longitude": "-90.10791543562159",
    "latitude": "29.97408921221019",
    "geocoded_column": {
      "latitude": "29.97408921221019",
      "longitude": "-90.10791543562159"
    }
  },
  {
    "service_request": "2022-947236",
    "request_type": "Traffic Signals/Signs/Striping/Streetlights",
    "request_reason": "Street Light Outage/Malfunction",
    "date_created": "2022-11-28T15:09:03.000",
    "date_modified": "2022-11-28T15:09:04.000",
    "request_status": "Pending",
    "responsible_agency": "Department of Public Works",
    "final_address": "5631 Laurel St",
    "address_councildis": "A",
    "status": "Pending",
    "contractor": "Legacy Professional Services",
    "rowid": "947236",
    "final_x": "3665652.22426",
    "final_y": "517961.777462",
    "longitude": "-90.11856596958134",
    "latitude": "29.918686561506018",
    "geocoded_column": {
      "latitude": "29.918686561506018",
      "longitude": "-90.11856596958134"
    }
  },
  {
    "service_request": "2022-947235",
    "request_type": "Trash/Recycling",
    "request_reason": "Order Trash Cart",
    "date_created": "2022-11-28T15:08:26.000",
    "date_modified": "2022-11-28T15:08:27.000",
    "request_status": "Pending",
    "responsible_agency": "Department of Sanitation",
    "final_address": "4820 Elysian Fields Ave",
    "address_councildis": "D",
    "status": "Assigned to Contractor",
    "contractor": "IV Waste",
    "rowid": "947235",
    "final_x": "3683763.29026",
    "final_y": "550454.15842",
    "longitude": "-90.06025941664535",
    "latitude": "30.007489053719247",
    "geocoded_column": {
      "latitude": "30.007489053719247",
      "longitude": "-90.06025941664535"
    }
  },
  {
    "service_request": "2022-947234",
    "request_type": "Trash/Recycling",
    "request_reason": "Missed Trash Pick-Up",
    "date_created": "2022-11-28T15:07:02.000",
    "date_modified": "2022-11-28T15:07:03.000",
    "request_status": "Pending",
    "responsible_agency": "Department of Sanitation",
    "final_address": "6246 Erin Dr",
    "address_councildis": "E",
    "status": "Assigned to Contractor",
    "contractor": "Waste Pro",
    "rowid": "947234",
    "final_x": "3696462.08515",
    "final_y": "558704.11926",
    "longitude": "-90.0198417333989",
    "latitude": "30.029779274912702",
    "geocoded_column": {
      "latitude": "30.029779274912702",
      "longitude": "-90.0198417333989"
    }
  },
  {
    "service_request": "2022-947233",
    "request_type": "Roads/Drainage",
    "request_reason": "Accessibility Ramps, Curbs and Sidewalk Repair",
    "date_created": "2022-11-28T15:04:36.000",
    "date_modified": "2022-11-28T15:04:36.000",
    "request_status": "Pending",
    "responsible_agency": "Department of Public Works",
    "final_address": "7325 Spruce St",
    "address_councildis": "A",
    "status": "Pending",
    "rowid": "947233",
    "final_x": "3665373.30836",
    "final_y": "529196.496576",
    "longitude": "-90.1190705670253",
    "latitude": "29.94958659518001",
    "geocoded_column": {
      "latitude": "29.94958659518001",
      "longitude": "-90.1190705670253"
    }
  },
  {
    "service_request": "2022-947232",
    "request_type": "Trash/Recycling",
    "request_reason": "Order Recycling Cart",
    "date_created": "2022-11-28T15:03:25.000",
    "date_modified": "2022-11-28T15:03:25.000",
    "request_status": "Pending",
    "responsible_agency": "Department of Sanitation",
    "final_address": "121 Morrison Ct",
    "address_councildis": "E",
    "status": "Pending",
    "rowid": "947232",
    "final_x": "3704011.09975",
    "final_y": "561721.685407",
    "longitude": "-89.99587579142225",
    "latitude": "30.037836301456224",
    "geocoded_column": {
      "latitude": "30.037836301456224",
      "longitude": "-89.99587579142225"
    }
  },
  {
    "service_request": "2022-947231",
    "request_type": "Parks & Parkways",
    "request_reason": "Request Tree Service (Right of Way/Public Property)",
    "date_created": "2022-11-28T15:02:43.000",
    "date_modified": "2022-11-28T15:50:29.000",
    "case_close_date": "2022-11-28T09:50:29.000",
    "request_status": "Closed",
    "responsible_agency": "Department of Parks & Parkway",
    "final_address": "315 Julia St",
    "address_councildis": "B",
    "status": "Referred to External Agency",
    "rowid": "947231",
    "final_x": "3682106.51797",
    "final_y": "527638.180735",
    "longitude": "-90.06629069704503",
    "latitude": "29.944803560865584",
    "geocoded_column": {
      "latitude": "29.944803560865584",
      "longitude": "-90.06629069704503"
    }
  },
  {
    "service_request": "2022-947230",
    "request_type": "Trash/Recycling",
    "request_reason": "Request a Large Item Pick Up",
    "date_created": "2022-11-28T15:00:49.000",
    "date_modified": "2022-11-28T15:00:50.000",
    "request_status": "Pending",
    "responsible_agency": "Department of Sanitation",
    "final_address": "7095 General Meyer Ave",
    "address_councildis": "C",
    "status": "Assigned to Contractor",
    "contractor": "Richards Disposal",
    "rowid": "947230",
    "final_x": "3710469.32504",
    "final_y": "519003.276343",
    "longitude": "-89.97706432441018",
    "latitude": "29.920167794624383",
    "geocoded_column": {
      "latitude": "29.920167794624383",
      "longitude": "-89.97706432441018"
    }
  },
  {
    "service_request": "2022-947229",
    "request_type": "Roads/Drainage",
    "request_reason": "Pothole",
    "date_created": "2022-11-28T14:59:46.000",
    "date_modified": "2022-11-28T15:33:52.000",
    "request_status": "Pending",
    "responsible_agency": "Department of Public Works",
    "final_address": "7252 Lakeshore Dr, New Orleans, Louisiana, 70124",
    "address_councildis": "D",
    "status": "Inspected",
    "rowid": "947229",
    "final_x": "3666800.08052",
    "final_y": "555252.519961",
    "longitude": "-90.11368988696351",
    "latitude": "30.021190175136482",
    "geocoded_column": {
      "latitude": "30.021190175136482",
      "longitude": "-90.11368988696351"
    }
  },
  {
    "service_request": "2022-947228",
    "request_type": "Property Maintenance",
    "request_reason": "Property Maintenance",
    "date_created": "2022-11-28T14:59:28.000",
    "date_modified": "2022-11-28T14:59:29.000",
    "request_status": "Pending",
    "responsible_agency": "Department of Code Enforcement",
    "final_address": "7700 Ebbtide Dr",
    "address_councildis": "E",
    "status": "Pending",
    "rowid": "947228",
    "final_x": "3702069.08631",
    "final_y": "561628.533087",
    "longitude": "-90.00201641099058",
    "latitude": "30.03764235370126",
    "geocoded_column": {
      "latitude": "30.03764235370126",
      "longitude": "-90.00201641099058"
    }
  },
  {
    "service_request": "2022-947227",
    "request_type": "Trash/Recycling",
    "request_reason": "Repair Trash Cart",
    "date_created": "2022-11-28T14:59:23.000",
    "date_modified": "2022-11-28T15:36:15.000",
    "case_close_date": "2022-11-28T09:36:15.000",
    "request_status": "Closed",
    "responsible_agency": "Department of Sanitation",
    "final_address": "2411 Prancer St",
    "address_councildis": "C",
    "status": "Duplicate Request",
    "contractor": "Richards Disposal",
    "rowid": "947227",
    "final_x": "3699860.84394",
    "final_y": "522479.132218",
    "longitude": "-90.010423348407",
    "latitude": "29.930066208835058",
    "geocoded_column": {
      "latitude": "29.930066208835058",
      "longitude": "-90.010423348407"
    }
  },
  {
    "service_request": "2022-947226",
    "request_type": "Roads/Drainage",
    "request_reason": "Pothole",
    "date_created": "2022-11-28T14:58:00.000",
    "date_modified": "2022-11-28T15:41:34.000",
    "request_status": "Pending",
    "responsible_agency": "Department of Public Works",
    "final_address": "7252 Pontchartrain Blvd, New Orleans, Louisiana, 70124",
    "status": "Inspected",
    "rowid": "947226",
    "longitude": "0.0",
    "latitude": "0.0",
    "geocoded_column": {
      "latitude": "0.0",
      "longitude": "0.0"
    }
  },
  {
    "service_request": "2022-947225",
    "request_type": "Trash/Recycling",
    "request_reason": "Repair Trash Cart",
    "date_created": "2022-11-28T14:57:50.000",
    "date_modified": "2022-11-28T15:37:23.000",
    "case_close_date": "2022-11-28T09:37:23.000",
    "request_status": "Closed",
    "responsible_agency": "Department of Sanitation",
    "final_address": "2411 Prancer St",
    "address_councildis": "C",
    "status": "Duplicate Request",
    "contractor": "Richards Disposal",
    "rowid": "947225",
    "final_x": "3699860.84394",
    "final_y": "522479.132218",
    "longitude": "-90.010423348407",
    "latitude": "29.930066208835058",
    "geocoded_column": {
      "latitude": "29.930066208835058",
      "longitude": "-90.010423348407"
    }
  },
  {
    "service_request": "2022-947223",
    "request_type": "Roads/Drainage",
    "request_reason": "Street Subsidence (Sinking)",
    "date_created": "2022-11-28T14:57:14.000",
    "date_modified": "2022-11-28T14:57:14.000",
    "request_status": "Pending",
    "responsible_agency": "Department of Public Works",
    "final_address": "5400 Annunciation St",
    "address_councildis": "A",
    "status": "Pending",
    "rowid": "947223",
    "final_x": "3666387.25108",
    "final_y": "517524.85599",
    "longitude": "-90.11626051515978",
    "latitude": "29.917463717070916",
    "geocoded_column": {
      "latitude": "29.917463717070916",
      "longitude": "-90.11626051515978"
    }
  },
  {
    "service_request": "2022-947222",
    "request_type": "Trash/Recycling",
    "request_reason": "Missed Trash Pick-Up",
    "date_created": "2022-11-28T14:56:50.000",
    "date_modified": "2022-11-28T14:56:51.000",
    "request_status": "Pending",
    "responsible_agency": "Department of Sanitation",
    "final_address": "4060 Duplessis St",
    "address_councildis": "D",
    "status": "Assigned to Contractor",
    "contractor": "IV Waste",
    "rowid": "947222",
    "final_x": "3678450.53326",
    "final_y": "547161.941329",
    "longitude": "-90.077157964878",
    "latitude": "29.998597860592824",
    "geocoded_column": {
      "latitude": "29.998597860592824",
      "longitude": "-90.077157964878"
    }
  },
  {
    "service_request": "2022-947221",
    "request_type": "Trash/Recycling",
    "request_reason": "Repair Trash Cart",
    "date_created": "2022-11-28T14:56:16.000",
    "date_modified": "2022-11-28T14:56:16.000",
    "request_status": "Pending",
    "responsible_agency": "Department of Sanitation",
    "final_address": "2411 Prancer St",
    "address_councildis": "C",
    "status": "Assigned to Contractor",
    "contractor": "Richards Disposal",
    "rowid": "947221",
    "final_x": "3699860.84394",
    "final_y": "522479.132218",
    "longitude": "-90.010423348407",
    "latitude": "29.930066208835058",
    "geocoded_column": {
      "latitude": "29.930066208835058",
      "longitude": "-90.010423348407"
    }
  },
  {
    "service_request": "2022-947220",
    "request_type": "Property Maintenance",
    "request_reason": "Property Maintenance",
    "date_created": "2022-11-28T14:54:40.000",
    "date_modified": "2022-11-28T14:54:40.000",
    "request_status": "Pending",
    "responsible_agency": "Department of Code Enforcement",
    "final_address": "7625 Maple St",
    "address_councildis": "A",
    "status": "Pending",
    "rowid": "947220",
    "final_x": "3662216.01767",
    "final_y": "526297.239358",
    "longitude": "-90.12913581911467",
    "latitude": "29.941706185935402",
    "geocoded_column": {
      "latitude": "29.941706185935402",
      "longitude": "-90.12913581911467"
    }
  },
  {
    "service_request": "2022-947219",
    "request_type": "Trash/Recycling",
    "request_reason": "Replace Trash Cart",
    "date_created": "2022-11-28T14:54:31.000",
    "date_modified": "2022-11-28T14:54:31.000",
    "request_status": "Pending",
    "responsible_agency": "Department of Sanitation",
    "final_address": "5524 Annunciation St",
    "address_councildis": "A",
    "status": "Assigned to Contractor",
    "contractor": "Richards Disposal",
    "rowid": "947219",
    "final_x": "3665953.20493",
    "final_y": "517510.83583",
    "longitude": "-90.11763102940023",
    "latitude": "29.917437835700692",
    "geocoded_column": {
      "latitude": "29.917437835700692",
      "longitude": "-90.11763102940023"
    }
  },
  {
    "service_request": "2022-947218",
    "request_type": "Trash/Recycling",
    "request_reason": "Replace Trash Cart",
    "date_created": "2022-11-28T14:54:26.000",
    "date_modified": "2022-11-28T14:54:28.000",
    "request_status": "Pending",
    "responsible_agency": "Department of Sanitation",
    "final_address": "3101 Eads St",
    "address_councildis": "D",
    "status": "Assigned to Contractor",
    "contractor": "IV Waste",
    "rowid": "947218",
    "final_x": "3687696.02038",
    "final_y": "544335.443087",
    "longitude": "-90.04805166166265",
    "latitude": "29.990544070585802",
    "geocoded_column": {
      "latitude": "29.990544070585802",
      "longitude": "-90.04805166166265"
    }
  },