[
  {
    "service_request": "2022-868708",
    "request_type": "Property Maintenance",
    "request_reason": "Property Maintenance",
    "date_created": "2022-03-22T01:39:39.000",
    "date_modified": "2022-03-22T01:39:39.000",
    "request_status": "Pending",
    "responsible_agency": "Department of Code Enforcement",
    "final_address": "6800 S Interstate 10 Service Rd",
    "address_councildis": "E",
    "status": "Pending",
    "rowid": "868708",
    "final_x": "3699572.72151",
    "final_y": "556889.258906",
    "longitude": "-90.01007843819505",
    "latitude": "30.02469069419991",
    "geocoded_column": {
      "latitude": "30.02469069419991",
      "longitude": "-90.01007843819505"
    }
  },
  {
    "service_request": "2022-868707",
    "request_type": "Traffic Signals/Signs/Striping/Streetlights",
    "request_reason": "Street Light Outage/Malfunction",
    "date_created": "2022-03-22T00:52:52.000",
    "date_modified": "2022-03-22T00:52:53.000",
    "request_status": "Pending",
    "responsible_agency": "Department of Public Works",
    "final_address": "3419 N Villere St",
    "address_councildis": "C",
    "status": "Pending",
    "contractor": "Royal Engineering",
    "rowid": "868707",
    "final_x": "3690621.16316",
    "final_y": "536807.790024",
    "longitude": "-90.03908047845667",
    "latitude": "29.969755165016252",
    "geocoded_column": {
      "latitude": "29.969755165016252",
      "longitude": "-90.03908047845667"
    }
  },
  {
    "service_request": "2022-868706",
    "request_type": "Health Related Questions",
    "request_reason": "Noise Ordinance Complaint",
    "date_created": "2022-03-21T23:37:33.000",
    "date_modified": "2022-03-21T23:37:33.000",
    "request_status": "Pending",
    "responsible_agency": "Health Department",
    "final_address": "708 St Roch Ave, New Orleans, Louisiana, 70117",
    "address_councildis": "D",
    "status": "Pending",
    "rowid": "868706",
    "final_x": "3685875.4934",
    "final_y": "542864.272269",
    "longitude": "-90.05385412864344",
    "latitude": "29.986554898617754",
    "geocoded_column": {
      "latitude": "29.986554898617754",
      "longitude": "-90.05385412864344"
    }
  },
  {
    "service_request": "2022-868705",
    "request_type": "Trash/Recycling",
    "request_reason": "Order Recycling Cart",
    "date_created": "2022-03-21T22:51:32.000",
    "date_modified": "2022-03-21T22:51:32.000",
    "request_status": "Pending",
    "responsible_agency": "Department of Sanitation",
    "final_address": "546 Joseph St",
    "address_councildis": "A",
    "status": "Pending",
    "rowid": "868705",
    "final_x": "3665935.91828",
    "final_y": "518255.073782",
    "longitude": "-90.11766067073333",
    "latitude": "29.919484761639342",
    "geocoded_column": {
      "latitude": "29.919484761639342",
      "longitude": "-90.11766067073333"
    }
  },
  {
    "service_request": "2022-868704",
    "request_type": "Trash/Recycling",
    "request_reason": "Order Trash Cart",
    "date_created": "2022-03-21T22:02:40.000",
    "date_modified": "2022-03-21T22:02:41.000",
    "request_status": "Pending",
    "responsible_agency": "Department of Sanitation",
    "final_address": "7272 Canal Blvd",
    "address_councildis": "D",
    "status": "Assigned to Contractor",
    "contractor": "Metro Disposal",
    "rowid": "868704",
    "final_x": "3669049.91886",
    "final_y": "555300.200537",
    "longitude": "-90.1065793933683",
    "latitude": "30.0212552408949",
    "geocoded_column": {
      "latitude": "30.0212552408949",
      "longitude": "-90.1065793933683"
    }
  },
  {
    "service_request": "2022-868701",
    "request_type": "Trash/Recycling",
    "request_reason": "Missed Trash Pick-Up",
    "date_created": "2022-03-21T21:48:27.000",
    "date_modified": "2022-03-21T21:48:28.000",
    "request_status": "Pending",
    "responsible_agency": "Department of Sanitation",
    "final_address": "3101 De Soto St",
    "address_councildis": "A",
    "status": "Assigned to Contractor",
    "contractor": "Richards Disposal",
    "rowid": "868701",
    "final_x": "3676398.66939",
    "final_y": "539890.937994",
    "longitude": "-90.08389027651855",
    "latitude": "29.978666824010915",
    "geocoded_column": {
      "latitude": "29.978666824010915",
      "longitude": "-90.08389027651855"
    }
  },
  {
    "service_request": "2022-868700",
    "request_type": "Property Maintenance",
    "request_reason": "Property Maintenance",
    "date_created": "2022-03-21T21:10:27.000",
    "date_modified": "2022-03-21T21:10:27.000",
    "request_status": "Pending",
    "responsible_agency": "Department of Code Enforcement",
    "final_address": "3011 St Claude Ave",
    "address_councildis": "C",
    "status": "Pending",
    "rowid": "868700",
    "final_x": "3688558.73481",
    "final_y": "536217.302279",
    "longitude": "-90.04561475367828",
    "latitude": "29.96819542422598",
    "geocoded_column": {
      "latitude": "29.96819542422598",
      "longitude": "-90.04561475367828"
    }
  },
  {
    "service_request": "2022-868698",
    "request_type": "Property Maintenance",
    "request_reason": "Property Maintenance",
    "date_created": "2022-03-21T21:00:28.000",
    "date_modified": "2022-03-21T21:00:28.000",
    "request_status": "Pending",
    "responsible_agency": "Department of Code Enforcement",
    "final_address": "3627 St Ferdinand St",
    "address_councildis": "D",
    "status": "Pending",
    "rowid": "868698",
    "final_x": "3690038.83068",
    "final_y": "546515.218961",
    "longitude": "-90.04057365405012",
    "latitude": "29.99646519993442",
    "geocoded_column": {
      "latitude": "29.99646519993442",
      "longitude": "-90.04057365405012"
    }
  },
  {
    "service_request": "2022-868697",
    "request_type": "Trash/Recycling",
    "request_reason": "Request a Large Item Pick Up",
    "date_created": "2022-03-21T20:32:12.000",
    "date_modified": "2022-03-21T20:32:13.000",
    "request_status": "Pending",
    "responsible_agency": "Department of Sanitation",
    "final_address": "1116 St Ferdinand St",
    "address_councildis": "C",
    "status": "Assigned to Contractor",
    "contractor": "Metro Disposal",
    "rowid": "868697",
    "final_x": "3687749.05436",
    "final_y": "536540.915143",
    "longitude": "-90.04816028915135",
    "latitude": "29.969110241749178",
    "geocoded_column": {
      "latitude": "29.969110241749178",
      "longitude": "-90.04816028915135"
    }
  },
  {
    "service_request": "2022-868696",
    "request_type": "Trash/Recycling",
    "request_reason": "Request a Large Item Pick Up",
    "date_created": "2022-03-21T20:17:25.000",
    "date_modified": "2022-03-21T20:17:26.000",
    "request_status": "Pending",
    "responsible_agency": "Department of Sanitation",
    "final_address": "1818 Short St",
    "address_councildis": "A",
    "status": "Assigned to Contractor",
    "contractor": "Richards Disposal",
    "rowid": "868696",
    "final_x": "3663792.67418",
    "final_y": "529765.502593",
    "longitude": "-90.12404240689021",
    "latitude": "29.95119714097648",
    "geocoded_column": {
      "latitude": "29.95119714097648",
      "longitude": "-90.12404240689021"
    }
  },
  {
    "service_request": "2022-868695",
    "request_type": "Abandoned Vehicles",
    "request_reason": "Abandoned/Junk Vehicles",
    "date_created": "2022-03-21T20:16:49.000",
    "date_modified": "2022-03-21T20:16:49.000",
    "request_status": "Pending",
    "responsible_agency": "Department of Public Works",
    "final_address": "7334 Chef Menteur Hwy",
    "address_councildis": "E",
    "status": "Pending",
    "rowid": "868695",
    "final_x": "3702157.59377",
    "final_y": "552217.374102",
    "longitude": "-90.00208224792493",
    "latitude": "30.011762465694257",
    "geocoded_column": {
      "latitude": "30.011762465694257",
      "longitude": "-90.00208224792493"
    }
  },
  {
    "service_request": "2022-868694",
    "request_type": "Traffic Signals/Signs/Striping/Streetlights",
    "request_reason": "Street Light Outage/Malfunction",
    "date_created": "2022-03-21T20:14:16.000",
    "date_modified": "2022-03-21T20:14:17.000",
    "request_status": "Pending",
    "responsible_agency": "Department of Public Works",
    "final_address": "LEONTINE ST & CONSTANCE ST",
    "address_councildis": "B",
    "status": "Pending",
    "contractor": "Royal Engineering",
    "rowid": "868694",
    "final_x": "3667117.6",
    "final_y": "518327.58",
    "longitude": "-90.11392824231035",
    "latitude": "29.919649605400906",
    "geocoded_column": {
      "latitude": "29.919649605400906",
      "longitude": "-90.11392824231035"
    }
  },
  {
    "service_request": "2022-868693",
    "request_type": "Trash/Recycling",
    "request_reason": "Request a Large Item Pick Up",
    "date_created": "2022-03-21T20:08:19.000",
    "date_modified": "2022-03-21T20:08:20.000",
    "request_status": "Pending",
    "responsible_agency": "Department of Sanitation",
    "final_address": "34 Labarre Pl, New Orleans, Louisiana, 70121",
    "status": "Assigned to Contractor",
    "rowid": "868693",
    "longitude": "0.0",
    "latitude": "0.0",
    "geocoded_column": {
      "latitude": "0.0",
      "longitude": "0.0"
    }
  },
  {
    "service_request": "2022-868690",
    "request_type": "Parks & Parkways",
    "request_reason": "Request Tree Service (Right of Way/Public Property)",
    "date_created": "2022-03-21T19:55:34.000",
    "date_modified": "2022-03-21T21:10:05.000",
    "request_status": "Pending",
    "responsible_agency": "Department of Parks & Parkway",
    "final_address": "4532 Perlita St",
    "address_councildis": "D",
    "status": "Pending",
    "rowid": "868690",
    "final_x": "3678649.75406",
    "final_y": "549384.999123",
    "longitude": "-90.07645159339715",
    "latitude": "30.004704472857355",
    "geocoded_column": {
      "latitude": "30.004704472857355",
      "longitude": "-90.07645159339715"
    }
  },
  {
    "service_request": "2022-868689",
    "request_type": "Trash/Recycling",
    "request_reason": "Request a Large Item Pick Up",
    "date_created": "2022-03-21T19:51:36.000",
    "date_modified": "2022-03-21T19:52:48.000",
    "request_status": "Pending",
    "responsible_agency": "Department of Sanitation",
    "final_address": "FELICIANA ST & N GALVEZ ST",
    "address_councildis": "D",
    "status": "Assigned to Contractor",
    "contractor": "Metro Disposal",
    "rowid": "868689",
    "final_x": "3689664.39",
    "final_y": "539789.41",
    "longitude": "-90.041995926851",
    "latitude": "29.977983247655295",
    "geocoded_column": {
      "latitude": "29.977983247655295",
      "longitude": "-90.041995926851"
    }
  },
  {
    "service_request": "2022-868688",
    "request_type": "Traffic Signals/Signs/Striping/Streetlights",
    "request_reason": "Street Light Outage/Malfunction",
    "date_created": "2022-03-21T19:50:40.000",
    "date_modified": "2022-03-21T19:50:40.000",
    "request_status": "Pending",
    "responsible_agency": "Department of Public Works",
    "final_address": "N CLAIBORNE AVE & MANDEVILLE ST",
    "address_councildis": "D",
    "status": "Pending",
    "contractor": "Royal Engineering",
    "rowid": "868688",
    "final_x": "3685635.8",
    "final_y": "538210.08",
    "longitude": "-90.05477526385536",
    "latitude": "29.973764866665686",
    "geocoded_column": {
      "latitude": "29.973764866665686",
      "longitude": "-90.05477526385536"
    }
  },
  {
    "service_request": "2022-868687",
    "request_type": "Traffic Signals/Signs/Striping/Streetlights",
    "request_reason": "Street Light Outage/Malfunction",
    "date_created": "2022-03-21T19:49:55.000",
    "date_modified": "2022-03-21T19:49:56.000",
    "request_status": "Pending",
    "responsible_agency": "Department of Public Works",
    "final_address": "ST ROCH AVE & N CLAIBORNE AVE",
    "address_councildis": "D",
    "status": "Pending",
    "contractor": "Royal Engineering",
    "rowid": "868687",
    "final_x": "3686306.3",
    "final_y": "538262.48",
    "longitude": "-90.05265583358853",
    "latitude": "29.97388835943615",
    "geocoded_column": {
      "latitude": "29.97388835943615",
      "longitude": "-90.05265583358853"
    }
  },
  {
    "service_request": "2022-868686",
    "request_type": "Abandoned Vehicles",
    "request_reason": "Abandoned/Junk Vehicles",
    "date_created": "2022-03-21T19:46:08.000",
    "date_modified": "2022-03-21T19:46:08.000",
    "request_status": "Pending",
    "responsible_agency": "Department of Public Works",
    "final_address": "3221 Montegut St",
    "address_councildis": "D",
    "status": "Pending",
    "rowid": "868686",
    "final_x": "3690610.04585",
    "final_y": "544623.375375",
    "longitude": "-90.0388367430954",
    "latitude": "29.991245582523923",
    "geocoded_column": {
      "latitude": "29.991245582523923",
      "longitude": "-90.0388367430954"
    }
  },
  {
    "service_request": "2022-868685",
    "request_type": "Trash/Recycling",
    "request_reason": "Request a Large Item Pick Up",
    "date_created": "2022-03-21T19:41:49.000",
    "date_modified": "2022-03-21T19:41:50.000",
    "request_status": "Pending",
    "responsible_agency": "Department of Sanitation",
    "final_address": "214 Porteous St",
    "address_councildis": "A",
    "status": "Assigned to Contractor",
    "contractor": "Metro Disposal",
    "rowid": "868685",
    "final_x": "3667369.57978",
    "final_y": "551619.140373",
    "longitude": "-90.11201278973255",
    "latitude": "30.011182981097097",
    "geocoded_column": {
      "latitude": "30.011182981097097",
      "longitude": "-90.11201278973255"
    }
  },
  {
    "service_request": "2022-868684",
    "request_type": "Roads/Drainage",
    "request_reason": "Man hole cover issue",
    "date_created": "2022-03-21T19:40:09.000",
    "date_modified": "2022-03-21T19:40:09.000",
    "request_status": "Pending",
    "responsible_agency": "Department of Public Works",
    "final_address": "2430 State St",
    "address_councildis": "A",
    "status": "Pending",
    "rowid": "868684",
    "final_x": "3666711.30036",
    "final_y": "525653.453245",
    "longitude": "-90.1149648555609",
    "latitude": "29.939805314814762",
    "geocoded_column": {
      "latitude": "29.939805314814762",
      "longitude": "-90.1149648555609"
    }
  },
  {
    "service_request": "2022-868683",
    "request_type": "Property Maintenance",
    "request_reason": "Property Maintenance",
    "date_created": "2022-03-21T19:38:02.000",
    "date_modified": "2022-03-21T19:38:02.000",
    "request_status": "Pending",
    "responsible_agency": "Department of Code Enforcement",
    "final_address": "7421 Spring Lake Dr",
    "address_councildis": "E",
    "status": "Pending",
    "rowid": "868683",
    "final_x": "3700843.33335",
    "final_y": "559230.258268",
    "longitude": "-90.00597785735827",
    "latitude": "30.031087131954393",
    "geocoded_column": {
      "latitude": "30.031087131954393",
      "longitude": "-90.00597785735827"
    }
  },
  {
    "service_request": "2022-868682",
    "request_type": "Trash/Recycling",
    "request_reason": "Missed Trash Pick-Up",
    "date_created": "2022-03-21T19:34:02.000",
    "date_modified": "2022-03-21T19:34:03.000",
    "request_status": "Pending",
    "responsible_agency": "Department of Sanitation",
    "final_address": "531 Second St",
    "address_councildis": "B",
    "status": "Assigned to Contractor",
    "contractor": "Richards Disposal",
    "rowid": "868682",
    "final_x": "3678946.68136",
    "final_y": "519703.907704",
    "longitude": "-90.07654202089383",
    "latitude": "29.923082616838766",
    "geocoded_column": {
      "latitude": "29.923082616838766",
      "longitude": "-90.07654202089383"
    }
  },
  {
    "service_request": "2022-868680",
    "request_type": "Property Maintenance",
    "request_reason": "Property Maintenance",
    "date_created": "2022-03-21T19:12:50.000",
    "date_modified": "2022-03-21T19:12:50.000",
    "request_status": "Pending",
    "responsible_agency": "Department of Code Enforcement",
    "final_address": "2212 Marengo St",
    "address_councildis": "B",
    "status": "Pending",
    "rowid": "868680",
    "final_x": "3671671.84193",
    "final_y": "523203.020667",
    "longitude": "-90.0993869907454",
    "latitude": "29.93292145424591",
    "geocoded_column": {
      "latitude": "29.93292145424591",
      "longitude": "-90.0993869907454"
    }
  },
  {
    "service_request": "2022-868679",
    "request_type": "Trash/Recycling",
    "request_reason": "Order Trash Cart",
    "date_created": "2022-03-21T19:10:07.000",
    "date_modified": "2022-03-21T19:10:07.000",
    "request_status": "Pending",
    "responsible_agency": "Department of Sanitation",
    "final_address": "6239 Wadsworth Dr",
    "address_councildis": "D",
    "status": "Assigned to Contractor",
    "contractor": "Metro Disposal",
    "rowid": "868679",
    "final_x": "3681659.81948",
    "final_y": "556127.878874",
    "longitude": "-90.06670673299463",
    "latitude": "30.023153814055455",
    "geocoded_column": {
      "latitude": "30.023153814055455",
      "longitude": "-90.06670673299463"
    }
  },
  {
    "service_request": "2022-868678",
    "request_type": "Trash/Recycling",
    "request_reason": "Request a Large Item Pick Up",
    "date_created": "2022-03-21T18:53:29.000",
    "date_modified": "2022-03-21T18:53:32.000",
    "request_status": "Pending",
    "responsible_agency": "Department of Sanitation",
    "final_address": "200 BLK Bourbon St",
    "address_councildis": "C",
    "status": "Assigned to Contractor",
    "contractor": "Empire Services",
    "rowid": "868678",
    "final_x": "3681270.35724",
    "final_y": "531372.59846",
    "longitude": "-90.06880058676975",
    "latitude": "29.955097349011282",
    "geocoded_column": {
      "latitude": "29.955097349011282",
      "longitude": "-90.06880058676975"
    }
  },
  {
    "service_request": "2022-868677",
    "request_type": "Property Maintenance",
    "request_reason": "Property Maintenance",
    "date_created": "2022-03-21T18:45:42.000",
    "date_modified": "2022-03-21T18:45:42.000",
    "request_status": "Pending",
    "responsible_agency": "Department of Code Enforcement",
    "final_address": "1719 Monroe St",
    "address_councildis": "A",
    "status": "Pending",
    "rowid": "868677",
    "final_x": "3661689.58291",
    "final_y": "531181.358274",
    "longitude": "-90.13063603607692",
    "latitude": "29.95515115082239",
    "geocoded_column": {
      "latitude": "29.95515115082239",
      "longitude": "-90.13063603607692"
    }
  },
  {
    "service_request": "2022-868676",
    "request_type": "Property Maintenance",
    "request_reason": "Property Maintenance",
    "date_created": "2022-03-21T18:44:31.000",
    "date_modified": "2022-03-21T18:44:31.000",
    "request_status": "Pending",
    "responsible_agency": "Department of Code Enforcement",
    "final_address": "1733 Monroe St",
    "address_councildis": "A",
    "status": "Pending",
    "rowid": "868676",
    "final_x": "3661756.3815",
    "final_y": "531254.570754",
    "longitude": "-90.1304226828988",
    "latitude": "29.95535053345636",
    "geocoded_column": {
      "latitude": "29.95535053345636",
      "longitude": "-90.1304226828988"
    }
  },
  {
    "service_request": "2022-868675",
    "request_type": "Traffic Signals/Signs/Striping/Streetlights",
    "request_reason": "Traffic Sign Missing/Damaged",
    "date_created": "2022-03-21T18:42:52.000",
    "date_modified": "2022-03-21T18:42:52.000",
    "request_status": "Pending",
    "responsible_agency": "Department of Public Works",
    "final_address": "1637 Monroe St",
    "address_councildis": "A",
    "status": "Pending",
    "rowid": "868675",
    "final_x": "3661568.53165",
    "final_y": "531055.713282",
    "longitude": "-90.13102243597608",
    "latitude": "29.954809160743608",
    "geocoded_column": {
      "latitude": "29.954809160743608",
      "longitude": "-90.13102243597608"
    }
  },
  {
    "service_request": "2022-868674",
    "request_type": "Roads/Drainage",
    "request_reason": "Catch Basin - Broken/Damage",
    "date_created": "2022-03-21T18:41:00.000",
    "date_modified": "2022-03-21T18:43:17.000",
    "request_status": "Pending",
    "responsible_agency": "Department of Public Works",
    "final_address": "315 Homer St",
    "address_councildis": "C",
    "status": "Pending",
    "rowid": "868674",
    "final_x": "3686299.08508",
    "final_y": "528239.636224",
    "longitude": "-90.0530323086084",
    "latitude": "29.946329217910574",
    "geocoded_column": {
      "latitude": "29.946329217910574",
      "longitude": "-90.0530323086084"
    }
  },
  {
    "service_request": "2022-868673",
    "request_type": "Traffic Signals/Signs/Striping/Streetlights",
    "request_reason": "Additional signage",
    "date_created": "2022-03-21T18:22:29.000",
    "date_modified": "2022-03-21T18:22:29.000",
    "request_status": "Pending",
    "responsible_agency": "Department of Public Works",
    "final_address": "FELICITY ST & NUNS ST & TCHOUPITOULAS ST & TCHOUPITOULAS TRUCK",
    "address_councildis": "B",
    "status": "Pending",
    "rowid": "868673",
    "final_x": "3681855.9",
    "final_y": "521167.38",
    "longitude": "-90.06730770453069",
    "latitude": "29.927018625152282",
    "geocoded_column": {
      "latitude": "29.927018625152282",
      "longitude": "-90.06730770453069"
    }
  },
  {
    "service_request": "2022-868672",
    "request_type": "Traffic Signals/Signs/Striping/Streetlights",
    "request_reason": "Traffic Sign Missing/Damaged",
    "date_created": "2022-03-21T18:19:09.000",
    "date_modified": "2022-03-21T18:19:09.000",
    "request_status": "Pending",
    "responsible_agency": "Department of Public Works",
    "final_address": "MAGAZINE ST & POYDRAS ST",
    "address_councildis": "B",
    "status": "Pending",
    "rowid": "868672",
    "final_x": "3681500.2",
    "final_y": "529133.68",
    "longitude": "-90.06815288928289",
    "latitude": "29.94893410289717",
    "geocoded_column": {
      "latitude": "29.94893410289717",
      "longitude": "-90.06815288928289"
    }
  },
  {
    "service_request": "2022-868671",
    "request_type": "Trash/Recycling",
    "request_reason": "Illegal Dumping",
    "date_created": "2022-03-21T18:14:05.000",
    "date_modified": "2022-03-21T18:14:05.000",
    "request_status": "Pending",
    "responsible_agency": "Department of Sanitation",
    "final_address": "840 Chapelle St",
    "address_councildis": "A",
    "status": "Pending",
    "rowid": "868671",
    "final_x": "3669938.78062",
    "final_y": "552511.397654",
    "longitude": "-90.1038653792055",
    "latitude": "30.013560826331297",
    "geocoded_column": {
      "latitude": "30.013560826331297",
      "longitude": "-90.1038653792055"
    }
  },
  {
    "service_request": "2022-868670",
    "request_type": "Abandoned Vehicles",
    "request_reason": "Abandoned/Junk Vehicles",
    "date_created": "2022-03-21T18:11:07.000",
    "date_modified": "2022-03-21T18:11:07.000",
    "request_status": "Pending",
    "responsible_agency": "Department of Public Works",
    "final_address": "617 Tupelo St",
    "address_councildis": "E",
    "status": "Pending",
    "rowid": "868670",
    "final_x": "3698901.86986",
    "final_y": "531683.166915",
    "longitude": "-90.01311588009155",
    "latitude": "29.955404499114536",
    "geocoded_column": {
      "latitude": "29.955404499114536",
      "longitude": "-90.01311588009155"
    }
  },
  {
    "service_request": "2022-868669",
    "request_type": "Abandoned Vehicles",
    "request_reason": "Abandoned/Junk Vehicles",
    "date_created": "2022-03-21T18:08:48.000",
    "date_modified": "2022-03-21T18:08:48.000",
    "request_status": "Pending",
    "responsible_agency": "Department of Public Works",
    "final_address": "2312 Rev. John Raphael, Jr. Way",
    "address_councildis": "B",
    "status": "Pending",
    "rowid": "868669",
    "final_x": "3675458.53435",
    "final_y": "525717.199357",
    "longitude": "-90.08734636258423",
    "latitude": "29.939721952970693",
    "geocoded_column": {
      "latitude": "29.939721952970693",
      "longitude": "-90.08734636258423"
    }
  },
  {
    "service_request": "2022-868668",
    "request_type": "Safety & Permits",
    "request_reason": "Licenses & Permits",
    "date_created": "2022-03-21T18:01:19.000",
    "date_modified": "2022-03-21T18:01:19.000",
    "request_status": "Pending",
    "responsible_agency": "Safety and Permits",
    "final_address": "1421 Odeon St",
    "address_councildis": "C",
    "status": "Pending",
    "rowid": "868668",
    "final_x": "3695921.2447",
    "final_y": "526007.921917",
    "longitude": "-90.02273253499331",
    "latitude": "29.939893645504544",
    "geocoded_column": {
      "latitude": "29.939893645504544",
      "longitude": "-90.02273253499331"
    }
  },
  {
    "service_request": "2022-868667",
    "request_type": "Property Maintenance",
    "request_reason": "Property Maintenance",
    "date_created": "2022-03-21T17:48:21.000",
    "date_modified": "2022-03-21T17:48:21.000",
    "request_status": "Pending",
    "responsible_agency": "Department of Code Enforcement",
    "final_address": "2532 St Philip St",
    "address_councildis": "D",
    "status": "Pending",
    "rowid": "868667",
    "final_x": "3677982.23643",
    "final_y": "537352.175624",
    "longitude": "-90.07897655622816",
    "latitude": "29.97163852580572",
    "geocoded_column": {
      "latitude": "29.97163852580572",
      "longitude": "-90.07897655622816"
    }
  },
  {
    "service_request": "2022-868666",
    "request_type": "Abandoned Vehicles",
    "request_reason": "Vehicle Blocking Your Driveway",
    "date_created": "2022-03-21T17:47:48.000",
    "date_modified": "2022-03-21T17:47:48.000",
    "request_status": "Pending",
    "responsible_agency": "Department of Public Works",
    "final_address": "850 Filmore Ave, New Orleans, Louisiana, 70124",
    "address_councildis": "A",
    "status": "Pending",
    "rowid": "868666",
    "final_x": "3669990.40334",
    "final_y": "551826.85199",
    "longitude": "-90.10372548712253",
    "latitude": "30.011677044155697",
    "geocoded_column": {
      "latitude": "30.011677044155697",
      "longitude": "-90.10372548712253"
    }
  },
  {
    "service_request": "2022-868665",
    "request_type": "Roads/Drainage",
    "request_reason": "Pothole",
    "date_created": "2022-03-21T17:46:51.000",
    "date_modified": "2022-03-21T17:46:51.000",
    "request_status": "Pending",
    "responsible_agency": "Department of Public Works",
    "final_address": "7661 Scottwood Dr",
    "address_councildis": "E",
    "status": "Pending",
    "rowid": "868665",
    "final_x": "3717213.67544",
    "final_y": "570999.026983",
    "longitude": "-89.95379990911805",
    "latitude": "30.06291484586504",
    "geocoded_column": {
      "latitude": "30.06291484586504",
      "longitude": "-89.95379990911805"
    }
  },
  {
    "service_request": "2022-868664",
    "request_type": "Trash/Recycling",
    "request_reason": "Order Recycling Cart",
    "date_created": "2022-03-21T17:46:32.000",
    "date_modified": "2022-03-21T17:46:32.000",
    "request_status": "Pending",
    "responsible_agency": "Department of Sanitation",
    "final_address": "2119 Joseph St",
    "address_councildis": "A",
    "status": "Pending",
    "rowid": "868664",
    "final_x": "3667316.93921",
    "final_y": "523946.11174",
    "longitude": "-90.11311016244554",
    "latitude": "29.9350929520648",
    "geocoded_column": {
      "latitude": "29.9350929520648",
      "longitude": "-90.11311016244554"
    }
  },
  {
    "service_request": "2022-868663",
    "request_type": "Traffic Signals/Signs/Striping/Streetlights",
    "request_reason": "Street Light Outage/Malfunction",
    "date_created": "2022-03-21T17:40:48.000",
    "date_modified": "2022-03-21T17:40:49.000",
    "request_status": "Pending",
    "responsible_agency": "Department of Public Works",
    "final_address": "13251 Dwyer Blvd",
    "address_councildis": "E",
    "status": "Pending",
    "contractor": "Royal Engineering",
    "rowid": "868663",
    "final_x": "3724648.49491",
    "final_y": "561633.220575",
    "longitude": "-89.93066088487464",
    "latitude": "30.03691456727568",
    "geocoded_column": {
      "latitude": "30.03691456727568",
      "longitude": "-89.93066088487464"
    }
  },
  {
    "service_request": "2022-868662",
    "request_type": "Parks & Parkways",
    "request_reason": "Request Tree Service (Right of Way/Public Property)",
    "date_created": "2022-03-21T17:37:20.000",
    "date_modified": "2022-03-21T17:37:20.000",
    "request_status": "Pending",
    "responsible_agency": "Department of Parks & Parkway",
    "final_address": "7712 Reindeer St",
    "address_councildis": "E",
    "status": "Pending",
    "rowid": "868662",
    "final_x": "3716666.99103",
    "final_y": "570926.748199",
    "longitude": "-89.95553072846982",
    "latitude": "30.062734195291842",
    "geocoded_column": {
      "latitude": "30.062734195291842",
      "longitude": "-89.95553072846982"
    }
  },
  {
    "service_request": "2022-868661",
    "request_type": "Traffic Signals/Signs/Striping/Streetlights",
    "request_reason": "Road Surface Marking Maintenance-Bike Lane",
    "date_created": "2022-03-21T17:36:16.000",
    "date_modified": "2022-03-21T17:36:16.000",
    "request_status": "Pending",
    "responsible_agency": "Department of Public Works",
    "final_address": "730 N Broad St",
    "address_councildis": "D",
    "status": "Pending",
    "rowid": "868661",
    "final_x": "3676890.72405",
    "final_y": "537073.242184",
    "longitude": "-90.08243333612523",
    "latitude": "29.97090436412914",
    "geocoded_column": {
      "latitude": "29.97090436412914",
      "longitude": "-90.08243333612523"
    }
  },
  {
    "service_request": "2022-868660",
    "request_type": "Trash/Recycling",
    "request_reason": "Missed Trash Pick-Up",
    "date_created": "2022-03-21T17:35:39.000",
    "date_modified": "2022-03-21T17:35:39.000",
    "request_status": "Pending",
    "responsible_agency": "Department of Sanitation",
    "final_address": "3009 Bienville Ave",
    "address_councildis": "B",
    "status": "Assigned to Contractor",
    "contractor": "Richards Disposal",
    "rowid": "868660",
    "final_x": "3674770.51873",
    "final_y": "536608.214023",
    "longitude": "-90.08914517056323",
    "latitude": "29.969689167758748",
    "geocoded_column": {
      "latitude": "29.969689167758748",
      "longitude": "-90.08914517056323"
    }
  },
  {
    "service_request": "2022-868659",
    "request_type": "Trash/Recycling",
    "request_reason": "Illegal Dumping",
    "date_created": "2022-03-21T17:34:11.000",
    "date_modified": "2022-03-21T17:34:11.000",
    "request_status": "Pending",
    "responsible_agency": "Department of Code Enforcement",
    "final_address": "840 Chapelle St",
    "address_councildis": "A",
    "status": "Pending",
    "rowid": "868659",
    "final_x": "3669938.78062",
    "final_y": "552511.397654",
    "longitude": "-90.1038653792055",
    "latitude": "30.013560826331297",
    "geocoded_column": {
      "latitude": "30.013560826331297",
      "longitude": "-90.1038653792055"
    }
  },
  {
    "service_request": "2022-868658",
    "request_type": "Roads/Drainage",
    "request_reason": "Catch Basin - Clogged",
    "date_created": "2022-03-21T17:27:49.000",
    "date_modified": "2022-03-21T17:27:49.000",
    "request_status": "Pending",
    "responsible_agency": "Department of Public Works",
    "final_address": "MILAN ST & S LIBERTY ST",
    "address_councildis": "B",
    "status": "Pending",
    "rowid": "868658",
    "final_x": "3671348.3",
    "final_y": "523420.48",
    "longitude": "-90.10040100418533",
    "latitude": "29.93352897374674",
    "geocoded_column": {
      "latitude": "29.93352897374674",
      "longitude": "-90.10040100418533"
    }
  },
  {
    "service_request": "2022-868657",
    "request_type": "Trash/Recycling",
    "request_reason": "Illegal Dumping",
    "date_created": "2022-03-21T17:26:56.000",
    "date_modified": "2022-03-21T17:26:56.000",
    "request_status": "Pending",
    "responsible_agency": "Department of Sanitation",
    "final_address": "1748 N Roman St",
    "address_councildis": "D",
    "status": "Pending",
    "rowid": "868657",
    "final_x": "3682693.23964",
    "final_y": "538685.156617",
    "longitude": "-90.06405188096136",
    "latitude": "29.975161115867117",
    "geocoded_column": {
      "latitude": "29.975161115867117",
      "longitude": "-90.06405188096136"
    }
  },
  {
    "service_request": "2022-868656",
    "request_type": "Trash/Recycling",
    "request_reason": "MIssed Recycling Pick-Up",
    "date_created": "2022-03-21T17:22:54.000",
    "date_modified": "2022-03-21T17:22:55.000",
    "request_status": "Pending",
    "responsible_agency": "Department of Sanitation",
    "final_address": "1201 Farragut St",
    "address_councildis": "C",
    "status": "Assigned to Contractor",
    "contractor": "Richards Disposal",
    "rowid": "868656",
    "final_x": "3692326.33347",
    "final_y": "526881.288766",
    "longitude": "-90.03405088407331",
    "latitude": "29.94240767668299",
    "geocoded_column": {
      "latitude": "29.94240767668299",
      "longitude": "-90.03405088407331"
    }
  },
  {
    "service_request": "2022-868655",
    "request_type": "Safety & Permits",
    "request_reason": "Safety & Permits Request (Cyber Incident Back Up)",
    "date_created": "2022-03-21T17:14:52.000",
    "date_modified": "2022-03-21T17:14:52.000",
    "request_status": "Pending",
    "responsible_agency": "Safety and Permits",
    "final_address": "6825 Marshal Foch St",
    "address_councildis": "A",
    "status": "Pending",
    "rowid": "868655",
    "final_x": "3670426.87431",
    "final_y": "552749.540438",
    "longitude": "-90.10231517037654",
    "latitude": "30.014201225388035",
    "geocoded_column": {
      "latitude": "30.014201225388035",
      "longitude": "-90.10231517037654"
    }
  },
  {
    "service_request": "2022-868654",
    "request_type": "Trash/Recycling",
    "request_reason": "MIssed Recycling Pick-Up",
    "date_created": "2022-03-21T17:13:25.000",
    "date_modified": "2022-03-21T17:13:27.000",
    "request_status": "Pending",
    "responsible_agency": "Department of Sanitation",
    "final_address": "8506 Apricot St",
    "address_councildis": "A",
    "status": "Assigned to Contractor",
    "contractor": "Richards Disposal",
    "rowid": "868654",
    "final_x": "3664686.92685",
    "final_y": "533611.932741",
    "longitude": "-90.12109029887758",
    "latitude": "29.961747590287853",
    "geocoded_column": {
      "latitude": "29.961747590287853",
      "longitude": "-90.12109029887758"
    }
  },
  {
    "service_request": "2022-868653",
    "request_type": "Traffic Signals/Signs/Striping/Streetlights",
    "request_reason": "Request for Traffic Calming due to Speeding",
    "date_created": "2022-03-21T17:12:56.000",
    "date_modified": "2022-03-21T17:12:56.000",
    "request_status": "Pending",
    "responsible_agency": "Department of Public Works",
    "final_address": "HOWARD AVE & OKEEFE AVE & DRYADES ST & OKEEFE EXIT & ST JOSEPH ST",
    "address_councildis": "B",
    "status": "Pending",
    "rowid": "868653",
    "final_x": "3679047.9",
    "final_y": "527837.58",
    "longitude": "-90.07594076846051",
    "latitude": "29.945444485745654",
    "geocoded_column": {
      "latitude": "29.945444485745654",
      "longitude": "-90.07594076846051"
    }
  },
  {
    "service_request": "2022-868651",
    "request_type": "Trash/Recycling",
    "request_reason": "Request a Large Item Pick Up",
    "date_created": "2022-03-21T17:03:50.000",
    "date_modified": "2022-03-21T17:04:04.000",
    "request_status": "Pending",
    "responsible_agency": "Department of Sanitation",
    "final_address": "5610 Lacour Monique St",
    "address_councildis": "C",
    "status": "Assigned to Contractor",
    "contractor": "Richards Disposal",
    "rowid": "868651",
    "final_x": "3704358.02615",
    "final_y": "517921.54047",
    "longitude": "-89.9963944653247",
    "latitude": "29.917390880266453",
    "geocoded_column": {
      "latitude": "29.917390880266453",
      "longitude": "-89.9963944653247"
    }
  },
  {
    "service_request": "2022-868650",
    "request_type": "Property Maintenance",
    "request_reason": "Property Maintenance",
    "date_created": "2022-03-21T17:03:22.000",
    "date_modified": "2022-03-21T17:03:22.000",
    "request_status": "Pending",
    "responsible_agency": "Department of Code Enforcement",
    "final_address": "2233 Dauphine St",
    "address_councildis": "C",
    "status": "Pending",
    "rowid": "868650",
    "final_x": "3685420.12642",
    "final_y": "535291.286278",
    "longitude": "-90.05555920252324",
    "latitude": "29.965745814865755",
    "geocoded_column": {
      "latitude": "29.965745814865755",
      "longitude": "-90.05555920252324"
    }
  },
  {
    "service_request": "2022-868649",
    "request_type": "Trash/Recycling",
    "request_reason": "Repair Trash Cart",
    "date_created": "2022-03-21T17:01:29.000",
    "date_modified": "2022-03-21T17:02:57.000",
    "request_status": "Pending",
    "responsible_agency": "Department of Sanitation",
    "final_address": "5610 Lacour Monique St",
    "address_councildis": "C",
    "status": "Assigned to Contractor",
    "contractor": "Richards Disposal",
    "rowid": "868649",
    "final_x": "3704358.02615",
    "final_y": "517921.54047",
    "longitude": "-89.9963944653247",
    "latitude": "29.917390880266453",
    "geocoded_column": {
      "latitude": "29.917390880266453",
      "longitude": "-89.9963944653247"
    }
  },
  {
    "service_request": "2022-868648",
    "request_type": "Roads/Drainage",
    "request_reason": "Pothole",
    "date_created": "2022-03-21T17:01:18.000",
    "date_modified": "2022-03-21T17:01:18.000",
    "request_status": "Pending",
    "responsible_agency": "Department of Public Works",
    "final_address": "5331 Bancroft Dr",
    "address_councildis": "D",
    "status": "Pending",
    "rowid": "868648",
    "final_x": "3676481.34344",
    "final_y": "551778.486357",
    "longitude": "-90.0832195407086",
    "latitude": "30.011350933499298",
    "geocoded_column": {
      "latitude": "30.011350933499298",
      "longitude": "-90.0832195407086"
    }
  },
  {
    "service_request": "2022-868647",
    "request_type": "Abandoned Vehicles",
    "request_reason": "Abandoned/Junk Vehicles",
    "date_created": "2022-03-21T16:58:17.000",
    "date_modified": "2022-03-21T16:58:17.000",
    "request_status": "Pending",
    "responsible_agency": "Department of Public Works",
    "final_address": "2710 Peniston St",
    "address_councildis": "B",
    "status": "Pending",
    "rowid": "868647",
    "final_x": "3671889.30177",
    "final_y": "525028.924605",
    "longitude": "-90.09863837229365",
    "latitude": "29.93793565818438",
    "geocoded_column": {
      "latitude": "29.93793565818438",
      "longitude": "-90.09863837229365"
    }
  },
  {
    "service_request": "2022-868646",
    "request_type": "Trash/Recycling",
    "request_reason": "Request a Large Item Pick Up",
    "date_created": "2022-03-21T16:55:52.000",
    "date_modified": "2022-03-21T16:55:53.000",
    "request_status": "Pending",
    "responsible_agency": "Department of Sanitation",
    "final_address": "2701 Peniston St",
    "address_councildis": "B",
    "status": "Assigned to Contractor",
    "contractor": "Richards Disposal",
    "rowid": "868646",
    "final_x": "3672007.21959",
    "final_y": "524962.165181",
    "longitude": "-90.09826836675452",
    "latitude": "29.937748597130142",
    "geocoded_column": {
      "latitude": "29.937748597130142",
      "longitude": "-90.09826836675452"
    }
  },
  {
    "service_request": "2022-868645",
    "request_type": "Trash/Recycling",
    "request_reason": "Request a Large Item Pick Up",
    "date_created": "2022-03-21T16:55:25.000",
    "date_modified": "2022-03-21T16:55:26.000",
    "request_status": "Pending",
    "responsible_agency": "Department of Sanitation",
    "final_address": "818 N Lopez St",
    "address_councildis": "A",
    "status": "Assigned to Contractor",
    "contractor": "Richards Disposal",
    "rowid": "868645",
    "final_x": "3675588.6084",
    "final_y": "538443.401033",
    "longitude": "-90.08649850254486",
    "latitude": "29.97471085606216",
    "geocoded_column": {
      "latitude": "29.97471085606216",
      "longitude": "-90.08649850254486"
    }
  },
  {
    "service_request": "2022-868644",
    "request_type": "Trash/Recycling",
    "request_reason": "Repair Trash Cart",
    "date_created": "2022-03-21T16:53:25.000",
    "date_modified": "2022-03-21T16:53:26.000",
    "request_status": "Pending",
    "responsible_agency": "Department of Sanitation",
    "final_address": "1900 Pauline St",
    "address_councildis": "D",
    "status": "Assigned to Contractor",
    "contractor": "Metro Disposal",
    "rowid": "868644",
    "final_x": "3691932.32125",
    "final_y": "538493.056585",
    "longitude": "-90.03487942712322",
    "latitude": "29.974348263788855",
    "geocoded_column": {
      "latitude": "29.974348263788855",
      "longitude": "-90.03487942712322"
    }
  },
  {
    "service_request": "2022-868643",
    "request_type": "Roads/Drainage",
    "request_reason": "Pothole",
    "date_created": "2022-03-21T16:52:36.000",
    "date_modified": "2022-03-21T16:52:36.000",
    "request_status": "Pending",
    "responsible_agency": "Department of Public Works",
    "final_address": "8615 Cohn St",
    "address_councildis": "A",
    "status": "Pending",
    "rowid": "868643",
    "final_x": "3662237.22663",
    "final_y": "531492.146115",
    "longitude": "-90.12889645630553",
    "latitude": "29.955989899939027",
    "geocoded_column": {
      "latitude": "29.955989899939027",
      "longitude": "-90.12889645630553"
    }
  },
  {
    "service_request": "2022-868642",
    "request_type": "Trash/Recycling",
    "request_reason": "Request a Large Item Pick Up",
    "date_created": "2022-03-21T16:51:07.000",
    "date_modified": "2022-03-21T16:51:08.000",
    "request_status": "Pending",
    "responsible_agency": "Department of Sanitation",
    "final_address": "1900 Pauline St",
    "address_councildis": "D",
    "status": "Assigned to Contractor",
    "contractor": "Metro Disposal",
    "rowid": "868642",
    "final_x": "3691932.32125",
    "final_y": "538493.056585",
    "longitude": "-90.03487942712322",
    "latitude": "29.974348263788855",
    "geocoded_column": {
      "latitude": "29.974348263788855",
      "longitude": "-90.03487942712322"
    }
  },
  {
    "service_request": "2022-868641",
    "request_type": "Property Maintenance",
    "request_reason": "Property Maintenance",
    "date_created": "2022-03-21T16:40:26.000",
    "date_modified": "2022-03-21T16:40:26.000",
    "request_status": "Pending",
    "responsible_agency": "Department of Code Enforcement",
    "final_address": "27 Warbler St",
    "address_councildis": "D",
    "status": "Pending",
    "rowid": "868641",
    "final_x": "3672974.25608",
    "final_y": "556755.438746",
    "longitude": "-90.09412982748401",
    "latitude": "30.02514051364006",
    "geocoded_column": {
      "latitude": "30.02514051364006",
      "longitude": "-90.09412982748401"
    }
  },
  {
    "service_request": "2022-868640",
    "request_type": "Trash/Recycling",
    "request_reason": "MIssed Recycling Pick-Up",
    "date_created": "2022-03-21T16:39:16.000",
    "date_modified": "2022-03-21T16:39:17.000",
    "request_status": "Pending",
    "responsible_agency": "Department of Sanitation",
    "final_address": "1101 Casa Calvo St",
    "address_councildis": "C",
    "status": "Assigned to Contractor",
    "contractor": "Richards Disposal",
    "rowid": "868640",
    "final_x": "3692070.148",
    "final_y": "527373.510591",
    "longitude": "-90.03484210538876",
    "latitude": "29.94376910275946",
    "geocoded_column": {
      "latitude": "29.94376910275946",
      "longitude": "-90.03484210538876"
    }
  },
  {
    "service_request": "2022-868639",
    "request_type": "Trash/Recycling",
    "request_reason": "Request a Large Item Pick Up",
    "date_created": "2022-03-21T16:30:50.000",
    "date_modified": "2022-03-21T16:32:34.000",
    "request_status": "Pending",
    "responsible_agency": "Department of Sanitation",
    "final_address": "1300 General Collins Ave",
    "address_councildis": "C",
    "status": "Assigned to Contractor",
    "contractor": "Richards Disposal",
    "rowid": "868639",
    "final_x": "3698666.028",
    "final_y": "526478.383998",
    "longitude": "-90.01404980334961",
    "latitude": "29.941100642618117",
    "geocoded_column": {
      "latitude": "29.941100642618117",
      "longitude": "-90.01404980334961"
    }
  },
  {
    "service_request": "2022-868638",
    "request_type": "Roads/Drainage",
    "request_reason": "Street Flooding / Drainage",
    "date_created": "2022-03-21T16:28:06.000",
    "date_modified": "2022-03-21T16:28:06.000",
    "request_status": "Pending",
    "responsible_agency": "Department of Public Works",
    "final_address": "2423 Killdeer St",
    "address_councildis": "D",
    "status": "Pending",
    "rowid": "868638",
    "final_x": "3684853.16149",
    "final_y": "557736.922203",
    "longitude": "-90.05655983348197",
    "latitude": "30.027480639142095",
    "geocoded_column": {
      "latitude": "30.027480639142095",
      "longitude": "-90.05655983348197"
    }
  },
  {
    "service_request": "2022-868637",
    "request_type": "Trash/Recycling",
    "request_reason": "Replace Trash Cart",
    "date_created": "2022-03-21T16:24:50.000",
    "date_modified": "2022-03-21T16:24:50.000",
    "request_status": "Pending",
    "responsible_agency": "Department of Sanitation",
    "final_address": "1935 S Lopez St",
    "address_councildis": "B",
    "status": "Assigned to Contractor",
    "contractor": "Richards Disposal",
    "rowid": "868637",
    "final_x": "3669419.78522",
    "final_y": "529861.322177",
    "longitude": "-90.1062714898602",
    "latitude": "29.951296119031667",
    "geocoded_column": {
      "latitude": "29.951296119031667",
      "longitude": "-90.1062714898602"
    }
  },
  {
    "service_request": "2022-868635",
    "request_type": "Trash/Recycling",
    "request_reason": "Missed Trash Pick-Up",
    "date_created": "2022-03-21T16:18:39.000",
    "date_modified": "2022-03-21T16:18:40.000",
    "request_status": "Pending",
    "responsible_agency": "Department of Sanitation",
    "final_address": "1218 Moss St, New Orleans, Louisiana, 70119",
    "address_councildis": "A",
    "status": "Assigned to Contractor",
    "contractor": "Richards Disposal",
    "rowid": "868635",
    "final_x": "3675226.17979",
    "final_y": "539912.11553",
    "longitude": "-90.08759271354526",
    "latitude": "29.97876015725703",
    "geocoded_column": {
      "latitude": "29.97876015725703",
      "longitude": "-90.08759271354526"
    }
  },
  {
    "service_request": "2022-868634",
    "request_type": "Traffic Signals/Signs/Striping/Streetlights",
    "request_reason": "Additional signage",
    "date_created": "2022-03-21T16:11:54.000",
    "date_modified": "2022-03-21T16:11:54.000",
    "request_status": "Pending",
    "responsible_agency": "Department of Public Works",
    "final_address": "3204 Banks St",
    "address_councildis": "B",
    "status": "Pending",
    "rowid": "868634",
    "final_x": "3673043.72571",
    "final_y": "535263.787974",
    "longitude": "-90.09464444545311",
    "latitude": "29.96604389227751",
    "geocoded_column": {
      "latitude": "29.96604389227751",
      "longitude": "-90.09464444545311"
    }
  },
  {
    "service_request": "2022-868632",
    "request_type": "Traffic Signals/Signs/Striping/Streetlights",
    "request_reason": "Street Light Outage/Malfunction",
    "date_created": "2022-03-21T16:04:38.000",
    "date_modified": "2022-03-21T16:04:39.000",
    "request_status": "Pending",
    "responsible_agency": "Department of Public Works",
    "final_address": "4821 Constance St",
    "address_councildis": "B",
    "status": "Pending",
    "contractor": "Royal Engineering",
    "rowid": "868632",
    "final_x": "3669440.17793",
    "final_y": "518301.991734",
    "longitude": "-90.1065978542351",
    "latitude": "29.919511077887723",
    "geocoded_column": {
      "latitude": "29.919511077887723",
      "longitude": "-90.1065978542351"
    }
  },
  {
    "service_request": "2022-868631",
    "request_type": "Abandoned Vehicles",
    "request_reason": "Abandoned/Junk Vehicles",
    "date_created": "2022-03-21T16:02:15.000",
    "date_modified": "2022-03-21T16:02:15.000",
    "request_status": "Pending",
    "responsible_agency": "Department of Public Works",
    "final_address": "8500 BLK Birch St",
    "address_councildis": "A",
    "status": "Pending",
    "rowid": "868631",
    "final_x": "3661723.34581",
    "final_y": "530492.710128",
    "longitude": "-90.13055225038477",
    "latitude": "29.953256615996988",
    "geocoded_column": {
      "latitude": "29.953256615996988",
      "longitude": "-90.13055225038477"
    }
  },
  {
    "service_request": "2022-868630",
    "request_type": "Traffic Signals/Signs/Striping/Streetlights",
    "request_reason": "Street Light Outage/Malfunction",
    "date_created": "2022-03-21T16:01:01.000",
    "date_modified": "2022-03-21T16:01:04.000",
    "request_status": "Pending",
    "responsible_agency": "Department of Public Works",
    "final_address": "COMMERCE ST & NOTRE DAME ST",
    "address_councildis": "B",
    "status": "Pending",
    "contractor": "Royal Engineering",
    "rowid": "868630",
    "final_x": "3681997.3",
    "final_y": "527910.98",
    "longitude": "-90.06662600919756",
    "latitude": "29.945556987631594",
    "geocoded_column": {
      "latitude": "29.945556987631594",
      "longitude": "-90.06662600919756"
    }
  },
  {
    "service_request": "2022-868629",
    "request_type": "Abandoned Vehicles",
    "request_reason": "Abandoned/Junk Vehicles",
    "date_created": "2022-03-21T15:56:37.000",
    "date_modified": "2022-03-21T15:59:22.000",
    "request_status": "Pending",
    "responsible_agency": "Department of Public Works",
    "final_address": "4900 Danneel St",
    "address_councildis": "B",
    "status": "Pending",
    "rowid": "868629",
    "final_x": "3669077.07886",
    "final_y": "522090.284538",
    "longitude": "-90.10761606709765",
    "latitude": "29.92993836437614",
    "geocoded_column": {
      "latitude": "29.92993836437614",
      "longitude": "-90.10761606709765"
    }
  },
  {
    "service_request": "2022-868628",
    "request_type": "Traffic Signals/Signs/Striping/Streetlights",
    "request_reason": "Street Light Outage/Malfunction",
    "date_created": "2022-03-21T15:55:40.000",
    "date_modified": "2022-03-21T15:55:41.000",
    "request_status": "Pending",
    "responsible_agency": "Department of Public Works",
    "final_address": "COMMERCE ST & NOTRE DAME ST",
    "address_councildis": "B",
    "status": "Pending",
    "contractor": "Royal Engineering",
    "rowid": "868628",
    "final_x": "3681997.3",
    "final_y": "527910.98",
    "longitude": "-90.06662600919756",
    "latitude": "29.945556987631594",
    "geocoded_column": {
      "latitude": "29.945556987631594",
      "longitude": "-90.06662600919756"
    }
  },
  {
    "service_request": "2022-868627",
    "request_type": "Trash/Recycling",
    "request_reason": "Replace Trash Cart",
    "date_created": "2022-03-21T15:49:05.000",
    "date_modified": "2022-03-21T15:50:21.000",
    "request_status": "Pending",
    "responsible_agency": "Department of Sanitation",
    "final_address": "635 N Pierce St",
    "address_councildis": "A",
    "status": "Assigned to Contractor",
    "contractor": "Richards Disposal",
    "rowid": "868627",
    "final_x": "3672751.52033",
    "final_y": "539696.022794",
    "longitude": "-90.09541600768199",
    "latitude": "29.978239720899868",
    "geocoded_column": {
      "latitude": "29.978239720899868",
      "longitude": "-90.09541600768199"
    }
  },
  {
    "service_request": "2022-868625",
    "request_type": "Roads/Drainage",
    "request_reason": "Pothole",
    "date_created": "2022-03-21T15:48:02.000",
    "date_modified": "2022-03-21T15:48:02.000",
    "request_status": "Pending",
    "responsible_agency": "Department of Public Works",
    "final_address": "ST NICK ST & FIESTA ST",
    "address_councildis": "C",
    "status": "Pending",
    "rowid": "868625",
    "final_x": "3699470.5",
    "final_y": "522121.48",
    "longitude": "-90.01166861520943",
    "latitude": "29.929095174560207",
    "geocoded_column": {
      "latitude": "29.929095174560207",
      "longitude": "-90.01166861520943"
    }
  },
  {
    "service_request": "2022-868624",
    "request_type": "Traffic Signals/Signs/Striping/Streetlights",
    "request_reason": "Traffic Signal Malfunctioning/Damaged",
    "date_created": "2022-03-21T15:47:35.000",
    "date_modified": "2022-03-21T15:47:35.000",
    "request_status": "Pending",
    "responsible_agency": "Department of Public Works",
    "final_address": "803 Elysian Fields Ave",
    "address_councildis": "C",
    "status": "Pending",
    "rowid": "868624",
    "final_x": "3685173.27369",
    "final_y": "535276.443846",
    "longitude": "-90.05633927557189",
    "latitude": "29.965712570144284",
    "geocoded_column": {
      "latitude": "29.965712570144284",
      "longitude": "-90.05633927557189"
    }
  },
  {
    "service_request": "2022-868623",
    "request_type": "Roads/Drainage",
    "request_reason": "Street Subsidence (Sinking)",
    "date_created": "2022-03-21T15:44:51.000",
    "date_modified": "2022-03-21T15:44:52.000",
    "request_status": "Pending",
    "responsible_agency": "Department of Public Works",
    "final_address": "N LOPEZ ST & PONCE DE LEON ST",
    "address_councildis": "A",
    "status": "Pending",
    "rowid": "868623",
    "final_x": "3676598.4",
    "final_y": "540534.98",
    "longitude": "-90.08323726018276",
    "latitude": "29.980431727707824",
    "geocoded_column": {
      "latitude": "29.980431727707824",
      "longitude": "-90.08323726018276"
    }
  },
  {
    "service_request": "2022-868622",
    "request_type": "Traffic Signals/Signs/Striping/Streetlights",
    "request_reason": "Traffic Sign Missing/Damaged",
    "date_created": "2022-03-21T15:44:20.000",
    "date_modified": "2022-03-21T15:44:20.000",
    "request_status": "Pending",
    "responsible_agency": "Department of Public Works",
    "final_address": "6320 Loyola Ave",
    "address_councildis": "A",
    "status": "Pending",
    "rowid": "868622",
    "final_x": "3665116.11156",
    "final_y": "523771.102267",
    "longitude": "-90.12006404243233",
    "latitude": "29.93467599216268",
    "geocoded_column": {
      "latitude": "29.93467599216268",
      "longitude": "-90.12006404243233"
    }
  },
  {
    "service_request": "2022-868621",
    "request_type": "Trash/Recycling",
    "request_reason": "Request a Large Item Pick Up",
    "date_created": "2022-03-21T15:42:53.000",
    "date_modified": "2022-03-21T15:42:53.000",
    "request_status": "Pending",
    "responsible_agency": "Department of Sanitation",
    "final_address": "1923 Music St",
    "address_councildis": "D",
    "status": "Assigned to Contractor",
    "contractor": "Metro Disposal",
    "rowid": "868621",
    "final_x": "3686631.88118",
    "final_y": "539616.08257",
    "longitude": "-90.05157975781506",
    "latitude": "29.977600281092492",
    "geocoded_column": {
      "latitude": "29.977600281092492",
      "longitude": "-90.05157975781506"
    }
  },
  {
    "service_request": "2022-868619",
    "request_type": "Trash/Recycling",
    "request_reason": "Order Trash Cart",
    "date_created": "2022-03-21T15:35:30.000",
    "date_modified": "2022-03-21T15:35:31.000",
    "request_status": "Pending",
    "responsible_agency": "Department of Sanitation",
    "final_address": "3127 Cambronne St",
    "address_councildis": "A",
    "status": "Assigned to Contractor",
    "contractor": "Richards Disposal",
    "rowid": "868619",
    "final_x": "3665916.97812",
    "final_y": "534252.444101",
    "longitude": "-90.11718451379703",
    "latitude": "29.96347294613625",
    "geocoded_column": {
      "latitude": "29.96347294613625",
      "longitude": "-90.11718451379703"
    }
  },
  {
    "service_request": "2022-868618",
    "request_type": "Trash/Recycling",
    "request_reason": "Repair Trash Cart",
    "date_created": "2022-03-21T15:33:42.000",
    "date_modified": "2022-03-21T15:33:43.000",
    "request_status": "Pending",
    "responsible_agency": "Department of Sanitation",
    "final_address": "1800 Fern St",
    "address_councildis": "A",
    "status": "Assigned to Contractor",
    "contractor": "Richards Disposal",
    "rowid": "868618",
    "final_x": "3663946.27776",
    "final_y": "529467.967105",
    "longitude": "-90.12356731962345",
    "latitude": "29.950374556101576",
    "geocoded_column": {
      "latitude": "29.950374556101576",
      "longitude": "-90.12356731962345"
    }
  },
  {
    "service_request": "2022-868617",
    "request_type": "Trash/Recycling",
    "request_reason": "Request a Large Item Pick Up",
    "date_created": "2022-03-21T15:33:07.000",
    "date_modified": "2022-03-21T15:33:07.000",
    "request_status": "Pending",
    "responsible_agency": "Department of Sanitation",
    "final_address": "2915 Maurepas St",
    "address_councildis": "A",
    "status": "Assigned to Contractor",
    "contractor": "Metro Disposal",
    "rowid": "868617",
    "final_x": "3677580.06062",
    "final_y": "540745.923851",
    "longitude": "-90.08012946640962",
    "latitude": "29.980982265658177",
    "geocoded_column": {
      "latitude": "29.980982265658177",
      "longitude": "-90.08012946640962"
    }
  },
  {
    "service_request": "2022-868616",
    "request_type": "Abandoned Vehicles",
    "request_reason": "Abandoned/Junk Vehicles",
    "date_created": "2022-03-21T15:32:34.000",
    "date_modified": "2022-03-21T15:32:34.000",
    "request_status": "Pending",
    "responsible_agency": "Department of Public Works",
    "final_address": "1900 BLK Fern St",
    "address_councildis": "A",
    "status": "Pending",
    "rowid": "868616",
    "final_x": "3664309.44169",
    "final_y": "529797.621951",
    "longitude": "-90.1224096324718",
    "latitude": "29.951270452473665",
    "geocoded_column": {
      "latitude": "29.951270452473665",
      "longitude": "-90.1224096324718"
    }
  },
  {
    "service_request": "2022-868615",
    "request_type": "Property Maintenance",
    "request_reason": "Property Maintenance",
    "date_created": "2022-03-21T15:29:28.000",
    "date_modified": "2022-03-21T15:29:28.000",
    "request_status": "Pending",
    "responsible_agency": "Department of Code Enforcement",
    "final_address": "2821 S Derbigny St",
    "address_councildis": "B",
    "status": "Pending",
    "rowid": "868615",
    "final_x": "3672728.7931",
    "final_y": "526977.607486",
    "longitude": "-90.09592158401674",
    "latitude": "29.943269000489853",
    "geocoded_column": {
      "latitude": "29.943269000489853",
      "longitude": "-90.09592158401674"
    }
  },
  {
    "service_request": "2022-868614",
    "request_type": "Trash/Recycling",
    "request_reason": "Request a Large Item Pick Up",
    "date_created": "2022-03-21T15:24:46.000",
    "date_modified": "2022-03-21T15:24:47.000",
    "request_status": "Pending",
    "responsible_agency": "Department of Sanitation",
    "final_address": "3330 Jefferson Ave",
    "address_councildis": "A",
    "status": "Assigned to Contractor",
    "contractor": "Richards Disposal",
    "rowid": "868614",
    "final_x": "3668645.49396",
    "final_y": "527555.545535",
    "longitude": "-90.10879413322618",
    "latitude": "29.944978761138575",
    "geocoded_column": {
      "latitude": "29.944978761138575",
      "longitude": "-90.10879413322618"
    }
  },
  {
    "service_request": "2022-868613",
    "request_type": "Trash/Recycling",
    "request_reason": "Order Trash Cart",
    "date_created": "2022-03-21T15:16:31.000",
    "date_modified": "2022-03-21T15:16:32.000",
    "request_status": "Pending",
    "responsible_agency": "Department of Sanitation",
    "final_address": "6040 Kingston Ct, New Orleans, Louisiana, 70131",
    "address_councildis": "C",
    "status": "Assigned to Contractor",
    "contractor": "Richards Disposal",
    "rowid": "868613",
    "final_x": "3706321.1587",
    "final_y": "517828.03551",
    "longitude": "-89.99020147776588",
    "latitude": "29.917070645914183",
    "geocoded_column": {
      "latitude": "29.917070645914183",
      "longitude": "-89.99020147776588"
    }
  },
  {
    "service_request": "2022-868612",
    "request_type": "Trash/Recycling",
    "request_reason": "Missed Trash Pick-Up",
    "date_created": "2022-03-21T15:15:05.000",
    "date_modified": "2022-03-21T15:15:05.000",
    "request_status": "Pending",
    "responsible_agency": "Department of Sanitation",
    "final_address": "3837 Wall Blvd, New Orleans, Louisiana, 70114",
    "address_councildis": "C",
    "status": "Assigned to Contractor",
    "contractor": "Richards Disposal",
    "rowid": "868612",
    "final_x": "3698055.33571",
    "final_y": "523632.393147",
    "longitude": "-90.01608115488668",
    "latitude": "29.933294473097042",
    "geocoded_column": {
      "latitude": "29.933294473097042",
      "longitude": "-90.01608115488668"
    }
  },
  {
    "service_request": "2022-868611",
    "request_type": "Trash/Recycling",
    "request_reason": "Illegal Dumping",
    "date_created": "2022-03-21T15:10:31.000",
    "date_modified": "2022-03-21T15:10:31.000",
    "request_status": "Pending",
    "responsible_agency": "Department of Sanitation",
    "final_address": "OLEANDER ST & HOLLYGROVE ST",
    "address_councildis": "A",
    "status": "Pending",
    "rowid": "868611",
    "final_x": "3664425.7",
    "final_y": "535795.48",
    "longitude": "-90.12184231087775",
    "latitude": "29.96775922408617",
    "geocoded_column": {
      "latitude": "29.96775922408617",
      "longitude": "-90.12184231087775"
    }
  },
  {
    "service_request": "2022-868610",
    "request_type": "Trash/Recycling",
    "request_reason": "Illegal Dumping",
    "date_created": "2022-03-21T15:09:19.000",
    "date_modified": "2022-03-21T15:09:20.000",
    "request_status": "Pending",
    "responsible_agency": "Department of Sanitation",
    "final_address": "9021 Oleander St",
    "address_councildis": "A",
    "status": "Pending",
    "rowid": "868610",
    "final_x": "3664339.91552",
    "final_y": "535948.458567",
    "longitude": "-90.12210811507248",
    "latitude": "29.968182358332147",
    "geocoded_column": {
      "latitude": "29.968182358332147",
      "longitude": "-90.12210811507248"
    }
  },
  {
    "service_request": "2022-868609",
    "request_type": "Roads/Drainage",
    "request_reason": "Street Subsidence (Sinking)",
    "date_created": "2022-03-21T15:08:55.000",
    "date_modified": "2022-03-21T15:08:55.000",
    "request_status": "Pending",
    "responsible_agency": "Department of Public Works",
    "final_address": "13067 Calais St",
    "address_councildis": "E",
    "status": "Pending",
    "rowid": "868609",
    "final_x": "3724314.02464",
    "final_y": "560598.980126",
    "longitude": "-89.93175784736457",
    "latitude": "30.0340820840945",
    "geocoded_column": {
      "latitude": "30.0340820840945",
      "longitude": "-89.93175784736457"
    }
  },
  {
    "service_request": "2022-868608",
    "request_type": "Trash/Recycling",
    "request_reason": "Repair Trash Cart",
    "date_created": "2022-03-21T15:08:15.000",
    "date_modified": "2022-03-21T15:08:16.000",
    "request_status": "Pending",
    "responsible_agency": "Department of Sanitation",
    "final_address": "333 City Park Ave",
    "address_councildis": "A",
    "status": "Assigned to Contractor",
    "contractor": "Metro Disposal",
    "rowid": "868608",
    "final_x": "3668771.40263",
    "final_y": "541462.368844",
    "longitude": "-90.10792702876817",
    "latitude": "29.98321420805693",
    "geocoded_column": {
      "latitude": "29.98321420805693",
      "longitude": "-90.10792702876817"
    }
  },
  {
    "service_request": "2022-868607",
    "request_type": "Trash/Recycling",
    "request_reason": "Order Trash Cart",
    "date_created": "2022-03-21T15:03:35.000",
    "date_modified": "2022-03-21T15:03:36.000",
    "request_status": "Pending",
    "responsible_agency": "Department of Sanitation",
    "final_address": "2533 Dumaine St",
    "address_councildis": "D",
    "status": "Assigned to Contractor",
    "contractor": "Richards Disposal",
    "rowid": "868607",
    "final_x": "3677807.47758",
    "final_y": "537081.491912",
    "longitude": "-90.07953782526211",
    "latitude": "29.97089949740604",
    "geocoded_column": {
      "latitude": "29.97089949740604",
      "longitude": "-90.07953782526211"
    }
  },
  {
    "service_request": "2022-868606",
    "request_type": "Trash/Recycling",
    "request_reason": "Request a Large Item Pick Up",
    "date_created": "2022-03-21T14:53:53.000",
    "date_modified": "2022-03-21T14:53:54.000",
    "request_status": "Pending",
    "responsible_agency": "Department of Sanitation",
    "final_address": "232 S Cortez St",
    "address_councildis": "A",
    "status": "Assigned to Contractor",
    "contractor": "Richards Disposal",
    "rowid": "868606",
    "final_x": "3671681.82657",
    "final_y": "537026.566344",
    "longitude": "-90.09888532386732",
    "latitude": "29.970931352197475",
    "geocoded_column": {
      "latitude": "29.970931352197475",
      "longitude": "-90.09888532386732"
    }
  },
  {
    "service_request": "2022-868605",
    "request_type": "Abandoned Vehicles",
    "request_reason": "Abandoned/Junk Vehicles",
    "date_created": "2022-03-21T14:51:43.000",
    "date_modified": "2022-03-21T14:53:05.000",
    "request_status": "Pending",
    "responsible_agency": "Department of Public Works",
    "final_address": "900 BLK Foucher St",
    "address_councildis": "B",
    "status": "Pending",
    "rowid": "868605",
    "final_x": "3674346.72115",
    "final_y": "518772.250629",
    "longitude": "-90.09109422694785",
    "latitude": "29.920658788632593",
    "geocoded_column": {
      "latitude": "29.920658788632593",
      "longitude": "-90.09109422694785"
    }
  },
  {
    "service_request": "2022-868604",
    "request_type": "Trash/Recycling",
    "request_reason": "Start Trash Service",
    "date_created": "2022-03-21T14:47:35.000",
    "date_modified": "2022-03-21T14:47:36.000",
    "request_status": "Pending",
    "responsible_agency": "Department of Sanitation",
    "final_address": "708 Constantinople St",
    "address_councildis": "B",
    "status": "Assigned to Contractor",
    "contractor": "Richards Disposal",
    "rowid": "868604",
    "final_x": "3672546.43803",
    "final_y": "518288.14431",
    "longitude": "-90.09679339098626",
    "latitude": "29.919381194287226",
    "geocoded_column": {
      "latitude": "29.919381194287226",
      "longitude": "-90.09679339098626"
    }
  },
  {
    "service_request": "2022-868603",
    "request_type": "Traffic Signals/Signs/Striping/Streetlights",
    "request_reason": "Traffic Signal Malfunctioning/Damaged",
    "date_created": "2022-03-21T14:47:20.000",
    "date_modified": "2022-03-21T14:47:20.000",
    "request_status": "Pending",
    "responsible_agency": "Department of Public Works",
    "final_address": "ST CHARLES AVE & JULIA ST",
    "address_councildis": "B",
    "status": "Pending",
    "rowid": "868603",
    "final_x": "3680393.6",
    "final_y": "528026.98",
    "longitude": "-90.07168537755908",
    "latitude": "29.94592459922379",
    "geocoded_column": {
      "latitude": "29.94592459922379",
      "longitude": "-90.07168537755908"
    }
  },
  {
    "service_request": "2022-868602",
    "request_type": "Trash/Recycling",
    "request_reason": "Replace Trash Cart",
    "date_created": "2022-03-21T14:47:19.000",
    "date_modified": "2022-03-21T14:47:20.000",
    "request_status": "Pending",
    "responsible_agency": "Department of Sanitation",
    "final_address": "5306 Warrington Dr",
    "address_councildis": "D",
    "status": "Assigned to Contractor",
    "contractor": "Metro Disposal",
    "rowid": "868602",
    "final_x": "3680840.83317",
    "final_y": "552200.775574",
    "longitude": "-90.06943142332804",
    "latitude": "30.01238057709087",
    "geocoded_column": {
      "latitude": "30.01238057709087",
      "longitude": "-90.06943142332804"
    }
  },
  {
    "service_request": "2022-868601",
    "request_type": "Parks & Parkways",
    "request_reason": "Request Tree Service (Right of Way/Public Property)",
    "date_created": "2022-03-21T14:45:22.000",
    "date_modified": "2022-03-21T14:45:22.000",
    "request_status": "Pending",
    "responsible_agency": "Department of Parks & Parkway",
    "final_address": "307 Olivier St",
    "address_councildis": "C",
    "status": "Pending",
    "rowid": "868601",
    "final_x": "3687193.59196",
    "final_y": "530690.788226",
    "longitude": "-90.05012137471627",
    "latitude": "29.953041535950597",
    "geocoded_column": {
      "latitude": "29.953041535950597",
      "longitude": "-90.05012137471627"
    }
  },
  {
    "service_request": "2022-868600",
    "request_type": "Trash/Recycling",
    "request_reason": "Repair Trash Cart",
    "date_created": "2022-03-21T14:45:06.000",
    "date_modified": "2022-03-21T14:45:07.000",
    "request_status": "Pending",
    "responsible_agency": "Department of Sanitation",
    "final_address": "3610 Mansfield Ave",
    "address_councildis": "C",
    "status": "Assigned to Contractor",
    "contractor": "Richards Disposal",
    "rowid": "868600",
    "final_x": "3709060.87518",
    "final_y": "517553.09471",
    "longitude": "-89.98156408826242",
    "latitude": "29.91622606628207",
    "geocoded_column": {
      "latitude": "29.91622606628207",
      "longitude": "-89.98156408826242"
    }
  },
  {
    "service_request": "2022-868599",
    "request_type": "Trash/Recycling",
    "request_reason": "MIssed Recycling Pick-Up",
    "date_created": "2022-03-21T14:44:32.000",
    "date_modified": "2022-03-21T14:44:33.000",
    "request_status": "Pending",
    "responsible_agency": "Department of Sanitation",
    "final_address": "558 Lowerline St",
    "address_councildis": "A",
    "status": "Assigned to Contractor",
    "contractor": "Richards Disposal",
    "rowid": "868599",
    "final_x": "3662317.41261",
    "final_y": "524948.912381",
    "longitude": "-90.12886044080987",
    "latitude": "29.937995784466565",
    "geocoded_column": {
      "latitude": "29.937995784466565",
      "longitude": "-90.12886044080987"
    }
  },
  {
    "service_request": "2022-868598",
    "request_type": "Trash/Recycling",
    "request_reason": "Request a Large Item Pick Up",
    "date_created": "2022-03-21T14:41:33.000",
    "date_modified": "2022-03-21T14:41:35.000",
    "request_status": "Pending",
    "responsible_agency": "Department of Sanitation",
    "final_address": "2403 Carondelet St",
    "address_councildis": "B",
    "status": "Assigned to Contractor",
    "contractor": "Richards Disposal",
    "rowid": "868598",
    "final_x": "3676676.7355",
    "final_y": "523535.692219",
    "longitude": "-90.08357544642632",
    "latitude": "29.933687043584598",
    "geocoded_column": {
      "latitude": "29.933687043584598",
      "longitude": "-90.08357544642632"
    }
  },
  {
    "service_request": "2022-868597",
    "request_type": "Trash/Recycling",
    "request_reason": "Illegal Dumping",
    "date_created": "2022-03-21T14:40:14.000",
    "date_modified": "2022-03-21T14:40:14.000",
    "request_status": "Pending",
    "responsible_agency": "Department of Sanitation",
    "final_address": "1767 N Roman St",
    "address_councildis": "D",
    "status": "Pending",
    "rowid": "868597",
    "final_x": "3682773.50152",
    "final_y": "538763.831433",
    "longitude": "-90.06379564017614",
    "latitude": "29.975374999321474",
    "geocoded_column": {
      "latitude": "29.975374999321474",
      "longitude": "-90.06379564017614"
    }
  },
  {
    "service_request": "2022-868596",
    "request_type": "Trash/Recycling",
    "request_reason": "Missed Trash Pick-Up",
    "date_created": "2022-03-21T14:32:46.000",
    "date_modified": "2022-03-21T14:32:47.000",
    "request_status": "Pending",
    "responsible_agency": "Department of Sanitation",
    "final_address": "8727 Apricot St",
    "address_councildis": "A",
    "status": "Assigned to Contractor",
    "contractor": "Richards Disposal",
    "rowid": "868596",
    "final_x": "3664110.13172",
    "final_y": "534242.916101",
    "longitude": "-90.12289068360873",
    "latitude": "29.963499354241172",
    "geocoded_column": {
      "latitude": "29.963499354241172",
      "longitude": "-90.12289068360873"
    }
  },
  {
    "service_request": "2022-868595",
    "request_type": "Trash/Recycling",
    "request_reason": "Replace Trash Cart",
    "date_created": "2022-03-21T14:31:37.000",
    "date_modified": "2022-03-21T14:31:38.000",
    "request_status": "Pending",
    "responsible_agency": "Department of Sanitation",
    "final_address": "2221 General Pershing St",
    "address_councildis": "B",
    "status": "Assigned to Contractor",
    "contractor": "Richards Disposal",
    "rowid": "868595",
    "final_x": "3671051.49908",
    "final_y": "523225.372091",
    "longitude": "-90.10134461319788",
    "latitude": "29.933001267865862",
    "geocoded_column": {
      "latitude": "29.933001267865862",
      "longitude": "-90.10134461319788"
    }
  },
  {
    "service_request": "2022-868594",
    "request_type": "Tax and Revenue",
    "request_reason": "Occupational License Tax",
    "date_created": "2022-03-21T14:31:25.000",
    "date_modified": "2022-03-21T14:33:34.000",
    "request_status": "Pending",
    "responsible_agency": "Bureau of Revenue",
    "final_address": "New Orleans,LA",
    "rowid": "868594",
    "longitude": "0.0",
    "latitude": "0.0",
    "geocoded_column": {
      "latitude": "0.0",
      "longitude": "0.0"
    }
  },
  {
    "service_request": "2022-868593",
    "request_type": "Trash/Recycling",
    "request_reason": "Order Trash Cart",
    "date_created": "2022-03-21T14:31:22.000",
    "date_modified": "2022-03-21T14:31:23.000",
    "request_status": "Pending",
    "responsible_agency": "Department of Sanitation",
    "final_address": "4435 St Anthony Ave",
    "address_councildis": "D",
    "status": "Assigned to Contractor",
    "contractor": "Metro Disposal",
    "rowid": "868593",
    "final_x": "3682571.33935",
    "final_y": "549003.895635",
    "longitude": "-90.064075879428",
    "latitude": "30.00353771321891",
    "geocoded_column": {
      "latitude": "30.00353771321891",
      "longitude": "-90.064075879428"
    }
  },
  {
    "service_request": "2022-868592",
    "request_type": "Trash/Recycling",
    "request_reason": "Order Recycling Cart",
    "date_created": "2022-03-21T14:29:25.000",
    "date_modified": "2022-03-21T14:29:25.000",
    "request_status": "Pending",
    "responsible_agency": "Department of Sanitation",
    "final_address": "5811 Paris Ave",
    "address_councildis": "D",
    "status": "Pending",
    "rowid": "868592",
    "final_x": "3679129.0637",
    "final_y": "553914.099288",
    "longitude": "-90.07478020160057",
    "latitude": "30.017143404276492",
    "geocoded_column": {
      "latitude": "30.017143404276492",
      "longitude": "-90.07478020160057"
    }
  },
  {
    "service_request": "2022-868591",
    "request_type": "Trash/Recycling",
    "request_reason": "Order Trash Cart",
    "date_created": "2022-03-21T14:28:20.000",
    "date_modified": "2022-03-21T14:28:21.000",
    "request_status": "Pending",
    "responsible_agency": "Department of Sanitation",
    "final_address": "5811 Paris Ave",
    "address_councildis": "D",
    "status": "Assigned to Contractor",
    "contractor": "Metro Disposal",
    "rowid": "868591",
    "final_x": "3679129.0637",
    "final_y": "553914.099288",
    "longitude": "-90.07478020160057",
    "latitude": "30.017143404276492",
    "geocoded_column": {
      "latitude": "30.017143404276492",
      "longitude": "-90.07478020160057"
    }
  },
  {
    "service_request": "2022-868590",
    "request_type": "Abandoned Vehicles",
    "request_reason": "Abandoned/Junk Vehicles",
    "date_created": "2022-03-21T14:23:43.000",
    "date_modified": "2022-03-21T14:26:13.000",
    "request_status": "Pending",
    "responsible_agency": "Department of Public Works",
    "final_address": "4517 Thalia St",
    "address_councildis": "B",
    "status": "Pending",
    "rowid": "868590",
    "final_x": "3670020.80026",
    "final_y": "531716.382083",
    "longitude": "-90.10431094960724",
    "latitude": "29.956379212486613",
    "geocoded_column": {
      "latitude": "29.956379212486613",
      "longitude": "-90.10431094960724"
    }
  },
  {
    "service_request": "2022-868589",
    "request_type": "Roads/Drainage",
    "request_reason": "Catch Basin - Broken/Damage",
    "date_created": "2022-03-21T14:18:41.000",
    "date_modified": "2022-03-21T14:18:41.000",
    "request_status": "Pending",
    "responsible_agency": "Department of Public Works",
    "final_address": "7700 St Charles Ave",
    "address_councildis": "A",
    "status": "Pending",
    "rowid": "868589",
    "final_x": "3661580.99885",
    "final_y": "525823.957821",
    "longitude": "-90.13115639045508",
    "latitude": "29.940423146864543",
    "geocoded_column": {
      "latitude": "29.940423146864543",
      "longitude": "-90.13115639045508"
    }
  },
  {
    "service_request": "2022-868588",
    "request_type": "Trash/Recycling",
    "request_reason": "Illegal Dumping",
    "date_created": "2022-03-21T14:17:19.000",
    "date_modified": "2022-03-21T14:18:18.000",
    "request_status": "Pending",
    "responsible_agency": "Department of Sanitation",
    "final_address": "ABUNDANCE ST & ST FERDINAND ST",
    "address_councildis": "D",
    "status": "Pending",
    "rowid": "868588",
    "final_x": "3689649.7",
    "final_y": "543844.88",
    "longitude": "-90.0418979619371",
    "latitude": "29.98913479729448",
    "geocoded_column": {
      "latitude": "29.98913479729448",
      "longitude": "-90.0418979619371"
    }
  },
  {
    "service_request": "2022-868587",
    "request_type": "Roads/Drainage",
    "request_reason": "Street Subsidence (Sinking)",
    "date_created": "2022-03-21T14:13:43.000",
    "date_modified": "2022-03-21T14:13:43.000",
    "request_status": "Pending",
    "responsible_agency": "Department of Public Works",
    "final_address": "1800 Monroe St",
    "address_councildis": "A",
    "status": "Pending",
    "rowid": "868587",
    "final_x": "3661793.51027",
    "final_y": "531612.523587",
    "longitude": "-90.13029357608676",
    "latitude": "29.956333716263774",
    "geocoded_column": {
      "latitude": "29.956333716263774",
      "longitude": "-90.13029357608676"
    }
  },
  {
    "service_request": "2022-868586",
    "request_type": "Traffic Signals/Signs/Striping/Streetlights",
    "request_reason": "Street Light Outage/Malfunction",
    "date_created": "2022-03-21T14:13:34.000",
    "date_modified": "2022-03-21T14:13:35.000",
    "request_status": "Pending",
    "responsible_agency": "Department of Public Works",
    "final_address": "2414 Second St",
    "address_councildis": "B",
    "status": "Pending",
    "contractor": "Royal Engineering",
    "rowid": "868586",
    "final_x": "3674997.62433",
    "final_y": "525543.941565",
    "longitude": "-90.08880746339207",
    "latitude": "29.939259323933925",
    "geocoded_column": {
      "latitude": "29.939259323933925",
      "longitude": "-90.08880746339207"
    }
  },
  {
    "service_request": "2022-868585",
    "request_type": "Trash/Recycling",
    "request_reason": "Request a Large Item Pick Up",
    "date_created": "2022-03-21T14:09:25.000",
    "date_modified": "2022-03-21T14:09:26.000",
    "request_status": "Pending",
    "responsible_agency": "Department of Sanitation",
    "final_address": "2617 Laurel St, New Orleans, Louisiana, 70130",
    "address_councildis": "B",
    "status": "Assigned to Contractor",
    "contractor": "Richards Disposal",
    "rowid": "868585",
    "final_x": "3677836.89307",
    "final_y": "520493.393464",
    "longitude": "-90.08001793779636",
    "latitude": "29.925286870251444",
    "geocoded_column": {
      "latitude": "29.925286870251444",
      "longitude": "-90.08001793779636"
    }
  },
  {
    "service_request": "2022-868583",
    "request_type": "Traffic Signals/Signs/Striping/Streetlights",
    "request_reason": "Street Light Outage/Malfunction",
    "date_created": "2022-03-21T14:07:23.000",
    "date_modified": "2022-03-21T14:07:24.000",
    "request_status": "Pending",
    "responsible_agency": "Department of Public Works",
    "final_address": "4506 Citrus Dr",
    "address_councildis": "E",
    "status": "Pending",
    "contractor": "Royal Engineering",
    "rowid": "868583",
    "final_x": "3710670.27525",
    "final_y": "554698.510872",
    "longitude": "-89.9750944476562",
    "latitude": "30.01830993816588",
    "geocoded_column": {
      "latitude": "30.01830993816588",
      "longitude": "-89.9750944476562"
    }
  },
  {
    "service_request": "2022-868582",
    "request_type": "Roads/Drainage",
    "request_reason": "Catch Basin - Broken/Damage",
    "date_created": "2022-03-21T14:04:10.000",
    "date_modified": "2022-03-21T14:04:10.000",
    "request_status": "Pending",
    "responsible_agency": "Department of Public Works",
    "final_address": "7634 St Charles Ave",
    "address_councildis": "A",
    "status": "Pending",
    "rowid": "868582",
    "final_x": "3661639.96198",
    "final_y": "525772.142397",
    "longitude": "-90.13097194986607",
    "latitude": "29.940278969745183",
    "geocoded_column": {
      "latitude": "29.940278969745183",
      "longitude": "-90.13097194986607"
    }
  },
  {
    "service_request": "2022-868581",
    "request_type": "Abandoned Vehicles",
    "request_reason": "Abandoned/Junk Vehicles",
    "date_created": "2022-03-21T14:03:48.000",
    "date_modified": "2022-03-21T14:03:49.000",
    "request_status": "Pending",
    "responsible_agency": "Department of Public Works",
    "final_address": "1315 Terry St",
    "address_councildis": "C",
    "status": "Pending",
    "rowid": "868581",
    "final_x": "3696907.63095",
    "final_y": "526404.478718",
    "longitude": "-90.01960403206289",
    "latitude": "29.940952980211236",
    "geocoded_column": {
      "latitude": "29.940952980211236",
      "longitude": "-90.01960403206289"
    }
  },
  {
    "service_request": "2022-868580",
    "request_type": "Traffic Signals/Signs/Striping/Streetlights",
    "request_reason": "Street Light Outage/Malfunction",
    "date_created": "2022-03-21T14:02:35.000",
    "date_modified": "2022-03-21T14:02:37.000",
    "request_status": "Pending",
    "responsible_agency": "Department of Public Works",
    "final_address": "40 Rail St",
    "address_councildis": "D",
    "status": "Pending",
    "contractor": "Royal Engineering",
    "rowid": "868580",
    "final_x": "3674004.78177",
    "final_y": "557095.267098",
    "longitude": "-90.09086187722914",
    "latitude": "30.026044233904795",
    "geocoded_column": {
      "latitude": "30.026044233904795",
      "longitude": "-90.09086187722914"
    }
  },
  {
    "service_request": "2022-868579",
    "request_type": "Roads/Drainage",
    "request_reason": "Damaged Sidewalk",
    "date_created": "2022-03-21T14:00:49.000",
    "date_modified": "2022-03-21T14:00:50.000",
    "request_status": "Pending",
    "responsible_agency": "Department of Public Works",
    "final_address": "7615 Jeannette St",
    "address_councildis": "A",
    "status": "Pending",
    "rowid": "868579",
    "final_x": "3663985.94643",
    "final_y": "528075.111039",
    "longitude": "-90.12348850188727",
    "latitude": "29.9465434988518",
    "geocoded_column": {
      "latitude": "29.9465434988518",
      "longitude": "-90.12348850188727"
    }
  },
  {
    "service_request": "2022-868578",
    "request_type": "Property Maintenance",
    "request_reason": "Property Maintenance",
    "date_created": "2022-03-21T14:00:27.000",
    "date_modified": "2022-03-21T14:00:27.000",
    "request_status": "Pending",
    "responsible_agency": "Department of Code Enforcement",
    "final_address": "517 Huntlee Dr",
    "address_councildis": "C",
    "status": "Pending",
    "rowid": "868578",
    "final_x": "3701786.64919",
    "final_y": "521358.755961",
    "longitude": "-90.00438496100584",
    "latitude": "29.926924285576884",
    "geocoded_column": {
      "latitude": "29.926924285576884",
      "longitude": "-90.00438496100584"
    }
  },
  {
    "service_request": "2022-868577",
    "request_type": "Traffic Signals/Signs/Striping/Streetlights",
    "request_reason": "Request for Stop Sign",
    "date_created": "2022-03-21T13:59:23.000",
    "date_modified": "2022-03-21T13:59:23.000",
    "request_status": "Pending",
    "responsible_agency": "Department of Public Works",
    "final_address": "2542 Pauger St, New Orleans, Louisiana, 70116",
    "address_councildis": "D",
    "status": "Pending",
    "rowid": "868577",
    "final_x": "3683562.33033",
    "final_y": "539115.323978",
    "longitude": "-90.06129198615238",
    "latitude": "29.97631742607065",
    "geocoded_column": {
      "latitude": "29.97631742607065",
      "longitude": "-90.06129198615238"
    }
  },
  {
    "service_request": "2022-868576",
    "request_type": "Trash/Recycling",
    "request_reason": "Request a Large Item Pick Up",
    "date_created": "2022-03-21T13:55:47.000",
    "date_modified": "2022-03-21T13:55:48.000",
    "request_status": "Pending",
    "responsible_agency": "Department of Sanitation",
    "final_address": "835 Atlantic Ave, New Orleans, Louisiana, 70114",
    "address_councildis": "C",
    "status": "Assigned to Contractor",
    "contractor": "Richards Disposal",
    "rowid": "868576",
    "final_x": "3688689.63062",
    "final_y": "528392.744896",
    "longitude": "-90.04547910850866",
    "latitude": "29.946676552549157",
    "geocoded_column": {
      "latitude": "29.946676552549157",
      "longitude": "-90.04547910850866"
    }
  },
  {
    "service_request": "2022-868575",
    "request_type": "Abandoned Vehicles",
    "request_reason": "Abandoned/Junk Vehicles",
    "date_created": "2022-03-21T13:53:53.000",
    "date_modified": "2022-03-21T13:53:53.000",
    "request_status": "Pending",
    "responsible_agency": "Department of Public Works",
    "final_address": "1900 Canal St",
    "address_councildis": "B",
    "status": "Pending",
    "rowid": "868575",
    "final_x": "3677668.49621",
    "final_y": "533227.823428",
    "longitude": "-90.08010985565011",
    "latitude": "29.960307399417353",
    "geocoded_column": {
      "latitude": "29.960307399417353",
      "longitude": "-90.08010985565011"
    }
  },
  {
    "service_request": "2022-868574",
    "request_type": "Trash/Recycling",
    "request_reason": "Repair Trash Cart",
    "date_created": "2022-03-21T13:50:06.000",
    "date_modified": "2022-03-21T13:50:07.000",
    "request_status": "Pending",
    "responsible_agency": "Department of Sanitation",
    "final_address": "4314 Constance St",
    "address_councildis": "B",
    "status": "Assigned to Contractor",
    "contractor": "Richards Disposal",
    "rowid": "868574",
    "final_x": "3671369.63879",
    "final_y": "518409.089654",
    "longitude": "-90.10050385622883",
    "latitude": "29.919748622650197",
    "geocoded_column": {
      "latitude": "29.919748622650197",
      "longitude": "-90.10050385622883"
    }
  },
  {
    "service_request": "2022-868573",
    "request_type": "Abandoned Vehicles",
    "request_reason": "Abandoned/Junk Vehicles",
    "date_created": "2022-03-21T13:48:32.000",
    "date_modified": "2022-03-21T13:48:32.000",
    "request_status": "Pending",
    "responsible_agency": "Department of Public Works",
    "final_address": "2900 Castiglione St",
    "address_councildis": "D",
    "status": "Pending",
    "rowid": "868573",
    "final_x": "3679292.25365",
    "final_y": "542292.676301",
    "longitude": "-90.07466793275472",
    "latitude": "29.98518369471275",
    "geocoded_column": {
      "latitude": "29.98518369471275",
      "longitude": "-90.07466793275472"
    }
  },
  {
    "service_request": "2022-868572",
    "request_type": "Trash/Recycling",
    "request_reason": "Missed Trash Pick-Up",
    "date_created": "2022-03-21T13:47:51.000",
    "date_modified": "2022-03-21T13:47:51.000",
    "request_status": "Pending",
    "responsible_agency": "Department of Sanitation",
    "final_address": "1136 Esplanade Ave",
    "address_councildis": "C",
    "status": "Assigned to Contractor",
    "contractor": "Richards Disposal",
    "rowid": "868572",
    "final_x": "3682590.27234",
    "final_y": "535476.75847",
    "longitude": "-90.06448928548305",
    "latitude": "29.96634226673819",
    "geocoded_column": {
      "latitude": "29.96634226673819",
      "longitude": "-90.06448928548305"
    }
  },
  {
    "service_request": "2022-868571",
    "request_type": "Trash/Recycling",
    "request_reason": "Replace Trash Cart",
    "date_created": "2022-03-21T13:44:33.000",
    "date_modified": "2022-03-21T13:44:34.000",
    "request_status": "Pending",
    "responsible_agency": "Department of Sanitation",
    "final_address": "4434 Orleans Ave",
    "address_councildis": "A",
    "status": "Assigned to Contractor",
    "contractor": "Richards Disposal",
    "rowid": "868571",
    "final_x": "3671138.78279",
    "final_y": "541162.812044",
    "longitude": "-90.10045977996495",
    "latitude": "29.982320701810604",
    "geocoded_column": {
      "latitude": "29.982320701810604",
      "longitude": "-90.10045977996495"
    }
  },
  {
    "service_request": "2022-868570",
    "request_type": "Property Maintenance",
    "request_reason": "Property Maintenance",
    "date_created": "2022-03-21T13:44:00.000",
    "date_modified": "2022-03-21T13:44:00.000",
    "request_status": "Pending",
    "responsible_agency": "Department of Code Enforcement",
    "final_address": "2913 Audubon St",
    "address_councildis": "B",
    "status": "Pending",
    "rowid": "868570",
    "final_x": "3667813.65044",
    "final_y": "531456.826435",
    "longitude": "-90.11128916032003",
    "latitude": "29.955730429981507",
    "geocoded_column": {
      "latitude": "29.955730429981507",
      "longitude": "-90.11128916032003"
    }
  },
  {
    "service_request": "2022-868569",
    "request_type": "Traffic Signals/Signs/Striping/Streetlights",
    "request_reason": "Street Light Outage/Malfunction",
    "date_created": "2022-03-21T13:43:04.000",
    "date_modified": "2022-03-21T13:43:04.000",
    "request_status": "Pending",
    "responsible_agency": "Department of Public Works",
    "final_address": "2761 St Peter St",
    "address_councildis": "A",
    "status": "Pending",
    "contractor": "Royal Engineering",
    "rowid": "868569",
    "final_x": "3676267.98824",
    "final_y": "537201.096136",
    "longitude": "-90.08439561587547",
    "latitude": "29.97127459730918",
    "geocoded_column": {
      "latitude": "29.97127459730918",
      "longitude": "-90.08439561587547"
    }
  },
  {
    "service_request": "2022-868568",
    "request_type": "Trash/Recycling",
    "request_reason": "Request a Large Item Pick Up",
    "date_created": "2022-03-21T13:37:40.000",
    "date_modified": "2022-03-21T13:37:41.000",
    "request_status": "Pending",
    "responsible_agency": "Department of Sanitation",
    "final_address": "2828 Upperline St",
    "address_councildis": "B",
    "status": "Assigned to Contractor",
    "contractor": "Richards Disposal",
    "rowid": "868568",
    "final_x": "3669160.05127",
    "final_y": "525203.114365",
    "longitude": "-90.10724898782733",
    "latitude": "29.938495206542953",
    "geocoded_column": {
      "latitude": "29.938495206542953",
      "longitude": "-90.10724898782733"
    }
  },
  {
    "service_request": "2022-868567",
    "request_type": "Trash/Recycling",
    "request_reason": "Repair Recycling Cart",
    "date_created": "2022-03-21T13:36:13.000",
    "date_modified": "2022-03-21T13:36:13.000",
    "request_status": "Pending",
    "responsible_agency": "Department of Sanitation",
    "final_address": "6470 Fleur-De-Lis Dr",
    "address_councildis": "A",
    "status": "Pending",
    "rowid": "868567",
    "final_x": "3665237.8649",
    "final_y": "551157.619861",
    "longitude": "-90.11876321984326",
    "latitude": "30.009976263789987",
    "geocoded_column": {
      "latitude": "30.009976263789987",
      "longitude": "-90.11876321984326"
    }
  },
  {
    "service_request": "2022-868566",
    "request_type": "Trash/Recycling",
    "request_reason": "Illegal Dumping",
    "date_created": "2022-03-21T13:31:19.000",
    "date_modified": "2022-03-21T13:31:19.000",
    "request_status": "Pending",
    "responsible_agency": "Department of Sanitation",
    "final_address": "2523 Rousseau St",
    "address_councildis": "B",
    "status": "Pending",
    "rowid": "868566",
    "final_x": "3678878.9773",
    "final_y": "519372.315959",
    "longitude": "-90.07676721507802",
    "latitude": "29.922172888955373",
    "geocoded_column": {
      "latitude": "29.922172888955373",
      "longitude": "-90.07676721507802"
    }
  },
  {
    "service_request": "2022-868565",
    "request_type": "Trash/Recycling",
    "request_reason": "Repair Trash Cart",
    "date_created": "2022-03-21T13:26:44.000",
    "date_modified": "2022-03-21T13:36:01.000",
    "request_status": "Pending",
    "responsible_agency": "Department of Sanitation",
    "final_address": "6432 Brunswick Ct, New Orleans, Louisiana, 70131",
    "address_councildis": "C",
    "contractor": "Richards Disposal",
    "rowid": "868565",
    "final_x": "3707888.48619",
    "final_y": "517026.115317",
    "longitude": "-89.98528414998647",
    "latitude": "29.91481503424674",
    "geocoded_column": {
      "latitude": "29.91481503424674",
      "longitude": "-89.98528414998647"
    }
  },
  {
    "service_request": "2022-868564",
    "request_type": "Property Maintenance",
    "request_reason": "Property Maintenance",
    "date_created": "2022-03-21T13:26:37.000",
    "date_modified": "2022-03-21T13:26:41.000",
    "request_status": "Pending",
    "responsible_agency": "Department of Code Enforcement",
    "final_address": "1724 Port St",
    "address_councildis": "D",
    "status": "Pending",
    "rowid": "868564",
    "final_x": "3688024.32547",
    "final_y": "538875.753801",
    "longitude": "-90.04720820264058",
    "latitude": "29.97552173591747",
    "geocoded_column": {
      "latitude": "29.97552173591747",
      "longitude": "-90.04720820264058"
    }
  },
  {
    "service_request": "2022-868562",
    "request_type": "Property Maintenance",
    "request_reason": "Property Maintenance",
    "date_created": "2022-03-21T13:24:00.000",
    "date_modified": "2022-03-21T13:24:00.000",
    "request_status": "Pending",
    "responsible_agency": "Department of Code Enforcement",
    "final_address": "1737 Franklin Ave",
    "address_councildis": "D",
    "status": "Pending",
    "rowid": "868562",
    "final_x": "3687803.91254",
    "final_y": "538999.95553",
    "longitude": "-90.04789992465919",
    "latitude": "29.975870047657914",
    "geocoded_column": {
      "latitude": "29.975870047657914",
      "longitude": "-90.04789992465919"
    }
  },
  {
    "service_request": "2022-868561",
    "request_type": "Property Maintenance",
    "request_reason": "Property Maintenance",
    "date_created": "2022-03-21T13:22:58.000",
    "date_modified": "2022-03-21T13:22:58.000",
    "request_status": "Pending",
    "responsible_agency": "Department of Code Enforcement",
    "final_address": "1727 Franklin Ave",
    "address_councildis": "D",
    "status": "Pending",
    "rowid": "868561",
    "final_x": "3687784.26243",
    "final_y": "538916.552586",
    "longitude": "-90.04796493999018",
    "latitude": "29.97564132506524",
    "geocoded_column": {
      "latitude": "29.97564132506524",
      "longitude": "-90.04796493999018"
    }
  },
  {
    "service_request": "2022-868560",
    "request_type": "Trash/Recycling",
    "request_reason": "Missed Trash Pick-Up",
    "date_created": "2022-03-21T13:22:19.000",
    "date_modified": "2022-03-21T13:22:28.000",
    "request_status": "Pending",
    "responsible_agency": "Department of Sanitation",
    "final_address": "732 Jackson Ave",
    "address_councildis": "B",
    "status": "Assigned to Contractor",
    "contractor": "Richards Disposal",
    "rowid": "868560",
    "final_x": "3679533.87304",
    "final_y": "521096.914937",
    "longitude": "-90.07464018061357",
    "latitude": "29.92689521010469",
    "geocoded_column": {
      "latitude": "29.92689521010469",
      "longitude": "-90.07464018061357"
    }
  },
  {
    "service_request": "2022-868559",
    "request_type": "Roads/Drainage",
    "request_reason": "Catch Basin - Broken/Damage",
    "date_created": "2022-03-21T13:22:03.000",
    "date_modified": "2022-03-21T13:22:03.000",
    "request_status": "Pending",
    "responsible_agency": "Department of Public Works",
    "final_address": "7634 St Charles Ave",
    "address_councildis": "A",
    "status": "Pending",
    "rowid": "868559",
    "final_x": "3661639.96198",
    "final_y": "525772.142397",
    "longitude": "-90.13097194986607",
    "latitude": "29.940278969745183",
    "geocoded_column": {
      "latitude": "29.940278969745183",
      "longitude": "-90.13097194986607"
    }
  },
  {
    "service_request": "2022-868558",
    "request_type": "Property Maintenance",
    "request_reason": "Property Maintenance",
    "date_created": "2022-03-21T13:21:42.000",
    "date_modified": "2022-03-21T13:21:50.000",
    "request_status": "Pending",
    "responsible_agency": "Department of Code Enforcement",
    "final_address": "1735 Franklin Ave",
    "address_councildis": "D",
    "status": "Pending",
    "rowid": "868558",
    "final_x": "3687797.38127",
    "final_y": "538973.630922",
    "longitude": "-90.04792148489142",
    "latitude": "29.975797865725703",
    "geocoded_column": {
      "latitude": "29.975797865725703",
      "longitude": "-90.04792148489142"
    }
  },
  {
    "service_request": "2022-868557",
    "request_type": "Roads/Drainage",
    "request_reason": "Pothole",
    "date_created": "2022-03-21T13:21:33.000",
    "date_modified": "2022-03-21T13:21:33.000",
    "request_status": "Pending",
    "responsible_agency": "Department of Public Works",
    "final_address": "1800 Monroe St",
    "address_councildis": "A",
    "status": "Pending",
    "rowid": "868557",
    "final_x": "3661793.51027",
    "final_y": "531612.523587",
    "longitude": "-90.13029357608676",
    "latitude": "29.956333716263774",
    "geocoded_column": {
      "latitude": "29.956333716263774",
      "longitude": "-90.13029357608676"
    }
  },