[
  {
    "service_request": "2024-1157837",
    "request_type": "Trash/Recycling",
    "request_reason": "Request a Large Item Pick Up",
    "date_created": "2024-12-28T22:42:26.000",
    "date_modified": "2024-12-28T22:42:27.000",
    "request_status": "Pending",
    "responsible_agency": "Department of Sanitation",
    "final_address": "2208 Mandeville St, New Orleans, Louisiana, 70117",
    "address_councildis": "D",
    "status": "Assigned to Contractor",
    "contractor": "IV Waste",
    "rowid": "1157837",
    "final_x": "3685398.96623",
    "final_y": "540516.675019",
    "longitude": "-90.05544199268591",
    "latitude": "29.980114458122667",
    "geocoded_column": {
      "latitude": "29.980114458122667",
      "longitude": "-90.05544199268591"
    }
  },
  {
    "service_request": "2024-1157836",
    "request_type": "General Services",
    "request_reason": "General Service Request",
    "date_created": "2024-12-28T22:08:32.000",
    "date_modified": "2024-12-28T22:08:40.000",
    "request_status": "Pending",
    "responsible_agency": "Orleans Parish Communication District",
    "final_address": "2400 Annunciation St",
    "address_councildis": "B",
    "status": "Pending",
    "rowid": "1157836",
    "final_x": "3678674.37506",
    "final_y": "520527.849656",
    "longitude": "-90.07737307887648",
    "latitude": "29.925356399040957",
    "geocoded_column": {
      "latitude": "29.925356399040957",
      "longitude": "-90.07737307887648"
    }
  },
  {
    "service_request": "2024-1157835",
    "request_type": "Trash/Recycling",
    "request_reason": "Replace Trash Cart",
    "date_created": "2024-12-28T20:36:49.000",
    "date_modified": "2024-12-28T20:36:49.000",
    "request_status": "Pending",
    "responsible_agency": "Department of Sanitation",
    "final_address": "2424 Jena St",
    "address_councildis": "B",
    "status": "Assigned to Contractor",
    "contractor": "IV Waste",
    "rowid": "1157835",
    "final_x": "3670095.28833",
    "final_y": "523874.683516",
    "longitude": "-90.10434132436562",
    "latitude": "29.93481490027657",
    "geocoded_column": {
      "latitude": "29.93481490027657",
      "longitude": "-90.10434132436562"
    }
  },
  {
    "service_request": "2024-1157834",
    "request_type": "Roads and Streets",
    "request_reason": "Pothole",
    "date_created": "2024-12-28T20:24:51.000",
    "date_modified": "2024-12-28T20:24:53.000",
    "request_status": "Pending",
    "responsible_agency": "Department of Public Works",
    "final_address": "1925 N Roman St",
    "address_councildis": "D",
    "status": "Pending",
    "rowid": "1157834",
    "final_x": "3683897.15906",
    "final_y": "538865.728393",
    "longitude": "-90.06024325686748",
    "latitude": "29.97562090046909",
    "geocoded_column": {
      "latitude": "29.97562090046909",
      "longitude": "-90.06024325686748"
    }
  },
  {
    "service_request": "2024-1157833",
    "request_type": "Abandoned Vehicles",
    "request_reason": "Abandoned/Junk Vehicles",
    "date_created": "2024-12-28T20:21:46.000",
    "date_modified": "2024-12-28T20:21:50.000",
    "request_status": "Pending",
    "responsible_agency": "Department of Public Works",
    "final_address": "927 Fats Domino Ave",
    "address_councildis": "E",
    "status": "Pending",
    "rowid": "1157833",
    "final_x": "3697927.68138",
    "final_y": "533186.190852",
    "longitude": "-90.01613743846853",
    "latitude": "29.959568110431164",
    "geocoded_column": {
      "latitude": "29.959568110431164",
      "longitude": "-90.01613743846853"
    }
  },
  {
    "service_request": "2024-1157832",
    "request_type": "Streetlights",
    "request_reason": "Streetlight Outage/Malfunction",
    "date_created": "2024-12-28T20:09:09.000",
    "date_modified": "2024-12-28T20:09:10.000",
    "request_status": "Pending",
    "responsible_agency": "Department of Public Works",
    "final_address": "2317 N Villere St",
    "address_councildis": "C",
    "status": "Pending",
    "contractor": "Legacy Professional Services",
    "rowid": "1157832",
    "final_x": "3685842.71458",
    "final_y": "537515.765896",
    "longitude": "-90.05414626360479",
    "latitude": "29.97184939550031",
    "geocoded_column": {
      "latitude": "29.97184939550031",
      "longitude": "-90.05414626360479"
    }
  },
  {
    "service_request": "2024-1157831",
    "request_type": "Christmas Tree Recycle Pick Up",
    "request_reason": "Christmas Tree Recycle Pick Up",
    "date_created": "2024-12-28T19:45:21.000",
    "date_modified": "2024-12-28T19:45:34.000",
    "request_status": "Pending",
    "responsible_agency": "Office of Resilience and Sustainability",
    "final_address": "430 First St",
    "address_councildis": "B",
    "status": "Pending",
    "contractor": "R&R Recycling",
    "rowid": "1157831",
    "final_x": "3679389.13538",
    "final_y": "519458.123703",
    "longitude": "-90.07515388322592",
    "latitude": "29.922393439278995",
    "geocoded_column": {
      "latitude": "29.922393439278995",
      "longitude": "-90.07515388322592"
    }
  },
  {
    "service_request": "2024-1157830",
    "request_type": "Trash/Recycling",
    "request_reason": "Order Recycling Cart",
    "date_created": "2024-12-28T19:41:38.000",
    "date_modified": "2024-12-28T19:41:43.000",
    "request_status": "Pending",
    "responsible_agency": "Department of Sanitation",
    "final_address": "3224 Nashville Ave",
    "address_councildis": "A",
    "status": "Pending",
    "rowid": "1157830",
    "final_x": "3667848.76033",
    "final_y": "527680.804991",
    "longitude": "-90.11130545675782",
    "latitude": "29.945346572217918",
    "geocoded_column": {
      "latitude": "29.945346572217918",
      "longitude": "-90.11130545675782"
    }
  },
  {
    "service_request": "2024-1157829",
    "request_type": "Christmas Tree Recycle Pick Up",
    "request_reason": "Christmas Tree Recycle Pick Up",
    "date_created": "2024-12-28T18:50:14.000",
    "date_modified": "2024-12-28T18:50:17.000",
    "request_status": "Pending",
    "responsible_agency": "Office of Resilience and Sustainability",
    "final_address": "422 Nashville Ave",
    "address_councildis": "A",
    "status": "Pending",
    "contractor": "R&R Recycling",
    "rowid": "1157829",
    "final_x": "3665211.66138",
    "final_y": "517867.52127",
    "longitude": "-90.11995975189367",
    "latitude": "29.918440221829414",
    "geocoded_column": {
      "latitude": "29.918440221829414",
      "longitude": "-90.11995975189367"
    }
  },
  {
    "service_request": "2024-1157828",
    "request_type": "Trash/Recycling",
    "request_reason": "Request a Large Item Pick Up",
    "date_created": "2024-12-28T18:19:26.000",
    "date_modified": "2024-12-28T18:19:27.000",
    "request_status": "Pending",
    "responsible_agency": "Department of Sanitation",
    "final_address": "7220 Voyageur Ct",
    "address_councildis": "E",
    "status": "Assigned to Contractor",
    "contractor": "Waste Pro",
    "rowid": "1157828",
    "final_x": "3726406.93952",
    "final_y": "568707.062693",
    "longitude": "-89.92482910846316",
    "latitude": "30.0563053764278",
    "geocoded_column": {
      "latitude": "30.0563053764278",
      "longitude": "-89.92482910846316"
    }
  },
  {
    "service_request": "2024-1157827",
    "request_type": "Trash/Recycling",
    "request_reason": "Request a Large Item Pick Up",
    "date_created": "2024-12-28T18:15:59.000",
    "date_modified": "2024-12-28T18:16:00.000",
    "request_status": "Pending",
    "responsible_agency": "Department of Sanitation",
    "final_address": "7220 Voyageur Ct",
    "address_councildis": "E",
    "status": "Assigned to Contractor",
    "contractor": "Waste Pro",
    "rowid": "1157827",
    "final_x": "3726406.93952",
    "final_y": "568707.062693",
    "longitude": "-89.92482910846316",
    "latitude": "30.0563053764278",
    "geocoded_column": {
      "latitude": "30.0563053764278",
      "longitude": "-89.92482910846316"
    }
  },
  {
    "service_request": "2024-1157826",
    "request_type": "Streetlights",
    "request_reason": "Streetlight Outage/Malfunction",
    "date_created": "2024-12-28T18:13:48.000",
    "date_modified": "2024-12-28T18:13:49.000",
    "request_status": "Pending",
    "responsible_agency": "Department of Public Works",
    "final_address": "8130 Zimple St",
    "address_councildis": "A",
    "status": "Pending",
    "contractor": "Legacy Professional Services",
    "rowid": "1157826",
    "final_x": "3661530.64749",
    "final_y": "528243.660992",
    "longitude": "-90.13123521388941",
    "latitude": "29.947078012743596",
    "geocoded_column": {
      "latitude": "29.947078012743596",
      "longitude": "-90.13123521388941"
    }
  },
  {
    "service_request": "2024-1157825",
    "request_type": "Trash/Recycling",
    "request_reason": "Repair Trash Cart",
    "date_created": "2024-12-28T18:04:05.000",
    "date_modified": "2024-12-28T18:04:06.000",
    "request_status": "Pending",
    "responsible_agency": "Department of Sanitation",
    "final_address": "4821 Piety Dr",
    "address_councildis": "D",
    "status": "Assigned to Contractor",
    "contractor": "IV Waste",
    "rowid": "1157825",
    "final_x": "3691706.00131",
    "final_y": "551418.534229",
    "longitude": "-90.03513169948947",
    "latitude": "30.009895693236288",
    "geocoded_column": {
      "latitude": "30.009895693236288",
      "longitude": "-90.03513169948947"
    }
  },
  {
    "service_request": "2024-1157824",
    "request_type": "Trash/Recycling",
    "request_reason": "Order Second Trash Cart",
    "date_created": "2024-12-28T18:01:56.000",
    "date_modified": "2024-12-28T18:01:57.000",
    "request_status": "Pending",
    "responsible_agency": "Department of Sanitation",
    "final_address": "4821 Piety Dr",
    "address_councildis": "D",
    "status": "Assigned to Contractor",
    "contractor": "IV Waste",
    "rowid": "1157824",
    "final_x": "3691706.00131",
    "final_y": "551418.534229",
    "longitude": "-90.03513169948947",
    "latitude": "30.009895693236288",
    "geocoded_column": {
      "latitude": "30.009895693236288",
      "longitude": "-90.03513169948947"
    }
  },
  {
    "service_request": "2024-1157823",
    "request_type": "Safety & Permits",
    "request_reason": "Zoning Enforcement",
    "date_created": "2024-12-28T17:58:20.000",
    "date_modified": "2024-12-28T17:58:24.000",
    "request_status": "Pending",
    "responsible_agency": "Safety and Permits",
    "final_address": "622 Seguin St",
    "address_councildis": "C",
    "status": "Pending",
    "rowid": "1157823",
    "final_x": "3686828.55414",
    "final_y": "529548.859329",
    "longitude": "-90.05131434400475",
    "latitude": "29.949912857667282",
    "geocoded_column": {
      "latitude": "29.949912857667282",
      "longitude": "-90.05131434400475"
    }
  },
  {
    "service_request": "2024-1157822",
    "request_type": "Streetlights",
    "request_reason": "Streetlight Outage/Malfunction",
    "date_created": "2024-12-28T17:50:12.000",
    "date_modified": "2024-12-28T17:50:13.000",
    "request_status": "Pending",
    "responsible_agency": "Department of Public Works",
    "final_address": "628 Dumaine St",
    "address_councildis": "C",
    "status": "Pending",
    "contractor": "Legacy Professional Services",
    "rowid": "1157822",
    "final_x": "3683074.69807",
    "final_y": "532949.985668",
    "longitude": "-90.06304794021531",
    "latitude": "29.95937975001733",
    "geocoded_column": {
      "latitude": "29.95937975001733",
      "longitude": "-90.06304794021531"
    }
  },
  {
    "service_request": "2024-1157821",
    "request_type": "Trash/Recycling",
    "request_reason": "Missed Trash Pick-Up",
    "date_created": "2024-12-28T17:47:23.000",
    "date_modified": "2024-12-28T17:47:24.000",
    "request_status": "Pending",
    "responsible_agency": "Department of Sanitation",
    "final_address": "2726 St Charles Ave",
    "address_councildis": "B",
    "status": "Assigned to Contractor",
    "contractor": "IV Waste",
    "rowid": "1157821",
    "final_x": "3676103.90203",
    "final_y": "522524.173178",
    "longitude": "-90.08541863258968",
    "latitude": "29.930922863004852",
    "geocoded_column": {
      "latitude": "29.930922863004852",
      "longitude": "-90.08541863258968"
    }
  },
  {
    "service_request": "2024-1157820",
    "request_type": "Christmas Tree Recycle Pick Up",
    "request_reason": "Christmas Tree Recycle Pick Up",
    "date_created": "2024-12-28T17:25:02.000",
    "date_modified": "2024-12-28T17:25:05.000",
    "request_status": "Pending",
    "responsible_agency": "Office of Resilience and Sustainability",
    "final_address": "1403 Tennessee St",
    "address_councildis": "E",
    "status": "Pending",
    "contractor": "R&R Recycling",
    "rowid": "1157820",
    "final_x": "3696085.44835",
    "final_y": "535438.43335",
    "longitude": "-90.02187335376989",
    "latitude": "29.96581908105865",
    "geocoded_column": {
      "latitude": "29.96581908105865",
      "longitude": "-90.02187335376989"
    }
  },
  {
    "service_request": "2024-1157819",
    "request_type": "Trash/Recycling",
    "request_reason": "Replace Recycling Cart",
    "date_created": "2024-12-28T17:19:02.000",
    "date_modified": "2024-12-28T17:19:04.000",
    "request_status": "Pending",
    "responsible_agency": "Department of Sanitation",
    "final_address": "3710 Rue Denise",
    "address_councildis": "C",
    "status": "Pending",
    "rowid": "1157819",
    "final_x": "3704306.3194",
    "final_y": "516860.174453",
    "longitude": "-89.99659675554287",
    "latitude": "29.91447414781039",
    "geocoded_column": {
      "latitude": "29.91447414781039",
      "longitude": "-89.99659675554287"
    }
  },
  {
    "service_request": "2024-1157818",
    "request_type": "Trash/Recycling",
    "request_reason": "Replace Trash Cart",
    "date_created": "2024-12-28T17:17:23.000",
    "date_modified": "2024-12-28T17:17:23.000",
    "request_status": "Pending",
    "responsible_agency": "Department of Sanitation",
    "final_address": "3710 Rue Denise",
    "address_councildis": "C",
    "status": "Assigned to Contractor",
    "contractor": "Richards Disposal",
    "rowid": "1157818",
    "final_x": "3704306.3194",
    "final_y": "516860.174453",
    "longitude": "-89.99659675554287",
    "latitude": "29.91447414781039",
    "geocoded_column": {
      "latitude": "29.91447414781039",
      "longitude": "-89.99659675554287"
    }
  },
  {
    "service_request": "2024-1157817",
    "request_type": "General Services",
    "request_reason": "General Service Request",
    "date_created": "2024-12-28T16:36:12.000",
    "date_modified": "2024-12-28T16:36:16.000",
    "request_status": "Pending",
    "responsible_agency": "Orleans Parish Communication District",
    "final_address": "2243 Leon C Simon Dr",
    "address_councildis": "D",
    "status": "Pending",
    "rowid": "1157817",
    "final_x": "3683773.06076",
    "final_y": "557034.630746",
    "longitude": "-90.05999752089323",
    "latitude": "30.02558264591389",
    "geocoded_column": {
      "latitude": "30.02558264591389",
      "longitude": "-90.05999752089323"
    }
  },
  {
    "service_request": "2024-1157816",
    "request_type": "Christmas Tree Recycle Pick Up",
    "request_reason": "Christmas Tree Recycle Pick Up",
    "date_created": "2024-12-28T16:26:11.000",
    "date_modified": "2024-12-28T16:26:14.000",
    "request_status": "Pending",
    "responsible_agency": "Office of Resilience and Sustainability",
    "final_address": "7121 Lake Barrington Dr",
    "address_councildis": "E",
    "status": "Pending",
    "contractor": "R&R Recycling",
    "rowid": "1157816",
    "final_x": "3712464.25214",
    "final_y": "564186.231841",
    "longitude": "-89.96906928666924",
    "latitude": "30.04433880591554",
    "geocoded_column": {
      "latitude": "30.04433880591554",
      "longitude": "-89.96906928666924"
    }
  },
  {
    "service_request": "2024-1157815",
    "request_type": "Christmas Tree Recycle Pick Up",
    "request_reason": "Christmas Tree Recycle Pick Up",
    "date_created": "2024-12-28T16:22:27.000",
    "date_modified": "2024-12-28T16:22:30.000",
    "request_status": "Pending",
    "responsible_agency": "Office of Resilience and Sustainability",
    "final_address": "943 Chapelle St",
    "address_councildis": "A",
    "status": "Pending",
    "contractor": "R&R Recycling",
    "rowid": "1157815",
    "final_x": "3670761.54887",
    "final_y": "552559.091286",
    "longitude": "-90.10126423398849",
    "latitude": "30.013667666979924",
    "geocoded_column": {
      "latitude": "30.013667666979924",
      "longitude": "-90.10126423398849"
    }
  },
  {
    "service_request": "2024-1157814",
    "request_type": "Trash/Recycling",
    "request_reason": "Illegal Dumping",
    "date_created": "2024-12-28T16:19:27.000",
    "date_modified": "2024-12-28T16:19:30.000",
    "request_status": "Pending",
    "responsible_agency": "Department of Sanitation",
    "final_address": "North Robertson Street & Saint Maurice Avenue",
    "address_councildis": "E",
    "status": "Pending",
    "rowid": "1157814",
    "final_x": "3700404.74743",
    "final_y": "534577.30151",
    "longitude": "-90.00826468920671",
    "latitude": "29.96331463841229",
    "geocoded_column": {
      "latitude": "29.96331463841229",
      "longitude": "-90.00826468920671"
    }
  },
  {
    "service_request": "2024-1157813",
    "request_type": "Trash/Recycling",
    "request_reason": "Order Recycling Cart",
    "date_created": "2024-12-28T16:13:19.000",
    "date_modified": "2024-12-28T16:13:23.000",
    "request_status": "Pending",
    "responsible_agency": "Department of Sanitation",
    "final_address": "244 Belleville St",
    "address_councildis": "C",
    "status": "Pending",
    "rowid": "1157813",
    "final_x": "3687952.99529",
    "final_y": "531071.825026",
    "longitude": "-90.04771001864695",
    "latitude": "29.95406584992501",
    "geocoded_column": {
      "latitude": "29.95406584992501",
      "longitude": "-90.04771001864695"
    }
  },
  {
    "service_request": "2024-1157812",
    "request_type": "Trash/Recycling",
    "request_reason": "Request a Large Item Pick Up",
    "date_created": "2024-12-28T16:07:11.000",
    "date_modified": "2024-12-28T16:07:12.000",
    "request_status": "Pending",
    "responsible_agency": "Department of Sanitation",
    "final_address": "7615 Stonewood St",
    "address_councildis": "E",
    "status": "Assigned to Contractor",
    "contractor": "Waste Pro",
    "rowid": "1157812",
    "final_x": "3719587.11807",
    "final_y": "572402.560105",
    "longitude": "-89.94624374568849",
    "latitude": "30.066695189517368",
    "geocoded_column": {
      "latitude": "30.066695189517368",
      "longitude": "-89.94624374568849"
    }
  },
  {
    "service_request": "2024-1157811",
    "request_type": "Roads and Streets",
    "request_reason": "Abandoned Service Cut",
    "date_created": "2024-12-28T15:49:39.000",
    "date_modified": "2024-12-28T15:49:43.000",
    "request_status": "Pending",
    "responsible_agency": "Department of Public Works",
    "final_address": "1002 Aline St",
    "address_councildis": "B",
    "status": "Pending",
    "rowid": "1157811",
    "final_x": "3674498.80936",
    "final_y": "519141.643511",
    "longitude": "-90.09060150805863",
    "latitude": "29.921669965991597",
    "geocoded_column": {
      "latitude": "29.921669965991597",
      "longitude": "-90.09060150805863"
    }
  },
  {
    "service_request": "2024-1157810",
    "request_type": "Streetlights",
    "request_reason": "Streetlight Outage/Malfunction",
    "date_created": "2024-12-28T15:37:47.000",
    "date_modified": "2024-12-28T15:37:48.000",
    "request_status": "Pending",
    "responsible_agency": "Department of Public Works",
    "final_address": "6312 Argonne Blvd",
    "address_councildis": "A",
    "status": "Pending",
    "contractor": "Legacy Professional Services",
    "rowid": "1157810",
    "final_x": "3670284.91841",
    "final_y": "549422.592979",
    "longitude": "-90.10287655835991",
    "latitude": "30.005057482970994",
    "geocoded_column": {
      "latitude": "30.005057482970994",
      "longitude": "-90.10287655835991"
    }
  },
  {
    "service_request": "2024-1157809",
    "request_type": "Christmas Tree Recycle Pick Up",
    "request_reason": "Christmas Tree Recycle Pick Up",
    "date_created": "2024-12-28T15:37:40.000",
    "date_modified": "2024-12-28T15:37:42.000",
    "request_status": "Pending",
    "responsible_agency": "Office of Resilience and Sustainability",
    "final_address": "707 Jena St",
    "address_councildis": "B",
    "status": "Pending",
    "contractor": "R&R Recycling",
    "rowid": "1157809",
    "final_x": "3670754.32609",
    "final_y": "518116.383222",
    "longitude": "-90.10245602635392",
    "latitude": "29.91896196195815",
    "geocoded_column": {
      "latitude": "29.91896196195815",
      "longitude": "-90.10245602635392"
    }
  },
  {
    "service_request": "2024-1157808",
    "request_type": "Christmas Tree Recycle Pick Up",
    "request_reason": "Christmas Tree Recycle Pick Up",
    "date_created": "2024-12-28T15:29:00.000",
    "date_modified": "2024-12-28T15:29:04.000",
    "request_status": "Pending",
    "responsible_agency": "Office of Resilience and Sustainability",
    "final_address": "920 Harding Dr",
    "address_councildis": "A",
    "status": "Pending",
    "contractor": "R&R Recycling",
    "rowid": "1157808",
    "final_x": "3674396.08596",
    "final_y": "539835.078474",
    "longitude": "-90.09021710560665",
    "latitude": "29.978573120300357",
    "geocoded_column": {
      "latitude": "29.978573120300357",
      "longitude": "-90.09021710560665"
    }
  },
  {
    "service_request": "2024-1157807",
    "request_type": "Drainage",
    "request_reason": "Catch Basin Damaged",
    "date_created": "2024-12-28T15:12:39.000",
    "date_modified": "2024-12-28T15:12:42.000",
    "request_status": "Pending",
    "responsible_agency": "Department of Public Works",
    "final_address": "604 Baronne St",
    "address_councildis": "B",
    "status": "Pending",
    "rowid": "1157807",
    "final_x": "3679846.2557",
    "final_y": "529049.281344",
    "longitude": "-90.07337803564837",
    "latitude": "29.948752145727198",
    "geocoded_column": {
      "latitude": "29.948752145727198",
      "longitude": "-90.07337803564837"
    }
  },
  {
    "service_request": "2024-1157806",
    "request_type": "Traffic Signals",
    "request_reason": "Traffic Signal Malfunctioning or Damaged",
    "date_created": "2024-12-28T14:34:48.000",
    "date_modified": "2024-12-28T14:34:50.000",
    "request_status": "Pending",
    "responsible_agency": "Department of Public Works",
    "final_address": "2000 BLK Gentilly Blvd",
    "address_councildis": "D",
    "status": "Pending",
    "rowid": "1157806",
    "final_x": "3679705.85577",
    "final_y": "543771.028387",
    "longitude": "-90.07331018970228",
    "latitude": "29.989236146392358",
    "geocoded_column": {
      "latitude": "29.989236146392358",
      "longitude": "-90.07331018970228"
    }
  },
  {
    "service_request": "2024-1157805",
    "request_type": "Trash/Recycling",
    "request_reason": "Order Second Trash Cart",
    "date_created": "2024-12-28T14:27:17.000",
    "date_modified": "2024-12-28T14:27:18.000",
    "request_status": "Pending",
    "responsible_agency": "Department of Sanitation",
    "final_address": "715 Topaz St",
    "address_councildis": "D",
    "status": "Assigned to Contractor",
    "contractor": "IV Waste",
    "rowid": "1157805",
    "final_x": "3669847.82734",
    "final_y": "556518.449434",
    "longitude": "-90.10401691974113",
    "latitude": "30.024581477193745",
    "geocoded_column": {
      "latitude": "30.024581477193745",
      "longitude": "-90.10401691974113"
    }
  },
  {
    "service_request": "2024-1157804",
    "request_type": "Christmas Tree Recycle Pick Up",
    "request_reason": "Christmas Tree Recycle Pick Up",
    "date_created": "2024-12-28T14:25:09.000",
    "date_modified": "2024-12-28T14:25:11.000",
    "request_status": "Pending",
    "responsible_agency": "Office of Resilience and Sustainability",
    "final_address": "2016 Foucher St",
    "address_councildis": "B",
    "status": "Pending",
    "contractor": "R&R Recycling",
    "rowid": "1157804",
    "final_x": "3672932.01339",
    "final_y": "522777.443642",
    "longitude": "-90.09542323015846",
    "latitude": "29.93171387992932",
    "geocoded_column": {
      "latitude": "29.93171387992932",
      "longitude": "-90.09542323015846"
    }
  },
  {
    "service_request": "2024-1157803",
    "request_type": "Trash/Recycling",
    "request_reason": "Replace Recycling Cart",
    "date_created": "2024-12-28T14:18:33.000",
    "date_modified": "2024-12-28T14:18:36.000",
    "request_status": "Pending",
    "responsible_agency": "Department of Sanitation",
    "final_address": "715 Topaz St",
    "address_councildis": "D",
    "status": "Pending",
    "rowid": "1157803",
    "final_x": "3669847.82734",
    "final_y": "556518.449434",
    "longitude": "-90.10401691974113",
    "latitude": "30.024581477193745",
    "geocoded_column": {
      "latitude": "30.024581477193745",
      "longitude": "-90.10401691974113"
    }
  },
  {
    "service_request": "2024-1157802",
    "request_type": "Trash/Recycling",
    "request_reason": "Request a Large Item Pick Up",
    "date_created": "2024-12-28T14:17:59.000",
    "date_modified": "2024-12-28T14:18:00.000",
    "request_status": "Pending",
    "responsible_agency": "Department of Sanitation",
    "final_address": "2828 Upperline St",
    "address_councildis": "B",
    "status": "Assigned to Contractor",
    "contractor": "IV Waste",
    "rowid": "1157802",
    "final_x": "3669160.05127",
    "final_y": "525203.114365",
    "longitude": "-90.10724898782733",
    "latitude": "29.938495206542953",
    "geocoded_column": {
      "latitude": "29.938495206542953",
      "longitude": "-90.10724898782733"
    }
  },
  {
    "service_request": "2024-1157801",
    "request_type": "Trash/Recycling",
    "request_reason": "Order Recycling Cart",
    "date_created": "2024-12-28T14:17:26.000",
    "date_modified": "2024-12-28T14:17:28.000",
    "request_status": "Pending",
    "responsible_agency": "Department of Sanitation",
    "final_address": "7415 West End Blvd",
    "address_councildis": "D",
    "status": "Pending",
    "rowid": "1157801",
    "final_x": "3667131.45569",
    "final_y": "556044.940249",
    "longitude": "-90.11261615600698",
    "latitude": "30.023359347177216",
    "geocoded_column": {
      "latitude": "30.023359347177216",
      "longitude": "-90.11261615600698"
    }
  },
  {
    "service_request": "2024-1157800",
    "request_type": "Trash/Recycling",
    "request_reason": "Replace Trash Cart",
    "date_created": "2024-12-28T13:48:11.000",
    "date_modified": "2024-12-28T13:48:12.000",
    "request_status": "Pending",
    "responsible_agency": "Department of Sanitation",
    "final_address": "4424 Danneel St",
    "address_councildis": "B",
    "status": "Assigned to Contractor",
    "contractor": "IV Waste",
    "rowid": "1157800",
    "final_x": "3670450.26708",
    "final_y": "522182.858618",
    "longitude": "-90.1032779947938",
    "latitude": "29.930152451659755",
    "geocoded_column": {
      "latitude": "29.930152451659755",
      "longitude": "-90.1032779947938"
    }
  },
  {
    "service_request": "2024-1157799",
    "request_type": "Property Maintenance",
    "request_reason": "Property Maintenance",
    "date_created": "2024-12-28T13:45:23.000",
    "date_modified": "2024-12-28T13:45:25.000",
    "request_status": "Pending",
    "responsible_agency": "Department of Code Enforcement",
    "final_address": "824 N Salcedo St",
    "address_councildis": "A",
    "status": "Pending",
    "rowid": "1157799",
    "final_x": "3675821.76059",
    "final_y": "538298.864777",
    "longitude": "-90.08576711942523",
    "latitude": "29.974306452761446",
    "geocoded_column": {
      "latitude": "29.974306452761446",
      "longitude": "-90.08576711942523"
    }
  },
  {
    "service_request": "2024-1157798",
    "request_type": "Trash/Recycling",
    "request_reason": "Dead Animal Pick Up",
    "date_created": "2024-12-28T13:40:27.000",
    "date_modified": "2024-12-28T15:49:35.000",
    "case_close_date": "2024-12-28T09:49:35.000",
    "request_status": "Closed",
    "responsible_agency": "Department of Sanitation",
    "final_address": "5522 Wingate Dr",
    "address_councildis": "D",
    "status": "Assigned to Contractor",
    "contractor": "IV Waste",
    "contractor_action": "Completed",
    "rowid": "1157798",
    "final_x": "3681299.95938",
    "final_y": "553433.516119",
    "longitude": "-90.06793783072165",
    "latitude": "30.015756233299157",
    "geocoded_column": {
      "latitude": "30.015756233299157",
      "longitude": "-90.06793783072165"
    }
  },
  {
    "service_request": "2024-1157797",
    "request_type": "Trash/Recycling",
    "request_reason": "Request a Large Item Pick Up",
    "date_created": "2024-12-28T13:37:00.000",
    "date_modified": "2024-12-28T13:37:01.000",
    "request_status": "Pending",
    "responsible_agency": "Department of Sanitation",
    "final_address": "2227 Odin St",
    "address_councildis": "D",
    "status": "Assigned to Contractor",
    "contractor": "IV Waste",
    "rowid": "1157797",
    "final_x": "3683940.00124",
    "final_y": "553107.349527",
    "longitude": "-90.059607959909",
    "latitude": "30.014778964512548",
    "geocoded_column": {
      "latitude": "30.014778964512548",
      "longitude": "-90.059607959909"
    }
  },
  {
    "service_request": "2024-1157796",
    "request_type": "Trash/Recycling",
    "request_reason": "Missed Trash Pick-Up",
    "date_created": "2024-12-28T13:35:20.000",
    "date_modified": "2024-12-28T14:41:34.000",
    "case_close_date": "2024-12-28T08:41:34.000",
    "request_status": "Closed",
    "responsible_agency": "Department of Sanitation",
    "final_address": "4921 Stephen Girard Ave",
    "address_councildis": "D",
    "status": "Invalid Request",
    "contractor": "IV Waste",
    "contractor_action": "Invalid Request",
    "rowid": "1157796",
    "final_x": "3692211.71062",
    "final_y": "550991.063829",
    "longitude": "-90.03354930680365",
    "latitude": "30.00870454398264",
    "geocoded_column": {
      "latitude": "30.00870454398264",
      "longitude": "-90.03354930680365"
    }
  },
  {
    "service_request": "2024-1157795",
    "request_type": "Trash/Recycling",
    "request_reason": "Missed Trash Pick-Up",
    "date_created": "2024-12-28T13:35:08.000",
    "date_modified": "2024-12-28T13:46:33.000",
    "case_close_date": "2024-12-28T07:46:33.000",
    "request_status": "Closed",
    "responsible_agency": "Department of Sanitation",
    "final_address": "1825 Martin Luther King, Jr. Blvd",
    "address_councildis": "B",
    "status": "Invalid Request",
    "contractor": "IV Waste",
    "contractor_action": "Invalid Request",
    "rowid": "1157795",
    "final_x": "3678282.19694",
    "final_y": "526190.702078",
    "longitude": "-90.07841528727731",
    "latitude": "29.940939199607026",
    "geocoded_column": {
      "latitude": "29.940939199607026",
      "longitude": "-90.07841528727731"
    }
  },
  {
    "service_request": "2024-1157794",
    "request_type": "Trash/Recycling",
    "request_reason": "Illegal Dumping",
    "date_created": "2024-12-28T13:26:15.000",
    "date_modified": "2024-12-28T13:26:18.000",
    "request_status": "Pending",
    "responsible_agency": "Department of Sanitation",
    "final_address": "2037 First St",
    "address_councildis": "B",
    "status": "Pending",
    "rowid": "1157794",
    "final_x": "3676020.40193",
    "final_y": "524683.305148",
    "longitude": "-90.08560800966494",
    "latitude": "29.93686227132431",
    "geocoded_column": {
      "latitude": "29.93686227132431",
      "longitude": "-90.08560800966494"
    }
  },
  {
    "service_request": "2024-1157793",
    "request_type": "Drainage",
    "request_reason": "Catch Basin Clogged",
    "date_created": "2024-12-28T13:18:07.000",
    "date_modified": "2024-12-28T13:18:09.000",
    "request_status": "Pending",
    "responsible_agency": "Department of Public Works",
    "final_address": "634 Esplanade Ave",
    "address_councildis": "C",
    "status": "Pending",
    "rowid": "1157793",
    "final_x": "3684061.84425",
    "final_y": "534324.601541",
    "longitude": "-90.05988253008874",
    "latitude": "29.963129343568745",
    "geocoded_column": {
      "latitude": "29.963129343568745",
      "longitude": "-90.05988253008874"
    }
  },
  {
    "service_request": "2024-1157792",
    "request_type": "Christmas Tree Recycle Pick Up",
    "request_reason": "Christmas Tree Recycle Pick Up",
    "date_created": "2024-12-28T13:17:25.000",
    "date_modified": "2024-12-28T13:17:27.000",
    "request_status": "Pending",
    "responsible_agency": "Office of Resilience and Sustainability",
    "final_address": "4734 Perrier St",
    "address_councildis": "B",
    "status": "Pending",
    "contractor": "R&R Recycling",
    "rowid": "1157792",
    "final_x": "3669535.14055",
    "final_y": "519891.41932",
    "longitude": "-90.10624437589556",
    "latitude": "29.92387870444023",
    "geocoded_column": {
      "latitude": "29.92387870444023",
      "longitude": "-90.10624437589556"
    }
  },
  {
    "service_request": "2024-1157791",
    "request_type": "Trash/Recycling",
    "request_reason": "Missed Trash Pick-Up",
    "date_created": "2024-12-28T13:13:12.000",
    "date_modified": "2024-12-28T13:24:47.000",
    "case_close_date": "2024-12-28T07:24:47.000",
    "request_status": "Closed",
    "responsible_agency": "Department of Sanitation",
    "final_address": "5522 Wingate Dr",
    "address_councildis": "D",
    "status": "Invalid Request",
    "contractor": "IV Waste",
    "contractor_action": "Invalid Request",
    "rowid": "1157791",
    "final_x": "3681299.95938",
    "final_y": "553433.516119",
    "longitude": "-90.06793783072165",
    "latitude": "30.015756233299157",
    "geocoded_column": {
      "latitude": "30.015756233299157",
      "longitude": "-90.06793783072165"
    }
  },
  {
    "service_request": "2024-1157790",
    "request_type": "Trash/Recycling",
    "request_reason": "Order Second Trash Cart",
    "date_created": "2024-12-28T13:10:31.000",
    "date_modified": "2024-12-28T13:10:32.000",
    "request_status": "Pending",
    "responsible_agency": "Department of Sanitation",
    "final_address": "5522 Wingate Dr",
    "address_councildis": "D",
    "status": "Assigned to Contractor",
    "contractor": "IV Waste",
    "rowid": "1157790",
    "final_x": "3681299.95938",
    "final_y": "553433.516119",
    "longitude": "-90.06793783072165",
    "latitude": "30.015756233299157",
    "geocoded_column": {
      "latitude": "30.015756233299157",
      "longitude": "-90.06793783072165"
    }
  },
  {
    "service_request": "2024-1157789",
    "request_type": "Trash/Recycling",
    "request_reason": "Request a Large Item Pick Up",
    "date_created": "2024-12-28T13:06:13.000",
    "date_modified": "2024-12-28T13:06:14.000",
    "request_status": "Pending",
    "responsible_agency": "Department of Sanitation",
    "final_address": "5522 Wingate Dr",
    "address_councildis": "D",
    "status": "Assigned to Contractor",
    "contractor": "IV Waste",
    "rowid": "1157789",
    "final_x": "3681299.95938",
    "final_y": "553433.516119",
    "longitude": "-90.06793783072165",
    "latitude": "30.015756233299157",
    "geocoded_column": {
      "latitude": "30.015756233299157",
      "longitude": "-90.06793783072165"
    }
  },
  {
    "service_request": "2024-1157788",
    "request_type": "Drainage",
    "request_reason": "Street Flooding",
    "date_created": "2024-12-28T12:45:53.000",
    "date_modified": "2024-12-28T12:45:55.000",
    "request_status": "Pending",
    "responsible_agency": "Department of Public Works",
    "final_address": "2432 Cumberland Ct",
    "address_councildis": "C",
    "status": "Pending",
    "rowid": "1157788",
    "final_x": "3705119.42391",
    "final_y": "522263.435898",
    "longitude": "-89.99383097077796",
    "latitude": "29.92930513427257",
    "geocoded_column": {
      "latitude": "29.92930513427257",
      "longitude": "-89.99383097077796"
    }
  },
  {
    "service_request": "2024-1157787",
    "request_type": "Streetlights",
    "request_reason": "Streetlight Outage/Malfunction",
    "date_created": "2024-12-28T12:43:47.000",
    "date_modified": "2024-12-28T12:43:48.000",
    "request_status": "Pending",
    "responsible_agency": "Department of Public Works",
    "final_address": "2460 Bedford Dr",
    "address_councildis": "C",
    "status": "Pending",
    "contractor": "Legacy Professional Services",
    "rowid": "1157787",
    "final_x": "3705323.76446",
    "final_y": "521876.66297",
    "longitude": "-89.99320019142745",
    "latitude": "29.928235074065615",
    "geocoded_column": {
      "latitude": "29.928235074065615",
      "longitude": "-89.99320019142745"
    }
  },
  {
    "service_request": "2024-1157786",
    "request_type": "Christmas Tree Recycle Pick Up",
    "request_reason": "Christmas Tree Recycle Pick Up",
    "date_created": "2024-12-28T12:43:10.000",
    "date_modified": "2024-12-28T12:43:13.000",
    "request_status": "Pending",
    "responsible_agency": "Office of Resilience and Sustainability",
    "final_address": "4026 Annunciation St",
    "address_councildis": "B",
    "status": "Pending",
    "contractor": "R&R Recycling",
    "rowid": "1157786",
    "final_x": "3672408.97556",
    "final_y": "517833.710006",
    "longitude": "-90.09724276584376",
    "latitude": "29.918135722735634",
    "geocoded_column": {
      "latitude": "29.918135722735634",
      "longitude": "-90.09724276584376"
    }
  },
  {
    "service_request": "2024-1157785",
    "request_type": "Drainage",
    "request_reason": "Catch Basin Clogged",
    "date_created": "2024-12-28T12:36:17.000",
    "date_modified": "2024-12-28T12:36:20.000",
    "request_status": "Pending",
    "responsible_agency": "Department of Public Works",
    "final_address": "400 BLK Saint Joseph St",
    "address_councildis": "B",
    "status": "Pending",
    "rowid": "1157785",
    "final_x": "3681182.80098",
    "final_y": "527236.130683",
    "longitude": "-90.06922115263174",
    "latitude": "29.94372611115971",
    "geocoded_column": {
      "latitude": "29.94372611115971",
      "longitude": "-90.06922115263174"
    }
  },
  {
    "service_request": "2024-1157784",
    "request_type": "Streetlights",
    "request_reason": "Streetlight Outage/Malfunction",
    "date_created": "2024-12-28T12:22:37.000",
    "date_modified": "2024-12-28T12:22:38.000",
    "request_status": "Pending",
    "responsible_agency": "Department of Public Works",
    "final_address": "6224 Bertha Dr",
    "address_councildis": "D",
    "status": "Pending",
    "contractor": "Legacy Professional Services",
    "rowid": "1157784",
    "final_x": "3678488.42229",
    "final_y": "556080.880154",
    "longitude": "-90.07672928800284",
    "latitude": "30.023120597416547",
    "geocoded_column": {
      "latitude": "30.023120597416547",
      "longitude": "-90.07672928800284"
    }
  },
  {
    "service_request": "2024-1157783",
    "request_type": "Abandoned Vehicles",
    "request_reason": "Abandoned/Junk Vehicles",
    "date_created": "2024-12-28T12:22:22.000",
    "date_modified": "2024-12-28T12:22:27.000",
    "request_status": "Pending",
    "responsible_agency": "Department of Public Works",
    "final_address": "2841 Chestnut St",
    "address_councildis": "B",
    "status": "Pending",
    "rowid": "1157783",
    "final_x": "3676325.50881",
    "final_y": "521271.979129",
    "longitude": "-90.08476212396538",
    "latitude": "29.92747309818333",
    "geocoded_column": {
      "latitude": "29.92747309818333",
      "longitude": "-90.08476212396538"
    }
  },
  {
    "service_request": "2024-1157782",
    "request_type": "Trash/Recycling",
    "request_reason": "Request a Large Item Pick Up",
    "date_created": "2024-12-28T12:17:17.000",
    "date_modified": "2024-12-28T12:33:14.000",
    "request_status": "Pending",
    "responsible_agency": "Department of Sanitation",
    "final_address": "368 Pine St, New Orleans, Louisiana, 70118",
    "address_councildis": "A",
    "contractor": "IV Waste",
    "rowid": "1157782",
    "final_x": "3661915.33056",
    "final_y": "523734.933883",
    "longitude": "-90.13017009879604",
    "latitude": "29.934669342660502",
    "geocoded_column": {
      "latitude": "29.934669342660502",
      "longitude": "-90.13017009879604"
    }
  },
  {
    "service_request": "2024-1157781",
    "request_type": "Streetlights",
    "request_reason": "Streetlight Outage/Malfunction",
    "date_created": "2024-12-28T12:06:41.000",
    "date_modified": "2024-12-28T12:06:42.000",
    "request_status": "Pending",
    "responsible_agency": "Department of Public Works",
    "final_address": "1211 First St",
    "address_councildis": "B",
    "status": "Pending",
    "contractor": "Legacy Professional Services",
    "rowid": "1157781",
    "final_x": "3677850.09237",
    "final_y": "521908.731066",
    "longitude": "-90.07992739989899",
    "latitude": "29.929178190910648",
    "geocoded_column": {
      "latitude": "29.929178190910648",
      "longitude": "-90.07992739989899"
    }
  },
  {
    "service_request": "2024-1157780",
    "request_type": "Trash/Recycling",
    "request_reason": "Order Recycling Cart",
    "date_created": "2024-12-28T12:02:14.000",
    "date_modified": "2024-12-28T12:02:17.000",
    "request_status": "Pending",
    "responsible_agency": "Department of Sanitation",
    "final_address": "1634 De Battista Pl",
    "address_councildis": "C",
    "status": "Pending",
    "rowid": "1157780",
    "final_x": "3699772.96029",
    "final_y": "524699.717372",
    "longitude": "-90.01061986007832",
    "latitude": "29.936174838550425",
    "geocoded_column": {
      "latitude": "29.936174838550425",
      "longitude": "-90.01061986007832"
    }
  },
  {
    "service_request": "2024-1157779",
    "request_type": "Property Maintenance",
    "request_reason": "Property Maintenance",
    "date_created": "2024-12-28T12:00:02.000",
    "date_modified": "2024-12-28T12:00:04.000",
    "request_status": "Pending",
    "responsible_agency": "Department of Code Enforcement",
    "final_address": "1118 N Roman St",
    "address_councildis": "D",
    "status": "Pending",
    "rowid": "1157779",
    "final_x": "3680240.38402",
    "final_y": "536364.715207",
    "longitude": "-90.07187931995807",
    "latitude": "29.9688551842507",
    "geocoded_column": {
      "latitude": "29.9688551842507",
      "longitude": "-90.07187931995807"
    }
  },
  {
    "service_request": "2024-1157778",
    "request_type": "Christmas Tree Recycle Pick Up",
    "request_reason": "Christmas Tree Recycle Pick Up",
    "date_created": "2024-12-28T11:57:23.000",
    "date_modified": "2024-12-28T11:57:26.000",
    "request_status": "Pending",
    "responsible_agency": "Office of Resilience and Sustainability",
    "final_address": "1205 Press St",
    "address_councildis": "C",
    "status": "Pending",
    "contractor": "R&R Recycling",
    "rowid": "1157778",
    "final_x": "3688274.55548",
    "final_y": "536619.451719",
    "longitude": "-90.0464979386178",
    "latitude": "29.96930997286801",
    "geocoded_column": {
      "latitude": "29.96930997286801",
      "longitude": "-90.0464979386178"
    }
  },
  {
    "service_request": "2024-1157777",
    "request_type": "Christmas Tree Recycle Pick Up",
    "request_reason": "Christmas Tree Recycle Pick Up",
    "date_created": "2024-12-28T11:55:34.000",
    "date_modified": "2024-12-28T11:55:38.000",
    "request_status": "Pending",
    "responsible_agency": "Office of Resilience and Sustainability",
    "final_address": "519 English Turn Dr",
    "address_councildis": "C",
    "status": "Pending",
    "contractor": "R&R Recycling",
    "rowid": "1157777",
    "final_x": "3715146.31493",
    "final_y": "515652.2069",
    "longitude": "-89.96242802153265",
    "latitude": "29.910800491799417",
    "geocoded_column": {
      "latitude": "29.910800491799417",
      "longitude": "-89.96242802153265"
    }
  },
  {
    "service_request": "2024-1157776",
    "request_type": "Christmas Tree Recycle Pick Up",
    "request_reason": "Christmas Tree Recycle Pick Up",
    "date_created": "2024-12-28T11:50:24.000",
    "date_modified": "2024-12-28T11:50:27.000",
    "request_status": "Pending",
    "responsible_agency": "Office of Resilience and Sustainability",
    "final_address": "4436 Elba St",
    "address_councildis": "B",
    "status": "Pending",
    "contractor": "R&R Recycling",
    "rowid": "1157776",
    "final_x": "3669561.71028",
    "final_y": "530481.566146",
    "longitude": "-90.10580237870697",
    "latitude": "29.952997406679206",
    "geocoded_column": {
      "latitude": "29.952997406679206",
      "longitude": "-90.10580237870697"
    }
  },
  {
    "service_request": "2024-1157775",
    "request_type": "Mosquito, Termite & Rodent Control",
    "request_reason": "Non-Rodent Complaint (Mice, Possums, Snakes)",
    "date_created": "2024-12-28T11:48:38.000",
    "date_modified": "2024-12-28T11:48:40.000",
    "request_status": "Pending",
    "responsible_agency": "Mosquito, Termite & Rodent Control Board",
    "final_address": "1743 Mirabeau Ave",
    "address_councildis": "D",
    "status": "Pending",
    "rowid": "1157775",
    "final_x": "3680608.2676",
    "final_y": "550854.399061",
    "longitude": "-90.070213092015",
    "latitude": "30.008685578866455",
    "geocoded_column": {
      "latitude": "30.008685578866455",
      "longitude": "-90.070213092015"
    }
  },
  {
    "service_request": "2024-1157774",
    "request_type": "Trash/Recycling",
    "request_reason": "MIssed Recycling Pick-Up",
    "date_created": "2024-12-28T11:48:18.000",
    "date_modified": "2024-12-28T12:12:34.000",
    "case_close_date": "2024-12-28T06:12:34.000",
    "request_status": "Closed",
    "responsible_agency": "Department of Sanitation",
    "final_address": "5119 Clara St",
    "address_councildis": "B",
    "status": "Invalid Request",
    "contractor": "IV Waste",
    "contractor_action": "Invalid Request",
    "rowid": "1157774",
    "final_x": "3668349.73562",
    "final_y": "524952.447549",
    "longitude": "-90.10981569563637",
    "latitude": "29.937829769954007",
    "geocoded_column": {
      "latitude": "29.937829769954007",
      "longitude": "-90.10981569563637"
    }
  },
  {
    "service_request": "2024-1157773",
    "request_type": "Abandoned Vehicles",
    "request_reason": "Abandoned/Junk Vehicles",
    "date_created": "2024-12-28T11:39:57.000",
    "date_modified": "2024-12-28T11:39:59.000",
    "request_status": "Pending",
    "responsible_agency": "Department of Public Works",
    "final_address": "614 Philip St",
    "address_councildis": "B",
    "status": "Pending",
    "rowid": "1157773",
    "final_x": "3679545.66472",
    "final_y": "520480.459256",
    "longitude": "-90.0746243341308",
    "latitude": "29.925199802101954",
    "geocoded_column": {
      "latitude": "29.925199802101954",
      "longitude": "-90.0746243341308"
    }
  },
  {
    "service_request": "2024-1157772",
    "request_type": "Trash/Recycling",
    "request_reason": "Order Recycling Cart",
    "date_created": "2024-12-28T11:27:13.000",
    "date_modified": "2024-12-28T11:27:16.000",
    "request_status": "Pending",
    "responsible_agency": "Department of Sanitation",
    "final_address": "218 30Th St",
    "address_councildis": "A",
    "status": "Pending",
    "rowid": "1157772",
    "final_x": "3665655.82061",
    "final_y": "550447.804692",
    "longitude": "-90.11746653619947",
    "latitude": "30.00801233068445",
    "geocoded_column": {
      "latitude": "30.00801233068445",
      "longitude": "-90.11746653619947"
    }
  },
  {
    "service_request": "2024-1157771",
    "request_type": "Property Maintenance",
    "request_reason": "Property Maintenance",
    "date_created": "2024-12-28T11:23:15.000",
    "date_modified": "2024-12-28T11:23:18.000",
    "request_status": "Pending",
    "responsible_agency": "Department of Code Enforcement",
    "final_address": "4725 Babylon St",
    "address_councildis": "D",
    "status": "Pending",
    "rowid": "1157771",
    "final_x": "3696700.58243",
    "final_y": "554091.939608",
    "longitude": "-90.01925523106198",
    "latitude": "30.017090014266145",
    "geocoded_column": {
      "latitude": "30.017090014266145",
      "longitude": "-90.01925523106198"
    }
  },
  {
    "service_request": "2024-1157770",
    "request_type": "Christmas Tree Recycle Pick Up",
    "request_reason": "Christmas Tree Recycle Pick Up",
    "date_created": "2024-12-28T11:18:56.000",
    "date_modified": "2024-12-28T11:18:58.000",
    "request_status": "Pending",
    "responsible_agency": "Office of Resilience and Sustainability",
    "final_address": "5714 Tchoupitoulas St",
    "address_councildis": "A",
    "status": "Pending",
    "contractor": "R&R Recycling",
    "rowid": "1157770",
    "final_x": "3665309.029",
    "final_y": "517187.691061",
    "longitude": "-90.11967514156362",
    "latitude": "29.91656806531834",
    "geocoded_column": {
      "latitude": "29.91656806531834",
      "longitude": "-90.11967514156362"
    }
  },
  {
    "service_request": "2024-1157769",
    "request_type": "Christmas Tree Recycle Pick Up",
    "request_reason": "Christmas Tree Recycle Pick Up",
    "date_created": "2024-12-28T11:18:19.000",
    "date_modified": "2024-12-28T11:18:21.000",
    "request_status": "Pending",
    "responsible_agency": "Office of Resilience and Sustainability",
    "final_address": "327 Arabella St",
    "address_councildis": "A",
    "status": "Pending",
    "contractor": "R&R Recycling",
    "rowid": "1157769",
    "final_x": "3665526.45287",
    "final_y": "517394.312245",
    "longitude": "-90.11898194842252",
    "latitude": "29.917129875054222",
    "geocoded_column": {
      "latitude": "29.917129875054222",
      "longitude": "-90.11898194842252"
    }
  },
  {
    "service_request": "2024-1157768",
    "request_type": "Trash/Recycling",
    "request_reason": "Replace Trash Cart",
    "date_created": "2024-12-28T11:13:17.000",
    "date_modified": "2024-12-28T11:13:18.000",
    "request_status": "Pending",
    "responsible_agency": "Department of Sanitation",
    "final_address": "5514 Jacquelyn Ct",
    "address_councildis": "A",
    "status": "Assigned to Contractor",
    "contractor": "IV Waste",
    "rowid": "1157768",
    "final_x": "3664651.55124",
    "final_y": "544506.571791",
    "longitude": "-90.12083796132195",
    "latitude": "29.991705241914456",
    "geocoded_column": {
      "latitude": "29.991705241914456",
      "longitude": "-90.12083796132195"
    }
  },
  {
    "service_request": "2024-1157767",
    "request_type": "Trash/Recycling",
    "request_reason": "Replace Trash Cart",
    "date_created": "2024-12-28T11:12:38.000",
    "date_modified": "2024-12-28T11:12:39.000",
    "request_status": "Pending",
    "responsible_agency": "Department of Sanitation",
    "final_address": "616 Seventh St",
    "address_councildis": "B",
    "status": "Assigned to Contractor",
    "contractor": "IV Waste",
    "rowid": "1157767",
    "final_x": "3677258.05",
    "final_y": "518966.761911",
    "longitude": "-90.0818977957304",
    "latitude": "29.921106524014785",
    "geocoded_column": {
      "latitude": "29.921106524014785",
      "longitude": "-90.0818977957304"
    }
  },
  {
    "service_request": "2024-1157766",
    "request_type": "Utility Poles",
    "request_reason": "Wires Sagging/Hanging Low",
    "date_created": "2024-12-28T11:04:47.000",
    "date_modified": "2024-12-28T11:04:54.000",
    "request_status": "Pending",
    "responsible_agency": "Utility Company Collective",
    "final_address": "4849 Laurel St",
    "address_councildis": "B",
    "status": "Pending",
    "rowid": "1157766",
    "final_x": "3669227.08666",
    "final_y": "517903.726262",
    "longitude": "-90.10728393045888",
    "latitude": "29.918422244775236",
    "geocoded_column": {
      "latitude": "29.918422244775236",
      "longitude": "-90.10728393045888"
    }
  },
  {
    "service_request": "2024-1157765",
    "request_type": "General Services",
    "request_reason": "General Service Request",
    "date_created": "2024-12-28T10:38:22.000",
    "date_modified": "2024-12-28T10:38:25.000",
    "request_status": "Pending",
    "responsible_agency": "Orleans Parish Communication District",
    "final_address": "S GAYOSO ST & PALMYRA ST",
    "address_councildis": "B",
    "status": "Pending",
    "rowid": "1157765",
    "final_x": "3673862.1",
    "final_y": "535229.98",
    "longitude": "-90.09206119338869",
    "latitude": "29.965926580448027",
    "geocoded_column": {
      "latitude": "29.965926580448027",
      "longitude": "-90.09206119338869"
    }
  },
  {
    "service_request": "2024-1157764",
    "request_type": "Trash/Recycling",
    "request_reason": "Missed Trash Pick-Up",
    "date_created": "2024-12-28T10:35:20.000",
    "date_modified": "2024-12-28T14:49:56.000",
    "case_close_date": "2024-12-28T08:49:56.000",
    "request_status": "Closed",
    "responsible_agency": "Department of Sanitation",
    "final_address": "6201 Berkley Dr",
    "address_councildis": "C",
    "status": "Invalid Request",
    "contractor": "Richards Disposal",
    "contractor_action": "Invalid",
    "rowid": "1157764",
    "final_x": "3707025.10321",
    "final_y": "518035.768886",
    "longitude": "-89.98797185070612",
    "latitude": "29.917619132934384",
    "geocoded_column": {
      "latitude": "29.917619132934384",
      "longitude": "-89.98797185070612"
    }
  },
  {
    "service_request": "2024-1157763",
    "request_type": "Trash/Recycling",
    "request_reason": "Order Recycling Cart",
    "date_created": "2024-12-28T10:34:27.000",
    "date_modified": "2024-12-28T10:34:29.000",
    "request_status": "Pending",
    "responsible_agency": "Department of Sanitation",
    "final_address": "2121 Dauphine St",
    "address_councildis": "C",
    "status": "Pending",
    "rowid": "1157763",
    "final_x": "3684868.88898",
    "final_y": "535235.982534",
    "longitude": "-90.05730193255954",
    "latitude": "29.96561063953787",
    "geocoded_column": {
      "latitude": "29.96561063953787",
      "longitude": "-90.05730193255954"
    }
  },
  {
    "service_request": "2024-1157762",
    "request_type": "Trash/Recycling",
    "request_reason": "Missed Trash Pick-Up",
    "date_created": "2024-12-28T10:19:32.000",
    "date_modified": "2024-12-28T14:49:36.000",
    "case_close_date": "2024-12-28T08:49:36.000",
    "request_status": "Closed",
    "responsible_agency": "Department of Sanitation",
    "final_address": "5201 Berkley Dr",
    "address_councildis": "C",
    "status": "Invalid Request",
    "contractor": "Richards Disposal",
    "contractor_action": "Invalid",
    "rowid": "1157762",
    "final_x": "3702958.95575",
    "final_y": "518140.346614",
    "longitude": "-90.0008024752833",
    "latitude": "29.918037333490084",
    "geocoded_column": {
      "latitude": "29.918037333490084",
      "longitude": "-90.0008024752833"
    }
  },
  {
    "service_request": "2024-1157761",
    "request_type": "Christmas Tree Recycle Pick Up",
    "request_reason": "Christmas Tree Recycle Pick Up",
    "date_created": "2024-12-28T10:17:58.000",
    "date_modified": "2024-12-28T10:18:00.000",
    "request_status": "Pending",
    "responsible_agency": "Office of Resilience and Sustainability",
    "final_address": "1029 St Peter St",
    "address_councildis": "C",
    "status": "Pending",
    "contractor": "R&R Recycling",
    "rowid": "1157761",
    "final_x": "3681498.22236",
    "final_y": "533262.317956",
    "longitude": "-90.06801518200001",
    "latitude": "29.960286518761045",
    "geocoded_column": {
      "latitude": "29.960286518761045",
      "longitude": "-90.06801518200001"
    }
  },
  {
    "service_request": "2024-1157760",
    "request_type": "Trash/Recycling",
    "request_reason": "Request a Large Item Pick Up",
    "date_created": "2024-12-28T10:17:19.000",
    "date_modified": "2024-12-28T10:17:21.000",
    "request_status": "Pending",
    "responsible_agency": "Department of Sanitation",
    "final_address": "7530 Devine Ave",
    "address_councildis": "E",
    "status": "Assigned to Contractor",
    "contractor": "Waste Pro",
    "rowid": "1157760",
    "final_x": "3705707.36196",
    "final_y": "562823.029984",
    "longitude": "-89.99047443807233",
    "latitude": "30.040810014400314",
    "geocoded_column": {
      "latitude": "30.040810014400314",
      "longitude": "-89.99047443807233"
    }
  },
  {
    "service_request": "2024-1157759",
    "request_type": "General Services",
    "request_reason": "General Service Request",
    "date_created": "2024-12-28T10:07:18.000",
    "date_modified": "2024-12-28T10:07:22.000",
    "request_status": "Pending",
    "responsible_agency": "Orleans Parish Communication District",
    "final_address": "1413 Athis St",
    "address_councildis": "D",
    "status": "Pending",
    "rowid": "1157759",
    "final_x": "3677620.78299",
    "final_y": "553713.305815",
    "longitude": "-90.07955269702326",
    "latitude": "30.016636760217462",
    "geocoded_column": {
      "latitude": "30.016636760217462",
      "longitude": "-90.07955269702326"
    }
  },
  {
    "service_request": "2024-1157758",
    "request_type": "Drainage",
    "request_reason": "Catch Basin Clogged",
    "date_created": "2024-12-28T09:50:21.000",
    "date_modified": "2024-12-28T09:50:23.000",
    "request_status": "Pending",
    "responsible_agency": "Department of Public Works",
    "final_address": "839 Marigny St",
    "address_councildis": "C",
    "status": "Pending",
    "rowid": "1157758",
    "final_x": "3685516.64591",
    "final_y": "535576.06023",
    "longitude": "-90.0552443670129",
    "latitude": "29.966525884647336",
    "geocoded_column": {
      "latitude": "29.966525884647336",
      "longitude": "-90.0552443670129"
    }
  },
  {
    "service_request": "2024-1157757",
    "request_type": "Trash/Recycling",
    "request_reason": "Order Recycling Cart",
    "date_created": "2024-12-28T09:46:24.000",
    "date_modified": "2024-12-28T09:46:25.000",
    "request_status": "Pending",
    "responsible_agency": "Department of Sanitation",
    "final_address": "1516 Governor Nicholls St",
    "address_councildis": "C",
    "status": "Pending",
    "rowid": "1157757",
    "final_x": "3681330.9956",
    "final_y": "535772.368455",
    "longitude": "-90.06845575250163",
    "latitude": "29.96719337543092",
    "geocoded_column": {
      "latitude": "29.96719337543092",
      "longitude": "-90.06845575250163"
    }
  },
  {
    "service_request": "2024-1157756",
    "request_type": "Drainage",
    "request_reason": "Catch Basin Clogged",
    "date_created": "2024-12-28T09:46:17.000",
    "date_modified": "2024-12-28T09:46:19.000",
    "request_status": "Pending",
    "responsible_agency": "Department of Public Works",
    "final_address": "839 Marigny St",
    "address_councildis": "C",
    "status": "Pending",
    "rowid": "1157756",
    "final_x": "3685516.64591",
    "final_y": "535576.06023",
    "longitude": "-90.0552443670129",
    "latitude": "29.966525884647336",
    "geocoded_column": {
      "latitude": "29.966525884647336",
      "longitude": "-90.0552443670129"
    }
  },
  {
    "service_request": "2024-1157755",
    "request_type": "Christmas Tree Recycle Pick Up",
    "request_reason": "Christmas Tree Recycle Pick Up",
    "date_created": "2024-12-28T09:45:33.000",
    "date_modified": "2024-12-28T09:45:35.000",
    "request_status": "Pending",
    "responsible_agency": "Office of Resilience and Sustainability",
    "final_address": "3740 Nashville Ave",
    "address_councildis": "A",
    "status": "Pending",
    "contractor": "R&R Recycling",
    "rowid": "1157755",
    "final_x": "3668369.45722",
    "final_y": "529411.228801",
    "longitude": "-90.10960309643583",
    "latitude": "29.95008939506834",
    "geocoded_column": {
      "latitude": "29.95008939506834",
      "longitude": "-90.10960309643583"
    }
  },
  {
    "service_request": "2024-1157754",
    "request_type": "Christmas Tree Recycle Pick Up",
    "request_reason": "Christmas Tree Recycle Pick Up",
    "date_created": "2024-12-28T09:44:17.000",
    "date_modified": "2024-12-28T09:44:20.000",
    "request_status": "Pending",
    "responsible_agency": "Office of Resilience and Sustainability",
    "final_address": "1532 Riviera Ave",
    "address_councildis": "D",
    "status": "Pending",
    "contractor": "R&R Recycling",
    "rowid": "1157754",
    "final_x": "3678963.03304",
    "final_y": "550868.395093",
    "longitude": "-90.07541043565506",
    "latitude": "30.008773828610128",
    "geocoded_column": {
      "latitude": "30.008773828610128",
      "longitude": "-90.07541043565506"
    }
  },
  {
    "service_request": "2024-1157753",
    "request_type": "Trash/Recycling",
    "request_reason": "Change Size of Trash Cart",
    "date_created": "2024-12-28T09:34:47.000",
    "date_modified": "2024-12-28T09:34:48.000",
    "request_status": "Pending",
    "responsible_agency": "Department of Sanitation",
    "final_address": "4867 Piety Dr",
    "address_councildis": "D",
    "status": "Assigned to Contractor",
    "contractor": "IV Waste",
    "rowid": "1157753",
    "final_x": "3691579.07446",
    "final_y": "551747.227797",
    "longitude": "-90.03552094393538",
    "latitude": "30.010803432440564",
    "geocoded_column": {
      "latitude": "30.010803432440564",
      "longitude": "-90.03552094393538"
    }
  },
  {
    "service_request": "2024-1157752",
    "request_type": "Trash/Recycling",
    "request_reason": "Request a Large Item Pick Up",
    "date_created": "2024-12-28T09:32:56.000",
    "date_modified": "2024-12-28T09:32:57.000",
    "request_status": "Pending",
    "responsible_agency": "Department of Sanitation",
    "final_address": "7464 Pitt St",
    "address_councildis": "A",
    "status": "Assigned to Contractor",
    "contractor": "IV Waste",
    "rowid": "1157752",
    "final_x": "3660905.44326",
    "final_y": "523731.671163",
    "longitude": "-90.13335841899696",
    "latitude": "29.934689490373415",
    "geocoded_column": {
      "latitude": "29.934689490373415",
      "longitude": "-90.13335841899696"
    }
  },
  {
    "service_request": "2024-1157751",
    "request_type": "Trash/Recycling",
    "request_reason": "Missed Trash Pick-Up",
    "date_created": "2024-12-28T09:25:01.000",
    "date_modified": "2024-12-28T09:51:48.000",
    "case_close_date": "2024-12-28T03:51:48.000",
    "request_status": "Closed",
    "responsible_agency": "Department of Sanitation",
    "final_address": "801 Aline St",
    "address_councildis": "B",
    "status": "Invalid Request",
    "contractor": "IV Waste",
    "contractor_action": "Invalid Request",
    "rowid": "1157751",
    "final_x": "3674834.86094",
    "final_y": "518431.249078",
    "longitude": "-90.0895650768861",
    "latitude": "29.91970658317703",
    "geocoded_column": {
      "latitude": "29.91970658317703",
      "longitude": "-90.0895650768861"
    }
  },
  {
    "service_request": "2024-1157750",
    "request_type": "Abandoned Vehicles",
    "request_reason": "Abandoned/Junk Vehicles",
    "date_created": "2024-12-28T09:21:58.000",
    "date_modified": "2024-12-28T09:22:00.000",
    "request_status": "Pending",
    "responsible_agency": "Department of Public Works",
    "final_address": "N ROBERTSON ST & ST FERDINAND ST",
    "address_councildis": "C",
    "status": "Pending",
    "rowid": "1157750",
    "final_x": "3688098.2",
    "final_y": "537805.21",
    "longitude": "-90.04701284315217",
    "latitude": "29.972575837004666",
    "geocoded_column": {
      "latitude": "29.972575837004666",
      "longitude": "-90.04701284315217"
    }
  },
  {
    "service_request": "2024-1157749",
    "request_type": "Property Maintenance",
    "request_reason": "Property Maintenance",
    "date_created": "2024-12-28T09:21:27.000",
    "date_modified": "2024-12-28T09:21:29.000",
    "request_status": "Pending",
    "responsible_agency": "Department of Code Enforcement",
    "final_address": "13901 Chef Menteur Hwy",
    "address_councildis": "E",
    "status": "Pending",
    "rowid": "1157749",
    "final_x": "3728045.70144",
    "final_y": "560644.46435",
    "longitude": "-89.91996368167489",
    "latitude": "30.034081111780715",
    "geocoded_column": {
      "latitude": "30.034081111780715",
      "longitude": "-89.91996368167489"
    }
  },
  {
    "service_request": "2024-1157748",
    "request_type": "Property Maintenance",
    "request_reason": "Property Maintenance",
    "date_created": "2024-12-28T09:18:32.000",
    "date_modified": "2024-12-28T09:18:35.000",
    "request_status": "Pending",
    "responsible_agency": "Department of Code Enforcement",
    "final_address": "ROYAL ST & ANDRY ST",
    "address_councildis": "E",
    "status": "Pending",
    "rowid": "1157748",
    "final_x": "3696754.5",
    "final_y": "532484.98",
    "longitude": "-90.01986743570971",
    "latitude": "29.957677058742345",
    "geocoded_column": {
      "latitude": "29.957677058742345",
      "longitude": "-90.01986743570971"
    }
  },
  {
    "service_request": "2024-1157747",
    "request_type": "Trash/Recycling",
    "request_reason": "Order Recycling Cart",
    "date_created": "2024-12-28T09:15:30.000",
    "date_modified": "2024-12-28T09:16:00.000",
    "request_status": "Pending",
    "responsible_agency": "Department of Sanitation",
    "final_address": "6954 Memphis St",
    "address_councildis": "A",
    "status": "Pending",
    "rowid": "1157747",
    "final_x": "3669684.10273",
    "final_y": "553719.380631",
    "longitude": "-90.10462910469525",
    "latitude": "30.01688986358228",
    "geocoded_column": {
      "latitude": "30.01688986358228",
      "longitude": "-90.10462910469525"
    }
  },
  {
    "service_request": "2024-1157746",
    "request_type": "Trash/Recycling",
    "request_reason": "Request a Large Item Pick Up",
    "date_created": "2024-12-28T09:12:39.000",
    "date_modified": "2024-12-28T09:12:40.000",
    "request_status": "Pending",
    "responsible_agency": "Department of Sanitation",
    "final_address": "5204 Chestnut St",
    "address_councildis": "B",
    "status": "Assigned to Contractor",
    "contractor": "IV Waste",
    "rowid": "1157746",
    "final_x": "3668004.15975",
    "final_y": "519315.227191",
    "longitude": "-90.11109654800237",
    "latitude": "29.922339351419623",
    "geocoded_column": {
      "latitude": "29.922339351419623",
      "longitude": "-90.11109654800237"
    }
  },
  {
    "service_request": "2024-1157745",
    "request_type": "Traffic Signals",
    "request_reason": "Traffic Signal Malfunctioning or Damaged",
    "date_created": "2024-12-28T08:50:18.000",
    "date_modified": "2024-12-28T08:50:21.000",
    "request_status": "Pending",
    "responsible_agency": "Department of Public Works",
    "final_address": "700 BLK Decatur St",
    "address_councildis": "C",
    "status": "Pending",
    "rowid": "1157745",
    "final_x": "3683281.63865",
    "final_y": "532134.973904",
    "longitude": "-90.06242301701451",
    "latitude": "29.9571324363333",
    "geocoded_column": {
      "latitude": "29.9571324363333",
      "longitude": "-90.06242301701451"
    }
  },
  {
    "service_request": "2024-1157744",
    "request_type": "Trash/Recycling",
    "request_reason": "Request a Large Item Pick Up",
    "date_created": "2024-12-28T08:42:28.000",
    "date_modified": "2024-12-28T08:42:29.000",
    "request_status": "Pending",
    "responsible_agency": "Department of Sanitation",
    "final_address": "2524 Nashville Ave",
    "address_councildis": "A",
    "status": "Assigned to Contractor",
    "contractor": "IV Waste",
    "rowid": "1157744",
    "final_x": "3667163.60749",
    "final_y": "525408.409853",
    "longitude": "-90.11354508756749",
    "latitude": "29.939118292278273",
    "geocoded_column": {
      "latitude": "29.939118292278273",
      "longitude": "-90.11354508756749"
    }
  },
  {
    "service_request": "2024-1157743",
    "request_type": "Healthy Homes",
    "request_reason": "Healthy Homes",
    "date_created": "2024-12-28T08:39:37.000",
    "date_modified": "2024-12-28T08:39:38.000",
    "request_status": "Pending",
    "responsible_agency": "Department of Code Enforcement",
    "final_address": "13801 Chef Menteur Hwy Lot 40",
    "address_councildis": "E",
    "status": "Pending",
    "rowid": "1157743",
    "final_x": "3727772.06445",
    "final_y": "560903.66659",
    "longitude": "-89.92081829878148",
    "latitude": "30.03480308870698",
    "geocoded_column": {
      "latitude": "30.03480308870698",
      "longitude": "-89.92081829878148"
    }
  },
  {
    "service_request": "2024-1157742",
    "request_type": "Parks & Parkways",
    "request_reason": "Request Tree Service (Right of Way/Public Property)",
    "date_created": "2024-12-28T08:38:50.000",
    "date_modified": "2024-12-28T08:38:52.000",
    "request_status": "Pending",
    "responsible_agency": "Department of Parks & Parkway",
    "final_address": "928 Marengo St",
    "address_councildis": "B",
    "status": "Pending",
    "rowid": "1157742",
    "final_x": "3672082.69953",
    "final_y": "519146.668023",
    "longitude": "-90.0982279731485",
    "latitude": "29.921755613624708",
    "geocoded_column": {
      "latitude": "29.921755613624708",
      "longitude": "-90.0982279731485"
    }
  },
  {
    "service_request": "2024-1157741",
    "request_type": "Trash/Recycling",
    "request_reason": "Missed Trash Pick-Up",
    "date_created": "2024-12-28T08:32:04.000",
    "date_modified": "2024-12-28T10:19:21.000",
    "case_close_date": "2024-12-28T04:19:21.000",
    "request_status": "Closed",
    "responsible_agency": "Department of Sanitation",
    "final_address": "7411 Alabama St",
    "address_councildis": "D",
    "status": "Invalid Request",
    "contractor": "Waste Pro",
    "contractor_action": "Invalid Request",
    "rowid": "1157741",
    "final_x": "3695163.30339",
    "final_y": "557935.293915",
    "longitude": "-90.02397361505535",
    "latitude": "30.02770617096447",
    "geocoded_column": {
      "latitude": "30.02770617096447",
      "longitude": "-90.02397361505535"
    }
  },
  {
    "service_request": "2024-1157740",
    "request_type": "Trash/Recycling",
    "request_reason": "Order Second Trash Cart",
    "date_created": "2024-12-28T08:11:43.000",
    "date_modified": "2024-12-28T08:11:44.000",
    "request_status": "Pending",
    "responsible_agency": "Department of Sanitation",
    "final_address": "116 16Th St",
    "address_councildis": "A",
    "status": "Assigned to Contractor",
    "contractor": "IV Waste",
    "rowid": "1157740",
    "final_x": "3665957.69402",
    "final_y": "548337.25269",
    "longitude": "-90.11658362818703",
    "latitude": "30.002200232525087",
    "geocoded_column": {
      "latitude": "30.002200232525087",
      "longitude": "-90.11658362818703"
    }
  },
  {
    "service_request": "2024-1157739",
    "request_type": "Trash/Recycling",
    "request_reason": "Request a Large Item Pick Up",
    "date_created": "2024-12-28T08:05:23.000",
    "date_modified": "2024-12-28T08:05:24.000",
    "request_status": "Pending",
    "responsible_agency": "Department of Sanitation",
    "final_address": "4956 Painters St",
    "address_councildis": "D",
    "status": "Assigned to Contractor",
    "contractor": "IV Waste",
    "rowid": "1157739",
    "final_x": "3686061.26358",
    "final_y": "551388.691797",
    "longitude": "-90.05296648630976",
    "latitude": "30.00998827755513",
    "geocoded_column": {
      "latitude": "30.00998827755513",
      "longitude": "-90.05296648630976"
    }
  },
  {
    "service_request": "2024-1157738",
    "request_type": "Trash/Recycling",
    "request_reason": "Order Trash Cart",
    "date_created": "2024-12-28T08:03:00.000",
    "date_modified": "2024-12-28T08:03:01.000",
    "request_status": "Pending",
    "responsible_agency": "Department of Sanitation",
    "final_address": "2333 Chestnut St",
    "address_councildis": "B",
    "status": "Assigned to Contractor",
    "contractor": "IV Waste",
    "rowid": "1157738",
    "final_x": "3677845.11778",
    "final_y": "522270.903098",
    "longitude": "-90.07993059740824",
    "latitude": "29.930174195401687",
    "geocoded_column": {
      "latitude": "29.930174195401687",
      "longitude": "-90.07993059740824"
    }
  },
  {
    "service_request": "2024-1157737",
    "request_type": "Trash/Recycling",
    "request_reason": "Order Trash Cart",
    "date_created": "2024-12-28T07:57:20.000",
    "date_modified": "2024-12-28T07:57:21.000",
    "request_status": "Pending",
    "responsible_agency": "Department of Sanitation",
    "final_address": "2333 Chestnut St",
    "address_councildis": "B",
    "status": "Assigned to Contractor",
    "contractor": "IV Waste",
    "rowid": "1157737",
    "final_x": "3677845.11778",
    "final_y": "522270.903098",
    "longitude": "-90.07993059740824",
    "latitude": "29.930174195401687",
    "geocoded_column": {
      "latitude": "29.930174195401687",
      "longitude": "-90.07993059740824"
    }
  },
  {
    "service_request": "2024-1157736",
    "request_type": "Trash/Recycling",
    "request_reason": "Request a Large Item Pick Up",
    "date_created": "2024-12-28T07:48:25.000",
    "date_modified": "2024-12-28T14:50:38.000",
    "case_close_date": "2024-12-28T08:50:38.000",
    "request_status": "Closed",
    "responsible_agency": "Department of Sanitation",
    "final_address": "3710 Rue Nichole",
    "address_councildis": "C",
    "status": "Resolved",
    "contractor": "Richards Disposal",
    "contractor_action": "Completed",
    "rowid": "1157736",
    "final_x": "3704039.69956",
    "final_y": "516867.321781",
    "longitude": "-89.99743802954038",
    "latitude": "29.914502350349572",
    "geocoded_column": {
      "latitude": "29.914502350349572",
      "longitude": "-89.99743802954038"
    }
  },
  {
    "service_request": "2024-1157735",
    "request_type": "Christmas Tree Recycle Pick Up",
    "request_reason": "Christmas Tree Recycle Pick Up",
    "date_created": "2024-12-28T07:25:31.000",
    "date_modified": "2024-12-28T07:25:34.000",
    "request_status": "Pending",
    "responsible_agency": "Office of Resilience and Sustainability",
    "final_address": "8004 Hickory St",
    "address_councildis": "A",
    "status": "Pending",
    "contractor": "R&R Recycling",
    "rowid": "1157735",
    "final_x": "3663653.71898",
    "final_y": "529624.418945",
    "longitude": "-90.12448586018321",
    "latitude": "29.950813238133858",
    "geocoded_column": {
      "latitude": "29.950813238133858",
      "longitude": "-90.12448586018321"
    }
  },
  {
    "service_request": "2024-1157734",
    "request_type": "Christmas Tree Recycle Pick Up",
    "request_reason": "Christmas Tree Recycle Pick Up",
    "date_created": "2024-12-28T07:12:51.000",
    "date_modified": "2024-12-28T07:12:53.000",
    "request_status": "Pending",
    "responsible_agency": "Office of Resilience and Sustainability",
    "final_address": "5822 Patton St",
    "address_councildis": "A",
    "status": "Pending",
    "contractor": "R&R Recycling",
    "rowid": "1157734",
    "final_x": "3665132.2681",
    "final_y": "518361.396278",
    "longitude": "-90.12019385065521",
    "latitude": "29.919800535355538",
    "geocoded_column": {
      "latitude": "29.919800535355538",
      "longitude": "-90.12019385065521"
    }
  },
  {
    "service_request": "2024-1157733",
    "request_type": "Christmas Tree Recycle Pick Up",
    "request_reason": "Christmas Tree Recycle Pick Up",
    "date_created": "2024-12-28T07:12:02.000",
    "date_modified": "2024-12-28T07:12:05.000",
    "request_status": "Pending",
    "responsible_agency": "Office of Resilience and Sustainability",
    "final_address": "5822 Patton St",
    "address_councildis": "A",
    "status": "Pending",
    "contractor": "R&R Recycling",
    "rowid": "1157733",
    "final_x": "3665132.2681",
    "final_y": "518361.396278",
    "longitude": "-90.12019385065521",
    "latitude": "29.919800535355538",
    "geocoded_column": {
      "latitude": "29.919800535355538",
      "longitude": "-90.12019385065521"
    }
  },
  {
    "service_request": "2024-1157732",
    "request_type": "Streetlights",
    "request_reason": "Streetlight Outage/Malfunction",
    "date_created": "2024-12-28T03:48:12.000",
    "date_modified": "2024-12-28T03:48:13.000",
    "request_status": "Pending",
    "responsible_agency": "Department of Public Works",
    "final_address": "109 Lark St",
    "address_councildis": "D",
    "status": "Pending",
    "contractor": "Legacy Professional Services",
    "rowid": "1157732",
    "final_x": "3674864.29409",
    "final_y": "556196.748954",
    "longitude": "-90.08817677621316",
    "latitude": "30.023547979881883",
    "geocoded_column": {
      "latitude": "30.023547979881883",
      "longitude": "-90.08817677621316"
    }
  },
  {
    "service_request": "2024-1157730",
    "request_type": "Trash/Recycling",
    "request_reason": "Repair Recycling Cart",
    "date_created": "2024-12-27T22:00:28.000",
    "date_modified": "2024-12-27T22:00:55.000",
    "request_status": "Pending",
    "responsible_agency": "Department of Sanitation",
    "final_address": "3136 Robert St",
    "address_councildis": "B",
    "status": "Pending",
    "rowid": "1157730",
    "final_x": "3668874.005",
    "final_y": "526907.452222",
    "longitude": "-90.10809453166006",
    "latitude": "29.94318999791984",
    "geocoded_column": {
      "latitude": "29.94318999791984",
      "longitude": "-90.10809453166006"
    }
  },
  {
    "service_request": "2024-1157729",
    "request_type": "Abandoned Vehicles",
    "request_reason": "Abandoned/Junk Vehicles",
    "date_created": "2024-12-27T21:49:17.000",
    "date_modified": "2024-12-27T21:49:20.000",
    "request_status": "Pending",
    "responsible_agency": "Department of Public Works",
    "final_address": "4757 Lafon Dr",
    "address_councildis": "E",
    "status": "Pending",
    "rowid": "1157729",
    "final_x": "3701208.44292",
    "final_y": "554365.943448",
    "longitude": "-90.00500230137128",
    "latitude": "30.017700501558032",
    "geocoded_column": {
      "latitude": "30.017700501558032",
      "longitude": "-90.00500230137128"
    }
  },
  {
    "service_request": "2024-1157728",
    "request_type": "Parks & Parkways",
    "request_reason": "Park Maintenance/Clean Up",
    "date_created": "2024-12-27T21:29:50.000",
    "date_modified": "2024-12-27T21:29:50.000",
    "request_status": "Pending",
    "responsible_agency": "Department of Parks & Parkway",
    "final_address": "1800 BLK Saint Roch Ave",
    "address_councildis": "D",
    "status": "Pending",
    "rowid": "1157728",
    "final_x": "3686098.62252",
    "final_y": "539171.635683",
    "longitude": "-90.05327964745959",
    "latitude": "29.976394599523815",
    "geocoded_column": {
      "latitude": "29.976394599523815",
      "longitude": "-90.05327964745959"
    }
  },
  {
    "service_request": "2024-1157727",
    "request_type": "Abandoned Vehicles",
    "request_reason": "Vehicle Blocking Your Driveway",
    "date_created": "2024-12-27T21:03:00.000",
    "date_modified": "2024-12-27T21:03:02.000",
    "request_status": "Pending",
    "responsible_agency": "Department of Public Works",
    "final_address": "4017 Tchoupitoulas St",
    "address_councildis": "B",
    "status": "Pending",
    "rowid": "1157727",
    "final_x": "3672496.18222",
    "final_y": "517632.342966",
    "longitude": "-90.09697435929385",
    "latitude": "29.91757944031457",
    "geocoded_column": {
      "latitude": "29.91757944031457",
      "longitude": "-90.09697435929385"
    }
  },
  {
    "service_request": "2024-1157726",
    "request_type": "Trash/Recycling",
    "request_reason": "Request a Large Item Pick Up",
    "date_created": "2024-12-27T20:56:03.000",
    "date_modified": "2024-12-27T20:56:03.000",
    "request_status": "Pending",
    "responsible_agency": "Department of Sanitation",
    "final_address": "4715 Mark Twain Dr",
    "address_councildis": "D",
    "status": "Assigned to Contractor",
    "contractor": "IV Waste",
    "rowid": "1157726",
    "final_x": "3691475.63472",
    "final_y": "551308.107989",
    "longitude": "-90.03586345865129",
    "latitude": "30.00959923637887",
    "geocoded_column": {
      "latitude": "30.00959923637887",
      "longitude": "-90.03586345865129"
    }
  },
  {
    "service_request": "2024-1157725",
    "request_type": "Trash/Recycling",
    "request_reason": "Order Recycling Cart",
    "date_created": "2024-12-27T20:46:43.000",
    "date_modified": "2024-12-27T20:46:45.000",
    "request_status": "Pending",
    "responsible_agency": "Department of Sanitation",
    "final_address": "7632 St Charles Ave",
    "address_councildis": "A",
    "status": "Pending",
    "rowid": "1157725",
    "final_x": "3661649.63424",
    "final_y": "525763.041789",
    "longitude": "-90.13094171435098",
    "latitude": "29.94025366688152",
    "geocoded_column": {
      "latitude": "29.94025366688152",
      "longitude": "-90.13094171435098"
    }
  },
  {
    "service_request": "2024-1157724",
    "request_type": "Trash/Recycling",
    "request_reason": "Order Trash Cart",
    "date_created": "2024-12-27T20:45:49.000",
    "date_modified": "2024-12-27T20:45:50.000",
    "request_status": "Pending",
    "responsible_agency": "Department of Sanitation",
    "final_address": "7632 St Charles Ave",
    "address_councildis": "A",
    "status": "Assigned to Contractor",
    "contractor": "IV Waste",
    "rowid": "1157724",
    "final_x": "3661649.63424",
    "final_y": "525763.041789",
    "longitude": "-90.13094171435098",
    "latitude": "29.94025366688152",
    "geocoded_column": {
      "latitude": "29.94025366688152",
      "longitude": "-90.13094171435098"
    }
  },
  {
    "service_request": "2024-1157723",
    "request_type": "Trash/Recycling",
    "request_reason": "Missed Trash Pick-Up",
    "date_created": "2024-12-27T20:33:01.000",
    "date_modified": "2024-12-28T08:35:18.000",
    "case_close_date": "2024-12-28T02:35:18.000",
    "request_status": "Closed",
    "responsible_agency": "Department of Sanitation",
    "final_address": "2912 First St",
    "address_councildis": "B",
    "status": "Invalid Request",
    "contractor": "IV Waste",
    "contractor_action": "Invalid Request",
    "rowid": "1157723",
    "final_x": "3674302.05524",
    "final_y": "527122.234431",
    "longitude": "-90.09094943898104",
    "latitude": "29.94361986666851",
    "geocoded_column": {
      "latitude": "29.94361986666851",
      "longitude": "-90.09094943898104"
    }
  },
  {
    "service_request": "2024-1157722",
    "request_type": "Christmas Tree Recycle Pick Up",
    "request_reason": "Christmas Tree Recycle Pick Up",
    "date_created": "2024-12-27T20:07:10.000",
    "date_modified": "2024-12-27T20:07:13.000",
    "request_status": "Pending",
    "responsible_agency": "Office of Resilience and Sustainability",
    "final_address": "5363 Chatham Dr",
    "address_councildis": "D",
    "status": "Pending",
    "contractor": "R&R Recycling",
    "rowid": "1157722",
    "final_x": "3679876.55157",
    "final_y": "552102.404246",
    "longitude": "-90.07248143331583",
    "latitude": "30.01213930234652",
    "geocoded_column": {
      "latitude": "30.01213930234652",
      "longitude": "-90.07248143331583"
    }
  },
  {
    "service_request": "2024-1157721",
    "request_type": "Streetlights",
    "request_reason": "Streetlight Outage/Malfunction",
    "date_created": "2024-12-27T19:42:45.000",
    "date_modified": "2024-12-27T19:42:46.000",
    "request_status": "Pending",
    "responsible_agency": "Department of Public Works",
    "final_address": "2621 Gallinghouse St",
    "address_councildis": "C",
    "status": "Pending",
    "contractor": "Legacy Professional Services",
    "rowid": "1157721",
    "final_x": "3700042.54512",
    "final_y": "521414.947577",
    "longitude": "-90.00988855298257",
    "latitude": "29.92713429865846",
    "geocoded_column": {
      "latitude": "29.92713429865846",
      "longitude": "-90.00988855298257"
    }
  },
  {
    "service_request": "2024-1157720",
    "request_type": "Trash/Recycling",
    "request_reason": "Missed Trash Pick-Up",
    "date_created": "2024-12-27T18:25:30.000",
    "date_modified": "2024-12-28T08:34:49.000",
    "case_close_date": "2024-12-28T02:34:49.000",
    "request_status": "Closed",
    "responsible_agency": "Department of Sanitation",
    "final_address": "3915 N Rampart St",
    "address_councildis": "C",
    "status": "Invalid Request",
    "contractor": "IV Waste",
    "contractor_action": "Invalid Request",
    "rowid": "1157720",
    "final_x": "3691517.44156",
    "final_y": "534945.164038",
    "longitude": "-90.03631654446836",
    "latitude": "29.964605732364188",
    "geocoded_column": {
      "latitude": "29.964605732364188",
      "longitude": "-90.03631654446836"
    }
  },
  {
    "service_request": "2024-1157718",
    "request_type": "Trash/Recycling",
    "request_reason": "Missed Trash Pick-Up",
    "date_created": "2024-12-27T18:06:16.000",
    "date_modified": "2024-12-28T08:33:53.000",
    "case_close_date": "2024-12-28T02:33:53.000",
    "request_status": "Closed",
    "responsible_agency": "Department of Sanitation",
    "final_address": "425 Celeste St",
    "address_councildis": "B",
    "status": "Invalid Request",
    "contractor": "IV Waste",
    "contractor_action": "Invalid Request",
    "rowid": "1157718",
    "final_x": "3682253.27951",
    "final_y": "521476.733881",
    "longitude": "-90.06604248169063",
    "latitude": "29.927857167766927",
    "geocoded_column": {
      "latitude": "29.927857167766927",
      "longitude": "-90.06604248169063"
    }
  },
  {
    "service_request": "2024-1157717",
    "request_type": "Trash/Recycling",
    "request_reason": "Request a Large Item Pick Up",
    "date_created": "2024-12-27T17:46:11.000",
    "date_modified": "2024-12-27T17:46:12.000",
    "request_status": "Pending",
    "responsible_agency": "Department of Sanitation",
    "final_address": "232 S Solomon St",
    "address_councildis": "A",
    "status": "Assigned to Contractor",
    "contractor": "IV Waste",
    "rowid": "1157717",
    "final_x": "3670173.91796",
    "final_y": "538120.222601",
    "longitude": "-90.1036104381259",
    "latitude": "29.973983121494967",
    "geocoded_column": {
      "latitude": "29.973983121494967",
      "longitude": "-90.1036104381259"
    }
  },
  {
    "service_request": "2024-1157716",
    "request_type": "Christmas Tree Recycle Pick Up",
    "request_reason": "Christmas Tree Recycle Pick Up",
    "date_created": "2024-12-27T17:41:42.000",
    "date_modified": "2024-12-27T17:41:46.000",
    "request_status": "Pending",
    "responsible_agency": "Office of Resilience and Sustainability",
    "final_address": "1335 Bartholomew St",
    "address_councildis": "D",
    "status": "Pending",
    "contractor": "R&R Recycling",
    "rowid": "1157716",
    "final_x": "3692091.70921",
    "final_y": "536300.798727",
    "longitude": "-90.0344545280678",
    "latitude": "29.968315363969687",
    "geocoded_column": {
      "latitude": "29.968315363969687",
      "longitude": "-90.0344545280678"
    }
  },
  {
    "service_request": "2024-1157715",
    "request_type": "Trash/Recycling",
    "request_reason": "Replace Trash Cart",
    "date_created": "2024-12-27T17:27:48.000",
    "date_modified": "2024-12-27T17:27:49.000",
    "request_status": "Pending",
    "responsible_agency": "Department of Sanitation",
    "final_address": "4826 Charmes Ct",
    "address_councildis": "E",
    "status": "Assigned to Contractor",
    "contractor": "Waste Pro",
    "rowid": "1157715",
    "final_x": "3726296.32582",
    "final_y": "561319.723422",
    "longitude": "-89.92546563102039",
    "latitude": "30.035997011760063",
    "geocoded_column": {
      "latitude": "30.035997011760063",
      "longitude": "-89.92546563102039"
    }
  },
  {
    "service_request": "2024-1157714",
    "request_type": "Trash/Recycling",
    "request_reason": "Missed Trash Pick-Up",
    "date_created": "2024-12-27T17:21:48.000",
    "date_modified": "2024-12-28T08:32:10.000",
    "case_close_date": "2024-12-28T02:32:10.000",
    "request_status": "Closed",
    "responsible_agency": "Department of Sanitation",
    "final_address": "Dauphine",
    "address_councildis": "C",
    "status": "Invalid Request",
    "contractor": "IV Waste",
    "contractor_action": "Invalid Request",
    "rowid": "1157714",
    "final_x": "3690754.43651",
    "final_y": "534394.943941",
    "longitude": "-90.03874568221688",
    "latitude": "29.96311654571101",
    "geocoded_column": {
      "latitude": "29.96311654571101",
      "longitude": "-90.03874568221688"
    }
  },
  {
    "service_request": "2024-1157713",
    "request_type": "Trash/Recycling",
    "request_reason": "Replace Recycling Cart",
    "date_created": "2024-12-27T17:07:11.000",
    "date_modified": "2024-12-27T17:07:14.000",
    "request_status": "Pending",
    "responsible_agency": "Department of Sanitation",
    "final_address": "1320 Pine St",
    "address_councildis": "A",
    "status": "Pending",
    "rowid": "1157713",
    "final_x": "3664203.03572",
    "final_y": "527158.129471",
    "longitude": "-90.12283365670754",
    "latitude": "29.944015789482417",
    "geocoded_column": {
      "latitude": "29.944015789482417",
      "longitude": "-90.12283365670754"
    }
  },
  {
    "service_request": "2024-1157712",
    "request_type": "Trash/Recycling",
    "request_reason": "Replace Trash Cart",
    "date_created": "2024-12-27T17:04:40.000",
    "date_modified": "2024-12-27T17:04:41.000",
    "request_status": "Pending",
    "responsible_agency": "Department of Sanitation",
    "final_address": "2562 St Nick Dr",
    "address_councildis": "C",
    "status": "Assigned to Contractor",
    "contractor": "Richards Disposal",
    "rowid": "1157712",
    "final_x": "3699405.23216",
    "final_y": "521612.623993",
    "longitude": "-90.01189317704053",
    "latitude": "29.92769806561524",
    "geocoded_column": {
      "latitude": "29.92769806561524",
      "longitude": "-90.01189317704053"
    }
  },
  {
    "service_request": "2024-1157711",
    "request_type": "Trash/Recycling",
    "request_reason": "Request a Large Item Pick Up",
    "date_created": "2024-12-27T16:53:56.000",
    "date_modified": "2024-12-27T16:53:56.000",
    "request_status": "Pending",
    "responsible_agency": "Department of Sanitation",
    "final_address": "7569 Avalon Way",
    "address_councildis": "E",
    "status": "Assigned to Contractor",
    "contractor": "Waste Pro",
    "rowid": "1157711",
    "final_x": "3709173.9155",
    "final_y": "564402.016289",
    "longitude": "-89.97946008676786",
    "latitude": "30.04503943378443",
    "geocoded_column": {
      "latitude": "30.04503943378443",
      "longitude": "-89.97946008676786"
    }
  },
  {
    "service_request": "2024-1157710",
    "request_type": "Abandoned Vehicles",
    "request_reason": "Abandoned/Junk Vehicles",
    "date_created": "2024-12-27T16:51:39.000",
    "date_modified": "2024-12-27T16:51:40.000",
    "request_status": "Pending",
    "responsible_agency": "Department of Public Works",
    "final_address": "1707 Esplanade Ave",
    "address_councildis": "D",
    "status": "Pending",
    "rowid": "1157710",
    "final_x": "3680945.21794",
    "final_y": "536924.167048",
    "longitude": "-90.0696339263307",
    "latitude": "29.97037212949588",
    "geocoded_column": {
      "latitude": "29.97037212949588",
      "longitude": "-90.0696339263307"
    }
  },
  {
    "service_request": "2024-1157709",
    "request_type": "Trash/Recycling",
    "request_reason": "Repair Trash Cart",
    "date_created": "2024-12-27T16:48:29.000",
    "date_modified": "2024-12-27T16:48:30.000",
    "request_status": "Pending",
    "responsible_agency": "Department of Sanitation",
    "final_address": "3630 Post Oak Ave",
    "address_councildis": "C",
    "status": "Assigned to Contractor",
    "contractor": "Richards Disposal",
    "rowid": "1157709",
    "final_x": "3703844.70327",
    "final_y": "514565.973043",
    "longitude": "-89.99813814211103",
    "latitude": "29.908180678449146",
    "geocoded_column": {
      "latitude": "29.908180678449146",
      "longitude": "-89.99813814211103"
    }
  },
  {
    "service_request": "2024-1157708",
    "request_type": "Trash/Recycling",
    "request_reason": "Order Trash Cart",
    "date_created": "2024-12-27T16:47:22.000",
    "date_modified": "2024-12-27T16:47:22.000",
    "request_status": "Pending",
    "responsible_agency": "Department of Sanitation",
    "final_address": "4965 Debore Cir",
    "address_councildis": "D",
    "status": "Assigned to Contractor",
    "contractor": "IV Waste",
    "rowid": "1157708",
    "final_x": "3692391.42934",
    "final_y": "552660.392854",
    "longitude": "-90.03292166549808",
    "latitude": "30.013288972911898",
    "geocoded_column": {
      "latitude": "30.013288972911898",
      "longitude": "-90.03292166549808"
    }
  },
  {
    "service_request": "2024-1157707",
    "request_type": "Trash/Recycling",
    "request_reason": "Request a Large Item Pick Up",
    "date_created": "2024-12-27T16:45:43.000",
    "date_modified": "2024-12-27T16:45:44.000",
    "request_status": "Pending",
    "responsible_agency": "Department of Sanitation",
    "final_address": "816 Pacific Ave",
    "address_councildis": "C",
    "status": "Assigned to Contractor",
    "contractor": "Richards Disposal",
    "rowid": "1157707",
    "final_x": "3688501.95631",
    "final_y": "528563.189952",
    "longitude": "-90.04606561655838",
    "latitude": "29.94715101685783",
    "geocoded_column": {
      "latitude": "29.94715101685783",
      "longitude": "-90.04606561655838"
    }
  },
  {
    "service_request": "2024-1157706",
    "request_type": "Trash/Recycling",
    "request_reason": "Request a Large Item Pick Up",
    "date_created": "2024-12-27T16:44:23.000",
    "date_modified": "2024-12-27T16:44:24.000",
    "request_status": "Pending",
    "responsible_agency": "Department of Sanitation",
    "final_address": "7541 Morel St",
    "address_councildis": "E",
    "status": "Assigned to Contractor",
    "contractor": "Waste Pro",
    "rowid": "1157706",
    "final_x": "3719149.11903",
    "final_y": "571603.356904",
    "longitude": "-89.94765886612052",
    "latitude": "30.064512287519054",
    "geocoded_column": {
      "latitude": "30.064512287519054",
      "longitude": "-89.94765886612052"
    }
  },
  {
    "service_request": "2024-1157705",
    "request_type": "Trash/Recycling",
    "request_reason": "Missed Trash Pick-Up",
    "date_created": "2024-12-27T16:42:56.000",
    "date_modified": "2024-12-27T16:48:41.000",
    "case_close_date": "2024-12-27T10:48:41.000",
    "request_status": "Closed",
    "responsible_agency": "Department of Sanitation",
    "final_address": "2482 Royal St",
    "address_councildis": "C",
    "status": "Invalid Request",
    "contractor": "IV Waste",
    "contractor_action": "Invalid Request",
    "rowid": "1157705",
    "final_x": "3686582.82998",
    "final_y": "534956.381638",
    "longitude": "-90.05189926220055",
    "latitude": "29.964789240670054",
    "geocoded_column": {
      "latitude": "29.964789240670054",
      "longitude": "-90.05189926220055"
    }
  },
  {
    "service_request": "2024-1157704",
    "request_type": "Trash/Recycling",
    "request_reason": "Repair Trash Cart",
    "date_created": "2024-12-27T16:39:46.000",
    "date_modified": "2024-12-27T16:39:47.000",
    "request_status": "Pending",
    "responsible_agency": "Department of Sanitation",
    "final_address": "5322 Danneel St",
    "address_councildis": "B",
    "status": "Assigned to Contractor",
    "contractor": "IV Waste",
    "rowid": "1157704",
    "final_x": "3667783.79405",
    "final_y": "522161.915834",
    "longitude": "-90.1116963522922",
    "latitude": "29.930173304390767",
    "geocoded_column": {
      "latitude": "29.930173304390767",
      "longitude": "-90.1116963522922"
    }
  },
  {
    "service_request": "2024-1157703",
    "request_type": "Trash/Recycling",
    "request_reason": "Request a Large Item Pick Up",
    "date_created": "2024-12-27T16:28:36.000",
    "date_modified": "2024-12-28T14:51:02.000",
    "case_close_date": "2024-12-28T08:51:02.000",
    "request_status": "Closed",
    "responsible_agency": "Department of Sanitation",
    "final_address": "5627 Oxford Pl",
    "address_councildis": "C",
    "status": "Resolved",
    "contractor": "Richards Disposal",
    "contractor_action": "Completed",
    "rowid": "1157703",
    "final_x": "3704379.04727",
    "final_y": "520037.140344",
    "longitude": "-89.99625019145219",
    "latitude": "29.92320737393539",
    "geocoded_column": {
      "latitude": "29.92320737393539",
      "longitude": "-89.99625019145219"
    }
  },
  {
    "service_request": "2024-1157702",
    "request_type": "Trash/Recycling",
    "request_reason": "Request a Large Item Pick Up",
    "date_created": "2024-12-27T16:27:07.000",
    "date_modified": "2024-12-27T16:27:07.000",
    "request_status": "Pending",
    "responsible_agency": "Department of Sanitation",
    "final_address": "2515 Banks St",
    "address_councildis": "B",
    "status": "Assigned to Contractor",
    "contractor": "IV Waste",
    "rowid": "1157702",
    "final_x": "3675334.74779",
    "final_y": "533687.012293",
    "longitude": "-90.0874635906162",
    "latitude": "29.961639992040475",
    "geocoded_column": {
      "latitude": "29.961639992040475",
      "longitude": "-90.0874635906162"
    }
  },
  {
    "service_request": "2024-1157701",
    "request_type": "Trash/Recycling",
    "request_reason": "Order Recycling Cart",
    "date_created": "2024-12-27T16:26:38.000",
    "date_modified": "2024-12-27T16:26:50.000",
    "request_status": "Pending",
    "responsible_agency": "Department of Sanitation",
    "final_address": "6640 Coventry St",
    "address_councildis": "E",
    "status": "Pending",
    "rowid": "1157701",
    "final_x": "3697854.03735",
    "final_y": "559265.007644",
    "longitude": "-90.01542281532146",
    "latitude": "30.03127755562812",
    "geocoded_column": {
      "latitude": "30.03127755562812",
      "longitude": "-90.01542281532146"
    }
  },