[
  {
    "service_request": "2021-834099",
    "request_type": "Parks & Parkways",
    "request_reason": "Request Grass Cutting Service (City Owned Property)",
    "date_created": "2021-10-18T01:41:08.000",
    "date_modified": "2021-10-18T01:41:08.000",
    "request_status": "Pending",
    "responsible_agency": "Department of Parks & Parkway",
    "final_address": "5910 Alfred St 70122",
    "status": "Pending",
    "rowid": "834099",
    "longitude": "0.0",
    "latitude": "0.0",
    "geocoded_column": {
      "latitude": "0.0",
      "longitude": "0.0"
    }
  },
  {
    "service_request": "2021-834096",
    "request_type": "Abandoned Vehicles",
    "request_reason": "Abandoned/Junk Vehicles",
    "date_created": "2021-10-17T23:37:57.000",
    "date_modified": "2021-10-17T23:37:57.000",
    "request_status": "Pending",
    "responsible_agency": "Department of Public Works",
    "final_address": "1000 BLK Sister St",
    "address_councildis": "E",
    "status": "Pending",
    "rowid": "834096",
    "final_x": "3694596.93557",
    "final_y": "534372.85952",
    "longitude": "-90.02661238014336",
    "latitude": "29.96293589074982",
    "geocoded_column": {
      "latitude": "29.96293589074982",
      "longitude": "-90.02661238014336"
    }
  },
  {
    "service_request": "2021-834095",
    "request_type": "COVID-19",
    "request_reason": "COVID-19 Business Non-Compliance",
    "date_created": "2021-10-17T23:23:29.000",
    "date_modified": "2021-10-17T23:23:30.000",
    "request_status": "Pending",
    "responsible_agency": "Safety and Permits",
    "final_address": "3051 Gentilly Blvd",
    "address_councildis": "D",
    "status": "Pending",
    "rowid": "834095",
    "final_x": "3683536.25756",
    "final_y": "547090.945297",
    "longitude": "-90.06109465126164",
    "latitude": "29.998248361838026",
    "geocoded_column": {
      "latitude": "29.998248361838026",
      "longitude": "-90.06109465126164"
    }
  },
  {
    "service_request": "2021-834094",
    "request_type": "Roads/Drainage",
    "request_reason": "Street Flooding / Drainage",
    "date_created": "2021-10-17T22:18:48.000",
    "date_modified": "2021-10-17T22:18:48.000",
    "request_status": "Pending",
    "responsible_agency": "Department of Public Works",
    "final_address": "7102 Birch St",
    "address_councildis": "A",
    "status": "Pending",
    "rowid": "834094",
    "final_x": "3665108.40685",
    "final_y": "527506.042303",
    "longitude": "-90.11996350560108",
    "latitude": "29.944946107347715",
    "geocoded_column": {
      "latitude": "29.944946107347715",
      "longitude": "-90.11996350560108"
    }
  },
  {
    "service_request": "2021-834093",
    "request_type": "Trash/Recycling",
    "request_reason": "Request a Large Item Pick Up",
    "date_created": "2021-10-17T21:56:53.000",
    "date_modified": "2021-10-17T21:56:54.000",
    "request_status": "Pending",
    "responsible_agency": "Department of Sanitation",
    "final_address": "38 Vivian Ct",
    "address_councildis": "C",
    "status": "Assigned to Contractor",
    "contractor": "Richards Disposal",
    "rowid": "834093",
    "final_x": "3702168.44266",
    "final_y": "521008.574969",
    "longitude": "-90.00319258063631",
    "latitude": "29.925949227839972",
    "geocoded_column": {
      "latitude": "29.925949227839972",
      "longitude": "-90.00319258063631"
    }
  },
  {
    "service_request": "2021-834091",
    "request_type": "EMS",
    "request_reason": "EMS Lost & Found",
    "date_created": "2021-10-17T21:36:32.000",
    "date_modified": "2021-10-17T22:03:49.000",
    "request_status": "Pending",
    "responsible_agency": "Emergency Medical Services",
    "final_address": "New Orleans,LA",
    "status": "Pending",
    "rowid": "834091",
    "longitude": "0.0",
    "latitude": "0.0",
    "geocoded_column": {
      "latitude": "0.0",
      "longitude": "0.0"
    }
  },
  {
    "service_request": "2021-834090",
    "request_type": "Roads/Drainage",
    "request_reason": "Debris in Roadway",
    "date_created": "2021-10-17T21:32:23.000",
    "date_modified": "2021-10-17T21:32:23.000",
    "request_status": "Pending",
    "responsible_agency": "Department of Public Works",
    "final_address": "4033 Franklin Ave",
    "address_councildis": "D",
    "status": "Pending",
    "rowid": "834090",
    "final_x": "3687078.53417",
    "final_y": "547852.68757",
    "longitude": "-90.04987769702149",
    "latitude": "30.00023425801293",
    "geocoded_column": {
      "latitude": "30.00023425801293",
      "longitude": "-90.04987769702149"
    }
  },
  {
    "service_request": "2021-834089",
    "request_type": "Abandoned Vehicles",
    "request_reason": "Abandoned/Junk Vehicles",
    "date_created": "2021-10-17T21:30:18.000",
    "date_modified": "2021-10-17T21:30:18.000",
    "request_status": "Pending",
    "responsible_agency": "Department of Public Works",
    "final_address": "7811 Jahncke Rd",
    "address_councildis": "E",
    "status": "Pending",
    "rowid": "834089",
    "final_x": "3713797.22808",
    "final_y": "568890.530533",
    "longitude": "-89.96467893684061",
    "latitude": "30.057230004159035",
    "geocoded_column": {
      "latitude": "30.057230004159035",
      "longitude": "-89.96467893684061"
    }
  },
  {
    "service_request": "2021-834088",
    "request_type": "Trash/Recycling",
    "request_reason": "Order Recycling Cart",
    "date_created": "2021-10-17T21:17:25.000",
    "date_modified": "2021-10-17T21:17:25.000",
    "request_status": "Pending",
    "responsible_agency": "Department of Sanitation",
    "final_address": "2660 Prentiss Ave",
    "address_councildis": "D",
    "status": "Pending",
    "rowid": "834088",
    "final_x": "3687099.84994",
    "final_y": "553955.401688",
    "longitude": "-90.04959436999356",
    "latitude": "30.017013835612676",
    "geocoded_column": {
      "latitude": "30.017013835612676",
      "longitude": "-90.04959436999356"
    }
  },
  {
    "service_request": "2021-834087",
    "request_type": "Property Maintenance",
    "request_reason": "Property Maintenance",
    "date_created": "2021-10-17T21:17:10.000",
    "date_modified": "2021-10-17T21:17:10.000",
    "request_status": "Pending",
    "responsible_agency": "Department of Code Enforcement",
    "final_address": "3914 Camp St",
    "address_councildis": "B",
    "status": "Pending",
    "rowid": "834087",
    "final_x": "3672887.95169",
    "final_y": "519291.163319",
    "longitude": "-90.09568120479007",
    "latitude": "29.9221290381954",
    "geocoded_column": {
      "latitude": "29.9221290381954",
      "longitude": "-90.09568120479007"
    }
  },
  {
    "service_request": "2021-834086",
    "request_type": "Trash/Recycling",
    "request_reason": "Order Trash Cart",
    "date_created": "2021-10-17T21:16:09.000",
    "date_modified": "2021-10-17T21:16:10.000",
    "request_status": "Pending",
    "responsible_agency": "Department of Sanitation",
    "final_address": "2660 Prentiss Ave",
    "address_councildis": "D",
    "status": "Assigned to Contractor",
    "contractor": "Metro Disposal",
    "rowid": "834086",
    "final_x": "3687099.84994",
    "final_y": "553955.401688",
    "longitude": "-90.04959436999356",
    "latitude": "30.017013835612676",
    "geocoded_column": {
      "latitude": "30.017013835612676",
      "longitude": "-90.04959436999356"
    }
  },
  {
    "service_request": "2021-834085",
    "request_type": "Traffic Signals/Signs/Striping/Streetlights",
    "request_reason": "Street Light Outage/Malfunction",
    "date_created": "2021-10-17T20:39:53.000",
    "date_modified": "2021-10-17T20:39:54.000",
    "request_status": "Pending",
    "responsible_agency": "Department of Public Works",
    "final_address": "1699 Robert St",
    "address_councildis": "B",
    "status": "Pending",
    "contractor": "Royal Engineering",
    "rowid": "834085",
    "final_x": "3668829.83482",
    "final_y": "521732.440826",
    "longitude": "-90.10840865348068",
    "latitude": "29.928961678315876",
    "geocoded_column": {
      "latitude": "29.928961678315876",
      "longitude": "-90.10840865348068"
    }
  },
  {
    "service_request": "2021-834084",
    "request_type": "Traffic Signals/Signs/Striping/Streetlights",
    "request_reason": "Street Light Outage/Malfunction",
    "date_created": "2021-10-17T20:35:02.000",
    "date_modified": "2021-10-17T20:35:03.000",
    "request_status": "Pending",
    "responsible_agency": "Department of Public Works",
    "final_address": "1699 Robert St",
    "address_councildis": "B",
    "status": "Pending",
    "contractor": "Royal Engineering",
    "rowid": "834084",
    "final_x": "3668829.83482",
    "final_y": "521732.440826",
    "longitude": "-90.10840865348068",
    "latitude": "29.928961678315876",
    "geocoded_column": {
      "latitude": "29.928961678315876",
      "longitude": "-90.10840865348068"
    }
  },
  {
    "service_request": "2021-834083",
    "request_type": "Property Maintenance",
    "request_reason": "Property Maintenance",
    "date_created": "2021-10-17T20:17:03.000",
    "date_modified": "2021-10-17T20:17:03.000",
    "request_status": "Pending",
    "responsible_agency": "Department of Code Enforcement",
    "final_address": "3443 Esplanade Ave",
    "address_councildis": "A",
    "status": "Pending",
    "rowid": "834083",
    "final_x": "3674954.47605",
    "final_y": "541610.733708",
    "longitude": "-90.08839256856447",
    "latitude": "29.98343889283848",
    "geocoded_column": {
      "latitude": "29.98343889283848",
      "longitude": "-90.08839256856447"
    }
  },
  {
    "service_request": "2021-834082",
    "request_type": "Trash/Recycling",
    "request_reason": "Missed Trash Pick-Up",
    "date_created": "2021-10-17T20:03:29.000",
    "date_modified": "2021-10-17T20:03:30.000",
    "request_status": "Pending",
    "responsible_agency": "Department of Sanitation",
    "final_address": "5209 Basinview Dr",
    "address_councildis": "E",
    "status": "Assigned to Contractor",
    "contractor": "Metro Disposal",
    "rowid": "834082",
    "final_x": "3698861.94788",
    "final_y": "556687.418458",
    "longitude": "-90.01233170168531",
    "latitude": "30.024158260635968",
    "geocoded_column": {
      "latitude": "30.024158260635968",
      "longitude": "-90.01233170168531"
    }
  },
  {
    "service_request": "2021-834081",
    "request_type": "Traffic Signals/Signs/Striping/Streetlights",
    "request_reason": "Street Light Outage/Malfunction",
    "date_created": "2021-10-17T19:56:02.000",
    "date_modified": "2021-10-17T19:56:02.000",
    "request_status": "Pending",
    "responsible_agency": "Department of Public Works",
    "final_address": "5922 Chestnut St",
    "address_councildis": "A",
    "status": "Pending",
    "contractor": "Royal Engineering",
    "rowid": "834081",
    "final_x": "3665170.35642",
    "final_y": "519679.62956",
    "longitude": "-90.12002956385183",
    "latitude": "29.923424155133716",
    "geocoded_column": {
      "latitude": "29.923424155133716",
      "longitude": "-90.12002956385183"
    }
  },
  {
    "service_request": "2021-834080",
    "request_type": "Health Related Questions",
    "request_reason": "Noise Ordinance Complaint",
    "date_created": "2021-10-17T19:54:28.000",
    "date_modified": "2021-10-17T19:54:28.000",
    "request_status": "Pending",
    "responsible_agency": "Health Department",
    "final_address": "1500 N Claiborne Ave",
    "address_councildis": "C",
    "status": "Pending",
    "rowid": "834080",
    "final_x": "3681846.67516",
    "final_y": "537148.826504",
    "longitude": "-90.0667791844965",
    "latitude": "29.970962498120493",
    "geocoded_column": {
      "latitude": "29.970962498120493",
      "longitude": "-90.0667791844965"
    }
  },
  {
    "service_request": "2021-834079",
    "request_type": "Trash/Recycling",
    "request_reason": "Illegal Dumping",
    "date_created": "2021-10-17T19:49:50.000",
    "date_modified": "2021-10-17T19:53:10.000",
    "request_status": "Pending",
    "responsible_agency": "Department of Code Enforcement",
    "final_address": "E ROCKTON CIR & READ BLVD",
    "address_councildis": "E",
    "status": "Pending",
    "rowid": "834079",
    "final_x": "3709247.1",
    "final_y": "563160.18",
    "longitude": "-89.97927517089094",
    "latitude": "30.041622502954244",
    "geocoded_column": {
      "latitude": "30.041622502954244",
      "longitude": "-89.97927517089094"
    }
  },
  {
    "service_request": "2021-834078",
    "request_type": "EMS",
    "request_reason": "EMS Lost & Found",
    "date_created": "2021-10-17T19:43:17.000",
    "date_modified": "2021-10-17T21:31:25.000",
    "request_status": "Pending",
    "responsible_agency": "Emergency Medical Services",
    "final_address": "New Orleans,LA",
    "rowid": "834078",
    "longitude": "0.0",
    "latitude": "0.0",
    "geocoded_column": {
      "latitude": "0.0",
      "longitude": "0.0"
    }
  },
  {
    "service_request": "2021-834077",
    "request_type": "Trash/Recycling",
    "request_reason": "Illegal Dumping",
    "date_created": "2021-10-17T19:39:29.000",
    "date_modified": "2021-10-17T19:39:29.000",
    "request_status": "Pending",
    "responsible_agency": "Department of Sanitation",
    "final_address": "1290 Milton St",
    "address_councildis": "D",
    "status": "Pending",
    "rowid": "834077",
    "final_x": "3677337.40104",
    "final_y": "545994.047056",
    "longitude": "-90.08071468822949",
    "latitude": "29.99542007018867",
    "geocoded_column": {
      "latitude": "29.99542007018867",
      "longitude": "-90.08071468822949"
    }
  },
  {
    "service_request": "2021-834073",
    "request_type": "Trash/Recycling",
    "request_reason": "Start Trash Service",
    "date_created": "2021-10-17T19:03:26.000",
    "date_modified": "2021-10-17T19:03:27.000",
    "request_status": "Pending",
    "responsible_agency": "Department of Sanitation",
    "final_address": "1825 Murl St",
    "address_councildis": "C",
    "status": "Assigned to Contractor",
    "contractor": "Richards Disposal",
    "rowid": "834073",
    "final_x": "3695298.31779",
    "final_y": "524518.456828",
    "longitude": "-90.02475289988543",
    "latitude": "29.93581770576821",
    "geocoded_column": {
      "latitude": "29.93581770576821",
      "longitude": "-90.02475289988543"
    }
  },
  {
    "service_request": "2021-834072",
    "request_type": "Trash/Recycling",
    "request_reason": "Start Trash Service",
    "date_created": "2021-10-17T19:01:48.000",
    "date_modified": "2021-10-17T19:01:49.000",
    "request_status": "Pending",
    "responsible_agency": "Department of Sanitation",
    "final_address": "1823 Murl St",
    "address_councildis": "C",
    "status": "Assigned to Contractor",
    "contractor": "Richards Disposal",
    "rowid": "834072",
    "final_x": "3695298.31818",
    "final_y": "524542.925244",
    "longitude": "-90.02475201647124",
    "latitude": "29.93588498549612",
    "geocoded_column": {
      "latitude": "29.93588498549612",
      "longitude": "-90.02475201647124"
    }
  },
  {
    "service_request": "2021-834071",
    "request_type": "Trash/Recycling",
    "request_reason": "Order Trash Cart",
    "date_created": "2021-10-17T18:26:27.000",
    "date_modified": "2021-10-17T18:26:28.000",
    "request_status": "Pending",
    "responsible_agency": "Department of Sanitation",
    "final_address": "3 Muirfield Pl",
    "address_councildis": "C",
    "status": "Assigned to Contractor",
    "contractor": "Richards Disposal",
    "rowid": "834071",
    "final_x": "3719859.2853",
    "final_y": "514241.704883",
    "longitude": "-89.94760685090714",
    "latitude": "29.906766226596783",
    "geocoded_column": {
      "latitude": "29.906766226596783",
      "longitude": "-89.94760685090714"
    }
  },
  {
    "service_request": "2021-834069",
    "request_type": "Abandoned Vehicles",
    "request_reason": "Abandoned/Junk Vehicles",
    "date_created": "2021-10-17T17:51:28.000",
    "date_modified": "2021-10-17T17:51:28.000",
    "request_status": "Pending",
    "responsible_agency": "Department of Public Works",
    "final_address": "2112 Second St",
    "address_councildis": "B",
    "status": "Pending",
    "rowid": "834069",
    "final_x": "3675618.02453",
    "final_y": "524619.163644",
    "longitude": "-90.08688053956797",
    "latitude": "29.93669794487822",
    "geocoded_column": {
      "latitude": "29.93669794487822",
      "longitude": "-90.08688053956797"
    }
  },
  {
    "service_request": "2021-834068",
    "request_type": "Abandoned Vehicles",
    "request_reason": "Abandoned/Junk Vehicles",
    "date_created": "2021-10-17T17:48:56.000",
    "date_modified": "2021-10-17T17:48:56.000",
    "request_status": "Pending",
    "responsible_agency": "Department of Public Works",
    "final_address": "2112 Second St",
    "address_councildis": "B",
    "status": "Pending",
    "rowid": "834068",
    "final_x": "3675618.02453",
    "final_y": "524619.163644",
    "longitude": "-90.08688053956797",
    "latitude": "29.93669794487822",
    "geocoded_column": {
      "latitude": "29.93669794487822",
      "longitude": "-90.08688053956797"
    }
  },
  {
    "service_request": "2021-834067",
    "request_type": "Trash/Recycling",
    "request_reason": "Request a Large Item Pick Up",
    "date_created": "2021-10-17T17:43:35.000",
    "date_modified": "2021-10-17T17:43:36.000",
    "request_status": "Pending",
    "responsible_agency": "Department of Sanitation",
    "final_address": "8010 Lake Forest Blvd",
    "address_councildis": "E",
    "status": "Assigned to Contractor",
    "contractor": "Metro Disposal",
    "rowid": "834067",
    "final_x": "3704131.99063",
    "final_y": "557022.483418",
    "longitude": "-89.99566711680734",
    "latitude": "30.024911448634597",
    "geocoded_column": {
      "latitude": "30.024911448634597",
      "longitude": "-89.99566711680734"
    }
  },
  {
    "service_request": "2021-834066",
    "request_type": "Abandoned Vehicles",
    "request_reason": "Abandoned/Junk Vehicles",
    "date_created": "2021-10-17T17:42:22.000",
    "date_modified": "2021-10-17T17:42:22.000",
    "request_status": "Pending",
    "responsible_agency": "Department of Public Works",
    "final_address": "2114 Second St",
    "address_councildis": "B",
    "status": "Pending",
    "rowid": "834066",
    "final_x": "3675609.20443",
    "final_y": "524633.27654",
    "longitude": "-90.08690790039049",
    "latitude": "29.936737014541237",
    "geocoded_column": {
      "latitude": "29.936737014541237",
      "longitude": "-90.08690790039049"
    }
  },
  {
    "service_request": "2021-834065",
    "request_type": "Traffic Signals/Signs/Striping/Streetlights",
    "request_reason": "Traffic Sign Missing/Damaged",
    "date_created": "2021-10-17T17:39:35.000",
    "date_modified": "2021-10-17T17:39:35.000",
    "request_status": "Pending",
    "responsible_agency": "Department of Public Works",
    "final_address": "1001 Marigny St",
    "address_councildis": "C",
    "status": "Pending",
    "rowid": "834065",
    "final_x": "3685478.07618",
    "final_y": "536015.155975",
    "longitude": "-90.05535070383321",
    "latitude": "29.96773442848644",
    "geocoded_column": {
      "latitude": "29.96773442848644",
      "longitude": "-90.05535070383321"
    }
  },
  {
    "service_request": "2021-834064",
    "request_type": "Trash/Recycling",
    "request_reason": "Request a Large Item Pick Up",
    "date_created": "2021-10-17T17:34:44.000",
    "date_modified": "2021-10-17T21:36:24.000",
    "request_status": "Pending",
    "responsible_agency": "Department of Sanitation",
    "final_address": "2446 Pressburg St, New Orleans, Louisiana, 70122",
    "address_councildis": "D",
    "status": "Assigned to Contractor",
    "contractor": "Metro Disposal",
    "rowid": "834064",
    "final_x": "3685482.49014",
    "final_y": "554702.688216",
    "longitude": "-90.05467820224389",
    "latitude": "30.01911832286013",
    "geocoded_column": {
      "latitude": "30.01911832286013",
      "longitude": "-90.05467820224389"
    }
  },
  {
    "service_request": "2021-834063",
    "request_type": "Trash/Recycling",
    "request_reason": "Request a Large Item Pick Up",
    "date_created": "2021-10-17T17:31:29.000",
    "date_modified": "2021-10-17T17:31:30.000",
    "request_status": "Pending",
    "responsible_agency": "Department of Sanitation",
    "final_address": "2016 Cadiz St",
    "address_councildis": "B",
    "status": "Assigned to Contractor",
    "contractor": "Richards Disposal",
    "rowid": "834063",
    "final_x": "3669901.1579",
    "final_y": "522368.459898",
    "longitude": "-90.10500516752893",
    "latitude": "29.930678992747403",
    "geocoded_column": {
      "latitude": "29.930678992747403",
      "longitude": "-90.10500516752893"
    }
  },
  {
    "service_request": "2021-834062",
    "request_type": "Traffic Signals/Signs/Striping/Streetlights",
    "request_reason": "Traffic Sign Missing/Damaged",
    "date_created": "2021-10-17T17:12:07.000",
    "date_modified": "2021-10-17T17:12:07.000",
    "request_status": "Pending",
    "responsible_agency": "Department of Public Works",
    "final_address": "400 Marigny St",
    "address_councildis": "C",
    "status": "Pending",
    "rowid": "834062",
    "final_x": "3685581.62543",
    "final_y": "533927.590725",
    "longitude": "-90.05509723632706",
    "latitude": "29.961991170634104",
    "geocoded_column": {
      "latitude": "29.961991170634104",
      "longitude": "-90.05509723632706"
    }
  },
  {
    "service_request": "2021-834061",
    "request_type": "Trash/Recycling",
    "request_reason": "Replace Trash Cart",
    "date_created": "2021-10-17T17:05:12.000",
    "date_modified": "2021-10-17T17:05:12.000",
    "request_status": "Pending",
    "responsible_agency": "Department of Sanitation",
    "final_address": "324 Walnut St",
    "address_councildis": "A",
    "status": "Assigned to Contractor",
    "contractor": "Richards Disposal",
    "rowid": "834061",
    "final_x": "3661894.04647",
    "final_y": "522135.957562",
    "longitude": "-90.13029029210743",
    "latitude": "29.930273275134653",
    "geocoded_column": {
      "latitude": "29.930273275134653",
      "longitude": "-90.13029029210743"
    }
  },
  {
    "service_request": "2021-834060",
    "request_type": "Trash/Recycling",
    "request_reason": "Missed Trash Pick-Up",
    "date_created": "2021-10-17T17:03:53.000",
    "date_modified": "2021-10-17T17:03:54.000",
    "request_status": "Pending",
    "responsible_agency": "Department of Sanitation",
    "final_address": "9009 Heaton St, New Orleans, Louisiana, 70118",
    "address_councildis": "A",
    "status": "Assigned to Contractor",
    "contractor": "Richards Disposal",
    "rowid": "834060",
    "final_x": "3666957.57972",
    "final_y": "538813.395849",
    "longitude": "-90.11374509395326",
    "latitude": "29.975983636399985",
    "geocoded_column": {
      "latitude": "29.975983636399985",
      "longitude": "-90.11374509395326"
    }
  },
  {
    "service_request": "2021-834059",
    "request_type": "Trash/Recycling",
    "request_reason": "Missed Trash Pick-Up",
    "date_created": "2021-10-17T16:54:39.000",
    "date_modified": "2021-10-17T21:37:39.000",
    "request_status": "Pending",
    "responsible_agency": "Department of Sanitation",
    "final_address": "New Orleans,LA",
    "address_councildis": "A",
    "status": "Assigned to Contractor",
    "contractor": "Richards Disposal",
    "rowid": "834059",
    "final_x": "3666957.57972",
    "final_y": "538813.395849",
    "longitude": "-90.11374509395326",
    "latitude": "29.975983636399985",
    "geocoded_column": {
      "latitude": "29.975983636399985",
      "longitude": "-90.11374509395326"
    }
  },
  {
    "service_request": "2021-834055",
    "request_type": "Trash/Recycling",
    "request_reason": "Missed Trash Pick-Up",
    "date_created": "2021-10-17T16:22:59.000",
    "date_modified": "2021-10-17T16:23:00.000",
    "request_status": "Pending",
    "responsible_agency": "Department of Sanitation",
    "final_address": "1820 Hillary St",
    "address_councildis": "A",
    "status": "Assigned to Contractor",
    "contractor": "Richards Disposal",
    "rowid": "834055",
    "final_x": "3664752.85479",
    "final_y": "528920.621952",
    "longitude": "-90.12103884419172",
    "latitude": "29.948846093639155",
    "geocoded_column": {
      "latitude": "29.948846093639155",
      "longitude": "-90.12103884419172"
    }
  },
  {
    "service_request": "2021-834054",
    "request_type": "Abandoned Vehicles",
    "request_reason": "Abandoned/Junk Vehicles",
    "date_created": "2021-10-17T16:21:40.000",
    "date_modified": "2021-10-17T16:21:40.000",
    "request_status": "Pending",
    "responsible_agency": "Department of Public Works",
    "final_address": "4304 State Street Dr, New Orleans, Louisiana, 70125",
    "address_councildis": "B",
    "status": "Pending",
    "rowid": "834054",
    "final_x": "3668502.97127",
    "final_y": "531287.790018",
    "longitude": "-90.10911822395329",
    "latitude": "29.95524540279058",
    "geocoded_column": {
      "latitude": "29.95524540279058",
      "longitude": "-90.10911822395329"
    }
  },
  {
    "service_request": "2021-834053",
    "request_type": "Abandoned Vehicles",
    "request_reason": "Abandoned/Junk Vehicles",
    "date_created": "2021-10-17T16:17:25.000",
    "date_modified": "2021-10-17T16:17:25.000",
    "request_status": "Pending",
    "responsible_agency": "Department of Public Works",
    "final_address": "6200 Fontainebleau Dr",
    "address_councildis": "A",
    "status": "Pending",
    "rowid": "834053",
    "final_x": "3668098.40583",
    "final_y": "529871.681025",
    "longitude": "-90.11044341932079",
    "latitude": "29.951363445323217",
    "geocoded_column": {
      "latitude": "29.951363445323217",
      "longitude": "-90.11044341932079"
    }
  },
  {
    "service_request": "2021-834052",
    "request_type": "COVID-19",
    "request_reason": "COVID-19 Business Non-Compliance",
    "date_created": "2021-10-17T15:55:53.000",
    "date_modified": "2021-10-17T15:55:54.000",
    "request_status": "Pending",
    "responsible_agency": "Safety and Permits",
    "final_address": "541 Dumaine St",
    "address_councildis": "C",
    "status": "Pending",
    "rowid": "834052",
    "final_x": "3683357.14812",
    "final_y": "532804.13114",
    "longitude": "-90.06216114059237",
    "latitude": "29.958970087038086",
    "geocoded_column": {
      "latitude": "29.958970087038086",
      "longitude": "-90.06216114059237"
    }
  },
  {
    "service_request": "2021-834051",
    "request_type": "Safety & Permits",
    "request_reason": "Licenses & Permits",
    "date_created": "2021-10-17T15:51:28.000",
    "date_modified": "2021-10-17T15:59:22.000",
    "request_status": "Pending",
    "responsible_agency": "Safety and Permits",
    "final_address": "7611 Brevard Ave",
    "address_councildis": "E",
    "status": "Pending",
    "rowid": "834051",
    "final_x": "3706475.64369",
    "final_y": "563387.645792",
    "longitude": "-89.98802547609979",
    "latitude": "30.042337704392768",
    "geocoded_column": {
      "latitude": "30.042337704392768",
      "longitude": "-89.98802547609979"
    }
  },
  {
    "service_request": "2021-834049",
    "request_type": "COVID-19",
    "request_reason": "COVID-19 Business Non-Compliance",
    "date_created": "2021-10-17T15:43:06.000",
    "date_modified": "2021-10-17T15:43:07.000",
    "request_status": "Pending",
    "responsible_agency": "Safety and Permits",
    "final_address": "541 Dumaine St",
    "address_councildis": "C",
    "status": "Pending",
    "rowid": "834049",
    "final_x": "3683357.14812",
    "final_y": "532804.13114",
    "longitude": "-90.06216114059237",
    "latitude": "29.958970087038086",
    "geocoded_column": {
      "latitude": "29.958970087038086",
      "longitude": "-90.06216114059237"
    }
  },
  {
    "service_request": "2021-834048",
    "request_type": "Roads/Drainage",
    "request_reason": "Pothole",
    "date_created": "2021-10-17T15:35:56.000",
    "date_modified": "2021-10-17T15:35:56.000",
    "request_status": "Pending",
    "responsible_agency": "Department of Public Works",
    "final_address": "3810 DHemecourt St",
    "address_councildis": "B",
    "status": "Pending",
    "rowid": "834048",
    "final_x": "3670763.36903",
    "final_y": "536049.072839",
    "longitude": "-90.10181911672687",
    "latitude": "29.968270748619",
    "geocoded_column": {
      "latitude": "29.968270748619",
      "longitude": "-90.10181911672687"
    }
  },
  {
    "service_request": "2021-834047",
    "request_type": "Trash/Recycling",
    "request_reason": "Order Recycling Cart",
    "date_created": "2021-10-17T15:16:05.000",
    "date_modified": "2021-10-17T15:16:05.000",
    "request_status": "Pending",
    "responsible_agency": "Department of Sanitation",
    "final_address": "1526 Mandeville St",
    "address_councildis": "C",
    "status": "Pending",
    "rowid": "834047",
    "final_x": "3685608.29583",
    "final_y": "538052.661257",
    "longitude": "-90.0548676749164",
    "latitude": "29.973332863991242",
    "geocoded_column": {
      "latitude": "29.973332863991242",
      "longitude": "-90.0548676749164"
    }
  },
  {
    "service_request": "2021-834046",
    "request_type": "Traffic Signals/Signs/Striping/Streetlights",
    "request_reason": "Street Light Outage/Malfunction",
    "date_created": "2021-10-17T15:14:15.000",
    "date_modified": "2021-10-17T15:14:15.000",
    "request_status": "Pending",
    "responsible_agency": "Department of Public Works",
    "final_address": "5064 Van Chu Dr",
    "address_councildis": "E",
    "status": "Pending",
    "contractor": "Royal Engineering",
    "rowid": "834046",
    "final_x": "3727614.93581",
    "final_y": "563120.183648",
    "longitude": "-89.92122851971912",
    "latitude": "30.04090291714669",
    "geocoded_column": {
      "latitude": "30.04090291714669",
      "longitude": "-89.92122851971912"
    }
  },
  {
    "service_request": "2021-834045",
    "request_type": "Trash/Recycling",
    "request_reason": "Illegal Dumping",
    "date_created": "2021-10-17T15:03:48.000",
    "date_modified": "2021-10-17T15:03:48.000",
    "request_status": "Pending",
    "responsible_agency": "Department of Sanitation",
    "final_address": "3707 S Saratoga St",
    "address_councildis": "B",
    "status": "Pending",
    "rowid": "834045",
    "final_x": "3672615.962",
    "final_y": "522940.780219",
    "longitude": "-90.09641540463369",
    "latitude": "29.932172387647693",
    "geocoded_column": {
      "latitude": "29.932172387647693",
      "longitude": "-90.09641540463369"
    }
  },
  {
    "service_request": "2021-834044",
    "request_type": "Trash/Recycling",
    "request_reason": "Request a Large Item Pick Up",
    "date_created": "2021-10-17T14:51:18.000",
    "date_modified": "2021-10-17T14:51:19.000",
    "request_status": "Pending",
    "responsible_agency": "Department of Sanitation",
    "final_address": "5600 S Robertson St",
    "address_councildis": "A",
    "status": "Assigned to Contractor",
    "contractor": "Richards Disposal",
    "rowid": "834044",
    "final_x": "3667039.51226",
    "final_y": "524493.357756",
    "longitude": "-90.11396761583144",
    "latitude": "29.936605824195322",
    "geocoded_column": {
      "latitude": "29.936605824195322",
      "longitude": "-90.11396761583144"
    }
  },
  {
    "service_request": "2021-834043",
    "request_type": "Parks & Parkways",
    "request_reason": "Request Tree Service (Right of Way/Public Property)",
    "date_created": "2021-10-17T14:45:03.000",
    "date_modified": "2021-10-17T14:45:03.000",
    "request_status": "Pending",
    "responsible_agency": "Department of Parks & Parkway",
    "final_address": "2301 Palmer Ave",
    "address_councildis": "A",
    "status": "Pending",
    "rowid": "834043",
    "final_x": "3666287.81562",
    "final_y": "525257.238589",
    "longitude": "-90.11631514892885",
    "latitude": "29.93872822619824",
    "geocoded_column": {
      "latitude": "29.93872822619824",
      "longitude": "-90.11631514892885"
    }
  },
  {
    "service_request": "2021-834042",
    "request_type": "Law Enforcement Services",
    "request_reason": "Off Duty Officer for Hire",
    "date_created": "2021-10-17T14:32:45.000",
    "date_modified": "2021-10-17T14:32:45.000",
    "request_status": "Pending",
    "responsible_agency": "Office of Police Secondary Employment",
    "status": "Pending",
    "rowid": "834042",
    "longitude": "0.0",
    "latitude": "0.0",
    "geocoded_column": {
      "latitude": "0.0",
      "longitude": "0.0"
    }
  },
  {
    "service_request": "2021-834041",
    "request_type": "Roads/Drainage",
    "request_reason": "Street Flooding / Drainage",
    "date_created": "2021-10-17T14:27:04.000",
    "date_modified": "2021-10-17T14:27:04.000",
    "request_status": "Pending",
    "responsible_agency": "Department of Public Works",
    "final_address": "4605 Ray Ave",
    "address_councildis": "E",
    "status": "Pending",
    "rowid": "834041",
    "final_x": "3698927.0712",
    "final_y": "553653.898455",
    "longitude": "-90.01223643955333",
    "latitude": "30.015815170243712",
    "geocoded_column": {
      "latitude": "30.015815170243712",
      "longitude": "-90.01223643955333"
    }
  },
  {
    "service_request": "2021-834040",
    "request_type": "Health Related Questions",
    "request_reason": "Noise Ordinance Complaint",
    "date_created": "2021-10-17T14:25:22.000",
    "date_modified": "2021-10-17T14:25:22.000",
    "request_status": "Pending",
    "responsible_agency": "Health Department",
    "final_address": "550 Baronne St",
    "address_councildis": "B",
    "status": "Pending",
    "rowid": "834040",
    "final_x": "3679871.27515",
    "final_y": "529133.143296",
    "longitude": "-90.07329612681656",
    "latitude": "29.948981981496516",
    "geocoded_column": {
      "latitude": "29.948981981496516",
      "longitude": "-90.07329612681656"
    }
  },
  {
    "service_request": "2021-834039",
    "request_type": "Trash/Recycling",
    "request_reason": "Replace Trash Cart",
    "date_created": "2021-10-17T14:23:02.000",
    "date_modified": "2021-10-17T14:23:03.000",
    "request_status": "Pending",
    "responsible_agency": "Department of Sanitation",
    "final_address": "1013 Desire St",
    "address_councildis": "C",
    "status": "Assigned to Contractor",
    "contractor": "Metro Disposal",
    "rowid": "834039",
    "final_x": "3690139.9791",
    "final_y": "535395.447494",
    "longitude": "-90.04065041549634",
    "latitude": "29.965886654873714",
    "geocoded_column": {
      "latitude": "29.965886654873714",
      "longitude": "-90.04065041549634"
    }
  },
  {
    "service_request": "2021-834038",
    "request_type": "Safety & Permits",
    "request_reason": "Licenses & Permits",
    "date_created": "2021-10-17T14:13:43.000",
    "date_modified": "2021-10-17T14:16:45.000",
    "request_status": "Pending",
    "responsible_agency": "Safety and Permits",
    "final_address": "30 Westpark Ct",
    "address_councildis": "C",
    "status": "Pending",
    "rowid": "834038",
    "final_x": "3695926.97098",
    "final_y": "521726.106746",
    "longitude": "-90.02286906115742",
    "latitude": "29.928119943761857",
    "geocoded_column": {
      "latitude": "29.928119943761857",
      "longitude": "-90.02286906115742"
    }
  },
  {
    "service_request": "2021-834037",
    "request_type": "Abandoned Vehicles",
    "request_reason": "Abandoned/Junk Vehicles",
    "date_created": "2021-10-17T14:11:53.000",
    "date_modified": "2021-10-17T14:19:21.000",
    "request_status": "Pending",
    "responsible_agency": "Department of Public Works",
    "final_address": "75 Westpark Ct",
    "address_councildis": "C",
    "status": "Pending",
    "rowid": "834037",
    "final_x": "3695760.68195",
    "final_y": "521750.02201",
    "longitude": "-90.02339313228288",
    "latitude": "29.928190930850473",
    "geocoded_column": {
      "latitude": "29.928190930850473",
      "longitude": "-90.02339313228288"
    }
  },
  {
    "service_request": "2021-834036",
    "request_type": "Roads/Drainage",
    "request_reason": "Unpermitted work in ROW",
    "date_created": "2021-10-17T14:10:09.000",
    "date_modified": "2021-10-17T14:10:09.000",
    "request_status": "Pending",
    "responsible_agency": "Department of Public Works",
    "final_address": "171 Alix St",
    "address_councildis": "C",
    "status": "Pending",
    "rowid": "834036",
    "final_x": "3686112.19894",
    "final_y": "529697.200961",
    "longitude": "-90.0535709732054",
    "latitude": "29.95034276544561",
    "geocoded_column": {
      "latitude": "29.95034276544561",
      "longitude": "-90.0535709732054"
    }
  },
  {
    "service_request": "2021-834035",
    "request_type": "Trash/Recycling",
    "request_reason": "Request a Large Item Pick Up",
    "date_created": "2021-10-17T14:01:55.000",
    "date_modified": "2021-10-17T14:01:55.000",
    "request_status": "Pending",
    "responsible_agency": "Department of Sanitation",
    "final_address": "2362 Laurel St",
    "address_councildis": "B",
    "status": "Assigned to Contractor",
    "contractor": "Richards Disposal",
    "rowid": "834035",
    "final_x": "3678612.80981",
    "final_y": "520922.457017",
    "longitude": "-90.07755376943358",
    "latitude": "29.926443296148406",
    "geocoded_column": {
      "latitude": "29.926443296148406",
      "longitude": "-90.07755376943358"
    }
  },
  {
    "service_request": "2021-834034",
    "request_type": "Safety & Permits",
    "request_reason": "Licenses & Permits",
    "date_created": "2021-10-17T13:55:10.000",
    "date_modified": "2021-10-17T13:55:10.000",
    "request_status": "Pending",
    "responsible_agency": "Safety and Permits",
    "final_address": "6321 Delord St",
    "address_councildis": "A",
    "status": "Pending",
    "rowid": "834034",
    "final_x": "3666150.5209",
    "final_y": "526474.500094",
    "longitude": "-90.11670780068233",
    "latitude": "29.94207931378701",
    "geocoded_column": {
      "latitude": "29.94207931378701",
      "longitude": "-90.11670780068233"
    }
  },
  {
    "service_request": "2021-834032",
    "request_type": "Abandoned Vehicles",
    "request_reason": "Abandoned/Junk Vehicles",
    "date_created": "2021-10-17T13:41:32.000",
    "date_modified": "2021-10-17T13:41:32.000",
    "request_status": "Pending",
    "responsible_agency": "Department of Public Works",
    "final_address": "2910 Palmyra St",
    "address_councildis": "B",
    "status": "Pending",
    "rowid": "834032",
    "final_x": "3674001.722",
    "final_y": "535033.510854",
    "longitude": "-90.09162699414354",
    "latitude": "29.96538219685494",
    "geocoded_column": {
      "latitude": "29.96538219685494",
      "longitude": "-90.09162699414354"
    }
  },
  {
    "service_request": "2021-834031",
    "request_type": "Property Maintenance",
    "request_reason": "Property Maintenance",
    "date_created": "2021-10-17T13:40:27.000",
    "date_modified": "2021-10-17T13:40:27.000",
    "request_status": "Pending",
    "responsible_agency": "Department of Code Enforcement",
    "final_address": "1835 St Ferdinand St",
    "address_councildis": "D",
    "status": "Pending",
    "rowid": "834031",
    "final_x": "3688496.68406",
    "final_y": "539213.335498",
    "longitude": "-90.0457043881382",
    "latitude": "29.97643537959758",
    "geocoded_column": {
      "latitude": "29.97643537959758",
      "longitude": "-90.0457043881382"
    }
  },
  {
    "service_request": "2021-834030",
    "request_type": "Abandoned Vehicles",
    "request_reason": "Abandoned/Junk Vehicles",
    "date_created": "2021-10-17T13:37:29.000",
    "date_modified": "2021-10-17T13:37:29.000",
    "request_status": "Pending",
    "responsible_agency": "Department of Public Works",
    "final_address": "2910 Palmyra St",
    "address_councildis": "B",
    "status": "Pending",
    "rowid": "834030",
    "final_x": "3674001.722",
    "final_y": "535033.510854",
    "longitude": "-90.09162699414354",
    "latitude": "29.96538219685494",
    "geocoded_column": {
      "latitude": "29.96538219685494",
      "longitude": "-90.09162699414354"
    }
  },
  {
    "service_request": "2021-834029",
    "request_type": "Trash/Recycling",
    "request_reason": "Missed Trash Pick-Up",
    "date_created": "2021-10-17T13:30:55.000",
    "date_modified": "2021-10-17T13:30:56.000",
    "request_status": "Pending",
    "responsible_agency": "Department of Sanitation",
    "final_address": "2014 Cadiz St",
    "address_councildis": "B",
    "status": "Assigned to Contractor",
    "contractor": "Richards Disposal",
    "rowid": "834029",
    "final_x": "3669904.49166",
    "final_y": "522345.34873",
    "longitude": "-90.10499542541814",
    "latitude": "29.93061534616999",
    "geocoded_column": {
      "latitude": "29.93061534616999",
      "longitude": "-90.10499542541814"
    }
  },
  {
    "service_request": "2021-834028",
    "request_type": "Safety & Permits",
    "request_reason": "Short term Rental (Enforcement)",
    "date_created": "2021-10-17T13:25:57.000",
    "date_modified": "2021-10-17T13:25:57.000",
    "request_status": "Pending",
    "responsible_agency": "Safety and Permits",
    "final_address": "1615 Deslonde St",
    "address_councildis": "E",
    "status": "Pending",
    "rowid": "834028",
    "final_x": "3695969.28054",
    "final_y": "536374.737799",
    "longitude": "-90.02220637262198",
    "latitude": "29.968397240437774",
    "geocoded_column": {
      "latitude": "29.968397240437774",
      "longitude": "-90.02220637262198"
    }
  },
  {
    "service_request": "2021-834027",
    "request_type": "Abandoned Vehicles",
    "request_reason": "Abandoned/Junk Vehicles",
    "date_created": "2021-10-17T13:17:10.000",
    "date_modified": "2021-10-17T13:17:10.000",
    "request_status": "Pending",
    "responsible_agency": "Department of Public Works",
    "final_address": "2407 Iberville St",
    "address_councildis": "B",
    "status": "Pending",
    "rowid": "834027",
    "final_x": "3676633.30056",
    "final_y": "534709.763526",
    "longitude": "-90.08332774012753",
    "latitude": "29.9644133255772",
    "geocoded_column": {
      "latitude": "29.9644133255772",
      "longitude": "-90.08332774012753"
    }
  },
  {
    "service_request": "2021-834026",
    "request_type": "Trash/Recycling",
    "request_reason": "Replace Trash Cart",
    "date_created": "2021-10-17T12:32:37.000",
    "date_modified": "2021-10-17T12:32:38.000",
    "request_status": "Pending",
    "responsible_agency": "Department of Sanitation",
    "final_address": "1105 Philip St",
    "address_councildis": "B",
    "status": "Assigned to Contractor",
    "contractor": "Richards Disposal",
    "rowid": "834026",
    "final_x": "3678528.20085",
    "final_y": "521924.30393",
    "longitude": "-90.07778620291495",
    "latitude": "29.929200597649366",
    "geocoded_column": {
      "latitude": "29.929200597649366",
      "longitude": "-90.07778620291495"
    }
  },
  {
    "service_request": "2021-834025",
    "request_type": "Safety & Permits",
    "request_reason": "Licenses & Permits",
    "date_created": "2021-10-17T12:31:13.000",
    "date_modified": "2021-10-17T12:36:29.000",
    "request_status": "Pending",
    "responsible_agency": "Safety and Permits",
    "final_address": "6000 BLK Lafaye St",
    "address_councildis": "D",
    "status": "Pending",
    "rowid": "834025",
    "final_x": "3687119.3042",
    "final_y": "555433.878093",
    "longitude": "-90.04948056248469",
    "latitude": "30.021078499559255",
    "geocoded_column": {
      "latitude": "30.021078499559255",
      "longitude": "-90.04948056248469"
    }
  },
  {
    "service_request": "2021-834023",
    "request_type": "Traffic Signals/Signs/Striping/Streetlights",
    "request_reason": "Traffic Signal Malfunctioning/Damaged",
    "date_created": "2021-10-17T12:22:31.000",
    "date_modified": "2021-10-17T12:22:31.000",
    "request_status": "Pending",
    "responsible_agency": "Department of Public Works",
    "final_address": "FELICITY ST & NUNS ST & TCHOUPITOULAS ST & TCHOUPITOULAS TRUCK",
    "address_councildis": "B",
    "status": "Pending",
    "rowid": "834023",
    "final_x": "3681855.9",
    "final_y": "521167.38",
    "longitude": "-90.06730770453069",
    "latitude": "29.927018625152282",
    "geocoded_column": {
      "latitude": "29.927018625152282",
      "longitude": "-90.06730770453069"
    }
  },
  {
    "service_request": "2021-834022",
    "request_type": "Trash/Recycling",
    "request_reason": "Replace Trash Cart",
    "date_created": "2021-10-17T12:18:04.000",
    "date_modified": "2021-10-17T12:18:04.000",
    "request_status": "Pending",
    "responsible_agency": "Department of Sanitation",
    "final_address": "600 Baronne St",
    "address_councildis": "B",
    "status": "Assigned to Contractor",
    "contractor": "Empire Services",
    "rowid": "834022",
    "final_x": "3679853.90722",
    "final_y": "529065.15296",
    "longitude": "-90.07335332548715",
    "latitude": "29.94879555600546",
    "geocoded_column": {
      "latitude": "29.94879555600546",
      "longitude": "-90.07335332548715"
    }
  },
  {
    "service_request": "2021-834021",
    "request_type": "Roads/Drainage",
    "request_reason": "Pothole",
    "date_created": "2021-10-17T12:13:44.000",
    "date_modified": "2021-10-17T12:13:44.000",
    "request_status": "Pending",
    "responsible_agency": "Department of Public Works",
    "final_address": "1465 Annunciation St",
    "address_councildis": "B",
    "status": "Pending",
    "rowid": "834021",
    "final_x": "3680984.33192",
    "final_y": "523803.211387",
    "longitude": "-90.06996727553548",
    "latitude": "29.934292743404196",
    "geocoded_column": {
      "latitude": "29.934292743404196",
      "longitude": "-90.06996727553548"
    }
  },
  {
    "service_request": "2021-834020",
    "request_type": "Trash/Recycling",
    "request_reason": "Missed Trash Pick-Up",
    "date_created": "2021-10-17T11:59:34.000",
    "date_modified": "2021-10-17T11:59:35.000",
    "request_status": "Pending",
    "responsible_agency": "Department of Sanitation",
    "final_address": "5112 Westlake Dr",
    "address_councildis": "E",
    "status": "Assigned to Contractor",
    "contractor": "Metro Disposal",
    "rowid": "834020",
    "final_x": "3699419.97168",
    "final_y": "556169.77801",
    "longitude": "-90.01058734305934",
    "latitude": "30.022717246437516",
    "geocoded_column": {
      "latitude": "30.022717246437516",
      "longitude": "-90.01058734305934"
    }
  },
  {
    "service_request": "2021-834019",
    "request_type": "Traffic Signals/Signs/Striping/Streetlights",
    "request_reason": "Street Light Outage/Malfunction",
    "date_created": "2021-10-17T11:58:29.000",
    "date_modified": "2021-10-17T11:58:29.000",
    "request_status": "Pending",
    "responsible_agency": "Department of Public Works",
    "final_address": "3475 Parkview Pl",
    "address_councildis": "A",
    "status": "Pending",
    "contractor": "Royal Engineering",
    "rowid": "834019",
    "final_x": "3675454.52833",
    "final_y": "543443.819214",
    "longitude": "-90.08675015057948",
    "latitude": "29.988464295167343",
    "geocoded_column": {
      "latitude": "29.988464295167343",
      "longitude": "-90.08675015057948"
    }
  },
  {
    "service_request": "2021-834017",
    "request_type": "Property Maintenance",
    "request_reason": "Property Maintenance",
    "date_created": "2021-10-17T11:41:41.000",
    "date_modified": "2021-10-17T11:41:41.000",
    "request_status": "Pending",
    "responsible_agency": "Department of Code Enforcement",
    "final_address": "1919 Monroe St",
    "address_councildis": "A",
    "status": "Pending",
    "rowid": "834017",
    "final_x": "3662160.16679",
    "final_y": "531697.075587",
    "longitude": "-90.12913298540694",
    "latitude": "29.956555616695237",
    "geocoded_column": {
      "latitude": "29.956555616695237",
      "longitude": "-90.12913298540694"
    }
  },
  {
    "service_request": "2021-834016",
    "request_type": "Trash/Recycling",
    "request_reason": "Request a Large Item Pick Up",
    "date_created": "2021-10-17T11:17:28.000",
    "date_modified": "2021-10-17T11:17:29.000",
    "request_status": "Pending",
    "responsible_agency": "Department of Sanitation",
    "final_address": "1628 N Rocheblave St",
    "address_councildis": "D",
    "status": "Assigned to Contractor",
    "contractor": "Metro Disposal",
    "rowid": "834016",
    "final_x": "3680135.54991",
    "final_y": "539681.591306",
    "longitude": "-90.07209509424405",
    "latitude": "29.97797862238351",
    "geocoded_column": {
      "latitude": "29.97797862238351",
      "longitude": "-90.07209509424405"
    }
  },
  {
    "service_request": "2021-834015",
    "request_type": "Trash/Recycling",
    "request_reason": "Missed Trash Pick-Up",
    "date_created": "2021-10-17T11:15:47.000",
    "date_modified": "2021-10-17T21:44:13.000",
    "request_status": "Pending",
    "responsible_agency": "Department of Sanitation",
    "final_address": "New Orleans,LA",
    "address_councildis": "A",
    "status": "Assigned to Contractor",
    "contractor": "Richards Disposal",
    "rowid": "834015",
    "final_x": "3661877.85805",
    "final_y": "525009.360957",
    "longitude": "-90.13024615583403",
    "latitude": "29.93817469637002",
    "geocoded_column": {
      "latitude": "29.93817469637002",
      "longitude": "-90.13024615583403"
    }
  },
  {
    "service_request": "2021-834014",
    "request_type": "Traffic Signals/Signs/Striping/Streetlights",
    "request_reason": "Request for Stop Sign",
    "date_created": "2021-10-17T11:00:17.000",
    "date_modified": "2021-10-17T11:00:17.000",
    "request_status": "Pending",
    "responsible_agency": "Department of Public Works",
    "final_address": "700 South Peters ",
    "status": "Pending",
    "rowid": "834014",
    "longitude": "0.0",
    "latitude": "0.0",
    "geocoded_column": {
      "latitude": "0.0",
      "longitude": "0.0"
    }
  },
  {
    "service_request": "2021-834013",
    "request_type": "Roads/Drainage",
    "request_reason": "Pothole",
    "date_created": "2021-10-17T10:56:44.000",
    "date_modified": "2021-10-17T10:56:44.000",
    "request_status": "Pending",
    "responsible_agency": "Department of Public Works",
    "final_address": "1709 Poydras St",
    "address_councildis": "B",
    "status": "Pending",
    "rowid": "834013",
    "final_x": "3677245.28949",
    "final_y": "530911.219266",
    "longitude": "-90.08152617407193",
    "latitude": "29.953950237256482",
    "geocoded_column": {
      "latitude": "29.953950237256482",
      "longitude": "-90.08152617407193"
    }
  },
  {
    "service_request": "2021-834012",
    "request_type": "Safety & Permits",
    "request_reason": "Licenses & Permits",
    "date_created": "2021-10-17T10:52:48.000",
    "date_modified": "2021-10-17T10:52:48.000",
    "request_status": "Pending",
    "responsible_agency": "Safety and Permits",
    "status": "Pending",
    "rowid": "834012",
    "longitude": "0.0",
    "latitude": "0.0",
    "geocoded_column": {
      "latitude": "0.0",
      "longitude": "0.0"
    }
  },
  {
    "service_request": "2021-834007",
    "request_type": "Roads/Drainage",
    "request_reason": "Pothole",
    "date_created": "2021-10-17T10:05:37.000",
    "date_modified": "2021-10-17T10:15:39.000",
    "request_status": "Pending",
    "responsible_agency": "Department of Public Works",
    "final_address": "3200 BLK de Armas St",
    "address_councildis": "C",
    "status": "Pending",
    "rowid": "834007",
    "final_x": "3696203.0088",
    "final_y": "527013.983817",
    "longitude": "-90.02180661355206",
    "latitude": "29.942651102796106",
    "geocoded_column": {
      "latitude": "29.942651102796106",
      "longitude": "-90.02180661355206"
    }
  },
  {
    "service_request": "2021-834006",
    "request_type": "Traffic Signals/Signs/Striping/Streetlights",
    "request_reason": "Traffic Sign Missing/Damaged",
    "date_created": "2021-10-17T09:56:01.000",
    "date_modified": "2021-10-17T10:49:23.000",
    "request_status": "Pending",
    "responsible_agency": "Department of Public Works",
    "final_address": "New Orleans,LA",
    "status": "Pending",
    "rowid": "834006",
    "longitude": "0.0",
    "latitude": "0.0",
    "geocoded_column": {
      "latitude": "0.0",
      "longitude": "0.0"
    }
  },
  {
    "service_request": "2021-834005",
    "request_type": "Property Maintenance",
    "request_reason": "Property Maintenance",
    "date_created": "2021-10-17T09:46:31.000",
    "date_modified": "2021-10-17T09:46:31.000",
    "request_status": "Pending",
    "responsible_agency": "Department of Code Enforcement",
    "final_address": "3429 Baronne St",
    "address_councildis": "B",
    "status": "Pending",
    "rowid": "834005",
    "final_x": "3673647.2027",
    "final_y": "522155.025146",
    "longitude": "-90.09318672036167",
    "latitude": "29.929981165465783",
    "geocoded_column": {
      "latitude": "29.929981165465783",
      "longitude": "-90.09318672036167"
    }
  },
  {
    "service_request": "2021-834004",
    "request_type": "Trash/Recycling",
    "request_reason": "Missed Trash Pick-Up",
    "date_created": "2021-10-17T09:45:31.000",
    "date_modified": "2021-10-17T09:45:32.000",
    "request_status": "Pending",
    "responsible_agency": "Department of Sanitation",
    "final_address": "333 West Robert E Lee Blvd",
    "address_councildis": "A",
    "status": "Assigned to Contractor",
    "contractor": "Metro Disposal",
    "rowid": "834004",
    "final_x": "3665276.27239",
    "final_y": "555000.762585",
    "longitude": "-90.11851314756784",
    "latitude": "30.020542441036472",
    "geocoded_column": {
      "latitude": "30.020542441036472",
      "longitude": "-90.11851314756784"
    }
  },
  {
    "service_request": "2021-834003",
    "request_type": "Property Maintenance",
    "request_reason": "Property Maintenance",
    "date_created": "2021-10-17T09:43:20.000",
    "date_modified": "2021-10-17T09:43:20.000",
    "request_status": "Pending",
    "responsible_agency": "Department of Code Enforcement",
    "final_address": "1941 Dauphine St",
    "address_councildis": "C",
    "status": "Pending",
    "rowid": "834003",
    "final_x": "3684251.76341",
    "final_y": "535210.593222",
    "longitude": "-90.05925167893734",
    "latitude": "29.965559710113148",
    "geocoded_column": {
      "latitude": "29.965559710113148",
      "longitude": "-90.05925167893734"
    }
  },
  {
    "service_request": "2021-834002",
    "request_type": "Traffic Signals/Signs/Striping/Streetlights",
    "request_reason": "Traffic Sign Missing/Damaged",
    "date_created": "2021-10-17T09:33:45.000",
    "date_modified": "2021-10-17T09:33:45.000",
    "request_status": "Pending",
    "responsible_agency": "Department of Public Works",
    "final_address": "8400 Sycamore St",
    "address_councildis": "A",
    "status": "Pending",
    "rowid": "834002",
    "final_x": "3663462.37709",
    "final_y": "531708.189827",
    "longitude": "-90.12502064124307",
    "latitude": "29.956548482861326",
    "geocoded_column": {
      "latitude": "29.956548482861326",
      "longitude": "-90.12502064124307"
    }
  },
  {
    "service_request": "2021-834001",
    "request_type": "Trash/Recycling",
    "request_reason": "Missed Trash Pick-Up",
    "date_created": "2021-10-17T09:31:28.000",
    "date_modified": "2021-10-17T09:31:28.000",
    "request_status": "Pending",
    "responsible_agency": "Department of Sanitation",
    "final_address": "723 Congress St",
    "address_councildis": "C",
    "status": "Assigned to Contractor",
    "contractor": "Metro Disposal",
    "rowid": "834001",
    "final_x": "3690422.74985",
    "final_y": "534252.714629",
    "longitude": "-90.03979817598672",
    "latitude": "29.962735764832598",
    "geocoded_column": {
      "latitude": "29.962735764832598",
      "longitude": "-90.03979817598672"
    }
  },
  {
    "service_request": "2021-833999",
    "request_type": "Trash/Recycling",
    "request_reason": "Illegal Dumping",
    "date_created": "2021-10-17T09:28:01.000",
    "date_modified": "2021-10-17T09:28:01.000",
    "request_status": "Pending",
    "responsible_agency": "Department of Sanitation",
    "final_address": "400 Royal St",
    "address_councildis": "C",
    "status": "Pending",
    "rowid": "833999",
    "final_x": "3682132.51036",
    "final_y": "531622.623235",
    "longitude": "-90.06606949950942",
    "latitude": "29.95575864215333",
    "geocoded_column": {
      "latitude": "29.95575864215333",
      "longitude": "-90.06606949950942"
    }
  },
  {
    "service_request": "2021-833998",
    "request_type": "EMS",
    "request_reason": "EMS Complaint",
    "date_created": "2021-10-17T09:14:33.000",
    "date_modified": "2021-10-17T09:14:33.000",
    "request_status": "Pending",
    "responsible_agency": "Emergency Medical Services",
    "final_address": "3525 Bienville Ave",
    "address_councildis": "B",
    "status": "Pending",
    "rowid": "833998",
    "final_x": "3673162.67892",
    "final_y": "538017.691081",
    "longitude": "-90.0941747433714",
    "latitude": "29.973612659292385",
    "geocoded_column": {
      "latitude": "29.973612659292385",
      "longitude": "-90.0941747433714"
    }
  },
  {
    "service_request": "2021-833997",
    "request_type": "Trash/Recycling",
    "request_reason": "Request a Large Item Pick Up",
    "date_created": "2021-10-17T08:56:48.000",
    "date_modified": "2021-10-17T08:56:49.000",
    "request_status": "Pending",
    "responsible_agency": "Department of Sanitation",
    "final_address": "215 Polk St",
    "address_councildis": "A",
    "status": "Assigned to Contractor",
    "contractor": "Metro Disposal",
    "rowid": "833997",
    "final_x": "3666963.37281",
    "final_y": "547672.81973",
    "longitude": "-90.11342890523149",
    "latitude": "30.000343869262515",
    "geocoded_column": {
      "latitude": "30.000343869262515",
      "longitude": "-90.11342890523149"
    }
  },
  {
    "service_request": "2021-833996",
    "request_type": "Traffic Signals/Signs/Striping/Streetlights",
    "request_reason": "Traffic Sign Missing/Damaged",
    "date_created": "2021-10-17T08:45:11.000",
    "date_modified": "2021-10-17T21:46:01.000",
    "request_status": "Pending",
    "responsible_agency": "Department of Public Works",
    "final_address": "New Orleans,LA",
    "address_councildis": "A",
    "rowid": "833996",
    "final_x": "3666409.8",
    "final_y": "517158.28",
    "longitude": "-90.11620163130054",
    "latitude": "29.91645508908768",
    "geocoded_column": {
      "latitude": "29.91645508908768",
      "longitude": "-90.11620163130054"
    }
  },
  {
    "service_request": "2021-833995",
    "request_type": "Trash/Recycling",
    "request_reason": "Order Trash Cart",
    "date_created": "2021-10-17T08:44:18.000",
    "date_modified": "2021-10-17T08:44:19.000",
    "request_status": "Pending",
    "responsible_agency": "Department of Sanitation",
    "final_address": "1 New Basin Way",
    "address_councildis": "A",
    "status": "Assigned to Contractor",
    "contractor": "Metro Disposal",
    "rowid": "833995",
    "final_x": "3666760.90196",
    "final_y": "554152.871",
    "longitude": "-90.11385065966033",
    "latitude": "30.01816767558739",
    "geocoded_column": {
      "latitude": "30.01816767558739",
      "longitude": "-90.11385065966033"
    }
  },
  {
    "service_request": "2021-833994",
    "request_type": "Trash/Recycling",
    "request_reason": "Missed Trash Pick-Up",
    "date_created": "2021-10-17T08:43:27.000",
    "date_modified": "2021-10-17T08:43:27.000",
    "request_status": "Pending",
    "responsible_agency": "Department of Sanitation",
    "final_address": "8809 Heaton St",
    "address_councildis": "A",
    "status": "Assigned to Contractor",
    "contractor": "Richards Disposal",
    "rowid": "833994",
    "final_x": "3667511.47783",
    "final_y": "538270.449481",
    "longitude": "-90.11201399532501",
    "latitude": "29.974474493764895",
    "geocoded_column": {
      "latitude": "29.974474493764895",
      "longitude": "-90.11201399532501"
    }
  },
  {
    "service_request": "2021-833993",
    "request_type": "Mayor's Request",
    "request_reason": "Requests to the Mayor",
    "date_created": "2021-10-17T08:25:01.000",
    "date_modified": "2021-10-17T08:25:01.000",
    "request_status": "Pending",
    "responsible_agency": "Executive Office of the Mayor",
    "status": "Pending",
    "rowid": "833993",
    "longitude": "0.0",
    "latitude": "0.0",
    "geocoded_column": {
      "latitude": "0.0",
      "longitude": "0.0"
    }
  },
  {
    "service_request": "2021-833992",
    "request_type": "Mayor's Request",
    "request_reason": "Requests to the Mayor",
    "date_created": "2021-10-17T08:25:01.000",
    "date_modified": "2021-10-17T08:25:01.000",
    "request_status": "Pending",
    "responsible_agency": "Executive Office of the Mayor",
    "status": "Pending",
    "rowid": "833992",
    "longitude": "0.0",
    "latitude": "0.0",
    "geocoded_column": {
      "latitude": "0.0",
      "longitude": "0.0"
    }
  },
  {
    "service_request": "2021-833991",
    "request_type": "Traffic Signals/Signs/Striping/Streetlights",
    "request_reason": "Traffic Sign Missing/Damaged",
    "date_created": "2021-10-17T07:36:30.000",
    "date_modified": "2021-10-17T07:38:07.000",
    "request_status": "Pending",
    "responsible_agency": "Department of Public Works",
    "final_address": "ANNUNCIATION ST & ROBERT ST",
    "address_councildis": "B",
    "status": "Pending",
    "rowid": "833991",
    "final_x": "3668610.4",
    "final_y": "517543.28",
    "longitude": "-90.10924264223617",
    "latitude": "29.91744926046608",
    "geocoded_column": {
      "latitude": "29.91744926046608",
      "longitude": "-90.10924264223617"
    }
  },
  {
    "service_request": "2021-833989",
    "request_type": "Traffic Signals/Signs/Striping/Streetlights",
    "request_reason": "Street Light Knocked Down/Leaning",
    "date_created": "2021-10-16T23:32:20.000",
    "date_modified": "2021-10-16T23:32:21.000",
    "request_status": "Pending",
    "responsible_agency": "Department of Public Works",
    "final_address": "3701 Behrman Pl",
    "address_councildis": "C",
    "status": "Pending",
    "contractor": "Royal Engineering",
    "rowid": "833989",
    "final_x": "3697532.11869",
    "final_y": "517224.025461",
    "longitude": "-90.01796514836522",
    "latitude": "29.915690177619858",
    "geocoded_column": {
      "latitude": "29.915690177619858",
      "longitude": "-90.01796514836522"
    }
  },
  {
    "service_request": "2021-833988",
    "request_type": "Roads/Drainage",
    "request_reason": "Pothole",
    "date_created": "2021-10-16T23:21:02.000",
    "date_modified": "2021-10-16T23:21:02.000",
    "request_status": "Pending",
    "responsible_agency": "Department of Public Works",
    "final_address": "3923 Eagle St",
    "address_councildis": "A",
    "status": "Pending",
    "rowid": "833988",
    "final_x": "3666779.01908",
    "final_y": "537283.501832",
    "longitude": "-90.1143604444419",
    "latitude": "29.97178216370725",
    "geocoded_column": {
      "latitude": "29.97178216370725",
      "longitude": "-90.1143604444419"
    }
  },
  {
    "service_request": "2021-833987",
    "request_type": "Traffic Signals/Signs/Striping/Streetlights",
    "request_reason": "Street Light Outage/Malfunction",
    "date_created": "2021-10-16T22:36:41.000",
    "date_modified": "2021-10-16T22:36:42.000",
    "request_status": "Pending",
    "responsible_agency": "Department of Public Works",
    "final_address": "1425 N Prieur St",
    "address_councildis": "D",
    "status": "Pending",
    "contractor": "Royal Engineering",
    "rowid": "833987",
    "final_x": "3680532.40693",
    "final_y": "537446.029768",
    "longitude": "-90.0709194709494",
    "latitude": "29.971819584227486",
    "geocoded_column": {
      "latitude": "29.971819584227486",
      "longitude": "-90.0709194709494"
    }
  },
  {
    "service_request": "2021-833986",
    "request_type": "Trash/Recycling",
    "request_reason": "Repair Trash Cart",
    "date_created": "2021-10-16T21:21:20.000",
    "date_modified": "2021-10-16T21:21:21.000",
    "request_status": "Pending",
    "responsible_agency": "Department of Sanitation",
    "final_address": "6443 Franklin Ave",
    "address_councildis": "D",
    "status": "Assigned to Contractor",
    "contractor": "Metro Disposal",
    "rowid": "833986",
    "final_x": "3686350.94959",
    "final_y": "557083.40041",
    "longitude": "-90.05185004972276",
    "latitude": "30.025637722976466",
    "geocoded_column": {
      "latitude": "30.025637722976466",
      "longitude": "-90.05185004972276"
    }
  },
  {
    "service_request": "2021-833985",
    "request_type": "Traffic Signals/Signs/Striping/Streetlights",
    "request_reason": "Street Light Outage/Malfunction",
    "date_created": "2021-10-16T21:19:28.000",
    "date_modified": "2021-10-16T21:19:28.000",
    "request_status": "Pending",
    "responsible_agency": "Department of Public Works",
    "final_address": "2105 Congress St",
    "address_councildis": "D",
    "status": "Pending",
    "contractor": "Royal Engineering",
    "rowid": "833985",
    "final_x": "3691700.53385",
    "final_y": "539379.940362",
    "longitude": "-90.03557974040369",
    "latitude": "29.976794098976114",
    "geocoded_column": {
      "latitude": "29.976794098976114",
      "longitude": "-90.03557974040369"
    }
  },
  {
    "service_request": "2021-833984",
    "request_type": "Abandoned Vehicles",
    "request_reason": "Vehicle Blocking Your Driveway",
    "date_created": "2021-10-16T20:54:23.000",
    "date_modified": "2021-10-16T20:54:23.000",
    "request_status": "Pending",
    "responsible_agency": "Department of Public Works",
    "final_address": "548 Verret St",
    "address_councildis": "C",
    "status": "Pending",
    "rowid": "833984",
    "final_x": "3687055.26262",
    "final_y": "529518.008001",
    "longitude": "-90.05059961252039",
    "latitude": "29.949821050536443",
    "geocoded_column": {
      "latitude": "29.949821050536443",
      "longitude": "-90.05059961252039"
    }
  },
  {
    "service_request": "2021-833983",
    "request_type": "Traffic Signals/Signs/Striping/Streetlights",
    "request_reason": "Street Light Outage/Malfunction",
    "date_created": "2021-10-16T20:51:24.000",
    "date_modified": "2021-10-16T23:32:07.000",
    "request_status": "Pending",
    "responsible_agency": "Department of Public Works",
    "final_address": "4726 Rosemont Place",
    "address_councildis": "E",
    "status": "Pending",
    "contractor": "Royal Engineering",
    "rowid": "833983",
    "final_x": "3702676.54577",
    "final_y": "554804.42396",
    "longitude": "-90.0003475868234",
    "latitude": "30.018859276852496",
    "geocoded_column": {
      "latitude": "30.018859276852496",
      "longitude": "-90.0003475868234"
    }
  },
  {
    "service_request": "2021-833982",
    "request_type": "Safety & Permits",
    "request_reason": "Short term Rental (Enforcement)",
    "date_created": "2021-10-16T20:30:20.000",
    "date_modified": "2021-10-16T20:30:20.000",
    "request_status": "Pending",
    "responsible_agency": "Safety and Permits",
    "final_address": "735 Dumaine St",
    "address_councildis": "C",
    "status": "Pending",
    "rowid": "833982",
    "final_x": "3682787.03157",
    "final_y": "533239.137476",
    "longitude": "-90.06394620658189",
    "latitude": "29.960183584425756",
    "geocoded_column": {
      "latitude": "29.960183584425756",
      "longitude": "-90.06394620658189"
    }
  },
  {
    "service_request": "2021-833981",
    "request_type": "Health Related Questions",
    "request_reason": "Noise Ordinance Complaint",
    "date_created": "2021-10-16T20:29:42.000",
    "date_modified": "2021-10-16T20:29:42.000",
    "request_status": "Pending",
    "responsible_agency": "Health Department",
    "final_address": "1500 N Claiborne Ave",
    "address_councildis": "C",
    "status": "Pending",
    "rowid": "833981",
    "final_x": "3681846.67516",
    "final_y": "537148.826504",
    "longitude": "-90.0667791844965",
    "latitude": "29.970962498120493",
    "geocoded_column": {
      "latitude": "29.970962498120493",
      "longitude": "-90.0667791844965"
    }
  },
  {
    "service_request": "2021-833980",
    "request_type": "Roads/Drainage",
    "request_reason": "Debris in Roadway",
    "date_created": "2021-10-16T20:07:04.000",
    "date_modified": "2021-10-16T20:07:04.000",
    "request_status": "Pending",
    "responsible_agency": "Department of Public Works",
    "final_address": "818 Octavia St",
    "address_councildis": "A",
    "status": "Pending",
    "rowid": "833980",
    "final_x": "3666439.72301",
    "final_y": "518985.637239",
    "longitude": "-90.11604590646401",
    "latitude": "29.921478874993213",
    "geocoded_column": {
      "latitude": "29.921478874993213",
      "longitude": "-90.11604590646401"
    }
  },
  {
    "service_request": "2021-833979",
    "request_type": "Traffic Signals/Signs/Striping/Streetlights",
    "request_reason": "Street Light Outage/Malfunction",
    "date_created": "2021-10-16T19:39:16.000",
    "date_modified": "2021-10-16T19:39:17.000",
    "request_status": "Pending",
    "responsible_agency": "Department of Public Works",
    "final_address": "1835 Painters St",
    "address_councildis": "D",
    "status": "Pending",
    "contractor": "Royal Engineering",
    "rowid": "833979",
    "final_x": "3687366.0198",
    "final_y": "539349.39169",
    "longitude": "-90.04927054367766",
    "latitude": "29.976844374133208",
    "geocoded_column": {
      "latitude": "29.976844374133208",
      "longitude": "-90.04927054367766"
    }
  },
  {
    "service_request": "2021-833978",
    "request_type": "Trash/Recycling",
    "request_reason": "Request a Large Item Pick Up",
    "date_created": "2021-10-16T19:35:14.000",
    "date_modified": "2021-10-16T19:35:15.000",
    "request_status": "Pending",
    "responsible_agency": "Department of Sanitation",
    "final_address": "1835 Painters St",
    "address_councildis": "D",
    "status": "Assigned to Contractor",
    "contractor": "Metro Disposal",
    "rowid": "833978",
    "final_x": "3687366.0198",
    "final_y": "539349.39169",
    "longitude": "-90.04927054367766",
    "latitude": "29.976844374133208",
    "geocoded_column": {
      "latitude": "29.976844374133208",
      "longitude": "-90.04927054367766"
    }
  },
  {
    "service_request": "2021-833977",
    "request_type": "Trash/Recycling",
    "request_reason": "Order Recycling Cart",
    "date_created": "2021-10-16T19:33:27.000",
    "date_modified": "2021-10-16T19:33:27.000",
    "request_status": "Pending",
    "responsible_agency": "Department of Sanitation",
    "final_address": "1835 Painters St",
    "address_councildis": "D",
    "status": "Pending",
    "rowid": "833977",
    "final_x": "3687366.0198",
    "final_y": "539349.39169",
    "longitude": "-90.04927054367766",
    "latitude": "29.976844374133208",
    "geocoded_column": {
      "latitude": "29.976844374133208",
      "longitude": "-90.04927054367766"
    }
  },
  {
    "service_request": "2021-833976",
    "request_type": "Roads/Drainage",
    "request_reason": "Accessibility Ramps, Curbs and Sidewalk Repair",
    "date_created": "2021-10-16T19:31:45.000",
    "date_modified": "2021-10-16T19:31:45.000",
    "request_status": "Pending",
    "responsible_agency": "Department of Public Works",
    "final_address": "1835 Painters St",
    "address_councildis": "D",
    "status": "Pending",
    "rowid": "833976",
    "final_x": "3687366.0198",
    "final_y": "539349.39169",
    "longitude": "-90.04927054367766",
    "latitude": "29.976844374133208",
    "geocoded_column": {
      "latitude": "29.976844374133208",
      "longitude": "-90.04927054367766"
    }
  },
  {
    "service_request": "2021-833974",
    "request_type": "Parks & Parkways",
    "request_reason": "Request Tree Service (Right of Way/Public Property)",
    "date_created": "2021-10-16T18:50:17.000",
    "date_modified": "2021-10-16T18:50:17.000",
    "request_status": "Pending",
    "responsible_agency": "Department of Parks & Parkway",
    "final_address": "821 Louisa St",
    "address_councildis": "C",
    "status": "Pending",
    "rowid": "833974",
    "final_x": "3689346.08508",
    "final_y": "534883.912518",
    "longitude": "-90.04317568887538",
    "latitude": "29.96450471541891",
    "geocoded_column": {
      "latitude": "29.96450471541891",
      "longitude": "-90.04317568887538"
    }
  },
  {
    "service_request": "2021-833973",
    "request_type": "Trash/Recycling",
    "request_reason": "Order Recycling Cart",
    "date_created": "2021-10-16T18:10:50.000",
    "date_modified": "2021-10-16T18:10:50.000",
    "request_status": "Pending",
    "responsible_agency": "Department of Sanitation",
    "final_address": "8413 Apple St",
    "address_councildis": "A",
    "status": "Pending",
    "rowid": "833973",
    "final_x": "3664495.69933",
    "final_y": "532937.055044",
    "longitude": "-90.12171670194458",
    "latitude": "29.95989745888859",
    "geocoded_column": {
      "latitude": "29.95989745888859",
      "longitude": "-90.12171670194458"
    }
  },
  {
    "service_request": "2021-833971",
    "request_type": "Traffic Signals/Signs/Striping/Streetlights",
    "request_reason": "Traffic Signal Malfunctioning/Damaged",
    "date_created": "2021-10-16T18:00:28.000",
    "date_modified": "2021-10-16T18:00:28.000",
    "request_status": "Pending",
    "responsible_agency": "Department of Public Works",
    "final_address": "BARONNE ST & WASHINGTON AVE",
    "address_councildis": "B",
    "status": "Pending",
    "rowid": "833971",
    "final_x": "3675516.3",
    "final_y": "523149.68",
    "longitude": "-90.08725213965037",
    "latitude": "29.93266038667893",
    "geocoded_column": {
      "latitude": "29.93266038667893",
      "longitude": "-90.08725213965037"
    }
  },
  {
    "service_request": "2021-833970",
    "request_type": "Trash/Recycling",
    "request_reason": "Missed Trash Pick-Up",
    "date_created": "2021-10-16T17:39:23.000",
    "date_modified": "2021-10-16T17:42:58.000",
    "request_status": "Pending",
    "responsible_agency": "Department of Sanitation",
    "final_address": "3440 Livingston St",
    "address_councildis": "A",
    "status": "Assigned to Contractor",
    "contractor": "Richards Disposal",
    "rowid": "833970",
    "final_x": "3663787.34368",
    "final_y": "537763.037832",
    "longitude": "-90.12379267678396",
    "latitude": "29.97318790087364",
    "geocoded_column": {
      "latitude": "29.97318790087364",
      "longitude": "-90.12379267678396"
    }
  },
  {
    "service_request": "2021-833969",
    "request_type": "Trash/Recycling",
    "request_reason": "Order Trash Cart",
    "date_created": "2021-10-16T17:37:42.000",
    "date_modified": "2021-10-16T17:38:32.000",
    "request_status": "Pending",
    "responsible_agency": "Department of Sanitation",
    "final_address": "3440 Livingston St",
    "address_councildis": "A",
    "status": "Assigned to Contractor",
    "contractor": "Richards Disposal",
    "rowid": "833969",
    "final_x": "3663787.34368",
    "final_y": "537763.037832",
    "longitude": "-90.12379267678396",
    "latitude": "29.97318790087364",
    "geocoded_column": {
      "latitude": "29.97318790087364",
      "longitude": "-90.12379267678396"
    }
  },
  {
    "service_request": "2021-833968",
    "request_type": "Trash/Recycling",
    "request_reason": "Missed Trash Pick-Up",
    "date_created": "2021-10-16T17:36:32.000",
    "date_modified": "2021-10-16T17:36:33.000",
    "request_status": "Pending",
    "responsible_agency": "Department of Sanitation",
    "final_address": "3440 Livingston St",
    "address_councildis": "A",
    "status": "Assigned to Contractor",
    "contractor": "Richards Disposal",
    "rowid": "833968",
    "final_x": "3663787.34368",
    "final_y": "537763.037832",
    "longitude": "-90.12379267678396",
    "latitude": "29.97318790087364",
    "geocoded_column": {
      "latitude": "29.97318790087364",
      "longitude": "-90.12379267678396"
    }
  },
  {
    "service_request": "2021-833967",
    "request_type": "Trash/Recycling",
    "request_reason": "Replace Trash Cart",
    "date_created": "2021-10-16T17:31:43.000",
    "date_modified": "2021-10-16T17:31:44.000",
    "request_status": "Pending",
    "responsible_agency": "Department of Sanitation",
    "final_address": "2515 Palmer Ave",
    "address_councildis": "A",
    "status": "Assigned to Contractor",
    "contractor": "Richards Disposal",
    "rowid": "833967",
    "final_x": "3666549.1698",
    "final_y": "526015.268286",
    "longitude": "-90.11546458584183",
    "latitude": "29.940804929248216",
    "geocoded_column": {
      "latitude": "29.940804929248216",
      "longitude": "-90.11546458584183"
    }
  },
  {
    "service_request": "2021-833965",
    "request_type": "COVID-19",
    "request_reason": "COVID-19 Business Non-Compliance",
    "date_created": "2021-10-16T17:11:18.000",
    "date_modified": "2021-10-16T17:11:19.000",
    "request_status": "Pending",
    "responsible_agency": "Safety and Permits",
    "final_address": "801 Bourbon St",
    "address_councildis": "C",
    "status": "Pending",
    "rowid": "833965",
    "final_x": "3682490.98735",
    "final_y": "533018.672772",
    "longitude": "-90.06488875731978",
    "latitude": "29.959586396383013",
    "geocoded_column": {
      "latitude": "29.959586396383013",
      "longitude": "-90.06488875731978"
    }
  },
  {
    "service_request": "2021-833964",
    "request_type": "Traffic Signals/Signs/Striping/Streetlights",
    "request_reason": "Street Light Outage/Malfunction",
    "date_created": "2021-10-16T16:54:44.000",
    "date_modified": "2021-10-16T16:54:45.000",
    "request_status": "Pending",
    "responsible_agency": "Department of Public Works",
    "final_address": "6800 Memphis St",
    "address_councildis": "A",
    "status": "Pending",
    "contractor": "Royal Engineering",
    "rowid": "833964",
    "final_x": "3669593.25518",
    "final_y": "552677.948566",
    "longitude": "-90.10495142124147",
    "latitude": "30.014028972123743",
    "geocoded_column": {
      "latitude": "30.014028972123743",
      "longitude": "-90.10495142124147"
    }
  },
  {
    "service_request": "2021-833963",
    "request_type": "Property Maintenance",
    "request_reason": "Property Maintenance",
    "date_created": "2021-10-16T16:34:52.000",
    "date_modified": "2021-10-16T16:34:52.000",
    "request_status": "Pending",
    "responsible_agency": "Department of Code Enforcement",
    "final_address": "2128 Valmont St",
    "address_councildis": "B",
    "status": "Pending",
    "rowid": "833963",
    "final_x": "3668075.43098",
    "final_y": "523499.368059",
    "longitude": "-90.11073064869512",
    "latitude": "29.933842318254325",
    "geocoded_column": {
      "latitude": "29.933842318254325",
      "longitude": "-90.11073064869512"
    }
  },
  {
    "service_request": "2021-833961",
    "request_type": "Trash/Recycling",
    "request_reason": "Missed Trash Pick-Up",
    "date_created": "2021-10-16T16:16:51.000",
    "date_modified": "2021-10-16T16:16:51.000",
    "request_status": "Pending",
    "responsible_agency": "Department of Sanitation",
    "final_address": "517 S Murat St",
    "address_councildis": "A",
    "status": "Assigned to Contractor",
    "contractor": "Richards Disposal",
    "rowid": "833961",
    "final_x": "3668602.07079",
    "final_y": "538012.575561",
    "longitude": "-90.10857833471724",
    "latitude": "29.973733419064004",
    "geocoded_column": {
      "latitude": "29.973733419064004",
      "longitude": "-90.10857833471724"
    }
  },
  {
    "service_request": "2021-833960",
    "request_type": "Trash/Recycling",
    "request_reason": "Missed Trash Pick-Up",
    "date_created": "2021-10-16T16:07:57.000",
    "date_modified": "2021-10-16T16:10:06.000",
    "request_status": "Pending",
    "responsible_agency": "Department of Sanitation",
    "final_address": "8809 Heaton St",
    "address_councildis": "A",
    "status": "Assigned to Contractor",
    "contractor": "Richards Disposal",
    "rowid": "833960",
    "final_x": "3667511.47783",
    "final_y": "538270.449481",
    "longitude": "-90.11201399532501",
    "latitude": "29.974474493764895",
    "geocoded_column": {
      "latitude": "29.974474493764895",
      "longitude": "-90.11201399532501"
    }
  },
  {
    "service_request": "2021-833959",
    "request_type": "Parks & Parkways",
    "request_reason": "Request Tree Service (Right of Way/Public Property)",
    "date_created": "2021-10-16T15:51:45.000",
    "date_modified": "2021-10-16T15:51:45.000",
    "request_status": "Pending",
    "responsible_agency": "Department of Parks & Parkway",
    "final_address": "9570 Palm St",
    "address_councildis": "A",
    "status": "Pending",
    "rowid": "833959",
    "final_x": "3663614.46752",
    "final_y": "538334.235465",
    "longitude": "-90.1243196226022",
    "latitude": "29.974763521548727",
    "geocoded_column": {
      "latitude": "29.974763521548727",
      "longitude": "-90.1243196226022"
    }
  },
  {
    "service_request": "2021-833958",
    "request_type": "Health Related Questions",
    "request_reason": "Noise Ordinance Complaint",
    "date_created": "2021-10-16T15:51:22.000",
    "date_modified": "2021-10-16T15:51:22.000",
    "request_status": "Pending",
    "responsible_agency": "Health Department",
    "final_address": "550 Baronne St",
    "address_councildis": "B",
    "status": "Pending",
    "rowid": "833958",
    "final_x": "3679871.27515",
    "final_y": "529133.143296",
    "longitude": "-90.07329612681656",
    "latitude": "29.948981981496516",
    "geocoded_column": {
      "latitude": "29.948981981496516",
      "longitude": "-90.07329612681656"
    }
  },
  {
    "service_request": "2021-833954",
    "request_type": "Roads/Drainage",
    "request_reason": "Pothole",
    "date_created": "2021-10-16T15:15:55.000",
    "date_modified": "2021-10-16T15:15:55.000",
    "request_status": "Pending",
    "responsible_agency": "Department of Public Works",
    "final_address": "1411 Hillary St",
    "address_councildis": "A",
    "status": "Pending",
    "rowid": "833954",
    "final_x": "3663901.51175",
    "final_y": "527696.801407",
    "longitude": "-90.12376770239172",
    "latitude": "29.94550571992468",
    "geocoded_column": {
      "latitude": "29.94550571992468",
      "longitude": "-90.12376770239172"
    }
  },
  {
    "service_request": "2021-833953",
    "request_type": "Roads/Drainage",
    "request_reason": "Pothole",
    "date_created": "2021-10-16T15:13:44.000",
    "date_modified": "2021-10-16T15:13:44.000",
    "request_status": "Pending",
    "responsible_agency": "Department of Public Works",
    "final_address": "7537 Plum St",
    "address_councildis": "A",
    "status": "Pending",
    "rowid": "833953",
    "final_x": "3663721.12416",
    "final_y": "527388.958399",
    "longitude": "-90.12434750229382",
    "latitude": "29.944664485028294",
    "geocoded_column": {
      "latitude": "29.944664485028294",
      "longitude": "-90.12434750229382"
    }
  },
  {
    "service_request": "2021-833952",
    "request_type": "Traffic Signals/Signs/Striping/Streetlights",
    "request_reason": "Traffic Signal Malfunctioning/Damaged",
    "date_created": "2021-10-16T15:09:11.000",
    "date_modified": "2021-10-16T15:09:11.000",
    "request_status": "Pending",
    "responsible_agency": "Department of Public Works",
    "final_address": "St Charles Ave & Martin Luther King Jr Blvd, New Orleans, Louisiana, 70130",
    "status": "Pending",
    "rowid": "833952",
    "longitude": "0.0",
    "latitude": "0.0",
    "geocoded_column": {
      "latitude": "0.0",
      "longitude": "0.0"
    }
  },
  {
    "service_request": "2021-833949",
    "request_type": "Trash/Recycling",
    "request_reason": "Request a Large Item Pick Up",
    "date_created": "2021-10-16T14:49:06.000",
    "date_modified": "2021-10-16T14:49:06.000",
    "request_status": "Pending",
    "responsible_agency": "Department of Sanitation",
    "final_address": "829 Pleasant St",
    "address_councildis": "B",
    "status": "Assigned to Contractor",
    "contractor": "Richards Disposal",
    "rowid": "833949",
    "final_x": "3675973.1444",
    "final_y": "519111.475319",
    "longitude": "-90.08594869846623",
    "latitude": "29.92154296342679",
    "geocoded_column": {
      "latitude": "29.92154296342679",
      "longitude": "-90.08594869846623"
    }
  },
  {
    "service_request": "2021-833947",
    "request_type": "Abandoned Vehicles",
    "request_reason": "Abandoned/Junk Vehicles",
    "date_created": "2021-10-16T14:38:50.000",
    "date_modified": "2021-10-16T14:38:50.000",
    "request_status": "Pending",
    "responsible_agency": "Department of Public Works",
    "final_address": "932 Philip St",
    "address_councildis": "B",
    "status": "Pending",
    "rowid": "833947",
    "final_x": "3678771.01819",
    "final_y": "521448.345977",
    "longitude": "-90.07703614853055",
    "latitude": "29.927884550649317",
    "geocoded_column": {
      "latitude": "29.927884550649317",
      "longitude": "-90.07703614853055"
    }
  },
  {
    "service_request": "2021-833946",
    "request_type": "Trash/Recycling",
    "request_reason": "Missed Trash Pick-Up",
    "date_created": "2021-10-16T14:38:00.000",
    "date_modified": "2021-10-16T14:38:01.000",
    "request_status": "Pending",
    "responsible_agency": "Department of Sanitation",
    "final_address": "4432 Eve St",
    "address_councildis": "B",
    "status": "Assigned to Contractor",
    "contractor": "Richards Disposal",
    "rowid": "833946",
    "final_x": "3669884.47662",
    "final_y": "530994.208322",
    "longitude": "-90.10476586584019",
    "latitude": "29.95439749242937",
    "geocoded_column": {
      "latitude": "29.95439749242937",
      "longitude": "-90.10476586584019"
    }
  },
  {
    "service_request": "2021-833945",
    "request_type": "Abandoned Vehicles",
    "request_reason": "Abandoned/Junk Vehicles",
    "date_created": "2021-10-16T14:35:35.000",
    "date_modified": "2021-10-16T14:35:35.000",
    "request_status": "Pending",
    "responsible_agency": "Department of Public Works",
    "final_address": "932 Philip St",
    "address_councildis": "B",
    "status": "Pending",
    "rowid": "833945",
    "final_x": "3678771.01819",
    "final_y": "521448.345977",
    "longitude": "-90.07703614853055",
    "latitude": "29.927884550649317",
    "geocoded_column": {
      "latitude": "29.927884550649317",
      "longitude": "-90.07703614853055"
    }
  },
  {
    "service_request": "2021-833944",
    "request_type": "Health Related Questions",
    "request_reason": "Noise Ordinance Complaint",
    "date_created": "2021-10-16T14:22:56.000",
    "date_modified": "2021-10-16T14:22:56.000",
    "request_status": "Pending",
    "responsible_agency": "Health Department",
    "final_address": "8327 Hickory",
    "address_councildis": "A",
    "status": "Pending",
    "rowid": "833944",
    "final_x": "3662702.12723",
    "final_y": "530606.734914",
    "longitude": "-90.12745787629152",
    "latitude": "29.95354186039205",
    "geocoded_column": {
      "latitude": "29.95354186039205",
      "longitude": "-90.12745787629152"
    }
  },
  {
    "service_request": "2021-833943",
    "request_type": "COVID-19",
    "request_reason": "COVID-19 Business Non-Compliance",
    "date_created": "2021-10-16T14:17:06.000",
    "date_modified": "2021-10-16T14:17:08.000",
    "request_status": "Pending",
    "responsible_agency": "Safety and Permits",
    "final_address": "3016 S Carrollton Ave",
    "address_councildis": "A",
    "status": "Pending",
    "rowid": "833943",
    "final_x": "3666405.92231",
    "final_y": "533298.800132",
    "longitude": "-90.11567247747831",
    "latitude": "29.9608364608981",
    "geocoded_column": {
      "latitude": "29.9608364608981",
      "longitude": "-90.11567247747831"
    }
  },
  {
    "service_request": "2021-833941",
    "request_type": "Trash/Recycling",
    "request_reason": "Order Recycling Cart",
    "date_created": "2021-10-16T14:13:02.000",
    "date_modified": "2021-10-16T14:13:02.000",
    "request_status": "Pending",
    "responsible_agency": "Department of Sanitation",
    "final_address": "1821 Joliet St",
    "address_councildis": "A",
    "status": "Pending",
    "rowid": "833941",
    "final_x": "3662474.51245",
    "final_y": "531004.134082",
    "longitude": "-90.1281633933603",
    "latitude": "29.95464116434558",
    "geocoded_column": {
      "latitude": "29.95464116434558",
      "longitude": "-90.1281633933603"
    }
  },
  {
    "service_request": "2021-833938",
    "request_type": "Trash/Recycling",
    "request_reason": "Replace Trash Cart",
    "date_created": "2021-10-16T13:46:51.000",
    "date_modified": "2021-10-16T13:46:51.000",
    "request_status": "Pending",
    "responsible_agency": "Department of Sanitation",
    "final_address": "408 Polk St",
    "address_councildis": "A",
    "status": "Assigned to Contractor",
    "contractor": "Metro Disposal",
    "rowid": "833938",
    "final_x": "3667540.31719",
    "final_y": "547270.393745",
    "longitude": "-90.11161985189698",
    "latitude": "29.999220434838143",
    "geocoded_column": {
      "latitude": "29.999220434838143",
      "longitude": "-90.11161985189698"
    }
  },
  {
    "service_request": "2021-833936",
    "request_type": "Parks & Parkways",
    "request_reason": "Request Tree Service (Right of Way/Public Property)",
    "date_created": "2021-10-16T13:15:09.000",
    "date_modified": "2021-10-17T20:26:29.000",
    "request_status": "Pending",
    "responsible_agency": "Department of Parks & Parkway",
    "final_address": "2019 St Philip St",
    "address_councildis": "D",
    "status": "Pending",
    "rowid": "833936",
    "final_x": "3679480.19157",
    "final_y": "536284.746823",
    "longitude": "-90.07428283012412",
    "latitude": "29.96865828842867",
    "geocoded_column": {
      "latitude": "29.96865828842867",
      "longitude": "-90.07428283012412"
    }
  },
  {
    "service_request": "2021-833935",
    "request_type": "Traffic Signals/Signs/Striping/Streetlights",
    "request_reason": "Street Light Outage/Malfunction",
    "date_created": "2021-10-16T12:42:57.000",
    "date_modified": "2021-10-16T12:42:57.000",
    "request_status": "Pending",
    "responsible_agency": "Department of Public Works",
    "final_address": "1614 Broadway St",
    "address_councildis": "A",
    "status": "Pending",
    "contractor": "Royal Engineering",
    "rowid": "833935",
    "final_x": "3664979.81588",
    "final_y": "527819.382335",
    "longitude": "-90.12035903562797",
    "latitude": "29.945811435213955",
    "geocoded_column": {
      "latitude": "29.945811435213955",
      "longitude": "-90.12035903562797"
    }
  },
  {
    "service_request": "2021-833933",
    "request_type": "Abandoned Vehicles",
    "request_reason": "Abandoned/Junk Vehicles",
    "date_created": "2021-10-16T12:35:49.000",
    "date_modified": "2021-10-16T12:35:49.000",
    "request_status": "Pending",
    "responsible_agency": "Department of Public Works",
    "final_address": "2544 Palmyra St",
    "address_councildis": "B",
    "status": "Pending",
    "rowid": "833933",
    "final_x": "3675318.42459",
    "final_y": "534041.655045",
    "longitude": "-90.08750296033722",
    "latitude": "29.96261562827297",
    "geocoded_column": {
      "latitude": "29.96261562827297",
      "longitude": "-90.08750296033722"
    }
  },
  {
    "service_request": "2021-833932",
    "request_type": "Trash/Recycling",
    "request_reason": "Missed Trash Pick-Up",
    "date_created": "2021-10-16T12:32:13.000",
    "date_modified": "2021-10-16T12:32:14.000",
    "request_status": "Pending",
    "responsible_agency": "Department of Sanitation",
    "final_address": "721 Burdette St",
    "address_councildis": "A",
    "status": "Assigned to Contractor",
    "contractor": "Richards Disposal",
    "rowid": "833932",
    "final_x": "3661777.30176",
    "final_y": "526443.457918",
    "longitude": "-90.13051609575066",
    "latitude": "29.94212091083317",
    "geocoded_column": {
      "latitude": "29.94212091083317",
      "longitude": "-90.13051609575066"
    }
  },
  {
    "service_request": "2021-833931",
    "request_type": "Abandoned Vehicles",
    "request_reason": "Abandoned/Junk Vehicles",
    "date_created": "2021-10-16T12:27:51.000",
    "date_modified": "2021-10-16T12:27:51.000",
    "request_status": "Pending",
    "responsible_agency": "Department of Public Works",
    "final_address": "2115 Calhoun St",
    "address_councildis": "A",
    "status": "Pending",
    "rowid": "833931",
    "final_x": "3665722.10106",
    "final_y": "524848.07238",
    "longitude": "-90.11811487886273",
    "latitude": "29.937619659352123",
    "geocoded_column": {
      "latitude": "29.937619659352123",
      "longitude": "-90.11811487886273"
    }
  },
  {
    "service_request": "2021-833929",
    "request_type": "Traffic Signals/Signs/Striping/Streetlights",
    "request_reason": "Street Light Outage/Malfunction",
    "date_created": "2021-10-16T12:26:34.000",
    "date_modified": "2021-10-16T12:26:35.000",
    "request_status": "Pending",
    "responsible_agency": "Department of Public Works",
    "final_address": "4617 Tchoupitoulas St",
    "address_councildis": "B",
    "status": "Pending",
    "contractor": "Royal Engineering",
    "rowid": "833929",
    "final_x": "3670283.01402",
    "final_y": "517407.142773",
    "longitude": "-90.10396773847461",
    "latitude": "29.91702568781164",
    "geocoded_column": {
      "latitude": "29.91702568781164",
      "longitude": "-90.10396773847461"
    }
  },
  {
    "service_request": "2021-833928",
    "request_type": "Traffic Signals/Signs/Striping/Streetlights",
    "request_reason": "Street Light Outage/Malfunction",
    "date_created": "2021-10-16T12:24:20.000",
    "date_modified": "2021-10-16T12:24:20.000",
    "request_status": "Pending",
    "responsible_agency": "Department of Public Works",
    "final_address": "TULANE AVE & S CLAIBORNE AVE",
    "address_councildis": "B",
    "status": "Pending",
    "contractor": "Royal Engineering",
    "rowid": "833928",
    "final_x": "3677827.0",
    "final_y": "531928.38",
    "longitude": "-90.07965422895589",
    "latitude": "29.956729600430034",
    "geocoded_column": {
      "latitude": "29.956729600430034",
      "longitude": "-90.07965422895589"
    }
  },
  {
    "service_request": "2021-833926",
    "request_type": "Trash/Recycling",
    "request_reason": "Request a Large Item Pick Up",
    "date_created": "2021-10-16T12:11:08.000",
    "date_modified": "2021-10-16T12:11:09.000",
    "request_status": "Pending",
    "responsible_agency": "Department of Sanitation",
    "final_address": "613 S Solomon St",
    "address_councildis": "A",
    "status": "Assigned to Contractor",
    "contractor": "Richards Disposal",
    "rowid": "833926",
    "final_x": "3669264.32743",
    "final_y": "537040.6722",
    "longitude": "-90.10651964223528",
    "latitude": "29.971041530445685",
    "geocoded_column": {
      "latitude": "29.971041530445685",
      "longitude": "-90.10651964223528"
    }
  },
  {
    "service_request": "2021-833924",
    "request_type": "Trash/Recycling",
    "request_reason": "Illegal Dumping",
    "date_created": "2021-10-16T12:00:17.000",
    "date_modified": "2021-10-16T12:00:17.000",
    "request_status": "Pending",
    "responsible_agency": "Department of Sanitation",
    "final_address": "711 St Peter St",
    "address_councildis": "C",
    "status": "Pending",
    "rowid": "833924",
    "final_x": "3682468.9501",
    "final_y": "532523.917508",
    "longitude": "-90.06497563951744",
    "latitude": "29.95822665898747",
    "geocoded_column": {
      "latitude": "29.95822665898747",
      "longitude": "-90.06497563951744"
    }
  },
  {
    "service_request": "2021-833921",
    "request_type": "Trash/Recycling",
    "request_reason": "Illegal Dumping",
    "date_created": "2021-10-16T11:54:13.000",
    "date_modified": "2021-10-16T11:54:13.000",
    "request_status": "Pending",
    "responsible_agency": "Department of Sanitation",
    "final_address": "2304 Independence St",
    "address_councildis": "D",
    "status": "Pending",
    "rowid": "833921",
    "final_x": "3692054.05059",
    "final_y": "540102.791371",
    "longitude": "-90.03443734859448",
    "latitude": "29.978770667418676",
    "geocoded_column": {
      "latitude": "29.978770667418676",
      "longitude": "-90.03443734859448"
    }
  },
  {
    "service_request": "2021-833918",
    "request_type": "Traffic Signals/Signs/Striping/Streetlights",
    "request_reason": "Street Light Outage/Malfunction",
    "date_created": "2021-10-16T11:51:10.000",
    "date_modified": "2021-10-16T11:51:11.000",
    "request_status": "Pending",
    "responsible_agency": "Department of Public Works",
    "final_address": "3049 St Peter St",
    "address_councildis": "A",
    "status": "Pending",
    "contractor": "Royal Engineering",
    "rowid": "833918",
    "final_x": "3675343.2043",
    "final_y": "537905.029833",
    "longitude": "-90.08729204044064",
    "latitude": "29.973237859186984",
    "geocoded_column": {
      "latitude": "29.973237859186984",
      "longitude": "-90.08729204044064"
    }
  },
  {
    "service_request": "2021-833917",
    "request_type": "Traffic Signals/Signs/Striping/Streetlights",
    "request_reason": "Traffic Sign Missing/Damaged",
    "date_created": "2021-10-16T11:47:22.000",
    "date_modified": "2021-10-16T11:47:22.000",
    "request_status": "Pending",
    "responsible_agency": "Department of Public Works",
    "final_address": "2300 Mandeville St",
    "address_councildis": "D",
    "status": "Pending",
    "rowid": "833917",
    "final_x": "3685382.27477",
    "final_y": "540826.517515",
    "longitude": "-90.05548379766218",
    "latitude": "29.980966927695484",
    "geocoded_column": {
      "latitude": "29.980966927695484",
      "longitude": "-90.05548379766218"
    }
  },
  {
    "service_request": "2021-833916",
    "request_type": "Property Maintenance",
    "request_reason": "Property Maintenance",
    "date_created": "2021-10-16T11:47:04.000",
    "date_modified": "2021-10-16T11:47:04.000",
    "request_status": "Pending",
    "responsible_agency": "Department of Code Enforcement",
    "final_address": "5820 Louis Xiv St",
    "address_councildis": "A",
    "status": "Pending",
    "rowid": "833916",
    "final_x": "3667916.88148",
    "final_y": "546260.137296",
    "longitude": "-90.11046433195173",
    "latitude": "29.996431532831036",
    "geocoded_column": {
      "latitude": "29.996431532831036",
      "longitude": "-90.11046433195173"
    }
  },