[
  {
    "service_request": "2023-1046340",
    "request_type": "Roads/Drainage",
    "request_reason": "Pothole",
    "date_created": "2023-10-27T02:10:01.000",
    "date_modified": "2023-10-27T02:10:01.000",
    "request_status": "Pending",
    "responsible_agency": "Department of Public Works",
    "final_address": "1200 BLK Amelia St",
    "address_councildis": "B",
    "status": "Pending",
    "rowid": "1046340",
    "final_x": "3673521.46558",
    "final_y": "519660.816109",
    "longitude": "-90.09366883741032",
    "latitude": "29.923126634409968",
    "geocoded_column": {
      "latitude": "29.923126634409968",
      "longitude": "-90.09366883741032"
    }
  },
  {
    "service_request": "2023-1046339",
    "request_type": "Roads/Drainage",
    "request_reason": "Pothole",
    "date_created": "2023-10-26T23:50:51.000",
    "date_modified": "2023-10-26T23:50:51.000",
    "request_status": "Pending",
    "responsible_agency": "Department of Public Works",
    "final_address": "1302 Constantinople St",
    "address_councildis": "B",
    "status": "Pending",
    "rowid": "1046339",
    "final_x": "3672316.43828",
    "final_y": "520252.107512",
    "longitude": "-90.09745252227002",
    "latitude": "29.924788289127164",
    "geocoded_column": {
      "latitude": "29.924788289127164",
      "longitude": "-90.09745252227002"
    }
  },
  {
    "service_request": "2023-1046338",
    "request_type": "Roads/Drainage",
    "request_reason": "Pothole",
    "date_created": "2023-10-26T23:30:44.000",
    "date_modified": "2023-10-26T23:30:44.000",
    "request_status": "Pending",
    "responsible_agency": "Department of Public Works",
    "final_address": "1423 General Pershing St",
    "address_councildis": "B",
    "status": "Pending",
    "rowid": "1046338",
    "final_x": "3671330.69185",
    "final_y": "520571.244024",
    "longitude": "-90.1005533659415",
    "latitude": "29.925695010510914",
    "geocoded_column": {
      "latitude": "29.925695010510914",
      "longitude": "-90.1005533659415"
    }
  },
  {
    "service_request": "2023-1046337",
    "request_type": "Roads/Drainage",
    "request_reason": "Pothole",
    "date_created": "2023-10-26T23:16:11.000",
    "date_modified": "2023-10-26T23:16:11.000",
    "request_status": "Pending",
    "responsible_agency": "Department of Public Works",
    "final_address": "1121 Delachaise St",
    "address_councildis": "B",
    "status": "Pending",
    "rowid": "1046337",
    "final_x": "3674628.67368",
    "final_y": "519659.70508",
    "longitude": "-90.09017383979923",
    "latitude": "29.923090595493154",
    "geocoded_column": {
      "latitude": "29.923090595493154",
      "longitude": "-90.09017383979923"
    }
  },
  {
    "service_request": "2023-1046336",
    "request_type": "Property Maintenance",
    "request_reason": "Property Maintenance",
    "date_created": "2023-10-26T22:52:24.000",
    "date_modified": "2023-10-26T22:52:24.000",
    "request_status": "Pending",
    "responsible_agency": "Department of Code Enforcement",
    "final_address": "1804 Desire St",
    "address_councildis": "D",
    "status": "Pending",
    "rowid": "1046336",
    "final_x": "3690809.55721",
    "final_y": "538404.836873",
    "longitude": "-90.03842851753875",
    "latitude": "29.974140627000597",
    "geocoded_column": {
      "latitude": "29.974140627000597",
      "longitude": "-90.03842851753875"
    }
  },
  {
    "service_request": "2023-1046335",
    "request_type": "Property Maintenance",
    "request_reason": "Property Maintenance",
    "date_created": "2023-10-26T22:49:17.000",
    "date_modified": "2023-10-26T22:49:17.000",
    "request_status": "Pending",
    "responsible_agency": "Department of Code Enforcement",
    "final_address": "1808 Desire St",
    "address_councildis": "D",
    "status": "Pending",
    "rowid": "1046335",
    "final_x": "3690818.91708",
    "final_y": "538432.301321",
    "longitude": "-90.03839797676963",
    "latitude": "29.974215853654368",
    "geocoded_column": {
      "latitude": "29.974215853654368",
      "longitude": "-90.03839797676963"
    }
  },
  {
    "service_request": "2023-1046333",
    "request_type": "Roads/Drainage",
    "request_reason": "Pothole",
    "date_created": "2023-10-26T22:13:42.000",
    "date_modified": "2023-10-26T22:13:42.000",
    "request_status": "Pending",
    "responsible_agency": "Department of Public Works",
    "final_address": "1312 Milan St",
    "address_councildis": "B",
    "status": "Pending",
    "rowid": "1046333",
    "final_x": "3671625.82823",
    "final_y": "520286.919608",
    "longitude": "-90.09963137110304",
    "latitude": "29.92490447494246",
    "geocoded_column": {
      "latitude": "29.92490447494246",
      "longitude": "-90.09963137110304"
    }
  },
  {
    "service_request": "2023-1046332",
    "request_type": "Trash/Recycling",
    "request_reason": "Replace Trash Cart",
    "date_created": "2023-10-26T21:22:13.000",
    "date_modified": "2023-10-26T21:22:14.000",
    "request_status": "Pending",
    "responsible_agency": "Department of Sanitation",
    "final_address": "5621 Bancroft Dr",
    "address_councildis": "D",
    "status": "Assigned to Contractor",
    "contractor": "IV Waste",
    "rowid": "1046332",
    "final_x": "3676618.07701",
    "final_y": "552778.630806",
    "longitude": "-90.08275305615939",
    "latitude": "30.014096869827817",
    "geocoded_column": {
      "latitude": "30.014096869827817",
      "longitude": "-90.08275305615939"
    }
  },
  {
    "service_request": "2023-1046331",
    "request_type": "Trash/Recycling",
    "request_reason": "Replace Trash Cart",
    "date_created": "2023-10-26T21:18:15.000",
    "date_modified": "2023-10-26T21:18:16.000",
    "request_status": "Pending",
    "responsible_agency": "Department of Sanitation",
    "final_address": "6721 Dorchester St",
    "address_councildis": "E",
    "status": "Assigned to Contractor",
    "contractor": "Waste Pro",
    "rowid": "1046331",
    "final_x": "3698161.05565",
    "final_y": "559318.216605",
    "longitude": "-90.0144506957084",
    "latitude": "30.03141414665793",
    "geocoded_column": {
      "latitude": "30.03141414665793",
      "longitude": "-90.0144506957084"
    }
  },
  {
    "service_request": "2023-1046330",
    "request_type": "Trash/Recycling",
    "request_reason": "Replace Trash Cart",
    "date_created": "2023-10-26T21:08:14.000",
    "date_modified": "2023-10-26T21:08:15.000",
    "request_status": "Pending",
    "responsible_agency": "Department of Sanitation",
    "final_address": "4516 S Johnson St",
    "address_councildis": "B",
    "status": "Assigned to Contractor",
    "contractor": "Richards Disposal",
    "rowid": "1046330",
    "final_x": "3669669.54791",
    "final_y": "527114.140159",
    "longitude": "-90.10557580399863",
    "latitude": "29.943734908074532",
    "geocoded_column": {
      "latitude": "29.943734908074532",
      "longitude": "-90.10557580399863"
    }
  },
  {
    "service_request": "2023-1046329",
    "request_type": "Traffic Signals/Signs/Striping/Streetlights",
    "request_reason": "Street Light Outage/Malfunction",
    "date_created": "2023-10-26T20:46:59.000",
    "date_modified": "2023-10-26T20:47:00.000",
    "request_status": "Pending",
    "responsible_agency": "Department of Public Works",
    "final_address": "5364 Laurel St",
    "address_councildis": "B",
    "status": "Assigned to Contractor",
    "contractor": "Legacy Professional Services",
    "rowid": "1046329",
    "final_x": "3666813.59425",
    "final_y": "517842.992886",
    "longitude": "-90.11490410689709",
    "latitude": "29.918326035157133",
    "geocoded_column": {
      "latitude": "29.918326035157133",
      "longitude": "-90.11490410689709"
    }
  },
  {
    "service_request": "2023-1046328",
    "request_type": "Traffic Signals/Signs/Striping/Streetlights",
    "request_reason": "Street Light Outage/Malfunction",
    "date_created": "2023-10-26T20:43:55.000",
    "date_modified": "2023-10-26T20:43:56.000",
    "request_status": "Pending",
    "responsible_agency": "Department of Public Works",
    "final_address": "5364 Laurel St",
    "address_councildis": "B",
    "status": "Assigned to Contractor",
    "contractor": "Legacy Professional Services",
    "rowid": "1046328",
    "final_x": "3666813.59425",
    "final_y": "517842.992886",
    "longitude": "-90.11490410689709",
    "latitude": "29.918326035157133",
    "geocoded_column": {
      "latitude": "29.918326035157133",
      "longitude": "-90.11490410689709"
    }
  },
  {
    "service_request": "2023-1046327",
    "request_type": "Roads/Drainage",
    "request_reason": "Pothole",
    "date_created": "2023-10-26T20:43:46.000",
    "date_modified": "2023-10-26T20:43:46.000",
    "request_status": "Pending",
    "responsible_agency": "Department of Public Works",
    "final_address": "6019 Chestnut St",
    "address_councildis": "A",
    "status": "Pending",
    "rowid": "1046327",
    "final_x": "3664762.62535",
    "final_y": "519948.884408",
    "longitude": "-90.12130763332809",
    "latitude": "29.92417638659354",
    "geocoded_column": {
      "latitude": "29.92417638659354",
      "longitude": "-90.12130763332809"
    }
  },
  {
    "service_request": "2023-1046326",
    "request_type": "Trash/Recycling",
    "request_reason": "MIssed Recycling Pick-Up",
    "date_created": "2023-10-26T20:39:40.000",
    "date_modified": "2023-10-26T20:39:41.000",
    "request_status": "Pending",
    "responsible_agency": "Department of Sanitation",
    "final_address": "2319 Upperline St",
    "address_councildis": "B",
    "status": "Assigned to Contractor",
    "contractor": "Richards Disposal",
    "rowid": "1046326",
    "final_x": "3669227.1458",
    "final_y": "523354.657915",
    "longitude": "-90.10709961506116",
    "latitude": "29.933410571603417",
    "geocoded_column": {
      "latitude": "29.933410571603417",
      "longitude": "-90.10709961506116"
    }
  },
  {
    "service_request": "2023-1046325",
    "request_type": "Roads/Drainage",
    "request_reason": "Pothole",
    "date_created": "2023-10-26T20:35:31.000",
    "date_modified": "2023-10-26T20:35:31.000",
    "request_status": "Pending",
    "responsible_agency": "Department of Public Works",
    "final_address": "5929 Chestnut St",
    "address_councildis": "A",
    "status": "Pending",
    "rowid": "1046325",
    "final_x": "3665179.07604",
    "final_y": "519869.398712",
    "longitude": "-90.11999569598656",
    "latitude": "29.92394570684376",
    "geocoded_column": {
      "latitude": "29.92394570684376",
      "longitude": "-90.11999569598656"
    }
  },
  {
    "service_request": "2023-1046324",
    "request_type": "Roads/Drainage",
    "request_reason": "Pothole",
    "date_created": "2023-10-26T20:31:00.000",
    "date_modified": "2023-10-26T20:31:00.000",
    "request_status": "Pending",
    "responsible_agency": "Department of Public Works",
    "final_address": "5911 Pitt St",
    "address_councildis": "A",
    "status": "Pending",
    "rowid": "1046324",
    "final_x": "3665593.70816",
    "final_y": "521157.144249",
    "longitude": "-90.11864375351159",
    "latitude": "29.927474522277453",
    "geocoded_column": {
      "latitude": "29.927474522277453",
      "longitude": "-90.11864375351159"
    }
  },
  {
    "service_request": "2023-1046323",
    "request_type": "Trash/Recycling",
    "request_reason": "Missed Trash Pick-Up",
    "date_created": "2023-10-26T20:30:34.000",
    "date_modified": "2023-10-26T20:30:35.000",
    "request_status": "Pending",
    "responsible_agency": "Department of Sanitation",
    "final_address": "3325 Annunciation St",
    "address_councildis": "B",
    "status": "Assigned to Contractor",
    "contractor": "Richards Disposal",
    "rowid": "1046323",
    "final_x": "3675638.56136",
    "final_y": "518730.753847",
    "longitude": "-90.08701790456189",
    "latitude": "29.920506112791617",
    "geocoded_column": {
      "latitude": "29.920506112791617",
      "longitude": "-90.08701790456189"
    }
  },
  {
    "service_request": "2023-1046322",
    "request_type": "Trash/Recycling",
    "request_reason": "Illegal Dumping",
    "date_created": "2023-10-26T20:26:39.000",
    "date_modified": "2023-10-26T20:26:39.000",
    "request_status": "Pending",
    "responsible_agency": "Department of Sanitation",
    "final_address": "4300 BLK France Rd",
    "address_councildis": "D",
    "status": "Pending",
    "rowid": "1046322",
    "final_x": "3693397.0131",
    "final_y": "550512.040496",
    "longitude": "-90.02982178448859",
    "latitude": "30.007350383839626",
    "geocoded_column": {
      "latitude": "30.007350383839626",
      "longitude": "-90.02982178448859"
    }
  },
  {
    "service_request": "2023-1046321",
    "request_type": "Trash/Recycling",
    "request_reason": "MIssed Recycling Pick-Up",
    "date_created": "2023-10-26T20:22:25.000",
    "date_modified": "2023-10-26T20:22:26.000",
    "request_status": "Pending",
    "responsible_agency": "Department of Sanitation",
    "final_address": "2330 Jena St",
    "address_councildis": "B",
    "status": "Assigned to Contractor",
    "contractor": "Richards Disposal",
    "rowid": "1046321",
    "final_x": "3670128.65767",
    "final_y": "523578.310267",
    "longitude": "-90.10424601378064",
    "latitude": "29.933998985043004",
    "geocoded_column": {
      "latitude": "29.933998985043004",
      "longitude": "-90.10424601378064"
    }
  },
  {
    "service_request": "2023-1046320",
    "request_type": "Trash/Recycling",
    "request_reason": "Illegal Dumping",
    "date_created": "2023-10-26T20:17:55.000",
    "date_modified": "2023-10-26T20:17:55.000",
    "request_status": "Pending",
    "responsible_agency": "Department of Sanitation",
    "final_address": "4300 BLK France Rd",
    "address_councildis": "D",
    "status": "Pending",
    "rowid": "1046320",
    "final_x": "3693397.0131",
    "final_y": "550512.040496",
    "longitude": "-90.02982178448859",
    "latitude": "30.007350383839626",
    "geocoded_column": {
      "latitude": "30.007350383839626",
      "longitude": "-90.02982178448859"
    }
  },
  {
    "service_request": "2023-1046319",
    "request_type": "Trash/Recycling",
    "request_reason": "Request a Large Item Pick Up",
    "date_created": "2023-10-26T19:39:58.000",
    "date_modified": "2023-10-26T19:39:59.000",
    "request_status": "Pending",
    "responsible_agency": "Department of Sanitation",
    "final_address": "8701 Cohn St",
    "address_councildis": "A",
    "status": "Assigned to Contractor",
    "contractor": "Richards Disposal",
    "rowid": "1046319",
    "final_x": "3662037.86349",
    "final_y": "531681.586755",
    "longitude": "-90.12951969508444",
    "latitude": "29.956516561066863",
    "geocoded_column": {
      "latitude": "29.956516561066863",
      "longitude": "-90.12951969508444"
    }
  },
  {
    "service_request": "2023-1046318",
    "request_type": "Mosquito, Termite & Rodent Control",
    "request_reason": "Rodent Complaint (Rats)",
    "date_created": "2023-10-26T19:14:26.000",
    "date_modified": "2023-10-26T19:14:26.000",
    "request_status": "Pending",
    "responsible_agency": "Mosquito, Termite & Rodent Control Board",
    "final_address": "839 Jourdan Ave",
    "address_councildis": "E",
    "status": "Pending",
    "rowid": "1046318",
    "final_x": "3694847.73757",
    "final_y": "533681.172677",
    "longitude": "-90.0258453064925",
    "latitude": "29.961026129228564",
    "geocoded_column": {
      "latitude": "29.961026129228564",
      "longitude": "-90.0258453064925"
    }
  },
  {
    "service_request": "2023-1046317",
    "request_type": "Roads/Drainage",
    "request_reason": "Catch Basin - Clogged",
    "date_created": "2023-10-26T18:28:48.000",
    "date_modified": "2023-10-26T18:28:48.000",
    "request_status": "Pending",
    "responsible_agency": "Department of Public Works",
    "final_address": "2472 Bedford Dr",
    "address_councildis": "C",
    "status": "Pending",
    "rowid": "1046317",
    "final_x": "3705275.6387",
    "final_y": "521779.81849",
    "longitude": "-89.99335568763448",
    "latitude": "29.92797033317305",
    "geocoded_column": {
      "latitude": "29.92797033317305",
      "longitude": "-89.99335568763448"
    }
  },
  {
    "service_request": "2023-1046316",
    "request_type": "Trash/Recycling",
    "request_reason": "Request a Large Item Pick Up",
    "date_created": "2023-10-26T18:22:05.000",
    "date_modified": "2023-10-26T18:22:06.000",
    "request_status": "Pending",
    "responsible_agency": "Department of Sanitation",
    "final_address": "6332 Cartwright Dr",
    "address_councildis": "D",
    "status": "Assigned to Contractor",
    "contractor": "IV Waste",
    "rowid": "1046316",
    "final_x": "3678620.07483",
    "final_y": "556814.17801",
    "longitude": "-90.07628787538283",
    "latitude": "30.025132928347073",
    "geocoded_column": {
      "latitude": "30.025132928347073",
      "longitude": "-90.07628787538283"
    }
  },
  {
    "service_request": "2023-1046314",
    "request_type": "Utility Poles",
    "request_reason": "Utility Pole Leaning",
    "date_created": "2023-10-26T18:15:46.000",
    "date_modified": "2023-10-26T18:15:52.000",
    "request_status": "Pending",
    "responsible_agency": "Utility Company Collective",
    "final_address": "AURORA DR & BRUNSWICK CT",
    "address_councildis": "C",
    "status": "Pending",
    "rowid": "1046314",
    "final_x": "3706882.1",
    "final_y": "517074.98",
    "longitude": "-89.98845882255914",
    "latitude": "29.914981912534355",
    "geocoded_column": {
      "latitude": "29.914981912534355",
      "longitude": "-89.98845882255914"
    }
  },
  {
    "service_request": "2023-1046313",
    "request_type": "Safety & Permits",
    "request_reason": "Licenses & Permits",
    "date_created": "2023-10-26T18:15:43.000",
    "date_modified": "2023-10-26T18:15:43.000",
    "request_status": "Pending",
    "responsible_agency": "Safety and Permits",
    "final_address": "4523 Magazine St",
    "address_councildis": "B",
    "status": "Pending",
    "rowid": "1046313",
    "final_x": "3670459.91399",
    "final_y": "518764.599223",
    "longitude": "-90.10336337284775",
    "latitude": "29.920753043460966",
    "geocoded_column": {
      "latitude": "29.920753043460966",
      "longitude": "-90.10336337284775"
    }
  },
  {
    "service_request": "2023-1046312",
    "request_type": "Property Maintenance",
    "request_reason": "Property Maintenance",
    "date_created": "2023-10-26T18:15:39.000",
    "date_modified": "2023-10-26T18:15:39.000",
    "request_status": "Pending",
    "responsible_agency": "Department of Code Enforcement",
    "final_address": "2472 Bedford Dr",
    "address_councildis": "C",
    "status": "Pending",
    "rowid": "1046312",
    "final_x": "3705275.6387",
    "final_y": "521779.81849",
    "longitude": "-89.99335568763448",
    "latitude": "29.92797033317305",
    "geocoded_column": {
      "latitude": "29.92797033317305",
      "longitude": "-89.99335568763448"
    }
  },
  {
    "service_request": "2023-1046311",
    "request_type": "Traffic Signals/Signs/Striping/Streetlights",
    "request_reason": "Street Light Outage/Malfunction",
    "date_created": "2023-10-26T18:10:17.000",
    "date_modified": "2023-10-26T18:10:18.000",
    "request_status": "Pending",
    "responsible_agency": "Department of Public Works",
    "final_address": "2472 Bedford Dr",
    "address_councildis": "C",
    "status": "Assigned to Contractor",
    "contractor": "Legacy Professional Services",
    "rowid": "1046311",
    "final_x": "3705275.6387",
    "final_y": "521779.81849",
    "longitude": "-89.99335568763448",
    "latitude": "29.92797033317305",
    "geocoded_column": {
      "latitude": "29.92797033317305",
      "longitude": "-89.99335568763448"
    }
  },
  {
    "service_request": "2023-1046310",
    "request_type": "Trash/Recycling",
    "request_reason": "Request a Large Item Pick Up",
    "date_created": "2023-10-26T18:10:08.000",
    "date_modified": "2023-10-26T18:10:09.000",
    "request_status": "Pending",
    "responsible_agency": "Department of Sanitation",
    "status": "Assigned to Contractor",
    "rowid": "1046310",
    "longitude": "0.0",
    "latitude": "0.0",
    "geocoded_column": {
      "latitude": "0.0",
      "longitude": "0.0"
    }
  },
  {
    "service_request": "2023-1046309",
    "request_type": "Trash/Recycling",
    "request_reason": "MIssed Recycling Pick-Up",
    "date_created": "2023-10-26T17:57:15.000",
    "date_modified": "2023-10-26T17:57:16.000",
    "request_status": "Pending",
    "responsible_agency": "Department of Sanitation",
    "final_address": "6220 Freret St",
    "address_councildis": "A",
    "status": "Assigned to Contractor",
    "contractor": "Richards Disposal",
    "rowid": "1046309",
    "final_x": "3665733.71892",
    "final_y": "524645.390204",
    "longitude": "-90.11808498670464",
    "latitude": "29.93706200929093",
    "geocoded_column": {
      "latitude": "29.93706200929093",
      "longitude": "-90.11808498670464"
    }
  },
  {
    "service_request": "2023-1046308",
    "request_type": "Roads/Drainage",
    "request_reason": "Catch Basin - Clogged",
    "date_created": "2023-10-26T17:24:33.000",
    "date_modified": "2023-10-26T17:24:33.000",
    "request_status": "Pending",
    "responsible_agency": "Department of Public Works",
    "final_address": "6201 Memphis St",
    "address_councildis": "A",
    "status": "Pending",
    "rowid": "1046308",
    "final_x": "3669379.9842",
    "final_y": "548569.609491",
    "longitude": "-90.10576431258646",
    "latitude": "30.00273876467606",
    "geocoded_column": {
      "latitude": "30.00273876467606",
      "longitude": "-90.10576431258646"
    }
  },
  {
    "service_request": "2023-1046307",
    "request_type": "Trash/Recycling",
    "request_reason": "Order Recycling Cart",
    "date_created": "2023-10-26T17:23:47.000",
    "date_modified": "2023-10-26T17:23:47.000",
    "request_status": "Pending",
    "responsible_agency": "Department of Sanitation",
    "final_address": "1908 Short St",
    "address_councildis": "A",
    "status": "Pending",
    "rowid": "1046307",
    "final_x": "3664006.88391",
    "final_y": "529999.480961",
    "longitude": "-90.12335823438305",
    "latitude": "29.951834287900574",
    "geocoded_column": {
      "latitude": "29.951834287900574",
      "longitude": "-90.12335823438305"
    }
  },
  {
    "service_request": "2023-1046306",
    "request_type": "Traffic Signals/Signs/Striping/Streetlights",
    "request_reason": "Street Light Outage/Malfunction",
    "date_created": "2023-10-26T16:54:39.000",
    "date_modified": "2023-10-26T16:54:39.000",
    "request_status": "Pending",
    "responsible_agency": "Department of Public Works",
    "final_address": "30 Neron Pl",
    "address_councildis": "A",
    "status": "Assigned to Contractor",
    "contractor": "Legacy Professional Services",
    "rowid": "1046306",
    "final_x": "3665145.95642",
    "final_y": "530647.147394",
    "longitude": "-90.11973991104523",
    "latitude": "29.953582037411067",
    "geocoded_column": {
      "latitude": "29.953582037411067",
      "longitude": "-90.11973991104523"
    }
  },
  {
    "service_request": "2023-1046305",
    "request_type": "Trash/Recycling",
    "request_reason": "Return Recycling Cart",
    "date_created": "2023-10-26T16:54:22.000",
    "date_modified": "2023-10-26T16:54:22.000",
    "request_status": "Pending",
    "responsible_agency": "Department of Sanitation",
    "final_address": "10901 Morrison Rd",
    "address_councildis": "E",
    "status": "Pending",
    "rowid": "1046305",
    "final_x": "3710752.20824",
    "final_y": "564858.67101",
    "longitude": "-89.97445486473423",
    "latitude": "30.046243680097923",
    "geocoded_column": {
      "latitude": "30.046243680097923",
      "longitude": "-89.97445486473423"
    }
  },
  {
    "service_request": "2023-1046304",
    "request_type": "Abandoned Vehicles",
    "request_reason": "Abandoned/Junk Vehicles",
    "date_created": "2023-10-26T16:53:11.000",
    "date_modified": "2023-10-26T16:53:12.000",
    "request_status": "Pending",
    "responsible_agency": "Department of Public Works",
    "final_address": "7925 Danube Rd",
    "address_councildis": "E",
    "status": "Pending",
    "rowid": "1046304",
    "final_x": "3699107.39114",
    "final_y": "561162.620318",
    "longitude": "-90.01139301126035",
    "latitude": "30.036455559216094",
    "geocoded_column": {
      "latitude": "30.036455559216094",
      "longitude": "-90.01139301126035"
    }
  },
  {
    "service_request": "2023-1046303",
    "request_type": "Abandoned Vehicles",
    "request_reason": "Abandoned/Junk Vehicles",
    "date_created": "2023-10-26T16:50:40.000",
    "date_modified": "2023-10-26T16:50:41.000",
    "request_status": "Pending",
    "responsible_agency": "Department of Public Works",
    "final_address": "1923 Broadway St",
    "address_councildis": "A",
    "status": "Pending",
    "rowid": "1046303",
    "final_x": "3665748.95872",
    "final_y": "528748.8384",
    "longitude": "-90.1178994570326",
    "latitude": "29.94834472881468",
    "geocoded_column": {
      "latitude": "29.94834472881468",
      "longitude": "-90.1178994570326"
    }
  },
  {
    "service_request": "2023-1046302",
    "request_type": "Abandoned Vehicles",
    "request_reason": "Abandoned/Junk Vehicles",
    "date_created": "2023-10-26T16:44:18.000",
    "date_modified": "2023-10-26T16:44:18.000",
    "request_status": "Pending",
    "responsible_agency": "Department of Public Works",
    "final_address": "5105 Arts St",
    "address_councildis": "D",
    "status": "Pending",
    "rowid": "1046302",
    "final_x": "3685923.80489",
    "final_y": "551569.414869",
    "longitude": "-90.05339438969244",
    "latitude": "30.010489422674272",
    "geocoded_column": {
      "latitude": "30.010489422674272",
      "longitude": "-90.05339438969244"
    }
  },
  {
    "service_request": "2023-1046301",
    "request_type": "EMS",
    "request_reason": "EMS Lost & Found",
    "date_created": "2023-10-26T16:39:32.000",
    "date_modified": "2023-10-26T16:39:33.000",
    "request_status": "Pending",
    "responsible_agency": "Emergency Medical Services",
    "final_address": "6101 Elysian Fields Ave",
    "address_councildis": "D",
    "status": "Pending",
    "rowid": "1046301",
    "final_x": "3683644.72847",
    "final_y": "555428.070169",
    "longitude": "-90.06045942538982",
    "latitude": "30.02116911755832",
    "geocoded_column": {
      "latitude": "30.02116911755832",
      "longitude": "-90.06045942538982"
    }
  },
  {
    "service_request": "2023-1046300",
    "request_type": "Trash/Recycling",
    "request_reason": "Request a Large Item Pick Up",
    "date_created": "2023-10-26T16:34:31.000",
    "date_modified": "2023-10-26T16:34:31.000",
    "request_status": "Pending",
    "responsible_agency": "Department of Sanitation",
    "final_address": "7100 W Renaissance Ct",
    "address_councildis": "E",
    "status": "Assigned to Contractor",
    "contractor": "Waste Pro",
    "rowid": "1046300",
    "final_x": "3716682.47039",
    "final_y": "567474.793124",
    "longitude": "-89.95561299703873",
    "latitude": "30.05324223470412",
    "geocoded_column": {
      "latitude": "30.05324223470412",
      "longitude": "-89.95561299703873"
    }
  },
  {
    "service_request": "2023-1046299",
    "request_type": "Trash/Recycling",
    "request_reason": "Replace Recycling Cart",
    "date_created": "2023-10-26T16:30:46.000",
    "date_modified": "2023-10-26T16:30:47.000",
    "request_status": "Pending",
    "responsible_agency": "Department of Sanitation",
    "final_address": "5230 Coliseum St",
    "address_councildis": "B",
    "status": "Pending",
    "rowid": "1046299",
    "final_x": "3667820.14401",
    "final_y": "519614.25996",
    "longitude": "-90.1116673485381",
    "latitude": "29.92316699302886",
    "geocoded_column": {
      "latitude": "29.92316699302886",
      "longitude": "-90.1116673485381"
    }
  },
  {
    "service_request": "2023-1046298",
    "request_type": "Abandoned Vehicles",
    "request_reason": "Abandoned/Junk Vehicles",
    "date_created": "2023-10-26T16:29:10.000",
    "date_modified": "2023-10-26T16:29:10.000",
    "request_status": "Pending",
    "responsible_agency": "Department of Public Works",
    "final_address": "2341 Odin St",
    "address_councildis": "D",
    "status": "Pending",
    "rowid": "1046298",
    "final_x": "3684833.60489",
    "final_y": "553167.163095",
    "longitude": "-90.05678250360289",
    "latitude": "30.014916086492324",
    "geocoded_column": {
      "latitude": "30.014916086492324",
      "longitude": "-90.05678250360289"
    }
  },
  {
    "service_request": "2023-1046297",
    "request_type": "Abandoned Vehicles",
    "request_reason": "Abandoned/Junk Vehicles",
    "date_created": "2023-10-26T16:24:11.000",
    "date_modified": "2023-10-26T16:24:12.000",
    "request_status": "Pending",
    "responsible_agency": "Department of Public Works",
    "final_address": "2448 N Prieur St",
    "address_councildis": "D",
    "status": "Pending",
    "rowid": "1046297",
    "final_x": "3686717.6431",
    "final_y": "539370.223242",
    "longitude": "-90.0513175810708",
    "latitude": "29.976921616343247",
    "geocoded_column": {
      "latitude": "29.976921616343247",
      "longitude": "-90.0513175810708"
    }
  },
  {
    "service_request": "2023-1046296",
    "request_type": "Trash/Recycling",
    "request_reason": "Missed Trash Pick-Up",
    "date_created": "2023-10-26T16:22:21.000",
    "date_modified": "2023-10-26T16:22:22.000",
    "request_status": "Pending",
    "responsible_agency": "Department of Sanitation",
    "final_address": "6500 Virgilian St",
    "address_councildis": "D",
    "status": "Assigned to Contractor",
    "contractor": "Waste Pro",
    "rowid": "1046296",
    "final_x": "3697309.75568",
    "final_y": "555093.229145",
    "longitude": "-90.01729416837765",
    "latitude": "30.01982395821085",
    "geocoded_column": {
      "latitude": "30.01982395821085",
      "longitude": "-90.01729416837765"
    }
  },
  {
    "service_request": "2023-1046295",
    "request_type": "Property Maintenance",
    "request_reason": "Property Maintenance",
    "date_created": "2023-10-26T16:21:06.000",
    "date_modified": "2023-10-26T16:21:07.000",
    "request_status": "Pending",
    "responsible_agency": "Department of Code Enforcement",
    "final_address": "1801 Mazant St",
    "address_councildis": "D",
    "status": "Pending",
    "rowid": "1046295",
    "final_x": "3692807.00381",
    "final_y": "537884.287113",
    "longitude": "-90.03213881734901",
    "latitude": "29.972647081276328",
    "geocoded_column": {
      "latitude": "29.972647081276328",
      "longitude": "-90.03213881734901"
    }
  },
  {
    "service_request": "2023-1046294",
    "request_type": "Trash/Recycling",
    "request_reason": "Dead Animal Pick Up",
    "date_created": "2023-10-26T16:14:06.000",
    "date_modified": "2023-10-26T16:14:07.000",
    "request_status": "Pending",
    "responsible_agency": "Department of Sanitation",
    "final_address": "TENNESSEE ST & N CLAIBORNE AVE",
    "address_councildis": "E",
    "status": "Assigned to Contractor",
    "contractor": "Waste Pro",
    "rowid": "1046294",
    "final_x": "3696177.3",
    "final_y": "536095.98",
    "longitude": "-90.02155951871875",
    "latitude": "29.967624209323066",
    "geocoded_column": {
      "latitude": "29.967624209323066",
      "longitude": "-90.02155951871875"
    }
  },
  {
    "service_request": "2023-1046292",
    "request_type": "Abandoned Vehicles",
    "request_reason": "Abandoned/Junk Vehicles",
    "date_created": "2023-10-26T16:13:32.000",
    "date_modified": "2023-10-26T16:13:32.000",
    "request_status": "Pending",
    "responsible_agency": "Department of Public Works",
    "final_address": "1472 N Robertson St",
    "address_councildis": "C",
    "status": "Pending",
    "rowid": "1046292",
    "final_x": "3681989.81954",
    "final_y": "536835.656776",
    "longitude": "-90.0663380524566",
    "latitude": "29.970097038113117",
    "geocoded_column": {
      "latitude": "29.970097038113117",
      "longitude": "-90.0663380524566"
    }
  },
  {
    "service_request": "2023-1046291",
    "request_type": "Traffic Signals/Signs/Striping/Streetlights",
    "request_reason": "Street Light Outage/Malfunction",
    "date_created": "2023-10-26T16:11:35.000",
    "date_modified": "2023-10-26T16:11:36.000",
    "request_status": "Pending",
    "responsible_agency": "Department of Public Works",
    "final_address": "1646 Filmore Ave",
    "address_councildis": "D",
    "status": "Assigned to Contractor",
    "contractor": "Legacy Professional Services",
    "rowid": "1046291",
    "final_x": "3679636.43227",
    "final_y": "551793.935382",
    "longitude": "-90.07325079165015",
    "latitude": "30.01129838707775",
    "geocoded_column": {
      "latitude": "30.01129838707775",
      "longitude": "-90.07325079165015"
    }
  },
  {
    "service_request": "2023-1046290",
    "request_type": "Property Maintenance",
    "request_reason": "Property Maintenance",
    "date_created": "2023-10-26T16:11:06.000",
    "date_modified": "2023-10-26T16:11:06.000",
    "request_status": "Pending",
    "responsible_agency": "Department of Code Enforcement",
    "final_address": "4317 Magazine St",
    "address_councildis": "B",
    "status": "Pending",
    "rowid": "1046290",
    "final_x": "3671305.51841",
    "final_y": "518875.527223",
    "longitude": "-90.10069041477877",
    "latitude": "29.921033074561752",
    "geocoded_column": {
      "latitude": "29.921033074561752",
      "longitude": "-90.10069041477877"
    }
  },
  {
    "service_request": "2023-1046289",
    "request_type": "Trash/Recycling",
    "request_reason": "Order Trash Cart",
    "date_created": "2023-10-26T16:10:47.000",
    "date_modified": "2023-10-26T16:10:48.000",
    "request_status": "Pending",
    "responsible_agency": "Department of Sanitation",
    "final_address": "3640 Rue Mignon",
    "address_councildis": "C",
    "status": "Assigned to Contractor",
    "contractor": "Richards Disposal",
    "rowid": "1046289",
    "final_x": "3703379.9683",
    "final_y": "517141.656885",
    "longitude": "-89.99951027275024",
    "latitude": "29.91527781060371",
    "geocoded_column": {
      "latitude": "29.91527781060371",
      "longitude": "-89.99951027275024"
    }
  },
  {
    "service_request": "2023-1046288",
    "request_type": "Trash/Recycling",
    "request_reason": "Repair Trash Cart",
    "date_created": "2023-10-26T16:08:48.000",
    "date_modified": "2023-10-26T16:08:49.000",
    "request_status": "Pending",
    "responsible_agency": "Department of Sanitation",
    "final_address": "3640 Rue Mignon",
    "address_councildis": "C",
    "status": "Assigned to Contractor",
    "contractor": "Richards Disposal",
    "rowid": "1046288",
    "final_x": "3703379.9683",
    "final_y": "517141.656885",
    "longitude": "-89.99951027275024",
    "latitude": "29.91527781060371",
    "geocoded_column": {
      "latitude": "29.91527781060371",
      "longitude": "-89.99951027275024"
    }
  },
  {
    "service_request": "2023-1046287",
    "request_type": "Trash/Recycling",
    "request_reason": "Request a Large Item Pick Up",
    "date_created": "2023-10-26T16:07:27.000",
    "date_modified": "2023-10-26T16:07:28.000",
    "request_status": "Pending",
    "responsible_agency": "Department of Sanitation",
    "final_address": "1220 Pauline St",
    "address_councildis": "D",
    "status": "Assigned to Contractor",
    "contractor": "IV Waste",
    "rowid": "1046287",
    "final_x": "3691318.22332",
    "final_y": "536006.381255",
    "longitude": "-90.03690774241436",
    "latitude": "29.96752990572075",
    "geocoded_column": {
      "latitude": "29.96752990572075",
      "longitude": "-90.03690774241436"
    }
  },
  {
    "service_request": "2023-1046286",
    "request_type": "Trash/Recycling",
    "request_reason": "Request a Large Item Pick Up",
    "date_created": "2023-10-26T16:06:50.000",
    "date_modified": "2023-10-26T16:06:50.000",
    "request_status": "Pending",
    "responsible_agency": "Department of Sanitation",
    "final_address": "2115 Josephine St",
    "address_councildis": "B",
    "status": "Assigned to Contractor",
    "contractor": "Richards Disposal",
    "rowid": "1046286",
    "final_x": "3676699.76654",
    "final_y": "525575.693053",
    "longitude": "-90.08343248800833",
    "latitude": "29.939295686109034",
    "geocoded_column": {
      "latitude": "29.939295686109034",
      "longitude": "-90.08343248800833"
    }
  },
  {
    "service_request": "2023-1046285",
    "request_type": "Traffic Signals/Signs/Striping/Streetlights",
    "request_reason": "Street Light Outage/Malfunction",
    "date_created": "2023-10-26T16:06:38.000",
    "date_modified": "2023-10-26T16:06:38.000",
    "request_status": "Pending",
    "responsible_agency": "Department of Public Works",
    "final_address": "8TH ST & CARONDELET ST",
    "address_councildis": "B",
    "status": "Assigned to Contractor",
    "contractor": "Legacy Professional Services",
    "rowid": "1046285",
    "final_x": "3674773.5",
    "final_y": "522239.78",
    "longitude": "-90.08962827927584",
    "latitude": "29.9301806474183",
    "geocoded_column": {
      "latitude": "29.9301806474183",
      "longitude": "-90.08962827927584"
    }
  },
  {
    "service_request": "2023-1046284",
    "request_type": "Trash/Recycling",
    "request_reason": "Request a Large Item Pick Up",
    "date_created": "2023-10-26T16:02:07.000",
    "date_modified": "2023-10-26T16:02:08.000",
    "request_status": "Pending",
    "responsible_agency": "Department of Sanitation",
    "final_address": "4935 Warren Dr",
    "address_councildis": "E",
    "status": "Assigned to Contractor",
    "contractor": "Waste Pro",
    "rowid": "1046284",
    "final_x": "3713421.70098",
    "final_y": "557332.457371",
    "longitude": "-89.9663017703026",
    "latitude": "30.02546228827129",
    "geocoded_column": {
      "latitude": "30.02546228827129",
      "longitude": "-89.9663017703026"
    }
  },
  {
    "service_request": "2023-1046283",
    "request_type": "Abandoned Vehicles",
    "request_reason": "Abandoned/Junk Vehicles",
    "date_created": "2023-10-26T16:01:39.000",
    "date_modified": "2023-10-26T16:01:39.000",
    "request_status": "Pending",
    "responsible_agency": "Department of Public Works",
    "final_address": "3818 Iroquois St",
    "address_councildis": "D",
    "status": "Pending",
    "rowid": "1046283",
    "final_x": "3689079.84924",
    "final_y": "547437.780625",
    "longitude": "-90.04357020297597",
    "latitude": "29.99903162482031",
    "geocoded_column": {
      "latitude": "29.99903162482031",
      "longitude": "-90.04357020297597"
    }
  },
  {
    "service_request": "2023-1046282",
    "request_type": "Trash/Recycling",
    "request_reason": "MIssed Recycling Pick-Up",
    "date_created": "2023-10-26T15:58:45.000",
    "date_modified": "2023-10-26T15:58:46.000",
    "request_status": "Pending",
    "responsible_agency": "Department of Sanitation",
    "final_address": "917 Thalia St",
    "address_councildis": "B",
    "status": "Assigned to Contractor",
    "contractor": "Richards Disposal",
    "rowid": "1046282",
    "final_x": "3681183.92591",
    "final_y": "525116.528957",
    "longitude": "-90.06929142583014",
    "latitude": "29.937897878712683",
    "geocoded_column": {
      "latitude": "29.937897878712683",
      "longitude": "-90.06929142583014"
    }
  },
  {
    "service_request": "2023-1046281",
    "request_type": "Property Maintenance",
    "request_reason": "Property Maintenance",
    "date_created": "2023-10-26T15:58:44.000",
    "date_modified": "2023-10-26T15:58:44.000",
    "request_status": "Pending",
    "responsible_agency": "Department of Code Enforcement",
    "final_address": "4300 Old Gentilly Rd",
    "address_councildis": "D",
    "status": "Pending",
    "rowid": "1046281",
    "final_x": "3690774.55344",
    "final_y": "548777.385939",
    "longitude": "-90.03816878772056",
    "latitude": "30.002662490125736",
    "geocoded_column": {
      "latitude": "30.002662490125736",
      "longitude": "-90.03816878772056"
    }
  },
  {
    "service_request": "2023-1046280",
    "request_type": "Abandoned Vehicles",
    "request_reason": "Abandoned/Junk Vehicles",
    "date_created": "2023-10-26T15:58:33.000",
    "date_modified": "2023-10-26T15:59:51.000",
    "request_status": "Pending",
    "responsible_agency": "Department of Public Works",
    "final_address": "7701 Brevard Ave",
    "address_councildis": "E",
    "rowid": "1046280",
    "final_x": "3706303.07211",
    "final_y": "563636.510177",
    "longitude": "-89.9885616344485",
    "latitude": "30.043027552569317",
    "geocoded_column": {
      "latitude": "30.043027552569317",
      "longitude": "-89.9885616344485"
    }
  },
  {
    "service_request": "2023-1046279",
    "request_type": "Abandoned Vehicles",
    "request_reason": "Abandoned/Junk Vehicles",
    "date_created": "2023-10-26T15:57:26.000",
    "date_modified": "2023-10-26T15:57:26.000",
    "request_status": "Pending",
    "responsible_agency": "Department of Public Works",
    "final_address": "5301 Glouster Rd",
    "address_councildis": "E",
    "status": "Pending",
    "rowid": "1046279",
    "final_x": "3707695.43697",
    "final_y": "557588.023323",
    "longitude": "-89.98438626726148",
    "latitude": "30.02635159641385",
    "geocoded_column": {
      "latitude": "30.02635159641385",
      "longitude": "-89.98438626726148"
    }
  },
  {
    "service_request": "2023-1046277",
    "request_type": "Trash/Recycling",
    "request_reason": "Illegal Dumping",
    "date_created": "2023-10-26T15:54:57.000",
    "date_modified": "2023-10-26T15:54:57.000",
    "request_status": "Pending",
    "responsible_agency": "Department of Sanitation",
    "final_address": "MICHOUD BLVD & SIX FLAGS PKWY",
    "address_councildis": "E",
    "status": "Pending",
    "rowid": "1046277",
    "final_x": "3724642.8",
    "final_y": "566009.98",
    "longitude": "-89.93050954681091",
    "latitude": "30.04894903573261",
    "geocoded_column": {
      "latitude": "30.04894903573261",
      "longitude": "-89.93050954681091"
    }
  },
  {
    "service_request": "2023-1046276",
    "request_type": "Trash/Recycling",
    "request_reason": "Request a Large Item Pick Up",
    "date_created": "2023-10-26T15:53:46.000",
    "date_modified": "2023-10-26T15:53:46.000",
    "request_status": "Pending",
    "responsible_agency": "Department of Sanitation",
    "final_address": "6102 Morrison Rd",
    "address_councildis": "D",
    "status": "Assigned to Contractor",
    "contractor": "Waste Pro",
    "rowid": "1046276",
    "final_x": "3695965.9112",
    "final_y": "557557.563995",
    "longitude": "-90.02145111219285",
    "latitude": "30.02664231510327",
    "geocoded_column": {
      "latitude": "30.02664231510327",
      "longitude": "-90.02145111219285"
    }
  },
  {
    "service_request": "2023-1046275",
    "request_type": "Abandoned Vehicles",
    "request_reason": "Abandoned/Junk Vehicles",
    "date_created": "2023-10-26T15:52:38.000",
    "date_modified": "2023-10-26T15:55:57.000",
    "request_status": "Pending",
    "responsible_agency": "Department of Public Works",
    "final_address": "1321 Coliseum St",
    "address_councildis": "B",
    "status": "Pending",
    "rowid": "1046275",
    "final_x": "3680001.24495",
    "final_y": "525179.628797",
    "longitude": "-90.07302305597607",
    "latitude": "29.938107203843167",
    "geocoded_column": {
      "latitude": "29.938107203843167",
      "longitude": "-90.07302305597607"
    }
  },
  {
    "service_request": "2023-1046274",
    "request_type": "Trash/Recycling",
    "request_reason": "Illegal Dumping",
    "date_created": "2023-10-26T15:52:10.000",
    "date_modified": "2023-10-26T15:52:56.000",
    "case_close_date": "2023-10-26T10:52:56.000",
    "request_status": "Closed",
    "responsible_agency": "Department of Sanitation",
    "final_address": "13900 BLK Explorers Ave",
    "address_councildis": "E",
    "status": "Resolved",
    "rowid": "1046274",
    "final_x": "3726058.86248",
    "final_y": "569298.033764",
    "longitude": "-89.92590636136102",
    "latitude": "30.057942057669592",
    "geocoded_column": {
      "latitude": "30.057942057669592",
      "longitude": "-89.92590636136102"
    }
  },
  {
    "service_request": "2023-1046273",
    "request_type": "Trash/Recycling",
    "request_reason": "Order Recycling Cart",
    "date_created": "2023-10-26T15:52:00.000",
    "date_modified": "2023-10-26T15:52:00.000",
    "request_status": "Pending",
    "responsible_agency": "Department of Sanitation",
    "final_address": "5160 Bayouview Ct",
    "address_councildis": "E",
    "status": "Pending",
    "rowid": "1046273",
    "final_x": "3699147.42192",
    "final_y": "556423.365594",
    "longitude": "-90.01143928792794",
    "latitude": "30.0234231637223",
    "geocoded_column": {
      "latitude": "30.0234231637223",
      "longitude": "-90.01143928792794"
    }
  },
  {
    "service_request": "2023-1046272",
    "request_type": "Trash/Recycling",
    "request_reason": "Illegal Dumping",
    "date_created": "2023-10-26T15:50:19.000",
    "date_modified": "2023-10-26T15:51:42.000",
    "case_close_date": "2023-10-26T10:51:42.000",
    "request_status": "Closed",
    "responsible_agency": "Department of Sanitation",
    "final_address": "15540 Dwyer Blvd",
    "address_councildis": "E",
    "status": "Resolved",
    "rowid": "1046272",
    "final_x": "3731100.8713",
    "final_y": "563749.996577",
    "longitude": "-89.91018722569073",
    "latitude": "30.042516055040085",
    "geocoded_column": {
      "latitude": "30.042516055040085",
      "longitude": "-89.91018722569073"
    }
  },
  {
    "service_request": "2023-1046271",
    "request_type": "Trash/Recycling",
    "request_reason": "Illegal Dumping",
    "date_created": "2023-10-26T15:49:21.000",
    "date_modified": "2023-10-26T15:49:55.000",
    "case_close_date": "2023-10-26T10:49:55.000",
    "request_status": "Closed",
    "responsible_agency": "Department of Sanitation",
    "final_address": "14100 BLK Dwyer Blvd",
    "address_councildis": "E",
    "status": "Resolved",
    "rowid": "1046271",
    "final_x": "3729340.1571",
    "final_y": "563179.639504",
    "longitude": "-89.91577398939636",
    "latitude": "30.041007823035674",
    "geocoded_column": {
      "latitude": "30.041007823035674",
      "longitude": "-89.91577398939636"
    }
  },
  {
    "service_request": "2023-1046270",
    "request_type": "Trash/Recycling",
    "request_reason": "Illegal Dumping",
    "date_created": "2023-10-26T15:48:05.000",
    "date_modified": "2023-10-26T15:48:42.000",
    "case_close_date": "2023-10-26T10:48:42.000",
    "request_status": "Closed",
    "responsible_agency": "Department of Sanitation",
    "final_address": "4800 BLK Alsace St",
    "address_councildis": "E",
    "status": "Resolved",
    "rowid": "1046270",
    "final_x": "3730508.68822",
    "final_y": "562904.894975",
    "longitude": "-89.91209185534078",
    "latitude": "30.04021258950057",
    "geocoded_column": {
      "latitude": "30.04021258950057",
      "longitude": "-89.91209185534078"
    }
  },
  {
    "service_request": "2023-1046269",
    "request_type": "Property Maintenance",
    "request_reason": "Property Maintenance",
    "date_created": "2023-10-26T15:45:01.000",
    "date_modified": "2023-10-26T15:45:02.000",
    "request_status": "Pending",
    "responsible_agency": "Department of Code Enforcement",
    "final_address": "7434 W Laverne St",
    "address_councildis": "D",
    "status": "Pending",
    "rowid": "1046269",
    "final_x": "3695232.34947",
    "final_y": "558205.175707",
    "longitude": "-90.02374568884632",
    "latitude": "30.028446073494607",
    "geocoded_column": {
      "latitude": "30.028446073494607",
      "longitude": "-90.02374568884632"
    }
  },
  {
    "service_request": "2023-1046268",
    "request_type": "Abandoned Vehicles",
    "request_reason": "Abandoned/Junk Vehicles",
    "date_created": "2023-10-26T15:39:48.000",
    "date_modified": "2023-10-26T15:41:07.000",
    "request_status": "Pending",
    "responsible_agency": "Department of Public Works",
    "final_address": "10200 Almonaster Ave",
    "address_councildis": "E",
    "status": "Inspected",
    "rowid": "1046268",
    "final_x": "3713684.56383",
    "final_y": "551626.395989",
    "longitude": "-89.96568637555853",
    "latitude": "30.00976423388402",
    "geocoded_column": {
      "latitude": "30.00976423388402",
      "longitude": "-89.96568637555853"
    }
  },
  {
    "service_request": "2023-1046267",
    "request_type": "Trash/Recycling",
    "request_reason": "Missed Trash Pick-Up",
    "date_created": "2023-10-26T15:37:07.000",
    "date_modified": "2023-10-26T15:37:07.000",
    "request_status": "Pending",
    "responsible_agency": "Department of Sanitation",
    "final_address": "1837 N Miro St",
    "address_councildis": "D",
    "status": "Assigned to Contractor",
    "contractor": "IV Waste",
    "rowid": "1046267",
    "final_x": "3682020.88559",
    "final_y": "540171.522827",
    "longitude": "-90.06612343390665",
    "latitude": "29.979268567546864",
    "geocoded_column": {
      "latitude": "29.979268567546864",
      "longitude": "-90.06612343390665"
    }
  },
  {
    "service_request": "2023-1046266",
    "request_type": "Trash/Recycling",
    "request_reason": "Order Recycling Cart",
    "date_created": "2023-10-26T15:34:16.000",
    "date_modified": "2023-10-26T15:34:16.000",
    "request_status": "Pending",
    "responsible_agency": "Department of Sanitation",
    "final_address": "826 St Mary St",
    "address_councildis": "B",
    "status": "Pending",
    "rowid": "1046266",
    "final_x": "3680336.57563",
    "final_y": "522085.449466",
    "longitude": "-90.0720719132132",
    "latitude": "29.929589085924288",
    "geocoded_column": {
      "latitude": "29.929589085924288",
      "longitude": "-90.0720719132132"
    }
  },
  {
    "service_request": "2023-1046265",
    "request_type": "Roads/Drainage",
    "request_reason": "Pothole",
    "date_created": "2023-10-26T15:33:42.000",
    "date_modified": "2023-10-26T15:33:42.000",
    "request_status": "Pending",
    "responsible_agency": "Department of Public Works",
    "final_address": "4200 BLK Baudin St",
    "address_councildis": "A",
    "status": "Pending",
    "rowid": "1046265",
    "final_x": "3669467.64594",
    "final_y": "537561.374796",
    "longitude": "-90.10585991765831",
    "latitude": "29.972467300685622",
    "geocoded_column": {
      "latitude": "29.972467300685622",
      "longitude": "-90.10585991765831"
    }
  },
  {
    "service_request": "2023-1046264",
    "request_type": "Roads/Drainage",
    "request_reason": "Pothole",
    "date_created": "2023-10-26T15:33:10.000",
    "date_modified": "2023-10-26T15:33:10.000",
    "request_status": "Pending",
    "responsible_agency": "Department of Public Works",
    "final_address": "4100 BLK Baudin St",
    "address_councildis": "A",
    "status": "Pending",
    "rowid": "1046264",
    "final_x": "3669812.8795",
    "final_y": "537298.97145",
    "longitude": "-90.10477849130041",
    "latitude": "29.971735606078635",
    "geocoded_column": {
      "latitude": "29.971735606078635",
      "longitude": "-90.10477849130041"
    }
  },
  {
    "service_request": "2023-1046263",
    "request_type": "Trash/Recycling",
    "request_reason": "Order Trash Cart",
    "date_created": "2023-10-26T15:33:06.000",
    "date_modified": "2023-10-26T15:33:07.000",
    "request_status": "Pending",
    "responsible_agency": "Department of Sanitation",
    "final_address": "826 St Mary St",
    "address_councildis": "B",
    "status": "Assigned to Contractor",
    "contractor": "Richards Disposal",
    "rowid": "1046263",
    "final_x": "3680336.57563",
    "final_y": "522085.449466",
    "longitude": "-90.0720719132132",
    "latitude": "29.929589085924288",
    "geocoded_column": {
      "latitude": "29.929589085924288",
      "longitude": "-90.0720719132132"
    }
  },
  {
    "service_request": "2023-1046262",
    "request_type": "Abandoned Vehicles",
    "request_reason": "Abandoned/Junk Vehicles",
    "date_created": "2023-10-26T15:28:00.000",
    "date_modified": "2023-10-26T15:28:00.000",
    "request_status": "Pending",
    "responsible_agency": "Department of Public Works",
    "final_address": "2541 St Peter St",
    "address_councildis": "D",
    "status": "Pending",
    "rowid": "1046262",
    "final_x": "3677215.54638",
    "final_y": "536489.044359",
    "longitude": "-90.08142766268782",
    "latitude": "29.969288265028716",
    "geocoded_column": {
      "latitude": "29.969288265028716",
      "longitude": "-90.08142766268782"
    }
  },
  {
    "service_request": "2023-1046261",
    "request_type": "Roads/Drainage",
    "request_reason": "Pothole",
    "date_created": "2023-10-26T15:24:26.000",
    "date_modified": "2023-10-26T15:24:26.000",
    "request_status": "Pending",
    "responsible_agency": "Department of Public Works",
    "final_address": "400 BLK S Solomon St",
    "address_councildis": "A",
    "status": "Pending",
    "rowid": "1046261",
    "final_x": "3669730.11031",
    "final_y": "537597.082402",
    "longitude": "-90.10502979750551",
    "latitude": "29.972557750967802",
    "geocoded_column": {
      "latitude": "29.972557750967802",
      "longitude": "-90.10502979750551"
    }
  },
  {
    "service_request": "2023-1046260",
    "request_type": "Traffic Signals/Signs/Striping/Streetlights",
    "request_reason": "Street Name Sign Damaged or Missing",
    "date_created": "2023-10-26T15:20:59.000",
    "date_modified": "2023-10-26T15:21:20.000",
    "request_status": "Pending",
    "responsible_agency": "Department of Public Works",
    "final_address": "TOURO ST & LAFRENIERE ST",
    "address_councildis": "D",
    "status": "Pending",
    "rowid": "1046260",
    "final_x": "3683495.2",
    "final_y": "545447.78",
    "longitude": "-90.06128197655744",
    "latitude": "29.99373149723279",
    "geocoded_column": {
      "latitude": "29.99373149723279",
      "longitude": "-90.06128197655744"
    }
  },
  {
    "service_request": "2023-1046259",
    "request_type": "Trash/Recycling",
    "request_reason": "Return Trash Cart",
    "date_created": "2023-10-26T15:18:30.000",
    "date_modified": "2023-10-26T15:18:31.000",
    "request_status": "Pending",
    "responsible_agency": "Department of Sanitation",
    "final_address": "828 Robert St",
    "address_councildis": "B",
    "status": "Assigned to Contractor",
    "contractor": "Richards Disposal",
    "rowid": "1046259",
    "final_x": "3668602.47252",
    "final_y": "518465.383158",
    "longitude": "-90.10923657147463",
    "latitude": "29.91998498660296",
    "geocoded_column": {
      "latitude": "29.91998498660296",
      "longitude": "-90.10923657147463"
    }
  },
  {
    "service_request": "2023-1046258",
    "request_type": "Trash/Recycling",
    "request_reason": "Request a Large Item Pick Up",
    "date_created": "2023-10-26T15:18:00.000",
    "date_modified": "2023-10-26T15:18:01.000",
    "request_status": "Pending",
    "responsible_agency": "Department of Sanitation",
    "final_address": "828 Robert St",
    "address_councildis": "B",
    "status": "Assigned to Contractor",
    "contractor": "Richards Disposal",
    "rowid": "1046258",
    "final_x": "3668602.47252",
    "final_y": "518465.383158",
    "longitude": "-90.10923657147463",
    "latitude": "29.91998498660296",
    "geocoded_column": {
      "latitude": "29.91998498660296",
      "longitude": "-90.10923657147463"
    }
  },
  {
    "service_request": "2023-1046257",
    "request_type": "Trash/Recycling",
    "request_reason": "Replace Trash Cart",
    "date_created": "2023-10-26T15:17:39.000",
    "date_modified": "2023-10-26T15:18:12.000",
    "request_status": "Pending",
    "responsible_agency": "Department of Sanitation",
    "final_address": "5735 Alfred St",
    "address_councildis": "D",
    "status": "Assigned to Contractor",
    "contractor": "IV Waste",
    "rowid": "1046257",
    "final_x": "3677298.17742",
    "final_y": "553658.260311",
    "longitude": "-90.08057389581101",
    "latitude": "30.016495107085078",
    "geocoded_column": {
      "latitude": "30.016495107085078",
      "longitude": "-90.08057389581101"
    }
  },
  {
    "service_request": "2023-1046256",
    "request_type": "Roads/Drainage",
    "request_reason": "Catch Basin - Clogged",
    "date_created": "2023-10-26T15:14:29.000",
    "date_modified": "2023-10-26T15:16:33.000",
    "request_status": "Pending",
    "responsible_agency": "Department of Public Works",
    "final_address": "3706 General Pershing St",
    "address_councildis": "B",
    "status": "Pending",
    "rowid": "1046256",
    "final_x": "3670474.87707",
    "final_y": "528258.09216",
    "longitude": "-90.10299437641524",
    "latitude": "29.94685665147115",
    "geocoded_column": {
      "latitude": "29.94685665147115",
      "longitude": "-90.10299437641524"
    }
  },
  {
    "service_request": "2023-1046255",
    "request_type": "Mosquito, Termite & Rodent Control",
    "request_reason": "Non-Rodent Complaint (Mice, Possums, Snakes)",
    "date_created": "2023-10-26T15:06:55.000",
    "date_modified": "2023-10-26T15:09:08.000",
    "request_status": "Pending",
    "responsible_agency": "Mosquito, Termite & Rodent Control Board",
    "final_address": "3017 Hollygrove St",
    "address_councildis": "A",
    "status": "Pending",
    "rowid": "1046255",
    "final_x": "3664086.72653",
    "final_y": "535376.002182",
    "longitude": "-90.1229267970931",
    "latitude": "29.966615648541083",
    "geocoded_column": {
      "latitude": "29.966615648541083",
      "longitude": "-90.1229267970931"
    }
  },
  {
    "service_request": "2023-1046254",
    "request_type": "Trash/Recycling",
    "request_reason": "MIssed Recycling Pick-Up",
    "date_created": "2023-10-26T15:06:05.000",
    "date_modified": "2023-10-26T15:06:06.000",
    "request_status": "Pending",
    "responsible_agency": "Department of Sanitation",
    "final_address": "1032 Valmont St",
    "address_councildis": "B",
    "status": "Assigned to Contractor",
    "contractor": "Richards Disposal",
    "rowid": "1046254",
    "final_x": "3667501.80557",
    "final_y": "519323.747319",
    "longitude": "-90.11268199378449",
    "latitude": "29.922377503608473",
    "geocoded_column": {
      "latitude": "29.922377503608473",
      "longitude": "-90.11268199378449"
    }
  },
  {
    "service_request": "2023-1046252",
    "request_type": "Traffic Signals/Signs/Striping/Streetlights",
    "request_reason": "Traffic Signal Malfunctioning/Damaged",
    "date_created": "2023-10-26T15:04:13.000",
    "date_modified": "2023-10-26T15:05:18.000",
    "request_status": "Pending",
    "responsible_agency": "Department of Public Works",
    "final_address": "FRENCH ST & CANAL BLVD",
    "address_councildis": "A",
    "status": "Pending",
    "rowid": "1046252",
    "final_x": "3668662.6",
    "final_y": "548590.88",
    "longitude": "-90.10802991501085",
    "latitude": "30.002818364155395",
    "geocoded_column": {
      "latitude": "30.002818364155395",
      "longitude": "-90.10802991501085"
    }
  },
  {
    "service_request": "2023-1046251",
    "request_type": "Trash/Recycling",
    "request_reason": "Request a Large Item Pick Up",
    "date_created": "2023-10-26T15:03:03.000",
    "date_modified": "2023-10-26T15:03:04.000",
    "request_status": "Pending",
    "responsible_agency": "Department of Sanitation",
    "final_address": "1711 St Maurice Ave",
    "address_councildis": "E",
    "status": "Assigned to Contractor",
    "contractor": "Waste Pro",
    "rowid": "1046251",
    "final_x": "3700791.93009",
    "final_y": "535426.892358",
    "longitude": "-90.00701096328063",
    "latitude": "29.96563839106571",
    "geocoded_column": {
      "latitude": "29.96563839106571",
      "longitude": "-90.00701096328063"
    }
  },
  {
    "service_request": "2023-1046249",
    "request_type": "Trash/Recycling",
    "request_reason": "Request a Large Item Pick Up",
    "date_created": "2023-10-26T15:01:23.000",
    "date_modified": "2023-10-26T15:01:24.000",
    "request_status": "Pending",
    "responsible_agency": "Department of Sanitation",
    "final_address": "6631 Colbert St",
    "address_councildis": "A",
    "status": "Assigned to Contractor",
    "contractor": "IV Waste",
    "rowid": "1046249",
    "final_x": "3667899.64353",
    "final_y": "551707.169685",
    "longitude": "-90.11033513064754",
    "latitude": "30.01140948523858",
    "geocoded_column": {
      "latitude": "30.01140948523858",
      "longitude": "-90.11033513064754"
    }
  },
  {
    "service_request": "2023-1046248",
    "request_type": "Roads/Drainage",
    "request_reason": "Pothole",
    "date_created": "2023-10-26T15:01:11.000",
    "date_modified": "2023-10-26T15:01:11.000",
    "request_status": "Pending",
    "responsible_agency": "Department of Public Works",
    "final_address": "6100 BLK Argonne Blvd",
    "address_councildis": "A",
    "status": "Pending",
    "rowid": "1046248",
    "final_x": "3670219.74647",
    "final_y": "548111.050547",
    "longitude": "-90.10312693582168",
    "latitude": "30.001453123220273",
    "geocoded_column": {
      "latitude": "30.001453123220273",
      "longitude": "-90.10312693582168"
    }
  },
  {
    "service_request": "2023-1046247",
    "request_type": "Trash/Recycling",
    "request_reason": "Order Trash Cart",
    "date_created": "2023-10-26T14:58:27.000",
    "date_modified": "2023-10-26T14:58:28.000",
    "request_status": "Pending",
    "responsible_agency": "Department of Sanitation",
    "final_address": "1623 N Dorgenois St",
    "address_councildis": "D",
    "status": "Assigned to Contractor",
    "contractor": "IV Waste",
    "rowid": "1046247",
    "final_x": "3679606.03208",
    "final_y": "539989.287115",
    "longitude": "-90.07375681471024",
    "latitude": "29.978840694852636",
    "geocoded_column": {
      "latitude": "29.978840694852636",
      "longitude": "-90.07375681471024"
    }
  },
  {
    "service_request": "2023-1046246",
    "request_type": "Trash/Recycling",
    "request_reason": "Illegal Dumping",
    "date_created": "2023-10-26T14:54:21.000",
    "date_modified": "2023-10-26T14:54:21.000",
    "request_status": "Pending",
    "responsible_agency": "Department of Sanitation",
    "final_address": "1822 Congress St",
    "address_councildis": "D",
    "status": "Pending",
    "rowid": "1046246",
    "final_x": "3691382.03798",
    "final_y": "538398.332681",
    "longitude": "-90.03662073084985",
    "latitude": "29.974104941326974",
    "geocoded_column": {
      "latitude": "29.974104941326974",
      "longitude": "-90.03662073084985"
    }
  },
  {
    "service_request": "2023-1046245",
    "request_type": "Roads/Drainage",
    "request_reason": "Pothole",
    "date_created": "2023-10-26T14:52:32.000",
    "date_modified": "2023-10-26T14:52:32.000",
    "request_status": "Pending",
    "responsible_agency": "Department of Public Works",
    "final_address": "5220 Atlanta St",
    "address_councildis": "B",
    "status": "Pending",
    "rowid": "1046245",
    "final_x": "3667917.40577",
    "final_y": "520685.623161",
    "longitude": "-90.1113242624008",
    "latitude": "29.926110051036336",
    "geocoded_column": {
      "latitude": "29.926110051036336",
      "longitude": "-90.1113242624008"
    }
  },
  {
    "service_request": "2023-1046244",
    "request_type": "Trash/Recycling",
    "request_reason": "Request a Large Item Pick Up",
    "date_created": "2023-10-26T14:50:16.000",
    "date_modified": "2023-10-26T14:50:17.000",
    "request_status": "Pending",
    "responsible_agency": "Department of Sanitation",
    "final_address": "7820 Tulsa St",
    "address_councildis": "E",
    "status": "Assigned to Contractor",
    "contractor": "Waste Pro",
    "rowid": "1046244",
    "final_x": "3704028.67678",
    "final_y": "553400.935959",
    "longitude": "-89.99612711566834",
    "latitude": "30.01495690309417",
    "geocoded_column": {
      "latitude": "30.01495690309417",
      "longitude": "-89.99612711566834"
    }
  },
  {
    "service_request": "2023-1046243",
    "request_type": "Trash/Recycling",
    "request_reason": "Request a Large Item Pick Up",
    "date_created": "2023-10-26T14:45:17.000",
    "date_modified": "2023-10-26T14:45:17.000",
    "request_status": "Pending",
    "responsible_agency": "Department of Sanitation",
    "final_address": "4820 N Roman St",
    "address_councildis": "E",
    "status": "Assigned to Contractor",
    "contractor": "Waste Pro",
    "rowid": "1046243",
    "final_x": "3695918.81251",
    "final_y": "537029.01972",
    "longitude": "-90.02234211166527",
    "latitude": "29.970197870086988",
    "geocoded_column": {
      "latitude": "29.970197870086988",
      "longitude": "-90.02234211166527"
    }
  },
  {
    "service_request": "2023-1046242",
    "request_type": "Mosquito, Termite & Rodent Control",
    "request_reason": "Rodent Complaint (Rats)",
    "date_created": "2023-10-26T14:42:21.000",
    "date_modified": "2023-10-26T14:42:22.000",
    "request_status": "Pending",
    "responsible_agency": "Mosquito, Termite & Rodent Control Board",
    "final_address": "3219 Martin Luther King, Jr. Blvd",
    "address_councildis": "B",
    "status": "Pending",
    "rowid": "1046242",
    "final_x": "3674315.8372",
    "final_y": "528701.025984",
    "longitude": "-90.09085187488368",
    "latitude": "29.947960612418697",
    "geocoded_column": {
      "latitude": "29.947960612418697",
      "longitude": "-90.09085187488368"
    }
  },
  {
    "service_request": "2023-1046241",
    "request_type": "Trash/Recycling",
    "request_reason": "Request a Large Item Pick Up",
    "date_created": "2023-10-26T14:41:06.000",
    "date_modified": "2023-10-26T14:41:06.000",
    "request_status": "Pending",
    "responsible_agency": "Department of Sanitation",
    "final_address": "1309 Fats Domino Ave",
    "address_councildis": "E",
    "status": "Assigned to Contractor",
    "contractor": "Waste Pro",
    "rowid": "1046241",
    "final_x": "3698296.74775",
    "final_y": "534573.730757",
    "longitude": "-90.01492160503342",
    "latitude": "29.963371680759348",
    "geocoded_column": {
      "latitude": "29.963371680759348",
      "longitude": "-90.01492160503342"
    }
  },
  {
    "service_request": "2023-1046240",
    "request_type": "Trash/Recycling",
    "request_reason": "Request a Large Item Pick Up",
    "date_created": "2023-10-26T14:39:47.000",
    "date_modified": "2023-10-26T14:39:48.000",
    "request_status": "Pending",
    "responsible_agency": "Department of Sanitation",
    "final_address": "4216 Stephen Girard Ave",
    "address_councildis": "D",
    "status": "Assigned to Contractor",
    "contractor": "IV Waste",
    "rowid": "1046240",
    "final_x": "3690104.21193",
    "final_y": "549840.544852",
    "longitude": "-90.04024857607429",
    "latitude": "30.00560660499078",
    "geocoded_column": {
      "latitude": "30.00560660499078",
      "longitude": "-90.04024857607429"
    }
  },
  {
    "service_request": "2023-1046239",
    "request_type": "Traffic Signals/Signs/Striping/Streetlights",
    "request_reason": "Street Light Outage/Malfunction",
    "date_created": "2023-10-26T14:39:24.000",
    "date_modified": "2023-10-26T14:39:24.000",
    "request_status": "Pending",
    "responsible_agency": "Department of Public Works",
    "final_address": "1239 Congress St",
    "address_councildis": "D",
    "status": "Assigned to Contractor",
    "contractor": "Legacy Professional Services",
    "rowid": "1046239",
    "final_x": "3690922.75036",
    "final_y": "536250.038599",
    "longitude": "-90.03814795207622",
    "latitude": "29.96821217496409",
    "geocoded_column": {
      "latitude": "29.96821217496409",
      "longitude": "-90.03814795207622"
    }
  },
  {
    "service_request": "2023-1046238",
    "request_type": "Trash/Recycling",
    "request_reason": "Order Trash Cart",
    "date_created": "2023-10-26T14:37:30.000",
    "date_modified": "2023-10-26T14:38:52.000",
    "request_status": "Pending",
    "responsible_agency": "Department of Sanitation",
    "final_address": "1222 Magazine St",
    "address_councildis": "B",
    "status": "Assigned to Contractor",
    "contractor": "Richards Disposal",
    "rowid": "1046238",
    "final_x": "3680631.28591",
    "final_y": "525431.724349",
    "longitude": "-90.07102519309105",
    "latitude": "29.93878131317606",
    "geocoded_column": {
      "latitude": "29.93878131317606",
      "longitude": "-90.07102519309105"
    }
  },
  {
    "service_request": "2023-1046237",
    "request_type": "Trash/Recycling",
    "request_reason": "Dead Animal Pick Up",
    "date_created": "2023-10-26T14:33:34.000",
    "date_modified": "2023-10-26T14:33:35.000",
    "request_status": "Pending",
    "responsible_agency": "Department of Sanitation",
    "final_address": "2017 France St",
    "address_councildis": "D",
    "status": "Assigned to Contractor",
    "contractor": "IV Waste",
    "rowid": "1046237",
    "final_x": "3693302.7967",
    "final_y": "538698.517001",
    "longitude": "-90.03054378256766",
    "latitude": "29.974870433192326",
    "geocoded_column": {
      "latitude": "29.974870433192326",
      "longitude": "-90.03054378256766"
    }
  },
  {
    "service_request": "2023-1046236",
    "request_type": "Safety & Permits",
    "request_reason": "Construction permit",
    "date_created": "2023-10-26T14:31:53.000",
    "date_modified": "2023-10-26T14:31:53.000",
    "request_status": "Pending",
    "responsible_agency": "Department of Code Enforcement",
    "final_address": "4066 S Inwood Ave",
    "address_councildis": "C",
    "status": "Pending",
    "rowid": "1046236",
    "final_x": "3704967.10795",
    "final_y": "512880.140209",
    "longitude": "-89.99465786177623",
    "latitude": "29.903509203184996",
    "geocoded_column": {
      "latitude": "29.903509203184996",
      "longitude": "-89.99465786177623"
    }
  },
  {
    "service_request": "2023-1046235",
    "request_type": "Trash/Recycling",
    "request_reason": "Illegal Dumping",
    "date_created": "2023-10-26T14:23:46.000",
    "date_modified": "2023-10-26T14:23:47.000",
    "request_status": "Pending",
    "responsible_agency": "Department of Sanitation",
    "final_address": "READ BLVD & I 10 E ONRAMP & READ EXIT",
    "address_councildis": "E",
    "status": "Pending",
    "rowid": "1046235",
    "final_x": "3710329.8",
    "final_y": "561327.28",
    "longitude": "-89.97592209642202",
    "latitude": "30.036547535159915",
    "geocoded_column": {
      "latitude": "30.036547535159915",
      "longitude": "-89.97592209642202"
    }
  },
  {
    "service_request": "2023-1046234",
    "request_type": "Trash/Recycling",
    "request_reason": "Request a Large Item Pick Up",
    "date_created": "2023-10-26T14:21:26.000",
    "date_modified": "2023-10-26T14:21:27.000",
    "request_status": "Pending",
    "responsible_agency": "Department of Sanitation",
    "final_address": "2427 Tricou St",
    "address_councildis": "E",
    "status": "Assigned to Contractor",
    "contractor": "Waste Pro",
    "rowid": "1046234",
    "final_x": "3702132.76733",
    "final_y": "537881.597065",
    "longitude": "-90.00268666107597",
    "latitude": "29.97234519667301",
    "geocoded_column": {
      "latitude": "29.97234519667301",
      "longitude": "-90.00268666107597"
    }
  },
  {
    "service_request": "2023-1046233",
    "request_type": "Trash/Recycling",
    "request_reason": "Request a Large Item Pick Up",
    "date_created": "2023-10-26T14:15:28.000",
    "date_modified": "2023-10-26T14:15:29.000",
    "request_status": "Pending",
    "responsible_agency": "Department of Sanitation",
    "final_address": "911 N Derbigny St",
    "address_councildis": "D",
    "status": "Assigned to Contractor",
    "contractor": "Richards Disposal",
    "rowid": "1046233",
    "final_x": "3679962.39989",
    "final_y": "535514.866502",
    "longitude": "-90.07278673655004",
    "latitude": "29.966526803326676",
    "geocoded_column": {
      "latitude": "29.966526803326676",
      "longitude": "-90.07278673655004"
    }
  },
  {
    "service_request": "2023-1046231",
    "request_type": "Trash/Recycling",
    "request_reason": "Missed Trash Pick-Up",
    "date_created": "2023-10-26T14:14:48.000",
    "date_modified": "2023-10-26T14:14:49.000",
    "request_status": "Pending",
    "responsible_agency": "Department of Sanitation",
    "final_address": "4874 Cerise Ave",
    "address_councildis": "E",
    "status": "Assigned to Contractor",
    "contractor": "Waste Pro",
    "rowid": "1046231",
    "final_x": "3708445.54417",
    "final_y": "556595.328346",
    "longitude": "-89.98205302960474",
    "latitude": "30.023597771052447",
    "geocoded_column": {
      "latitude": "30.023597771052447",
      "longitude": "-89.98205302960474"
    }
  },
  {
    "service_request": "2023-1046230",
    "request_type": "Trash/Recycling",
    "request_reason": "Missed Trash Pick-Up",
    "date_created": "2023-10-26T14:12:28.000",
    "date_modified": "2023-10-26T14:12:29.000",
    "request_status": "Pending",
    "responsible_agency": "Department of Sanitation",
    "final_address": "1747 N Miro St",
    "address_councildis": "D",
    "status": "Assigned to Contractor",
    "contractor": "IV Waste",
    "rowid": "1046230",
    "final_x": "3681358.50684",
    "final_y": "540125.860363",
    "longitude": "-90.06821707679629",
    "latitude": "29.979163137329575",
    "geocoded_column": {
      "latitude": "29.979163137329575",
      "longitude": "-90.06821707679629"
    }
  },
  {
    "service_request": "2023-1046229",
    "request_type": "Trash/Recycling",
    "request_reason": "Replace Trash Cart",
    "date_created": "2023-10-26T14:10:01.000",
    "date_modified": "2023-10-26T14:10:01.000",
    "request_status": "Pending",
    "responsible_agency": "Department of Sanitation",
    "final_address": "6014 Old Gentilly Rd",
    "address_councildis": "E",
    "status": "Assigned to Contractor",
    "contractor": "Waste Pro",
    "rowid": "1046229",
    "final_x": "3697231.50455",
    "final_y": "550630.4141",
    "longitude": "-90.0177033203052",
    "latitude": "30.00755536696056",
    "geocoded_column": {
      "latitude": "30.00755536696056",
      "longitude": "-90.0177033203052"
    }
  },
  {
    "service_request": "2023-1046228",
    "request_type": "Trash/Recycling",
    "request_reason": "Request a Large Item Pick Up",
    "date_created": "2023-10-26T14:06:54.000",
    "date_modified": "2023-10-26T14:06:55.000",
    "request_status": "Pending",
    "responsible_agency": "Department of Sanitation",
    "final_address": "2107 Marais St",
    "address_councildis": "C",
    "status": "Assigned to Contractor",
    "contractor": "IV Waste",
    "rowid": "1046228",
    "final_x": "3684636.19836",
    "final_y": "536697.759047",
    "longitude": "-90.05798537926665",
    "latitude": "29.969637141656836",
    "geocoded_column": {
      "latitude": "29.969637141656836",
      "longitude": "-90.05798537926665"
    }
  },
  {
    "service_request": "2023-1046227",
    "request_type": "Trash/Recycling",
    "request_reason": "Request a Large Item Pick Up",
    "date_created": "2023-10-26T14:06:51.000",
    "date_modified": "2023-10-26T14:06:51.000",
    "request_status": "Pending",
    "responsible_agency": "Department of Sanitation",
    "final_address": "3213 Laurel St",
    "address_councildis": "B",
    "status": "Assigned to Contractor",
    "contractor": "Richards Disposal",
    "rowid": "1046227",
    "final_x": "3676006.88699",
    "final_y": "519318.127223",
    "longitude": "-90.08583508582373",
    "latitude": "29.92211017952411",
    "geocoded_column": {
      "latitude": "29.92211017952411",
      "longitude": "-90.08583508582373"
    }
  },
  {
    "service_request": "2023-1046226",
    "request_type": "Trash/Recycling",
    "request_reason": "Request a Large Item Pick Up",
    "date_created": "2023-10-26T14:06:34.000",
    "date_modified": "2023-10-26T14:06:34.000",
    "request_status": "Pending",
    "responsible_agency": "Department of Sanitation",
    "final_address": "6330 Mandeville St",
    "address_councildis": "D",
    "status": "Assigned to Contractor",
    "contractor": "IV Waste",
    "rowid": "1046226",
    "final_x": "3684117.71618",
    "final_y": "556364.215514",
    "longitude": "-90.0589320209417",
    "latitude": "30.023728716222376",
    "geocoded_column": {
      "latitude": "30.023728716222376",
      "longitude": "-90.0589320209417"
    }
  },
  {
    "service_request": "2023-1046225",
    "request_type": "Trash/Recycling",
    "request_reason": "Replace Trash Cart",
    "date_created": "2023-10-26T14:05:51.000",
    "date_modified": "2023-10-26T14:05:52.000",
    "request_status": "Pending",
    "responsible_agency": "Department of Sanitation",
    "final_address": "1517 Lowerline St",
    "address_councildis": "A",
    "status": "Assigned to Contractor",
    "contractor": "Richards Disposal",
    "rowid": "1046225",
    "final_x": "3664411.24576",
    "final_y": "527756.786943",
    "longitude": "-90.12215629804727",
    "latitude": "29.945655855532827",
    "geocoded_column": {
      "latitude": "29.945655855532827",
      "longitude": "-90.12215629804727"
    }
  },
  {
    "service_request": "2023-1046224",
    "request_type": "Trash/Recycling",
    "request_reason": "Request a Large Item Pick Up",
    "date_created": "2023-10-26T14:05:22.000",
    "date_modified": "2023-10-26T14:05:23.000",
    "request_status": "Pending",
    "responsible_agency": "Department of Sanitation",
    "final_address": "2627 Valence St",
    "address_councildis": "B",
    "status": "Assigned to Contractor",
    "contractor": "Richards Disposal",
    "rowid": "1046224",
    "final_x": "3669411.5602",
    "final_y": "524533.819324",
    "longitude": "-90.10647757048064",
    "latitude": "29.93664745857704",
    "geocoded_column": {
      "latitude": "29.93664745857704",
      "longitude": "-90.10647757048064"
    }
  },
  {
    "service_request": "2023-1046223",
    "request_type": "Traffic Signals/Signs/Striping/Streetlights",
    "request_reason": "Street Light Outage/Malfunction",
    "date_created": "2023-10-26T14:01:19.000",
    "date_modified": "2023-10-26T14:01:20.000",
    "request_status": "Pending",
    "responsible_agency": "Department of Public Works",
    "final_address": "4532 Crowder Blvd",
    "address_councildis": "E",
    "status": "Assigned to Contractor",
    "contractor": "Legacy Professional Services",
    "rowid": "1046223",
    "final_x": "3706426.34052",
    "final_y": "554556.5958",
    "longitude": "-89.98850885385117",
    "latitude": "30.018057366864394",
    "geocoded_column": {
      "latitude": "30.018057366864394",
      "longitude": "-89.98850885385117"
    }
  },
  {
    "service_request": "2023-1046222",
    "request_type": "Traffic Signals/Signs/Striping/Streetlights",
    "request_reason": "Request for Traffic Calming due to Speeding",
    "date_created": "2023-10-26T13:51:17.000",
    "date_modified": "2023-10-26T13:51:18.000",
    "request_status": "Pending",
    "responsible_agency": "Department of Public Works",
    "final_address": "3800 St Bernard Ave",
    "address_councildis": "D",
    "status": "Pending",
    "rowid": "1046222",
    "final_x": "3677790.21058",
    "final_y": "546192.572368",
    "longitude": "-90.07927744241299",
    "latitude": "29.995952326216926",
    "geocoded_column": {
      "latitude": "29.995952326216926",
      "longitude": "-90.07927744241299"
    }
  },
  {
    "service_request": "2023-1046221",
    "request_type": "Abandoned Vehicles",
    "request_reason": "Abandoned/Junk Vehicles",
    "date_created": "2023-10-26T13:48:33.000",
    "date_modified": "2023-10-26T13:48:34.000",
    "request_status": "Pending",
    "responsible_agency": "Department of Public Works",
    "final_address": "1712 Ursulines Ave",
    "address_councildis": "D",
    "status": "Pending",
    "rowid": "1046221",
    "final_x": "3680479.58741",
    "final_y": "535854.584711",
    "longitude": "-90.07114164706132",
    "latitude": "29.96744525735647",
    "geocoded_column": {
      "latitude": "29.96744525735647",
      "longitude": "-90.07114164706132"
    }
  },
  {
    "service_request": "2023-1046220",
    "request_type": "Trash/Recycling",
    "request_reason": "Order Recycling Cart",
    "date_created": "2023-10-26T13:48:26.000",
    "date_modified": "2023-10-26T13:48:27.000",
    "request_status": "Pending",
    "responsible_agency": "Department of Sanitation",
    "final_address": "3040 Behrman Hwy",
    "address_councildis": "C",
    "status": "Pending",
    "rowid": "1046220",
    "final_x": "3694257.76502",
    "final_y": "519490.460791",
    "longitude": "-90.0282187267708",
    "latitude": "29.92202506075665",
    "geocoded_column": {
      "latitude": "29.92202506075665",
      "longitude": "-90.0282187267708"
    }
  },
  {
    "service_request": "2023-1046219",
    "request_type": "Trash/Recycling",
    "request_reason": "Repair Trash Cart",
    "date_created": "2023-10-26T13:47:51.000",
    "date_modified": "2023-10-26T13:47:52.000",
    "request_status": "Pending",
    "responsible_agency": "Department of Sanitation",
    "final_address": "3040 Behrman Hwy",
    "address_councildis": "C",
    "status": "Assigned to Contractor",
    "contractor": "Richards Disposal",
    "rowid": "1046219",
    "final_x": "3694257.76502",
    "final_y": "519490.460791",
    "longitude": "-90.0282187267708",
    "latitude": "29.92202506075665",
    "geocoded_column": {
      "latitude": "29.92202506075665",
      "longitude": "-90.0282187267708"
    }
  },
  {
    "service_request": "2023-1046218",
    "request_type": "Trash/Recycling",
    "request_reason": "Illegal Dumping",
    "date_created": "2023-10-26T13:45:50.000",
    "date_modified": "2023-10-26T13:45:51.000",
    "request_status": "Pending",
    "responsible_agency": "Department of Sanitation",
    "final_address": "1822 Congress St",
    "address_councildis": "D",
    "status": "Pending",
    "rowid": "1046218",
    "final_x": "3691382.03798",
    "final_y": "538398.332681",
    "longitude": "-90.03662073084985",
    "latitude": "29.974104941326974",
    "geocoded_column": {
      "latitude": "29.974104941326974",
      "longitude": "-90.03662073084985"
    }
  },
  {
    "service_request": "2023-1046217",
    "request_type": "Trash/Recycling",
    "request_reason": "Request a Large Item Pick Up",
    "date_created": "2023-10-26T13:38:46.000",
    "date_modified": "2023-10-26T13:38:47.000",
    "request_status": "Pending",
    "responsible_agency": "Department of Sanitation",
    "final_address": "2529 Burgundy St Apt B",
    "address_councildis": "C",
    "status": "Assigned to Contractor",
    "contractor": "IV Waste",
    "rowid": "1046217",
    "final_x": "3686797.65282",
    "final_y": "535822.137031",
    "longitude": "-90.051190275261",
    "latitude": "29.96716315942371",
    "geocoded_column": {
      "latitude": "29.96716315942371",
      "longitude": "-90.051190275261"
    }
  },
  {
    "service_request": "2023-1046216",
    "request_type": "Abandoned Vehicles",
    "request_reason": "Abandoned/Junk Vehicles",
    "date_created": "2023-10-26T13:38:28.000",
    "date_modified": "2023-10-26T13:38:28.000",
    "request_status": "Pending",
    "responsible_agency": "Department of Public Works",
    "final_address": "4400 BLK Vixen St",
    "address_councildis": "C",
    "status": "Inspected",
    "rowid": "1046216",
    "final_x": "3700186.05366",
    "final_y": "520599.247631",
    "longitude": "-90.00946528653886",
    "latitude": "29.924886846104847",
    "geocoded_column": {
      "latitude": "29.924886846104847",
      "longitude": "-90.00946528653886"
    }
  },
  {
    "service_request": "2023-1046215",
    "request_type": "Parks & Parkways",
    "request_reason": "Request Tree Service (Right of Way/Public Property)",
    "date_created": "2023-10-26T13:35:23.000",
    "date_modified": "2023-10-26T13:35:24.000",
    "request_status": "Pending",
    "responsible_agency": "Department of Parks & Parkway",
    "final_address": "ADVENTURE AVE & MICHOUD BLVD",
    "address_councildis": "E",
    "status": "Pending",
    "rowid": "1046215",
    "final_x": "3725282.6",
    "final_y": "570843.78",
    "longitude": "-89.92830009025026",
    "latitude": "30.06221840076422",
    "geocoded_column": {
      "latitude": "30.06221840076422",
      "longitude": "-89.92830009025026"
    }
  },
  {
    "service_request": "2023-1046214",
    "request_type": "Property Maintenance",
    "request_reason": "Property Maintenance",
    "date_created": "2023-10-26T13:34:22.000",
    "date_modified": "2023-10-26T13:34:22.000",
    "request_status": "Pending",
    "responsible_agency": "Department of Code Enforcement",
    "final_address": "5531 Baccich St",
    "address_councildis": "D",
    "status": "Pending",
    "rowid": "1046214",
    "final_x": "3687711.23158",
    "final_y": "553621.417367",
    "longitude": "-90.04767450132894",
    "latitude": "30.016076654003257",
    "geocoded_column": {
      "latitude": "30.016076654003257",
      "longitude": "-90.04767450132894"
    }
  },
  {
    "service_request": "2023-1046213",
    "request_type": "Trash/Recycling",
    "request_reason": "MIssed Recycling Pick-Up",
    "date_created": "2023-10-26T13:33:59.000",
    "date_modified": "2023-10-26T13:34:00.000",
    "request_status": "Pending",
    "responsible_agency": "Department of Sanitation",
    "final_address": "1807 Baronne St",
    "address_councildis": "B",
    "status": "Assigned to Contractor",
    "contractor": "Richards Disposal",
    "rowid": "1046213",
    "final_x": "3677797.3524",
    "final_y": "525141.087165",
    "longitude": "-90.0799822766055",
    "latitude": "29.938067696756594",
    "geocoded_column": {
      "latitude": "29.938067696756594",
      "longitude": "-90.0799822766055"
    }
  },
  {
    "service_request": "2023-1046212",
    "request_type": "Abandoned Vehicles",
    "request_reason": "Abandoned/Junk Vehicles",
    "date_created": "2023-10-26T13:33:37.000",
    "date_modified": "2023-10-26T13:33:37.000",
    "request_status": "Pending",
    "responsible_agency": "Department of Public Works",
    "final_address": "1100 BLK Hendee St",
    "address_councildis": "C",
    "status": "Inspected",
    "rowid": "1046212",
    "final_x": "3690768.69159",
    "final_y": "527239.590322",
    "longitude": "-90.0389559149892",
    "latitude": "29.943441356816724",
    "geocoded_column": {
      "latitude": "29.943441356816724",
      "longitude": "-90.0389559149892"
    }
  },
  {
    "service_request": "2023-1046211",
    "request_type": "Trash/Recycling",
    "request_reason": "Missed Trash Pick-Up",
    "date_created": "2023-10-26T13:32:50.000",
    "date_modified": "2023-10-26T13:32:51.000",
    "request_status": "Pending",
    "responsible_agency": "Department of Sanitation",
    "final_address": "13700 PierreS Ct",
    "address_councildis": "E",
    "status": "Assigned to Contractor",
    "contractor": "Waste Pro",
    "rowid": "1046211",
    "final_x": "3725067.62092",
    "final_y": "569896.826534",
    "longitude": "-89.92901631904307",
    "latitude": "30.059621925418494",
    "geocoded_column": {
      "latitude": "30.059621925418494",
      "longitude": "-89.92901631904307"
    }
  },
  {
    "service_request": "2023-1046210",
    "request_type": "Trash/Recycling",
    "request_reason": "Repair Trash Cart",
    "date_created": "2023-10-26T13:31:37.000",
    "date_modified": "2023-10-26T13:31:38.000",
    "request_status": "Pending",
    "responsible_agency": "Department of Sanitation",
    "final_address": "2325 Baronne St",
    "address_councildis": "B",
    "status": "Assigned to Contractor",
    "contractor": "Richards Disposal",
    "rowid": "1046210",
    "final_x": "3676558.69979",
    "final_y": "523880.558652",
    "longitude": "-90.08393620834569",
    "latitude": "29.93463885292028",
    "geocoded_column": {
      "latitude": "29.93463885292028",
      "longitude": "-90.08393620834569"
    }
  },
  {
    "service_request": "2023-1046209",
    "request_type": "Trash/Recycling",
    "request_reason": "Replace Trash Cart",
    "date_created": "2023-10-26T13:29:59.000",
    "date_modified": "2023-10-26T13:30:00.000",
    "request_status": "Pending",
    "responsible_agency": "Department of Sanitation",
    "final_address": "7120 E Tamaron Blvd",
    "address_councildis": "E",
    "status": "Assigned to Contractor",
    "contractor": "Waste Pro",
    "rowid": "1046209",
    "final_x": "3718509.47954",
    "final_y": "568901.268325",
    "longitude": "-89.94978393572886",
    "latitude": "30.057103922835672",
    "geocoded_column": {
      "latitude": "30.057103922835672",
      "longitude": "-89.94978393572886"
    }
  },
  {
    "service_request": "2023-1046208",
    "request_type": "Abandoned Vehicles",
    "request_reason": "Abandoned/Junk Vehicles",
    "date_created": "2023-10-26T13:23:49.000",
    "date_modified": "2023-10-26T13:23:49.000",
    "request_status": "Pending",
    "responsible_agency": "Department of Public Works",
    "final_address": "2700 BLK Republic St",
    "address_councildis": "D",
    "status": "Pending",
    "rowid": "1046208",
    "final_x": "3680704.49879",
    "final_y": "542484.306551",
    "longitude": "-90.07020057379516",
    "latitude": "29.98566787981835",
    "geocoded_column": {
      "latitude": "29.98566787981835",
      "longitude": "-90.07020057379516"
    }
  },
  {
    "service_request": "2023-1046207",
    "request_type": "Trash/Recycling",
    "request_reason": "Request a Large Item Pick Up",
    "date_created": "2023-10-26T13:23:34.000",
    "date_modified": "2023-10-26T13:23:35.000",
    "request_status": "Pending",
    "responsible_agency": "Department of Sanitation",
    "final_address": "2401 Soniat St",
    "address_councildis": "B",
    "status": "Assigned to Contractor",
    "contractor": "Richards Disposal",
    "rowid": "1046207",
    "final_x": "3668561.1337",
    "final_y": "524317.331004",
    "longitude": "-90.10916971439524",
    "latitude": "29.936077195129236",
    "geocoded_column": {
      "latitude": "29.936077195129236",
      "longitude": "-90.10916971439524"
    }
  },
  {
    "service_request": "2023-1046206",
    "request_type": "Abandoned Vehicles",
    "request_reason": "Abandoned/Junk Vehicles",
    "date_created": "2023-10-26T13:22:03.000",
    "date_modified": "2023-10-26T13:22:03.000",
    "request_status": "Pending",
    "responsible_agency": "Department of Public Works",
    "final_address": "3000 BLK Republic St",
    "address_councildis": "D",
    "status": "Pending",
    "rowid": "1046206",
    "final_x": "3680619.05277",
    "final_y": "543549.629224",
    "longitude": "-90.07043337619885",
    "latitude": "29.988599733046392",
    "geocoded_column": {
      "latitude": "29.988599733046392",
      "longitude": "-90.07043337619885"
    }
  },
  {
    "service_request": "2023-1046205",
    "request_type": "Trash/Recycling",
    "request_reason": "Order Recycling Cart",
    "date_created": "2023-10-26T13:20:20.000",
    "date_modified": "2023-10-26T13:20:21.000",
    "request_status": "Pending",
    "responsible_agency": "Department of Sanitation",
    "final_address": "2206 Deslonde St",
    "address_councildis": "E",
    "status": "Pending",
    "rowid": "1046205",
    "final_x": "3696516.79267",
    "final_y": "538604.630473",
    "longitude": "-90.0203966218642",
    "latitude": "29.974511409082073",
    "geocoded_column": {
      "latitude": "29.974511409082073",
      "longitude": "-90.0203966218642"
    }
  },
  {
    "service_request": "2023-1046204",
    "request_type": "Trash/Recycling",
    "request_reason": "Request a Large Item Pick Up",
    "date_created": "2023-10-26T13:19:26.000",
    "date_modified": "2023-10-26T13:19:28.000",
    "request_status": "Pending",
    "responsible_agency": "Department of Sanitation",
    "final_address": "2204 Deslonde St",
    "address_councildis": "E",
    "status": "Assigned to Contractor",
    "contractor": "Waste Pro",
    "rowid": "1046204",
    "final_x": "3696514.41591",
    "final_y": "538597.381193",
    "longitude": "-90.02040439054173",
    "latitude": "29.974491551049535",
    "geocoded_column": {
      "latitude": "29.974491551049535",
      "longitude": "-90.02040439054173"
    }
  },
  {
    "service_request": "2023-1046203",
    "request_type": "Traffic Signals/Signs/Striping/Streetlights",
    "request_reason": "Traffic Sign Missing/Damaged",
    "date_created": "2023-10-26T13:17:44.000",
    "date_modified": "2023-10-26T13:17:45.000",
    "request_status": "Pending",
    "responsible_agency": "Department of Public Works",
    "final_address": "HAMMOND ST & WERNER DR",
    "address_councildis": "E",
    "status": "Pending",
    "rowid": "1046203",
    "final_x": "3704733.3",
    "final_y": "555620.58",
    "longitude": "-89.99381887699023",
    "latitude": "30.02103744121229",
    "geocoded_column": {
      "latitude": "30.02103744121229",
      "longitude": "-89.99381887699023"
    }
  },
  {
    "service_request": "2023-1046202",
    "request_type": "Trash/Recycling",
    "request_reason": "Request a Large Item Pick Up",
    "date_created": "2023-10-26T13:13:47.000",
    "date_modified": "2023-10-26T13:13:48.000",
    "request_status": "Pending",
    "responsible_agency": "Department of Sanitation",
    "final_address": "4302 S Claiborne Ave A",
    "address_councildis": "B",
    "status": "Assigned to Contractor",
    "contractor": "Richards Disposal",
    "rowid": "1046202",
    "final_x": "3670694.71924",
    "final_y": "525778.999741",
    "longitude": "-90.10238434031595",
    "latitude": "29.940033461991572",
    "geocoded_column": {
      "latitude": "29.940033461991572",
      "longitude": "-90.10238434031595"
    }
  },
  {
    "service_request": "2023-1046201",
    "request_type": "Trash/Recycling",
    "request_reason": "Request a Large Item Pick Up",
    "date_created": "2023-10-26T13:12:04.000",
    "date_modified": "2023-10-26T13:12:05.000",
    "request_status": "Pending",
    "responsible_agency": "Department of Sanitation",
    "final_address": "2432 Eagle St",
    "address_councildis": "A",
    "status": "Assigned to Contractor",
    "contractor": "Richards Disposal",
    "rowid": "1046201",
    "final_x": "3663225.79827",
    "final_y": "533501.706564",
    "longitude": "-90.12570799615997",
    "latitude": "29.96148692778167",
    "geocoded_column": {
      "latitude": "29.96148692778167",
      "longitude": "-90.12570799615997"
    }
  },
  {
    "service_request": "2023-1046200",
    "request_type": "Abandoned Vehicles",
    "request_reason": "Abandoned/Junk Vehicles",
    "date_created": "2023-10-26T13:10:34.000",
    "date_modified": "2023-10-26T13:10:34.000",
    "request_status": "Pending",
    "responsible_agency": "Department of Public Works",
    "final_address": "800 Brooklyn Ave",
    "address_councildis": "C",
    "status": "Pending",
    "rowid": "1046200",
    "final_x": "3686176.99036",
    "final_y": "528620.250048",
    "longitude": "-90.05340437994903",
    "latitude": "29.94737952720359",
    "geocoded_column": {
      "latitude": "29.94737952720359",
      "longitude": "-90.05340437994903"
    }
  },
  {
    "service_request": "2023-1046199",
    "request_type": "Trash/Recycling",
    "request_reason": "Return Recycling Cart",
    "date_created": "2023-10-26T13:09:41.000",
    "date_modified": "2023-10-26T13:09:41.000",
    "request_status": "Pending",
    "responsible_agency": "Department of Sanitation",
    "final_address": "3204 Second St",
    "address_councildis": "B",
    "status": "Pending",
    "rowid": "1046199",
    "final_x": "3673474.853",
    "final_y": "527868.543615",
    "longitude": "-90.09353564437936",
    "latitude": "29.94569660770432",
    "geocoded_column": {
      "latitude": "29.94569660770432",
      "longitude": "-90.09353564437936"
    }
  },
  {
    "service_request": "2023-1046198",
    "request_type": "Trash/Recycling",
    "request_reason": "Order Recycling Cart",
    "date_created": "2023-10-26T13:07:27.000",
    "date_modified": "2023-10-26T13:07:27.000",
    "request_status": "Pending",
    "responsible_agency": "Department of Sanitation",
    "final_address": "3237 Orleans Ave",
    "address_councildis": "A",
    "status": "Pending",
    "rowid": "1046198",
    "final_x": "3674906.57102",
    "final_y": "538494.080137",
    "longitude": "-90.08865080988902",
    "latitude": "29.97487059531521",
    "geocoded_column": {
      "latitude": "29.97487059531521",
      "longitude": "-90.08865080988902"
    }
  },
  {
    "service_request": "2023-1046197",
    "request_type": "Abandoned Vehicles",
    "request_reason": "Abandoned/Junk Vehicles",
    "date_created": "2023-10-26T13:07:26.000",
    "date_modified": "2023-10-26T13:07:27.000",
    "request_status": "Pending",
    "responsible_agency": "Department of Public Works",
    "final_address": "1712 Ursulines Ave",
    "address_councildis": "D",
    "status": "Pending",
    "rowid": "1046197",
    "final_x": "3680479.58741",
    "final_y": "535854.584711",
    "longitude": "-90.07114164706132",
    "latitude": "29.96744525735647",
    "geocoded_column": {
      "latitude": "29.96744525735647",
      "longitude": "-90.07114164706132"
    }
  },
  {
    "service_request": "2023-1046196",
    "request_type": "Roads/Drainage",
    "request_reason": "Debris in Roadway",
    "date_created": "2023-10-26T13:07:18.000",
    "date_modified": "2023-10-26T13:07:19.000",
    "request_status": "Pending",
    "responsible_agency": "Department of Public Works",
    "final_address": "6905 Chef Menteur Hwy",
    "address_councildis": "E",
    "status": "Pending",
    "rowid": "1046196",
    "final_x": "3700375.00919",
    "final_y": "553549.856279",
    "longitude": "-90.00766544087152",
    "latitude": "30.01548311192885",
    "geocoded_column": {
      "latitude": "30.01548311192885",
      "longitude": "-90.00766544087152"
    }
  },
  {
    "service_request": "2023-1046195",
    "request_type": "Trash/Recycling",
    "request_reason": "Missed Trash Pick-Up",
    "date_created": "2023-10-26T13:06:49.000",
    "date_modified": "2023-10-26T13:06:50.000",
    "request_status": "Pending",
    "responsible_agency": "Department of Sanitation",
    "final_address": "6040 S Muirfield Cir",
    "address_councildis": "E",
    "status": "Assigned to Contractor",
    "contractor": "Waste Pro",
    "rowid": "1046195",
    "final_x": "3718543.74905",
    "final_y": "566211.796579",
    "longitude": "-89.94977826213707",
    "latitude": "30.04970784884758",
    "geocoded_column": {
      "latitude": "30.04970784884758",
      "longitude": "-89.94977826213707"
    }
  },