[
  {
    "service_request": "2023-1022981",
    "request_type": "Roads/Drainage",
    "request_reason": "Pothole",
    "date_created": "2023-08-03T01:43:42.000",
    "date_modified": "2023-08-03T01:43:42.000",
    "request_status": "Pending",
    "responsible_agency": "Department of Public Works",
    "final_address": "1422 General Pershing St",
    "address_councildis": "B",
    "status": "Pending",
    "rowid": "1022981",
    "final_x": "3671239.44116",
    "final_y": "520532.324984",
    "longitude": "-90.10084273889387",
    "latitude": "29.925590694745555",
    "geocoded_column": {
      "latitude": "29.925590694745555",
      "longitude": "-90.10084273889387"
    }
  },
  {
    "service_request": "2023-1022980",
    "request_type": "Roads/Drainage",
    "request_reason": "Pothole",
    "date_created": "2023-08-03T01:09:10.000",
    "date_modified": "2023-08-03T01:09:10.000",
    "request_status": "Pending",
    "responsible_agency": "Department of Public Works",
    "final_address": "1401 Foucher St",
    "address_councildis": "B",
    "status": "Pending",
    "rowid": "1022980",
    "final_x": "3673950.68904",
    "final_y": "520582.149496",
    "longitude": "-90.09228244207547",
    "latitude": "29.925647229561278",
    "geocoded_column": {
      "latitude": "29.925647229561278",
      "longitude": "-90.09228244207547"
    }
  },
  {
    "service_request": "2023-1022979",
    "request_type": "Trash/Recycling",
    "request_reason": "Request a Large Item Pick Up",
    "date_created": "2023-08-03T00:42:27.000",
    "date_modified": "2023-08-03T00:42:28.000",
    "request_status": "Pending",
    "responsible_agency": "Department of Sanitation",
    "final_address": "1904 Constantinople St. New Orleans, La",
    "address_councildis": "B",
    "status": "Assigned to Contractor",
    "contractor": "Richards Disposal",
    "rowid": "1022979",
    "final_x": "3672142.54433",
    "final_y": "522146.74073",
    "longitude": "-90.09793696728094",
    "latitude": "29.93000307857379",
    "geocoded_column": {
      "latitude": "29.93000307857379",
      "longitude": "-90.09793696728094"
    }
  },
  {
    "service_request": "2023-1022978",
    "request_type": "Abandoned Vehicles",
    "request_reason": "Vehicle Blocking Your Driveway",
    "date_created": "2023-08-03T00:31:20.000",
    "date_modified": "2023-08-03T00:31:20.000",
    "request_status": "Pending",
    "responsible_agency": "Department of Public Works",
    "final_address": "2419 memorial park dr",
    "address_councildis": "C",
    "status": "Pending",
    "rowid": "1022978",
    "final_x": "3692390.45577",
    "final_y": "521418.217785",
    "longitude": "-90.03404401593474",
    "latitude": "29.927384092827676",
    "geocoded_column": {
      "latitude": "29.927384092827676",
      "longitude": "-90.03404401593474"
    }
  },
  {
    "service_request": "2023-1022977",
    "request_type": "Trash/Recycling",
    "request_reason": "Replace Recycling Cart",
    "date_created": "2023-08-03T00:06:07.000",
    "date_modified": "2023-08-03T00:06:07.000",
    "request_status": "Pending",
    "responsible_agency": "Department of Sanitation",
    "final_address": "72 Maryland Dr",
    "address_councildis": "A",
    "status": "Pending",
    "rowid": "1022977",
    "final_x": "3663630.32295",
    "final_y": "541622.693004",
    "longitude": "-90.12415994867031",
    "latitude": "29.98380522203615",
    "geocoded_column": {
      "latitude": "29.98380522203615",
      "longitude": "-90.12415994867031"
    }
  },
  {
    "service_request": "2023-1022976",
    "request_type": "Traffic Signals/Signs/Striping/Streetlights",
    "request_reason": "Street Light Outage/Malfunction",
    "date_created": "2023-08-02T23:58:55.000",
    "date_modified": "2023-08-02T23:58:55.000",
    "request_status": "Pending",
    "responsible_agency": "Department of Public Works",
    "final_address": "URSULA SPENCER WAY & KIMI O GRAY AVE",
    "address_councildis": "D",
    "status": "Assigned to Contractor",
    "contractor": "Legacy Professional Services",
    "rowid": "1022976",
    "final_x": "3693395.51",
    "final_y": "545321.7",
    "longitude": "-90.03001304680731",
    "latitude": "29.993078900275595",
    "geocoded_column": {
      "latitude": "29.993078900275595",
      "longitude": "-90.03001304680731"
    }
  },
  {
    "service_request": "2023-1022975",
    "request_type": "Traffic Signals/Signs/Striping/Streetlights",
    "request_reason": "Street Light Outage/Malfunction",
    "date_created": "2023-08-02T23:56:26.000",
    "date_modified": "2023-08-02T23:56:27.000",
    "request_status": "Pending",
    "responsible_agency": "Department of Public Works",
    "final_address": "URSULA SPENCER WAY & KIMI O GRAY AVE",
    "address_councildis": "D",
    "status": "Assigned to Contractor",
    "contractor": "Legacy Professional Services",
    "rowid": "1022975",
    "final_x": "3693395.51",
    "final_y": "545321.7",
    "longitude": "-90.03001304680731",
    "latitude": "29.993078900275595",
    "geocoded_column": {
      "latitude": "29.993078900275595",
      "longitude": "-90.03001304680731"
    }
  },
  {
    "service_request": "2023-1022974",
    "request_type": "Roads/Drainage",
    "request_reason": "Pothole",
    "date_created": "2023-08-02T23:54:54.000",
    "date_modified": "2023-08-02T23:54:54.000",
    "request_status": "Pending",
    "responsible_agency": "Department of Public Works",
    "final_address": "1315 Milan St",
    "address_councildis": "B",
    "status": "Pending",
    "rowid": "1022974",
    "final_x": "3671703.18324",
    "final_y": "520260.436728",
    "longitude": "-90.09938808639757",
    "latitude": "29.924829365152263",
    "geocoded_column": {
      "latitude": "29.924829365152263",
      "longitude": "-90.09938808639757"
    }
  },
  {
    "service_request": "2023-1022973",
    "request_type": "Traffic Signals/Signs/Striping/Streetlights",
    "request_reason": "Street Light Outage/Malfunction",
    "date_created": "2023-08-02T23:54:26.000",
    "date_modified": "2023-08-02T23:54:27.000",
    "request_status": "Pending",
    "responsible_agency": "Department of Public Works",
    "final_address": "3500 BLK Ursula Spencer Way",
    "address_councildis": "D",
    "status": "Assigned to Contractor",
    "contractor": "Legacy Professional Services",
    "rowid": "1022973",
    "final_x": "3693408.9537",
    "final_y": "545117.039147",
    "longitude": "-90.02997793422048",
    "latitude": "29.99251573697888",
    "geocoded_column": {
      "latitude": "29.99251573697888",
      "longitude": "-90.02997793422048"
    }
  },
  {
    "service_request": "2023-1022972",
    "request_type": "Roads/Drainage",
    "request_reason": "Pothole",
    "date_created": "2023-08-02T23:48:04.000",
    "date_modified": "2023-08-02T23:48:04.000",
    "request_status": "Pending",
    "responsible_agency": "Department of Public Works",
    "final_address": "1422 General Pershing St",
    "address_councildis": "B",
    "status": "Pending",
    "rowid": "1022972",
    "final_x": "3671239.44116",
    "final_y": "520532.324984",
    "longitude": "-90.10084273889387",
    "latitude": "29.925590694745555",
    "geocoded_column": {
      "latitude": "29.925590694745555",
      "longitude": "-90.10084273889387"
    }
  },
  {
    "service_request": "2023-1022971",
    "request_type": "Property Maintenance",
    "request_reason": "Property Maintenance",
    "date_created": "2023-08-02T23:14:22.000",
    "date_modified": "2023-08-02T23:14:22.000",
    "request_status": "Pending",
    "responsible_agency": "Department of Code Enforcement",
    "status": "Pending",
    "rowid": "1022971",
    "longitude": "0.0",
    "latitude": "0.0",
    "geocoded_column": {
      "latitude": "0.0",
      "longitude": "0.0"
    }
  },
  {
    "service_request": "2023-1022970",
    "request_type": "Trash/Recycling",
    "request_reason": "Illegal Dumping",
    "date_created": "2023-08-02T22:42:04.000",
    "date_modified": "2023-08-02T22:42:04.000",
    "request_status": "Pending",
    "responsible_agency": "Department of Sanitation",
    "final_address": "2038 St Ferdinand St",
    "address_councildis": "D",
    "status": "Pending",
    "rowid": "1022970",
    "final_x": "3688630.93391",
    "final_y": "540019.830987",
    "longitude": "-90.04525175421071",
    "latitude": "29.978648808020875",
    "geocoded_column": {
      "latitude": "29.978648808020875",
      "longitude": "-90.04525175421071"
    }
  },
  {
    "service_request": "2023-1022969",
    "request_type": "Trash/Recycling",
    "request_reason": "MIssed Recycling Pick-Up",
    "date_created": "2023-08-02T22:34:59.000",
    "date_modified": "2023-08-02T22:38:22.000",
    "request_status": "Pending",
    "responsible_agency": "Department of Sanitation",
    "final_address": "2724 First St",
    "address_councildis": "B",
    "status": "Assigned to Contractor",
    "contractor": "Richards Disposal",
    "rowid": "1022969",
    "final_x": "3674621.85211",
    "final_y": "526671.383934",
    "longitude": "-90.08995520062304",
    "latitude": "29.94237063785649",
    "geocoded_column": {
      "latitude": "29.94237063785649",
      "longitude": "-90.08995520062304"
    }
  },
  {
    "service_request": "2023-1022968",
    "request_type": "Traffic Signals/Signs/Striping/Streetlights",
    "request_reason": "Street Light Outage/Malfunction",
    "date_created": "2023-08-02T22:33:47.000",
    "date_modified": "2023-08-02T22:36:21.000",
    "request_status": "Pending",
    "responsible_agency": "Department of Public Works",
    "final_address": "5200 Kim Dr",
    "address_councildis": "E",
    "status": "Assigned to Contractor",
    "contractor": "Legacy Professional Services",
    "rowid": "1022968",
    "final_x": "3727569.44294",
    "final_y": "564017.777825",
    "longitude": "-89.92133733464381",
    "latitude": "30.04337246895209",
    "geocoded_column": {
      "latitude": "30.04337246895209",
      "longitude": "-89.92133733464381"
    }
  },
  {
    "service_request": "2023-1022966",
    "request_type": "Traffic Signals/Signs/Striping/Streetlights",
    "request_reason": "Street Light Outage/Malfunction",
    "date_created": "2023-08-02T22:24:46.000",
    "date_modified": "2023-08-02T22:24:46.000",
    "request_status": "Pending",
    "responsible_agency": "Department of Public Works",
    "final_address": "3420 Caesar Dr",
    "address_councildis": "C",
    "status": "Assigned to Contractor",
    "contractor": "Legacy Professional Services",
    "rowid": "1022966",
    "final_x": "3696763.97136",
    "final_y": "524175.043004",
    "longitude": "-90.02013825625824",
    "latitude": "29.934827330369657",
    "geocoded_column": {
      "latitude": "29.934827330369657",
      "longitude": "-90.02013825625824"
    }
  },
  {
    "service_request": "2023-1022967",
    "request_type": "Traffic Signals/Signs/Striping/Streetlights",
    "request_reason": "Street Light Outage/Malfunction",
    "date_created": "2023-08-02T22:24:46.000",
    "date_modified": "2023-08-02T22:24:47.000",
    "request_status": "Pending",
    "responsible_agency": "Department of Public Works",
    "final_address": "600 BLK Burgundy St",
    "address_councildis": "C",
    "status": "Assigned to Contractor",
    "contractor": "Legacy Professional Services",
    "rowid": "1022967",
    "final_x": "3681565.19654",
    "final_y": "532948.284941",
    "longitude": "-90.06781464389803",
    "latitude": "29.959421001242944",
    "geocoded_column": {
      "latitude": "29.959421001242944",
      "longitude": "-90.06781464389803"
    }
  },
  {
    "service_request": "2023-1022965",
    "request_type": "Trash/Recycling",
    "request_reason": "Request a Large Item Pick Up",
    "date_created": "2023-08-02T21:57:14.000",
    "date_modified": "2023-08-02T21:57:15.000",
    "request_status": "Pending",
    "responsible_agency": "Department of Sanitation",
    "final_address": "5600 BLK Patton St",
    "address_councildis": "A",
    "status": "Assigned to Contractor",
    "contractor": "Richards Disposal",
    "rowid": "1022965",
    "final_x": "3665823.1342",
    "final_y": "518241.275313",
    "longitude": "-90.11801713715643",
    "latitude": "29.91945010988704",
    "geocoded_column": {
      "latitude": "29.91945010988704",
      "longitude": "-90.11801713715643"
    }
  },
  {
    "service_request": "2023-1022964",
    "request_type": "Trash/Recycling",
    "request_reason": "Request a Large Item Pick Up",
    "date_created": "2023-08-02T21:55:53.000",
    "date_modified": "2023-08-02T21:55:53.000",
    "request_status": "Pending",
    "responsible_agency": "Department of Sanitation",
    "final_address": "5600 BLK Patton St",
    "address_councildis": "A",
    "status": "Assigned to Contractor",
    "contractor": "Richards Disposal",
    "rowid": "1022964",
    "final_x": "3665823.1342",
    "final_y": "518241.275313",
    "longitude": "-90.11801713715643",
    "latitude": "29.91945010988704",
    "geocoded_column": {
      "latitude": "29.91945010988704",
      "longitude": "-90.11801713715643"
    }
  },
  {
    "service_request": "2023-1022963",
    "request_type": "Traffic Signals/Signs/Striping/Streetlights",
    "request_reason": "Street Light Outage/Malfunction",
    "date_created": "2023-08-02T21:45:24.000",
    "date_modified": "2023-08-02T21:45:25.000",
    "request_status": "Pending",
    "responsible_agency": "Department of Public Works",
    "final_address": "3110 Preston Pl",
    "address_councildis": "C",
    "status": "Assigned to Contractor",
    "contractor": "Legacy Professional Services",
    "rowid": "1022963",
    "final_x": "3708660.89771",
    "final_y": "518731.484727",
    "longitude": "-89.98278272507147",
    "latitude": "29.91947919643449",
    "geocoded_column": {
      "latitude": "29.91947919643449",
      "longitude": "-89.98278272507147"
    }
  },
  {
    "service_request": "2023-1022962",
    "request_type": "Roads/Drainage",
    "request_reason": "Pothole",
    "date_created": "2023-08-02T21:36:08.000",
    "date_modified": "2023-08-02T21:36:08.000",
    "request_status": "Pending",
    "responsible_agency": "Department of Public Works",
    "final_address": "4200 Perrier St",
    "address_councildis": "B",
    "status": "Pending",
    "rowid": "1022962",
    "final_x": "3671579.76411",
    "final_y": "520095.16844",
    "longitude": "-90.09978329705561",
    "latitude": "29.924378584144126",
    "geocoded_column": {
      "latitude": "29.924378584144126",
      "longitude": "-90.09978329705561"
    }
  },
  {
    "service_request": "2023-1022961",
    "request_type": "Roads/Drainage",
    "request_reason": "Catch Basin - Clogged",
    "date_created": "2023-08-02T21:33:49.000",
    "date_modified": "2023-08-02T21:33:49.000",
    "request_status": "Pending",
    "responsible_agency": "Department of Public Works",
    "final_address": "440 Audubon St",
    "address_councildis": "A",
    "status": "Pending",
    "rowid": "1022961",
    "final_x": "3662211.42586",
    "final_y": "523146.807035",
    "longitude": "-90.12925483760223",
    "latitude": "29.933043626947498",
    "geocoded_column": {
      "latitude": "29.933043626947498",
      "longitude": "-90.12925483760223"
    }
  },
  {
    "service_request": "2023-1022960",
    "request_type": "Trash/Recycling",
    "request_reason": "Missed Trash Pick-Up",
    "date_created": "2023-08-02T21:12:03.000",
    "date_modified": "2023-08-02T21:12:04.000",
    "request_status": "Pending",
    "responsible_agency": "Department of Sanitation",
    "final_address": "2624 Short St",
    "address_councildis": "A",
    "status": "Assigned to Contractor",
    "contractor": "Richards Disposal",
    "rowid": "1022960",
    "final_x": "3665773.40596",
    "final_y": "531999.958851",
    "longitude": "-90.11771336394101",
    "latitude": "29.957283539856437",
    "geocoded_column": {
      "latitude": "29.957283539856437",
      "longitude": "-90.11771336394101"
    }
  },
  {
    "service_request": "2023-1022959",
    "request_type": "Traffic Signals/Signs/Striping/Streetlights",
    "request_reason": "Street Light Outage/Malfunction",
    "date_created": "2023-08-02T20:57:18.000",
    "date_modified": "2023-08-02T20:57:19.000",
    "request_status": "Pending",
    "responsible_agency": "Department of Public Works",
    "final_address": "3726 Piedmont Dr",
    "address_councildis": "D",
    "status": "Assigned to Contractor",
    "contractor": "Legacy Professional Services",
    "rowid": "1022959",
    "final_x": "3685654.28687",
    "final_y": "546531.607121",
    "longitude": "-90.0544235456121",
    "latitude": "29.996645550273765",
    "geocoded_column": {
      "latitude": "29.996645550273765",
      "longitude": "-90.0544235456121"
    }
  },
  {
    "service_request": "2023-1022958",
    "request_type": "Trash/Recycling",
    "request_reason": "Replace Trash Cart",
    "date_created": "2023-08-02T20:53:23.000",
    "date_modified": "2023-08-02T20:53:24.000",
    "request_status": "Pending",
    "responsible_agency": "Department of Sanitation",
    "final_address": "4406 St Peter St",
    "address_councildis": "A",
    "status": "Assigned to Contractor",
    "contractor": "Richards Disposal",
    "rowid": "1022958",
    "final_x": "3671181.40244",
    "final_y": "540936.622795",
    "longitude": "-90.10033285354919",
    "latitude": "29.981697497534817",
    "geocoded_column": {
      "latitude": "29.981697497534817",
      "longitude": "-90.10033285354919"
    }
  },
  {
    "service_request": "2023-1022957",
    "request_type": "Traffic Signals/Signs/Striping/Streetlights",
    "request_reason": "Street Light Outage/Malfunction",
    "date_created": "2023-08-02T20:29:37.000",
    "date_modified": "2023-08-02T20:29:38.000",
    "request_status": "Pending",
    "responsible_agency": "Department of Public Works",
    "final_address": "2129 First St",
    "address_councildis": "B",
    "status": "Assigned to Contractor",
    "contractor": "Legacy Professional Services",
    "rowid": "1022957",
    "final_x": "3675857.79893",
    "final_y": "524924.706812",
    "longitude": "-90.08611306058464",
    "latitude": "29.93753091443368",
    "geocoded_column": {
      "latitude": "29.93753091443368",
      "longitude": "-90.08611306058464"
    }
  },
  {
    "service_request": "2023-1022956",
    "request_type": "Trash/Recycling",
    "request_reason": "Order Trash Cart",
    "date_created": "2023-08-02T20:24:13.000",
    "date_modified": "2023-08-02T20:24:14.000",
    "request_status": "Pending",
    "responsible_agency": "Department of Sanitation",
    "final_address": "4739 Tulip St",
    "address_councildis": "E",
    "status": "Assigned to Contractor",
    "contractor": "Waste Pro",
    "rowid": "1022956",
    "final_x": "3702128.93117",
    "final_y": "554301.857304",
    "longitude": "-90.00209629134199",
    "latitude": "30.017494916041304",
    "geocoded_column": {
      "latitude": "30.017494916041304",
      "longitude": "-90.00209629134199"
    }
  },
  {
    "service_request": "2023-1022955",
    "request_type": "Trash/Recycling",
    "request_reason": "Repair Trash Cart",
    "date_created": "2023-08-02T20:19:39.000",
    "date_modified": "2023-08-02T20:19:39.000",
    "request_status": "Pending",
    "responsible_agency": "Department of Sanitation",
    "final_address": "4535 Croyden Ave",
    "address_councildis": "C",
    "status": "Assigned to Contractor",
    "contractor": "Richards Disposal",
    "rowid": "1022955",
    "final_x": "3702282.76497",
    "final_y": "523914.246652",
    "longitude": "-90.00272518767098",
    "latitude": "29.933935165961632",
    "geocoded_column": {
      "latitude": "29.933935165961632",
      "longitude": "-90.00272518767098"
    }
  },
  {
    "service_request": "2023-1022954",
    "request_type": "Traffic Signals/Signs/Striping/Streetlights",
    "request_reason": "Street Light Outage/Malfunction",
    "date_created": "2023-08-02T20:15:16.000",
    "date_modified": "2023-08-02T20:15:17.000",
    "request_status": "Pending",
    "responsible_agency": "Department of Public Works",
    "final_address": "2606 Gordon St, New Orleans, Louisiana, 70117",
    "address_councildis": "E",
    "status": "Assigned to Contractor",
    "contractor": "Legacy Professional Services",
    "rowid": "1022954",
    "final_x": "3701309.80452",
    "final_y": "538869.135625",
    "longitude": "-90.00524955372448",
    "latitude": "29.975086821609285",
    "geocoded_column": {
      "latitude": "29.975086821609285",
      "longitude": "-90.00524955372448"
    }
  },
  {
    "service_request": "2023-1022953",
    "request_type": "Trash/Recycling",
    "request_reason": "Illegal Dumping",
    "date_created": "2023-08-02T20:00:34.000",
    "date_modified": "2023-08-02T20:00:34.000",
    "request_status": "Pending",
    "responsible_agency": "Department of Sanitation",
    "final_address": "4220 Dumaine St",
    "address_councildis": "A",
    "status": "Pending",
    "rowid": "1022953",
    "final_x": "3672215.83444",
    "final_y": "541208.930316",
    "longitude": "-90.09705634553518",
    "latitude": "29.982415602684235",
    "geocoded_column": {
      "latitude": "29.982415602684235",
      "longitude": "-90.09705634553518"
    }
  },
  {
    "service_request": "2023-1022952",
    "request_type": "Trash/Recycling",
    "request_reason": "Missed Trash Pick-Up",
    "date_created": "2023-08-02T19:52:28.000",
    "date_modified": "2023-08-02T19:52:28.000",
    "request_status": "Pending",
    "responsible_agency": "Department of Sanitation",
    "final_address": "2423 Short St",
    "address_councildis": "A",
    "status": "Assigned to Contractor",
    "contractor": "Richards Disposal",
    "rowid": "1022952",
    "final_x": "3665380.04263",
    "final_y": "531395.218435",
    "longitude": "-90.11897572880738",
    "latitude": "29.9556321699992",
    "geocoded_column": {
      "latitude": "29.9556321699992",
      "longitude": "-90.11897572880738"
    }
  },
  {
    "service_request": "2023-1022951",
    "request_type": "Roads/Drainage",
    "request_reason": "Pothole",
    "date_created": "2023-08-02T19:50:00.000",
    "date_modified": "2023-08-02T19:50:00.000",
    "request_status": "Pending",
    "responsible_agency": "Department of Public Works",
    "final_address": "1427 General Pershing St",
    "address_councildis": "B",
    "status": "Pending",
    "rowid": "1022951",
    "final_x": "3671330.17102",
    "final_y": "520583.22316",
    "longitude": "-90.10055460321166",
    "latitude": "29.92572796471359",
    "geocoded_column": {
      "latitude": "29.92572796471359",
      "longitude": "-90.10055460321166"
    }
  },
  {
    "service_request": "2023-1022950",
    "request_type": "Roads/Drainage",
    "request_reason": "Pothole",
    "date_created": "2023-08-02T19:49:10.000",
    "date_modified": "2023-08-02T19:49:10.000",
    "request_status": "Pending",
    "responsible_agency": "Department of Public Works",
    "final_address": "1423 General Pershing St",
    "address_councildis": "B",
    "status": "Pending",
    "rowid": "1022950",
    "final_x": "3671330.69185",
    "final_y": "520571.244024",
    "longitude": "-90.1005533659415",
    "latitude": "29.925695010510914",
    "geocoded_column": {
      "latitude": "29.925695010510914",
      "longitude": "-90.1005533659415"
    }
  },
  {
    "service_request": "2023-1022949",
    "request_type": "Trash/Recycling",
    "request_reason": "Order Trash Cart",
    "date_created": "2023-08-02T19:41:53.000",
    "date_modified": "2023-08-02T19:41:53.000",
    "request_status": "Pending",
    "responsible_agency": "Department of Sanitation",
    "final_address": "6842 Vicksburg St",
    "address_councildis": "A",
    "status": "Assigned to Contractor",
    "contractor": "IV Waste",
    "rowid": "1022949",
    "final_x": "3669332.22394",
    "final_y": "552988.672983",
    "longitude": "-90.10576563251787",
    "latitude": "30.014891046424054",
    "geocoded_column": {
      "latitude": "30.014891046424054",
      "longitude": "-90.10576563251787"
    }
  },
  {
    "service_request": "2023-1022948",
    "request_type": "Trash/Recycling",
    "request_reason": "Missed Trash Pick-Up",
    "date_created": "2023-08-02T19:40:16.000",
    "date_modified": "2023-08-02T19:40:17.000",
    "request_status": "Pending",
    "responsible_agency": "Department of Sanitation",
    "final_address": "2500 BLK Short St",
    "address_councildis": "A",
    "status": "Assigned to Contractor",
    "contractor": "Richards Disposal",
    "rowid": "1022948",
    "final_x": "3665566.24363",
    "final_y": "531658.49815",
    "longitude": "-90.11837895501962",
    "latitude": "29.956350675960845",
    "geocoded_column": {
      "latitude": "29.956350675960845",
      "longitude": "-90.11837895501962"
    }
  },
  {
    "service_request": "2023-1022947",
    "request_type": "Property Maintenance",
    "request_reason": "Property Maintenance",
    "date_created": "2023-08-02T19:20:18.000",
    "date_modified": "2023-08-02T19:20:18.000",
    "request_status": "Pending",
    "responsible_agency": "Department of Code Enforcement",
    "final_address": "3507 Danneel St",
    "address_councildis": "B",
    "status": "Pending",
    "rowid": "1022947",
    "final_x": "3673178.49019",
    "final_y": "522722.380474",
    "longitude": "-90.09464700833146",
    "latitude": "29.93155514984597",
    "geocoded_column": {
      "latitude": "29.93155514984597",
      "longitude": "-90.09464700833146"
    }
  },
  {
    "service_request": "2023-1022946",
    "request_type": "Trash/Recycling",
    "request_reason": "Missed Trash Pick-Up",
    "date_created": "2023-08-02T19:11:14.000",
    "date_modified": "2023-08-02T19:11:15.000",
    "request_status": "Pending",
    "responsible_agency": "Department of Sanitation",
    "final_address": "7725 Leake Avenue, New Orleans, LA 70118",
    "address_councildis": "A",
    "status": "Assigned to Contractor",
    "contractor": "Richards Disposal",
    "rowid": "1022946",
    "final_x": "3660685.68851",
    "final_y": "525026.986621",
    "longitude": "-90.13400938284265",
    "latitude": "29.93825752606452",
    "geocoded_column": {
      "latitude": "29.93825752606452",
      "longitude": "-90.13400938284265"
    }
  },
  {
    "service_request": "2023-1022945",
    "request_type": "Trash/Recycling",
    "request_reason": "Request a Large Item Pick Up",
    "date_created": "2023-08-02T19:08:59.000",
    "date_modified": "2023-08-02T19:08:59.000",
    "request_status": "Pending",
    "responsible_agency": "Department of Sanitation",
    "final_address": "4925 Lafon Dr",
    "address_councildis": "E",
    "status": "Assigned to Contractor",
    "contractor": "Waste Pro",
    "rowid": "1022945",
    "final_x": "3701141.99377",
    "final_y": "555193.605465",
    "longitude": "-90.00518194169275",
    "latitude": "30.019978373945744",
    "geocoded_column": {
      "latitude": "30.019978373945744",
      "longitude": "-90.00518194169275"
    }
  },
  {
    "service_request": "2023-1022944",
    "request_type": "Property Maintenance",
    "request_reason": "Property Maintenance",
    "date_created": "2023-08-02T18:52:51.000",
    "date_modified": "2023-08-02T18:52:51.000",
    "request_status": "Pending",
    "responsible_agency": "Department of Code Enforcement",
    "final_address": "1400 Louisa Dr",
    "address_councildis": "C",
    "status": "Pending",
    "rowid": "1022944",
    "final_x": "3689822.52259",
    "final_y": "537009.865544",
    "longitude": "-90.04159545566667",
    "latitude": "29.970335581593922",
    "geocoded_column": {
      "latitude": "29.970335581593922",
      "longitude": "-90.04159545566667"
    }
  },
  {
    "service_request": "2023-1022943",
    "request_type": "Property Maintenance",
    "request_reason": "Property Maintenance",
    "date_created": "2023-08-02T18:45:58.000",
    "date_modified": "2023-08-02T18:45:58.000",
    "request_status": "Pending",
    "responsible_agency": "Department of Code Enforcement",
    "final_address": "3523 S Miro St",
    "address_councildis": "B",
    "status": "Pending",
    "rowid": "1022943",
    "final_x": "3671109.78516",
    "final_y": "527992.597695",
    "longitude": "-90.10099874937761",
    "latitude": "29.946107867984068",
    "geocoded_column": {
      "latitude": "29.946107867984068",
      "longitude": "-90.10099874937761"
    }
  },
  {
    "service_request": "2023-1022942",
    "request_type": "Property Maintenance",
    "request_reason": "Property Maintenance",
    "date_created": "2023-08-02T18:40:34.000",
    "date_modified": "2023-08-02T18:40:34.000",
    "request_status": "Pending",
    "responsible_agency": "Department of Code Enforcement",
    "final_address": "3637 Bruxelles St, New Orleans, Louisiana, 70122",
    "address_councildis": "D",
    "status": "Pending",
    "rowid": "1022942",
    "final_x": "3680112.30786",
    "final_y": "545832.994832",
    "longitude": "-90.071954627778",
    "latitude": "29.994893531324166",
    "geocoded_column": {
      "latitude": "29.994893531324166",
      "longitude": "-90.071954627778"
    }
  },
  {
    "service_request": "2023-1022940",
    "request_type": "Trash/Recycling",
    "request_reason": "Request a Large Item Pick Up",
    "date_created": "2023-08-02T18:20:46.000",
    "date_modified": "2023-08-02T18:20:47.000",
    "request_status": "Pending",
    "responsible_agency": "Department of Sanitation",
    "final_address": "334 Millaudon St",
    "address_councildis": "A",
    "status": "Assigned to Contractor",
    "contractor": "Richards Disposal",
    "rowid": "1022940",
    "final_x": "3661594.2599",
    "final_y": "524350.6487",
    "longitude": "-90.13116332446215",
    "latitude": "29.936371630388592",
    "geocoded_column": {
      "latitude": "29.936371630388592",
      "longitude": "-90.13116332446215"
    }
  },
  {
    "service_request": "2023-1022939",
    "request_type": "Abandoned Vehicles",
    "request_reason": "Abandoned/Junk Vehicles",
    "date_created": "2023-08-02T18:17:44.000",
    "date_modified": "2023-08-02T18:17:44.000",
    "request_status": "Pending",
    "responsible_agency": "Department of Public Works",
    "final_address": "4628 Crowder Blvd",
    "address_councildis": "E",
    "status": "Pending",
    "rowid": "1022939",
    "final_x": "3706395.57918",
    "final_y": "554952.593176",
    "longitude": "-89.98859136330823",
    "latitude": "30.019147199286294",
    "geocoded_column": {
      "latitude": "30.019147199286294",
      "longitude": "-89.98859136330823"
    }
  },
  {
    "service_request": "2023-1022938",
    "request_type": "Property Maintenance",
    "request_reason": "Property Maintenance",
    "date_created": "2023-08-02T18:04:35.000",
    "date_modified": "2023-08-02T18:04:35.000",
    "request_status": "Pending",
    "responsible_agency": "Department of Code Enforcement",
    "final_address": "1119 Louisa St",
    "address_councildis": "C",
    "status": "Pending",
    "rowid": "1022938",
    "final_x": "3689646.78857",
    "final_y": "536081.930183",
    "longitude": "-90.04218346268537",
    "latitude": "29.9677895314519",
    "geocoded_column": {
      "latitude": "29.9677895314519",
      "longitude": "-90.04218346268537"
    }
  },
  {
    "service_request": "2023-1022937",
    "request_type": "Abandoned Vehicles",
    "request_reason": "Abandoned/Junk Vehicles",
    "date_created": "2023-08-02T18:04:19.000",
    "date_modified": "2023-08-02T18:04:19.000",
    "request_status": "Pending",
    "responsible_agency": "Department of Public Works",
    "final_address": "700 Third St",
    "address_councildis": "B",
    "status": "Pending",
    "rowid": "1022937",
    "final_x": "3678296.99758",
    "final_y": "519948.375736",
    "longitude": "-90.07858437241084",
    "latitude": "29.923774402563325",
    "geocoded_column": {
      "latitude": "29.923774402563325",
      "longitude": "-90.07858437241084"
    }
  },
  {
    "service_request": "2023-1022936",
    "request_type": "Abandoned Vehicles",
    "request_reason": "Abandoned/Junk Vehicles",
    "date_created": "2023-08-02T17:59:05.000",
    "date_modified": "2023-08-02T17:59:05.000",
    "request_status": "Pending",
    "responsible_agency": "Department of Public Works",
    "final_address": "1447 N Rampart St",
    "address_councildis": "C",
    "status": "Pending",
    "rowid": "1022936",
    "final_x": "3683060.75138",
    "final_y": "535761.324231",
    "longitude": "-90.06299355940021",
    "latitude": "29.967110390815456",
    "geocoded_column": {
      "latitude": "29.967110390815456",
      "longitude": "-90.06299355940021"
    }
  },
  {
    "service_request": "2023-1022935",
    "request_type": "Roads/Drainage",
    "request_reason": "Pothole",
    "date_created": "2023-08-02T17:53:11.000",
    "date_modified": "2023-08-02T17:53:11.000",
    "request_status": "Pending",
    "responsible_agency": "Department of Public Works",
    "final_address": "3707 Camp St",
    "address_councildis": "B",
    "status": "Pending",
    "rowid": "1022935",
    "final_x": "3673492.11675",
    "final_y": "519500.193783",
    "longitude": "-90.09376696551776",
    "latitude": "29.922685847522345",
    "geocoded_column": {
      "latitude": "29.922685847522345",
      "longitude": "-90.09376696551776"
    }
  },
  {
    "service_request": "2023-1022934",
    "request_type": "Roads/Drainage",
    "request_reason": "Pothole",
    "date_created": "2023-08-02T17:45:48.000",
    "date_modified": "2023-08-02T17:45:48.000",
    "request_status": "Pending",
    "responsible_agency": "Department of Public Works",
    "final_address": "4122 Perrier St",
    "address_councildis": "B",
    "status": "Pending",
    "rowid": "1022934",
    "final_x": "3671855.74983",
    "final_y": "520089.501624",
    "longitude": "-90.09891229597102",
    "latitude": "29.924354829726145",
    "geocoded_column": {
      "latitude": "29.924354829726145",
      "longitude": "-90.09891229597102"
    }
  },
  {
    "service_request": "2023-1022932",
    "request_type": "Trash/Recycling",
    "request_reason": "Request a Large Item Pick Up",
    "date_created": "2023-08-02T17:44:49.000",
    "date_modified": "2023-08-02T17:45:30.000",
    "request_status": "Pending",
    "responsible_agency": "Department of Sanitation",
    "final_address": "6519 E Hermes St",
    "address_councildis": "D",
    "status": "Assigned to Contractor",
    "contractor": "Waste Pro",
    "rowid": "1022932",
    "final_x": "3698031.80682",
    "final_y": "555458.326873",
    "longitude": "-90.0149994610959",
    "latitude": "30.02080501578286",
    "geocoded_column": {
      "latitude": "30.02080501578286",
      "longitude": "-90.0149994610959"
    }
  },
  {
    "service_request": "2023-1022931",
    "request_type": "Trash/Recycling",
    "request_reason": "Order Recycling Cart",
    "date_created": "2023-08-02T17:40:18.000",
    "date_modified": "2023-08-02T17:40:18.000",
    "request_status": "Pending",
    "responsible_agency": "Department of Sanitation",
    "final_address": "4455 St Roch Ave",
    "address_councildis": "D",
    "status": "Pending",
    "rowid": "1022931",
    "final_x": "3685509.4943",
    "final_y": "549404.783379",
    "longitude": "-90.05477966199493",
    "latitude": "30.004550191757556",
    "geocoded_column": {
      "latitude": "30.004550191757556",
      "longitude": "-90.05477966199493"
    }
  },
  {
    "service_request": "2023-1022930",
    "request_type": "Traffic Signals/Signs/Striping/Streetlights",
    "request_reason": "Street Light Outage/Malfunction",
    "date_created": "2023-08-02T17:25:00.000",
    "date_modified": "2023-08-02T17:25:00.000",
    "request_status": "Pending",
    "responsible_agency": "Department of Public Works",
    "final_address": "GRANT ST & EAST VIEW DR",
    "address_councildis": "E",
    "status": "Assigned to Contractor",
    "contractor": "Legacy Professional Services",
    "rowid": "1022930",
    "final_x": "3705203.9",
    "final_y": "554360.48",
    "longitude": "-89.99237852242042",
    "latitude": "30.017557516950145",
    "geocoded_column": {
      "latitude": "30.017557516950145",
      "longitude": "-89.99237852242042"
    }
  },
  {
    "service_request": "2023-1022929",
    "request_type": "Abandoned Vehicles",
    "request_reason": "Abandoned/Junk Vehicles",
    "date_created": "2023-08-02T17:23:01.000",
    "date_modified": "2023-08-02T18:04:05.000",
    "case_close_date": "2023-08-02T13:04:05.000",
    "request_status": "Closed",
    "responsible_agency": "Department of Public Works",
    "final_address": "1205 N Lopez St",
    "address_councildis": "A",
    "status": "Resolved",
    "rowid": "1022929",
    "final_x": "3676212.62965",
    "final_y": "539514.720714",
    "longitude": "-90.08449081046427",
    "latitude": "29.977637932411703",
    "geocoded_column": {
      "latitude": "29.977637932411703",
      "longitude": "-90.08449081046427"
    }
  },
  {
    "service_request": "2023-1022928",
    "request_type": "Trash/Recycling",
    "request_reason": "Request a Large Item Pick Up",
    "date_created": "2023-08-02T17:21:59.000",
    "date_modified": "2023-08-02T17:21:59.000",
    "request_status": "Pending",
    "responsible_agency": "Department of Sanitation",
    "final_address": "2238 Burgundy St",
    "address_councildis": "C",
    "status": "Assigned to Contractor",
    "contractor": "IV Waste",
    "rowid": "1022928",
    "final_x": "3685446.75452",
    "final_y": "535588.679174",
    "longitude": "-90.05546463840803",
    "latitude": "29.966562725760504",
    "geocoded_column": {
      "latitude": "29.966562725760504",
      "longitude": "-90.05546463840803"
    }
  },
  {
    "service_request": "2023-1022927",
    "request_type": "Roads/Drainage",
    "request_reason": "Catch Basin - Clogged",
    "date_created": "2023-08-02T17:18:31.000",
    "date_modified": "2023-08-02T17:18:31.000",
    "request_status": "Pending",
    "responsible_agency": "Department of Public Works",
    "final_address": "1801 Burgundy St",
    "address_councildis": "C",
    "status": "Pending",
    "rowid": "1022927",
    "final_x": "3683601.5126",
    "final_y": "535493.51591",
    "longitude": "-90.06129522258644",
    "latitude": "29.96635751464655",
    "geocoded_column": {
      "latitude": "29.96635751464655",
      "longitude": "-90.06129522258644"
    }
  },
  {
    "service_request": "2023-1022925",
    "request_type": "Trash/Recycling",
    "request_reason": "Order Trash Cart",
    "date_created": "2023-08-02T17:09:47.000",
    "date_modified": "2023-08-02T17:09:48.000",
    "request_status": "Pending",
    "responsible_agency": "Department of Sanitation",
    "final_address": "4743 Evangeline Dr",
    "address_councildis": "E",
    "status": "Assigned to Contractor",
    "contractor": "Waste Pro",
    "rowid": "1022925",
    "final_x": "3709172.80325",
    "final_y": "555801.765721",
    "longitude": "-89.97978468100905",
    "latitude": "30.021392181581376",
    "geocoded_column": {
      "latitude": "30.021392181581376",
      "longitude": "-89.97978468100905"
    }
  },
  {
    "service_request": "2023-1022924",
    "request_type": "Trash/Recycling",
    "request_reason": "MIssed Recycling Pick-Up",
    "date_created": "2023-08-02T17:02:44.000",
    "date_modified": "2023-08-02T17:02:45.000",
    "request_status": "Pending",
    "responsible_agency": "Department of Sanitation",
    "final_address": "3400 Nashville Ave",
    "address_councildis": "A",
    "status": "Assigned to Contractor",
    "contractor": "Richards Disposal",
    "rowid": "1022924",
    "final_x": "3667993.44583",
    "final_y": "528194.613376",
    "longitude": "-90.1108313290352",
    "latitude": "29.94675513491268",
    "geocoded_column": {
      "latitude": "29.94675513491268",
      "longitude": "-90.1108313290352"
    }
  },
  {
    "service_request": "2023-1022923",
    "request_type": "Trash/Recycling",
    "request_reason": "Missed Trash Pick-Up",
    "date_created": "2023-08-02T17:01:59.000",
    "date_modified": "2023-08-02T17:01:59.000",
    "request_status": "Pending",
    "responsible_agency": "Department of Sanitation",
    "final_address": "11416 Melvin Pl",
    "address_councildis": "E",
    "status": "Assigned to Contractor",
    "contractor": "Waste Pro",
    "rowid": "1022923",
    "final_x": "3717888.38745",
    "final_y": "561599.833631",
    "longitude": "-89.95202530894831",
    "latitude": "30.037048574005947",
    "geocoded_column": {
      "latitude": "30.037048574005947",
      "longitude": "-89.95202530894831"
    }
  },
  {
    "service_request": "2023-1022922",
    "request_type": "Trash/Recycling",
    "request_reason": "Repair Recycling Cart",
    "date_created": "2023-08-02T17:01:56.000",
    "date_modified": "2023-08-02T17:01:56.000",
    "request_status": "Pending",
    "responsible_agency": "Department of Sanitation",
    "final_address": "227 S Telemachus St",
    "address_councildis": "A",
    "status": "Pending",
    "rowid": "1022922",
    "final_x": "3671880.25524",
    "final_y": "536921.327368",
    "longitude": "-90.09826224168019",
    "latitude": "29.970636100964434",
    "geocoded_column": {
      "latitude": "29.970636100964434",
      "longitude": "-90.09826224168019"
    }
  },
  {
    "service_request": "2023-1022921",
    "request_type": "Trash/Recycling",
    "request_reason": "Order Trash Cart",
    "date_created": "2023-08-02T17:01:19.000",
    "date_modified": "2023-08-02T17:01:20.000",
    "request_status": "Pending",
    "responsible_agency": "Department of Sanitation",
    "final_address": "4103 Gibson St",
    "address_councildis": "D",
    "status": "Assigned to Contractor",
    "contractor": "IV Waste",
    "rowid": "1022921",
    "final_x": "3678796.98683",
    "final_y": "547346.908561",
    "longitude": "-90.07605710504637",
    "latitude": "29.999096006866594",
    "geocoded_column": {
      "latitude": "29.999096006866594",
      "longitude": "-90.07605710504637"
    }
  },
  {
    "service_request": "2023-1022920",
    "request_type": "Trash/Recycling",
    "request_reason": "MIssed Recycling Pick-Up",
    "date_created": "2023-08-02T16:57:50.000",
    "date_modified": "2023-08-02T16:57:51.000",
    "request_status": "Pending",
    "responsible_agency": "Department of Sanitation",
    "final_address": "3400 BLK Nashville Ave",
    "address_councildis": "A",
    "status": "Assigned to Contractor",
    "contractor": "Richards Disposal",
    "rowid": "1022920",
    "final_x": "3668089.8439",
    "final_y": "528292.81689",
    "longitude": "-90.11052365536752",
    "latitude": "29.947022334363254",
    "geocoded_column": {
      "latitude": "29.947022334363254",
      "longitude": "-90.11052365536752"
    }
  },
  {
    "service_request": "2023-1022919",
    "request_type": "Property Maintenance",
    "request_reason": "Property Maintenance",
    "date_created": "2023-08-02T16:55:46.000",
    "date_modified": "2023-08-02T16:55:46.000",
    "request_status": "Pending",
    "responsible_agency": "Department of Code Enforcement",
    "final_address": "1119 Louisa St",
    "address_councildis": "C",
    "status": "Pending",
    "rowid": "1022919",
    "final_x": "3689646.78857",
    "final_y": "536081.930183",
    "longitude": "-90.04218346268537",
    "latitude": "29.9677895314519",
    "geocoded_column": {
      "latitude": "29.9677895314519",
      "longitude": "-90.04218346268537"
    }
  },
  {
    "service_request": "2023-1022917",
    "request_type": "Trash/Recycling",
    "request_reason": "Replace Trash Cart",
    "date_created": "2023-08-02T16:54:09.000",
    "date_modified": "2023-08-02T16:54:09.000",
    "request_status": "Pending",
    "responsible_agency": "Department of Sanitation",
    "final_address": "423 22Nd St",
    "address_councildis": "A",
    "status": "Assigned to Contractor",
    "contractor": "IV Waste",
    "rowid": "1022917",
    "final_x": "3664608.6473",
    "final_y": "549414.246355",
    "longitude": "-90.1208094413675",
    "latitude": "30.005200914452566",
    "geocoded_column": {
      "latitude": "30.005200914452566",
      "longitude": "-90.1208094413675"
    }
  },
  {
    "service_request": "2023-1022916",
    "request_type": "Trash/Recycling",
    "request_reason": "Order Recycling Cart",
    "date_created": "2023-08-02T16:54:07.000",
    "date_modified": "2023-08-02T16:54:07.000",
    "request_status": "Pending",
    "responsible_agency": "Department of Sanitation",
    "final_address": "3502 S Tonti St",
    "address_councildis": "B",
    "status": "Pending",
    "rowid": "1022916",
    "final_x": "3671184.07508",
    "final_y": "528260.998272",
    "longitude": "-90.10075507424078",
    "latitude": "29.946843684635024",
    "geocoded_column": {
      "latitude": "29.946843684635024",
      "longitude": "-90.10075507424078"
    }
  },
  {
    "service_request": "2023-1022915",
    "request_type": "Trash/Recycling",
    "request_reason": "Missed Trash Pick-Up",
    "date_created": "2023-08-02T16:42:57.000",
    "date_modified": "2023-08-02T16:42:58.000",
    "request_status": "Pending",
    "responsible_agency": "Department of Sanitation",
    "final_address": "4758 Read Blvd",
    "address_councildis": "E",
    "status": "Assigned to Contractor",
    "contractor": "Waste Pro",
    "rowid": "1022915",
    "final_x": "3712653.13093",
    "final_y": "556314.855258",
    "longitude": "-89.96876860729782",
    "latitude": "30.02268947370376",
    "geocoded_column": {
      "latitude": "30.02268947370376",
      "longitude": "-89.96876860729782"
    }
  },
  {
    "service_request": "2023-1022914",
    "request_type": "Roads/Drainage",
    "request_reason": "Street Flooding / Drainage",
    "date_created": "2023-08-02T16:36:50.000",
    "date_modified": "2023-08-02T16:36:50.000",
    "request_status": "Pending",
    "responsible_agency": "Department of Public Works",
    "final_address": "1215 Foucher St",
    "address_councildis": "B",
    "status": "Pending",
    "rowid": "1022914",
    "final_x": "3674056.76168",
    "final_y": "519800.248184",
    "longitude": "-90.09197434230282",
    "latitude": "29.92349409287662",
    "geocoded_column": {
      "latitude": "29.92349409287662",
      "longitude": "-90.09197434230282"
    }
  },
  {
    "service_request": "2023-1022913",
    "request_type": "Traffic Signals/Signs/Striping/Streetlights",
    "request_reason": "Request for Stop Sign",
    "date_created": "2023-08-02T16:30:39.000",
    "date_modified": "2023-08-02T16:30:40.000",
    "request_status": "Pending",
    "responsible_agency": "Department of Public Works",
    "final_address": "TCHOUPITOULAS ST & JOHN CHURCHILL CHASE ST",
    "address_councildis": "B",
    "status": "Pending",
    "rowid": "1022913",
    "final_x": "3681849.6",
    "final_y": "526124.88",
    "longitude": "-90.06715466126171",
    "latitude": "29.940650299247405",
    "geocoded_column": {
      "latitude": "29.940650299247405",
      "longitude": "-90.06715466126171"
    }
  },
  {
    "service_request": "2023-1022912",
    "request_type": "Trash/Recycling",
    "request_reason": "Order Trash Cart",
    "date_created": "2023-08-02T16:30:19.000",
    "date_modified": "2023-08-02T16:30:20.000",
    "request_status": "Pending",
    "responsible_agency": "Department of Sanitation",
    "final_address": "801 St Mary St",
    "address_councildis": "B",
    "status": "Assigned to Contractor",
    "contractor": "Richards Disposal",
    "rowid": "1022912",
    "final_x": "3680491.25832",
    "final_y": "522060.067706",
    "longitude": "-90.07158449023993",
    "latitude": "29.929514611817957",
    "geocoded_column": {
      "latitude": "29.929514611817957",
      "longitude": "-90.07158449023993"
    }
  },
  {
    "service_request": "2023-1022911",
    "request_type": "Trash/Recycling",
    "request_reason": "Dead Animal Pick Up",
    "date_created": "2023-08-02T16:28:43.000",
    "date_modified": "2023-08-02T16:28:44.000",
    "request_status": "Pending",
    "responsible_agency": "Department of Sanitation",
    "final_address": "5300 BLK Bullard Ave",
    "address_councildis": "E",
    "status": "Assigned to Contractor",
    "contractor": "Waste Pro",
    "rowid": "1022911",
    "final_x": "3717600.30426",
    "final_y": "561262.387105",
    "longitude": "-89.95294855166681",
    "latitude": "30.03613027839846",
    "geocoded_column": {
      "latitude": "30.03613027839846",
      "longitude": "-89.95294855166681"
    }
  },
  {
    "service_request": "2023-1022910",
    "request_type": "Traffic Signals/Signs/Striping/Streetlights",
    "request_reason": "Street Light Outage/Malfunction",
    "date_created": "2023-08-02T16:27:41.000",
    "date_modified": "2023-08-02T16:27:42.000",
    "request_status": "Pending",
    "responsible_agency": "Department of Public Works",
    "final_address": "2110 Octavia St",
    "address_councildis": "A",
    "status": "Assigned to Contractor",
    "contractor": "Legacy Professional Services",
    "rowid": "1022910",
    "final_x": "3667412.88372",
    "final_y": "523503.218043",
    "longitude": "-90.1128221584101",
    "latitude": "29.93387232619676",
    "geocoded_column": {
      "latitude": "29.93387232619676",
      "longitude": "-90.1128221584101"
    }
  },
  {
    "service_request": "2023-1022909",
    "request_type": "Roads/Drainage",
    "request_reason": "Accessibility Ramps, Curbs and Sidewalk Repair",
    "date_created": "2023-08-02T16:24:22.000",
    "date_modified": "2023-08-02T16:24:22.000",
    "request_status": "Pending",
    "responsible_agency": "Department of Public Works",
    "final_address": "429 S Scott St",
    "address_councildis": "B",
    "status": "Pending",
    "rowid": "1022909",
    "final_x": "3670856.55707",
    "final_y": "536683.374727",
    "longitude": "-90.10150328922718",
    "latitude": "29.97001211167112",
    "geocoded_column": {
      "latitude": "29.97001211167112",
      "longitude": "-90.10150328922718"
    }
  },
  {
    "service_request": "2023-1022908",
    "request_type": "Roads/Drainage",
    "request_reason": "Debris in Roadway",
    "date_created": "2023-08-02T16:21:44.000",
    "date_modified": "2023-08-02T16:21:44.000",
    "request_status": "Pending",
    "responsible_agency": "Department of Public Works",
    "final_address": "DESIRE ST & N CLAIBORNE AVE",
    "address_councildis": "D",
    "status": "Pending",
    "rowid": "1022908",
    "final_x": "3690646.9",
    "final_y": "537574.48",
    "longitude": "-90.03897184831987",
    "latitude": "29.971862492608903",
    "geocoded_column": {
      "latitude": "29.971862492608903",
      "longitude": "-90.03897184831987"
    }
  },
  {
    "service_request": "2023-1022907",
    "request_type": "Trash/Recycling",
    "request_reason": "Repair Trash Cart",
    "date_created": "2023-08-02T16:21:05.000",
    "date_modified": "2023-08-02T16:21:05.000",
    "request_status": "Pending",
    "responsible_agency": "Department of Sanitation",
    "final_address": "2939 Chelsea Dr",
    "address_councildis": "C",
    "status": "Assigned to Contractor",
    "contractor": "Richards Disposal",
    "rowid": "1022907",
    "final_x": "3704135.24113",
    "final_y": "520088.368056",
    "longitude": "-89.99701790259854",
    "latitude": "29.923356052877978",
    "geocoded_column": {
      "latitude": "29.923356052877978",
      "longitude": "-89.99701790259854"
    }
  },
  {
    "service_request": "2023-1022905",
    "request_type": "Roads/Drainage",
    "request_reason": "Pothole",
    "date_created": "2023-08-02T16:17:22.000",
    "date_modified": "2023-08-02T16:17:22.000",
    "request_status": "Pending",
    "responsible_agency": "Department of Public Works",
    "final_address": "2500 Lavender St",
    "address_councildis": "D",
    "status": "Pending",
    "rowid": "1022905",
    "final_x": "3686363.73103",
    "final_y": "546823.006033",
    "longitude": "-90.05217216501157",
    "latitude": "29.99742500074224",
    "geocoded_column": {
      "latitude": "29.99742500074224",
      "longitude": "-90.05217216501157"
    }
  },
  {
    "service_request": "2023-1022904",
    "request_type": "Trash/Recycling",
    "request_reason": "Replace Trash Cart",
    "date_created": "2023-08-02T16:14:32.000",
    "date_modified": "2023-08-02T16:14:33.000",
    "request_status": "Pending",
    "responsible_agency": "Department of Sanitation",
    "final_address": "3868 Gallatin St",
    "address_councildis": "C",
    "status": "Assigned to Contractor",
    "contractor": "Richards Disposal",
    "rowid": "1022904",
    "final_x": "3698324.27056",
    "final_y": "522404.704058",
    "longitude": "-90.0152767317721",
    "latitude": "29.929910247305042",
    "geocoded_column": {
      "latitude": "29.929910247305042",
      "longitude": "-90.0152767317721"
    }
  },
  {
    "service_request": "2023-1022903",
    "request_type": "Trash/Recycling",
    "request_reason": "Repair Trash Cart",
    "date_created": "2023-08-02T16:14:08.000",
    "date_modified": "2023-08-02T16:14:08.000",
    "request_status": "Pending",
    "responsible_agency": "Department of Sanitation",
    "final_address": "17 Park Island Dr",
    "address_councildis": "A",
    "status": "Assigned to Contractor",
    "contractor": "IV Waste",
    "rowid": "1022903",
    "final_x": "3676406.93704",
    "final_y": "548061.440018",
    "longitude": "-90.0835827075162",
    "latitude": "30.001132608904296",
    "geocoded_column": {
      "latitude": "30.001132608904296",
      "longitude": "-90.0835827075162"
    }
  },
  {
    "service_request": "2023-1022901",
    "request_type": "Trash/Recycling",
    "request_reason": "Order Trash Cart",
    "date_created": "2023-08-02T16:11:53.000",
    "date_modified": "2023-08-02T16:11:54.000",
    "request_status": "Pending",
    "responsible_agency": "Department of Sanitation",
    "final_address": "7760 N Coronet Ct Apt C",
    "address_councildis": "E",
    "status": "Assigned to Contractor",
    "contractor": "Waste Pro",
    "rowid": "1022901",
    "final_x": "3702714.70692",
    "final_y": "557475.434267",
    "longitude": "-90.00012881783859",
    "latitude": "30.026202306373403",
    "geocoded_column": {
      "latitude": "30.026202306373403",
      "longitude": "-90.00012881783859"
    }
  },
  {
    "service_request": "2023-1022900",
    "request_type": "Property Maintenance",
    "request_reason": "Property Maintenance",
    "date_created": "2023-08-02T16:09:51.000",
    "date_modified": "2023-08-02T16:09:53.000",
    "request_status": "Pending",
    "responsible_agency": "Department of Code Enforcement",
    "final_address": "6524 Baccich St",
    "address_councildis": "D",
    "status": "Pending",
    "rowid": "1022900",
    "final_x": "3687282.71023",
    "final_y": "557364.196571",
    "longitude": "-90.0488958770598",
    "latitude": "30.026381121904674",
    "geocoded_column": {
      "latitude": "30.026381121904674",
      "longitude": "-90.0488958770598"
    }
  },
  {
    "service_request": "2023-1022899",
    "request_type": "Abandoned Vehicles",
    "request_reason": "Abandoned/Junk Vehicles",
    "date_created": "2023-08-02T16:07:21.000",
    "date_modified": "2023-08-02T16:07:21.000",
    "request_status": "Pending",
    "responsible_agency": "Department of Public Works",
    "final_address": "3737 Lang St",
    "address_councildis": "C",
    "status": "Pending",
    "rowid": "1022899",
    "final_x": "3701883.81066",
    "final_y": "517250.346741",
    "longitude": "-90.0042286840291",
    "latitude": "29.915624474370173",
    "geocoded_column": {
      "latitude": "29.915624474370173",
      "longitude": "-90.0042286840291"
    }
  },
  {
    "service_request": "2023-1022898",
    "request_type": "Traffic Signals/Signs/Striping/Streetlights",
    "request_reason": "Additional signage",
    "date_created": "2023-08-02T16:06:23.000",
    "date_modified": "2023-08-02T16:06:23.000",
    "request_status": "Pending",
    "responsible_agency": "Department of Public Works",
    "final_address": "CLEMATIS AVE & ELDER ST",
    "address_councildis": "D",
    "status": "Pending",
    "rowid": "1022898",
    "final_x": "3686583.9",
    "final_y": "545683.68",
    "longitude": "-90.05151692195372",
    "latitude": "29.99428549311395",
    "geocoded_column": {
      "latitude": "29.99428549311395",
      "longitude": "-90.05151692195372"
    }
  },
  {
    "service_request": "2023-1022897",
    "request_type": "Trash/Recycling",
    "request_reason": "Order Trash Cart",
    "date_created": "2023-08-02T16:05:17.000",
    "date_modified": "2023-08-02T16:05:18.000",
    "request_status": "Pending",
    "responsible_agency": "Department of Sanitation",
    "final_address": "1514 Tennessee St",
    "address_councildis": "E",
    "status": "Assigned to Contractor",
    "contractor": "Waste Pro",
    "rowid": "1022897",
    "final_x": "3696104.11741",
    "final_y": "535993.667399",
    "longitude": "-90.02179432815473",
    "latitude": "29.967345189580733",
    "geocoded_column": {
      "latitude": "29.967345189580733",
      "longitude": "-90.02179432815473"
    }
  },
  {
    "service_request": "2023-1022896",
    "request_type": "Property Maintenance",
    "request_reason": "Property Maintenance",
    "date_created": "2023-08-02T15:55:54.000",
    "date_modified": "2023-08-02T15:55:54.000",
    "request_status": "Pending",
    "responsible_agency": "Department of Code Enforcement",
    "final_address": "1809 Adams St",
    "address_councildis": "A",
    "status": "Pending",
    "rowid": "1022896",
    "final_x": "3664561.55136",
    "final_y": "528982.202432",
    "longitude": "-90.121640817808",
    "latitude": "29.949020983982134",
    "geocoded_column": {
      "latitude": "29.949020983982134",
      "longitude": "-90.121640817808"
    }
  },
  {
    "service_request": "2023-1022895",
    "request_type": "Trash/Recycling",
    "request_reason": "Missed Trash Pick-Up",
    "date_created": "2023-08-02T15:52:22.000",
    "date_modified": "2023-08-02T15:53:09.000",
    "request_status": "Closed",
    "responsible_agency": "Department of Sanitation",
    "final_address": "5440 Bundy Rd",
    "address_councildis": "E",
    "status": "Invalid Request",
    "rowid": "1022895",
    "final_x": "3708385.6362",
    "final_y": "558048.281051",
    "longitude": "-89.9821881887291",
    "latitude": "30.02759476489707",
    "geocoded_column": {
      "latitude": "30.02759476489707",
      "longitude": "-89.9821881887291"
    }
  },
  {
    "service_request": "2023-1022893",
    "request_type": "Parks & Parkways",
    "request_reason": "Request Tree Service (Right of Way/Public Property)",
    "date_created": "2023-08-02T15:50:06.000",
    "date_modified": "2023-08-02T15:50:06.000",
    "request_status": "Pending",
    "responsible_agency": "Department of Parks & Parkway",
    "final_address": "2439 Prentiss Ave",
    "address_councildis": "D",
    "status": "Pending",
    "rowid": "1022893",
    "final_x": "3685482.26908",
    "final_y": "554077.25148",
    "longitude": "-90.05470095252564",
    "latitude": "30.01739860887074",
    "geocoded_column": {
      "latitude": "30.01739860887074",
      "longitude": "-90.05470095252564"
    }
  },
  {
    "service_request": "2023-1022892",
    "request_type": "Trash/Recycling",
    "request_reason": "Illegal Dumping",
    "date_created": "2023-08-02T15:48:21.000",
    "date_modified": "2023-08-02T15:48:21.000",
    "request_status": "Pending",
    "responsible_agency": "Department of Sanitation",
    "final_address": "9800 BLK Old Gentilly Rd",
    "address_councildis": "E",
    "status": "Pending",
    "rowid": "1022892",
    "final_x": "3712003.15634",
    "final_y": "552943.614701",
    "longitude": "-89.97094900860417",
    "latitude": "30.013441148484446",
    "geocoded_column": {
      "latitude": "30.013441148484446",
      "longitude": "-89.97094900860417"
    }
  },
  {
    "service_request": "2023-1022891",
    "request_type": "Trash/Recycling",
    "request_reason": "Replace Trash Cart",
    "date_created": "2023-08-02T15:45:46.000",
    "date_modified": "2023-08-02T15:45:47.000",
    "request_status": "Pending",
    "responsible_agency": "Department of Sanitation",
    "final_address": "3011 Calhoun St",
    "address_councildis": "A",
    "status": "Assigned to Contractor",
    "contractor": "Richards Disposal",
    "rowid": "1022891",
    "final_x": "3666943.23783",
    "final_y": "527644.834175",
    "longitude": "-90.11416569881195",
    "latitude": "29.94527418745526",
    "geocoded_column": {
      "latitude": "29.94527418745526",
      "longitude": "-90.11416569881195"
    }
  },
  {
    "service_request": "2023-1022890",
    "request_type": "Trash/Recycling",
    "request_reason": "Order Recycling Cart",
    "date_created": "2023-08-02T15:45:32.000",
    "date_modified": "2023-08-02T15:45:32.000",
    "request_status": "Pending",
    "responsible_agency": "Department of Sanitation",
    "final_address": "4608 S Derbigny St",
    "address_councildis": "B",
    "status": "Pending",
    "rowid": "1022890",
    "final_x": "3669484.35406",
    "final_y": "526128.203518",
    "longitude": "-90.10619384959728",
    "latitude": "29.941029356947436",
    "geocoded_column": {
      "latitude": "29.941029356947436",
      "longitude": "-90.10619384959728"
    }
  },
  {
    "service_request": "2023-1022889",
    "request_type": "Trash/Recycling",
    "request_reason": "MIssed Recycling Pick-Up",
    "date_created": "2023-08-02T15:44:30.000",
    "date_modified": "2023-08-02T16:09:35.000",
    "request_status": "Pending",
    "responsible_agency": "Department of Sanitation",
    "final_address": "4682 Bundy Rd",
    "address_councildis": "E",
    "contractor": "Waste Pro",
    "rowid": "1022889",
    "final_x": "3709299.77643",
    "final_y": "555447.668697",
    "longitude": "-89.97939670470457",
    "latitude": "30.020414428108907",
    "geocoded_column": {
      "latitude": "30.020414428108907",
      "longitude": "-89.97939670470457"
    }
  },
  {
    "service_request": "2023-1022888",
    "request_type": "Trash/Recycling",
    "request_reason": "Order Trash Cart",
    "date_created": "2023-08-02T15:42:40.000",
    "date_modified": "2023-08-02T15:42:40.000",
    "request_status": "Pending",
    "responsible_agency": "Department of Sanitation",
    "final_address": "1619 Marengo St Apt 2B",
    "address_councildis": "B",
    "status": "Assigned to Contractor",
    "contractor": "Richards Disposal",
    "rowid": "1022888",
    "final_x": "3672013.68423",
    "final_y": "521210.989241",
    "longitude": "-90.09837559564762",
    "latitude": "29.927433882152997",
    "geocoded_column": {
      "latitude": "29.927433882152997",
      "longitude": "-90.09837559564762"
    }
  },
  {
    "service_request": "2023-1022887",
    "request_type": "Trash/Recycling",
    "request_reason": "Order Trash Cart",
    "date_created": "2023-08-02T15:41:36.000",
    "date_modified": "2023-08-02T15:41:36.000",
    "request_status": "Pending",
    "responsible_agency": "Department of Sanitation",
    "final_address": "1619 Marengo St Apt 2A",
    "address_councildis": "B",
    "status": "Assigned to Contractor",
    "contractor": "Richards Disposal",
    "rowid": "1022887",
    "final_x": "3672014.98631",
    "final_y": "521198.185401",
    "longitude": "-90.09837192091726",
    "latitude": "29.92739863711304",
    "geocoded_column": {
      "latitude": "29.92739863711304",
      "longitude": "-90.09837192091726"
    }
  },
  {
    "service_request": "2023-1022886",
    "request_type": "Trash/Recycling",
    "request_reason": "Missed Trash Pick-Up",
    "date_created": "2023-08-02T15:40:49.000",
    "date_modified": "2023-08-02T15:40:49.000",
    "request_status": "Pending",
    "responsible_agency": "Department of Sanitation",
    "final_address": "8608 Spruce St",
    "address_councildis": "A",
    "status": "Assigned to Contractor",
    "contractor": "Richards Disposal",
    "rowid": "1022886",
    "final_x": "3662443.02752",
    "final_y": "531679.386947",
    "longitude": "-90.12824038659149",
    "latitude": "29.95649880177037",
    "geocoded_column": {
      "latitude": "29.95649880177037",
      "longitude": "-90.12824038659149"
    }
  },
  {
    "service_request": "2023-1022885",
    "request_type": "Roads/Drainage",
    "request_reason": "Accessibility Ramps, Curbs and Sidewalk Repair",
    "date_created": "2023-08-02T15:39:53.000",
    "date_modified": "2023-08-02T15:39:53.000",
    "request_status": "Pending",
    "responsible_agency": "Department of Public Works",
    "final_address": "5927 Selma St",
    "address_councildis": "D",
    "status": "Pending",
    "rowid": "1022885",
    "final_x": "3696339.29424",
    "final_y": "552464.757974",
    "longitude": "-90.02045565447266",
    "latitude": "30.012627264281395",
    "geocoded_column": {
      "latitude": "30.012627264281395",
      "longitude": "-90.02045565447266"
    }
  },
  {
    "service_request": "2023-1022884",
    "request_type": "Roads/Drainage",
    "request_reason": "Pothole",
    "date_created": "2023-08-02T15:36:59.000",
    "date_modified": "2023-08-02T15:36:59.000",
    "request_status": "Pending",
    "responsible_agency": "Department of Public Works",
    "final_address": "1320 Milan St",
    "address_councildis": "B",
    "status": "Pending",
    "rowid": "1022884",
    "final_x": "3671624.56468",
    "final_y": "520336.202616",
    "longitude": "-90.09963368473501",
    "latitude": "29.925040024870274",
    "geocoded_column": {
      "latitude": "29.925040024870274",
      "longitude": "-90.09963368473501"
    }
  },
  {
    "service_request": "2023-1022883",
    "request_type": "Traffic Signals/Signs/Striping/Streetlights",
    "request_reason": "Road Surface Marking Maintenance-Traffic Control",
    "date_created": "2023-08-02T15:33:01.000",
    "date_modified": "2023-08-02T15:33:01.000",
    "request_status": "Pending",
    "responsible_agency": "Department of Public Works",
    "final_address": "9301 Lake Forest Blvd",
    "address_councildis": "E",
    "status": "Pending",
    "rowid": "1022883",
    "final_x": "3708380.86315",
    "final_y": "558701.173596",
    "longitude": "-89.98217894354795",
    "latitude": "30.0293901178376",
    "geocoded_column": {
      "latitude": "30.0293901178376",
      "longitude": "-89.98217894354795"
    }
  },
  {
    "service_request": "2023-1022882",
    "request_type": "Abandoned Vehicles",
    "request_reason": "Abandoned/Junk Vehicles",
    "date_created": "2023-08-02T15:31:18.000",
    "date_modified": "2023-08-02T15:31:18.000",
    "request_status": "Pending",
    "responsible_agency": "Department of Public Works",
    "final_address": "804 Webster St",
    "address_councildis": "A",
    "status": "Pending",
    "rowid": "1022882",
    "final_x": "3664124.39348",
    "final_y": "519522.014135",
    "longitude": "-90.1233365457699",
    "latitude": "29.923021174551675",
    "geocoded_column": {
      "latitude": "29.923021174551675",
      "longitude": "-90.1233365457699"
    }
  },
  {
    "service_request": "2023-1022881",
    "request_type": "Trash/Recycling",
    "request_reason": "MIssed Recycling Pick-Up",
    "date_created": "2023-08-02T15:31:17.000",
    "date_modified": "2023-08-02T15:31:17.000",
    "request_status": "Pending",
    "responsible_agency": "Department of Sanitation",
    "final_address": "620 Soraparu St",
    "address_councildis": "B",
    "status": "Assigned to Contractor",
    "contractor": "Richards Disposal",
    "rowid": "1022881",
    "final_x": "3679239.42933",
    "final_y": "520277.98508",
    "longitude": "-90.0755980373529",
    "latitude": "29.924652310462665",
    "geocoded_column": {
      "latitude": "29.924652310462665",
      "longitude": "-90.0755980373529"
    }
  },
  {
    "service_request": "2023-1022880",
    "request_type": "Traffic Signals/Signs/Striping/Streetlights",
    "request_reason": "Traffic Signal Malfunctioning/Damaged",
    "date_created": "2023-08-02T15:28:44.000",
    "date_modified": "2023-08-02T15:28:45.000",
    "request_status": "Pending",
    "responsible_agency": "Department of Public Works",
    "final_address": "5800 BLK Franklin Ave",
    "address_councildis": "D",
    "status": "Pending",
    "rowid": "1022880",
    "final_x": "3686433.44173",
    "final_y": "554635.425622",
    "longitude": "-90.05167590778754",
    "latitude": "30.01890416279801",
    "geocoded_column": {
      "latitude": "30.01890416279801",
      "longitude": "-90.05167590778754"
    }
  },
  {
    "service_request": "2023-1022879",
    "request_type": "Traffic Signals/Signs/Striping/Streetlights",
    "request_reason": "Traffic Signal Malfunctioning/Damaged",
    "date_created": "2023-08-02T15:27:27.000",
    "date_modified": "2023-08-02T15:27:27.000",
    "request_status": "Pending",
    "responsible_agency": "Department of Public Works",
    "final_address": "5800 BLK Franklin Ave",
    "address_councildis": "D",
    "status": "Pending",
    "rowid": "1022879",
    "final_x": "3686433.44173",
    "final_y": "554635.425622",
    "longitude": "-90.05167590778754",
    "latitude": "30.01890416279801",
    "geocoded_column": {
      "latitude": "30.01890416279801",
      "longitude": "-90.05167590778754"
    }
  },
  {
    "service_request": "2023-1022878",
    "request_type": "Traffic Signals/Signs/Striping/Streetlights",
    "request_reason": "Traffic Signal Malfunctioning/Damaged",
    "date_created": "2023-08-02T15:26:39.000",
    "date_modified": "2023-08-02T15:26:39.000",
    "request_status": "Pending",
    "responsible_agency": "Department of Public Works",
    "final_address": "5729 Franklin Ave",
    "address_councildis": "D",
    "status": "Pending",
    "rowid": "1022878",
    "final_x": "3686582.95586",
    "final_y": "554306.216728",
    "longitude": "-90.05121513585532",
    "latitude": "30.01799436064056",
    "geocoded_column": {
      "latitude": "30.01799436064056",
      "longitude": "-90.05121513585532"
    }
  },
  {
    "service_request": "2023-1022877",
    "request_type": "Trash/Recycling",
    "request_reason": "Replace Trash Cart",
    "date_created": "2023-08-02T15:24:10.000",
    "date_modified": "2023-08-02T15:24:10.000",
    "request_status": "Pending",
    "responsible_agency": "Department of Sanitation",
    "final_address": "928 John Churchill Chase St",
    "address_councildis": "B",
    "status": "Assigned to Contractor",
    "contractor": "Empire Services",
    "rowid": "1022877",
    "final_x": "3681340.43055",
    "final_y": "526135.096062",
    "longitude": "-90.06876183889936",
    "latitude": "29.94069385101347",
    "geocoded_column": {
      "latitude": "29.94069385101347",
      "longitude": "-90.06876183889936"
    }
  },
  {
    "service_request": "2023-1022876",
    "request_type": "Trash/Recycling",
    "request_reason": "Request a Large Item Pick Up",
    "date_created": "2023-08-02T15:20:52.000",
    "date_modified": "2023-08-02T15:20:52.000",
    "request_status": "Pending",
    "responsible_agency": "Department of Sanitation",
    "final_address": "4747 Babylon St",
    "address_councildis": "D",
    "status": "Assigned to Contractor",
    "contractor": "Waste Pro",
    "rowid": "1022876",
    "final_x": "3696684.67581",
    "final_y": "554257.284696",
    "longitude": "-90.01929949812799",
    "latitude": "30.01754515244721",
    "geocoded_column": {
      "latitude": "30.01754515244721",
      "longitude": "-90.01929949812799"
    }
  },
  {
    "service_request": "2023-1022875",
    "request_type": "Trash/Recycling",
    "request_reason": "Request a Large Item Pick Up",
    "date_created": "2023-08-02T15:20:48.000",
    "date_modified": "2023-08-02T15:20:48.000",
    "request_status": "Pending",
    "responsible_agency": "Department of Sanitation",
    "final_address": "85 Audubon Blvd",
    "address_councildis": "A",
    "status": "Assigned to Contractor",
    "contractor": "Richards Disposal",
    "rowid": "1022875",
    "final_x": "3665940.62266",
    "final_y": "527736.288703",
    "longitude": "-90.11732822040973",
    "latitude": "29.94555495267322",
    "geocoded_column": {
      "latitude": "29.94555495267322",
      "longitude": "-90.11732822040973"
    }
  },
  {
    "service_request": "2023-1022874",
    "request_type": "Property Maintenance",
    "request_reason": "Property Maintenance",
    "date_created": "2023-08-02T15:19:51.000",
    "date_modified": "2023-08-02T15:19:52.000",
    "request_status": "Pending",
    "responsible_agency": "Department of Code Enforcement",
    "final_address": "4827 Downman Rd",
    "address_councildis": "D",
    "status": "Pending",
    "rowid": "1022874",
    "final_x": "3696063.08739",
    "final_y": "554497.269464",
    "longitude": "-90.02125477878829",
    "latitude": "30.018224605600896",
    "geocoded_column": {
      "latitude": "30.018224605600896",
      "longitude": "-90.02125477878829"
    }
  },
  {
    "service_request": "2023-1022873",
    "request_type": "Trash/Recycling",
    "request_reason": "Request a Large Item Pick Up",
    "date_created": "2023-08-02T15:18:55.000",
    "date_modified": "2023-08-02T15:18:56.000",
    "request_status": "Pending",
    "responsible_agency": "Department of Sanitation",
    "final_address": "8139 Freret St",
    "address_councildis": "A",
    "status": "Assigned to Contractor",
    "contractor": "Richards Disposal",
    "rowid": "1022873",
    "final_x": "3661318.4329",
    "final_y": "528070.948863",
    "longitude": "-90.13191097587055",
    "latitude": "29.946609229531695",
    "geocoded_column": {
      "latitude": "29.946609229531695",
      "longitude": "-90.13191097587055"
    }
  },
  {
    "service_request": "2023-1022872",
    "request_type": "Roads/Drainage",
    "request_reason": "Damaged Sidewalk",
    "date_created": "2023-08-02T15:13:53.000",
    "date_modified": "2023-08-02T15:13:53.000",
    "request_status": "Pending",
    "responsible_agency": "Department of Public Works",
    "final_address": "6401 Catina St",
    "address_councildis": "A",
    "status": "Pending",
    "rowid": "1022872",
    "final_x": "3667066.48327",
    "final_y": "550395.934612",
    "longitude": "-90.11301155529277",
    "latitude": "30.007828471903657",
    "geocoded_column": {
      "latitude": "30.007828471903657",
      "longitude": "-90.11301155529277"
    }
  },
  {
    "service_request": "2023-1022871",
    "request_type": "Trash/Recycling",
    "request_reason": "Missed Trash Pick-Up",
    "date_created": "2023-08-02T15:11:46.000",
    "date_modified": "2023-08-02T15:11:46.000",
    "request_status": "Pending",
    "responsible_agency": "Department of Sanitation",
    "final_address": "3909 Louisiana Avenue Prkwy",
    "address_councildis": "B",
    "status": "Assigned to Contractor",
    "contractor": "Richards Disposal",
    "rowid": "1022871",
    "final_x": "3671201.44097",
    "final_y": "529158.826496",
    "longitude": "-90.10066974791134",
    "latitude": "29.9493119043204",
    "geocoded_column": {
      "latitude": "29.9493119043204",
      "longitude": "-90.10066974791134"
    }
  },
  {
    "service_request": "2023-1022870",
    "request_type": "Trash/Recycling",
    "request_reason": "Request a Large Item Pick Up",
    "date_created": "2023-08-02T15:11:08.000",
    "date_modified": "2023-08-02T15:11:09.000",
    "request_status": "Pending",
    "responsible_agency": "Department of Sanitation",
    "final_address": "3019 Cadiz St",
    "address_councildis": "B",
    "status": "Assigned to Contractor",
    "contractor": "Richards Disposal",
    "rowid": "1022870",
    "final_x": "3669624.25998",
    "final_y": "526023.47603",
    "longitude": "-90.10575568214868",
    "latitude": "29.940737269623835",
    "geocoded_column": {
      "latitude": "29.940737269623835",
      "longitude": "-90.10575568214868"
    }
  },
  {
    "service_request": "2023-1022869",
    "request_type": "Trash/Recycling",
    "request_reason": "Order Recycling Cart",
    "date_created": "2023-08-02T15:10:55.000",
    "date_modified": "2023-08-02T15:10:55.000",
    "request_status": "Pending",
    "responsible_agency": "Department of Sanitation",
    "final_address": "2719 S Robertson St",
    "address_councildis": "B",
    "status": "Pending",
    "rowid": "1022869",
    "final_x": "3674035.50312",
    "final_y": "525661.724733",
    "longitude": "-90.09184097725526",
    "latitude": "29.939611887690873",
    "geocoded_column": {
      "latitude": "29.939611887690873",
      "longitude": "-90.09184097725526"
    }
  },
  {
    "service_request": "2023-1022867",
    "request_type": "Traffic Signals/Signs/Striping/Streetlights",
    "request_reason": "Request for Stop Sign",
    "date_created": "2023-08-02T15:09:21.000",
    "date_modified": "2023-08-02T15:09:22.000",
    "request_status": "Pending",
    "responsible_agency": "Department of Public Works",
    "final_address": "DUBLIN ST & PRITCHARD PL",
    "address_councildis": "A",
    "status": "Pending",
    "rowid": "1022867",
    "final_x": "3665806.3",
    "final_y": "533116.28",
    "longitude": "-90.11757209304425",
    "latitude": "29.96035209784138",
    "geocoded_column": {
      "latitude": "29.96035209784138",
      "longitude": "-90.11757209304425"
    }
  },
  {
    "service_request": "2023-1022868",
    "request_type": "Traffic Signals/Signs/Striping/Streetlights",
    "request_reason": "Request for Stop Sign",
    "date_created": "2023-08-02T15:09:21.000",
    "date_modified": "2023-08-02T15:09:22.000",
    "request_status": "Pending",
    "responsible_agency": "Department of Public Works",
    "final_address": "DUBLIN ST & PRITCHARD PL",
    "address_councildis": "A",
    "status": "Pending",
    "rowid": "1022868",
    "final_x": "3665806.3",
    "final_y": "533116.28",
    "longitude": "-90.11757209304425",
    "latitude": "29.96035209784138",
    "geocoded_column": {
      "latitude": "29.96035209784138",
      "longitude": "-90.11757209304425"
    }
  },
  {
    "service_request": "2023-1022866",
    "request_type": "Trash/Recycling",
    "request_reason": "Order Recycling Cart",
    "date_created": "2023-08-02T15:00:08.000",
    "date_modified": "2023-08-02T15:00:09.000",
    "request_status": "Pending",
    "responsible_agency": "Department of Sanitation",
    "final_address": "LOUISIANA AVE & CONSTANCE ST",
    "address_councildis": "B",
    "status": "Pending",
    "rowid": "1022866",
    "final_x": "3675164.0",
    "final_y": "519279.58",
    "longitude": "-90.08849705446326",
    "latitude": "29.922029393016555",
    "geocoded_column": {
      "latitude": "29.922029393016555",
      "longitude": "-90.08849705446326"
    }
  },
  {
    "service_request": "2023-1022865",
    "request_type": "Trash/Recycling",
    "request_reason": "Order Trash Cart",
    "date_created": "2023-08-02T14:58:56.000",
    "date_modified": "2023-08-02T14:58:56.000",
    "request_status": "Pending",
    "responsible_agency": "Department of Sanitation",
    "final_address": "LOUISIANA AVE & CONSTANCE ST",
    "address_councildis": "B",
    "status": "Assigned to Contractor",
    "contractor": "Richards Disposal",
    "rowid": "1022865",
    "final_x": "3675164.0",
    "final_y": "519279.58",
    "longitude": "-90.08849705446326",
    "latitude": "29.922029393016555",
    "geocoded_column": {
      "latitude": "29.922029393016555",
      "longitude": "-90.08849705446326"
    }
  },
  {
    "service_request": "2023-1022864",
    "request_type": "Trash/Recycling",
    "request_reason": "Dead Animal Pick Up",
    "date_created": "2023-08-02T14:58:02.000",
    "date_modified": "2023-08-02T14:58:02.000",
    "request_status": "Pending",
    "responsible_agency": "Department of Sanitation",
    "final_address": "5400 BLK Bullard Ave",
    "address_councildis": "E",
    "status": "Assigned to Contractor",
    "contractor": "Waste Pro",
    "rowid": "1022864",
    "final_x": "3717384.23153",
    "final_y": "561686.896099",
    "longitude": "-89.95361522154984",
    "latitude": "30.03730466197204",
    "geocoded_column": {
      "latitude": "30.03730466197204",
      "longitude": "-89.95361522154984"
    }
  },
  {
    "service_request": "2023-1022863",
    "request_type": "Trash/Recycling",
    "request_reason": "Request a Large Item Pick Up",
    "date_created": "2023-08-02T14:57:19.000",
    "date_modified": "2023-08-02T14:57:20.000",
    "request_status": "Pending",
    "responsible_agency": "Department of Sanitation",
    "final_address": "8614 Apricot St",
    "address_councildis": "A",
    "status": "Assigned to Contractor",
    "contractor": "Richards Disposal",
    "rowid": "1022863",
    "final_x": "3664401.49146",
    "final_y": "533877.864389",
    "longitude": "-90.12198278366772",
    "latitude": "29.962487115448823",
    "geocoded_column": {
      "latitude": "29.962487115448823",
      "longitude": "-90.12198278366772"
    }
  },
  {
    "service_request": "2023-1022862",
    "request_type": "Abandoned Vehicles",
    "request_reason": "Abandoned/Junk Vehicles",
    "date_created": "2023-08-02T14:53:24.000",
    "date_modified": "2023-08-02T14:55:49.000",
    "request_status": "Pending",
    "responsible_agency": "Department of Public Works",
    "final_address": "5419 Vicksburg St",
    "address_councildis": "A",
    "status": "Pending",
    "rowid": "1022862",
    "final_x": "3668659.00935",
    "final_y": "543021.937677",
    "longitude": "-90.10822935917776",
    "latitude": "29.987505796133103",
    "geocoded_column": {
      "latitude": "29.987505796133103",
      "longitude": "-90.10822935917776"
    }
  },
  {
    "service_request": "2023-1022861",
    "request_type": "Traffic Signals/Signs/Striping/Streetlights",
    "request_reason": "Additional signage",
    "date_created": "2023-08-02T14:53:06.000",
    "date_modified": "2023-08-02T14:53:06.000",
    "request_status": "Pending",
    "responsible_agency": "Department of Public Works",
    "final_address": "316 Chartres St",
    "address_councildis": "C",
    "status": "Pending",
    "rowid": "1022861",
    "final_x": "3682048.77532",
    "final_y": "531162.123394",
    "longitude": "-90.06634998337161",
    "latitude": "29.954494970034958",
    "geocoded_column": {
      "latitude": "29.954494970034958",
      "longitude": "-90.06634998337161"
    }
  },
  {
    "service_request": "2023-1022860",
    "request_type": "Parks & Parkways",
    "request_reason": "Request Tree Service (Right of Way/Public Property)",
    "date_created": "2023-08-02T14:50:25.000",
    "date_modified": "2023-08-02T14:51:13.000",
    "request_status": "Pending",
    "responsible_agency": "Department of Parks & Parkway",
    "final_address": "8131 Apricot St",
    "address_councildis": "A",
    "status": "Pending",
    "rowid": "1022860",
    "final_x": "3665700.48903",
    "final_y": "532824.543364",
    "longitude": "-90.1179159954325",
    "latitude": "29.9595530042956",
    "geocoded_column": {
      "latitude": "29.9595530042956",
      "longitude": "-90.1179159954325"
    }
  },
  {
    "service_request": "2023-1022859",
    "request_type": "Parks & Parkways",
    "request_reason": "Request Tree Service (Right of Way/Public Property)",
    "date_created": "2023-08-02T14:50:14.000",
    "date_modified": "2023-08-02T14:50:14.000",
    "request_status": "Pending",
    "responsible_agency": "Department of Parks & Parkway",
    "final_address": "5105 Chamberlain Dr",
    "address_councildis": "D",
    "status": "Pending",
    "rowid": "1022859",
    "final_x": "3679714.81999",
    "final_y": "551054.826837",
    "longitude": "-90.07302881715383",
    "latitude": "30.009263734037813",
    "geocoded_column": {
      "latitude": "30.009263734037813",
      "longitude": "-90.07302881715383"
    }
  },
  {
    "service_request": "2023-1022858",
    "request_type": "Roads/Drainage",
    "request_reason": "Accessibility Ramps, Curbs and Sidewalk Repair",
    "date_created": "2023-08-02T14:48:15.000",
    "date_modified": "2023-08-02T14:48:16.000",
    "request_status": "Pending",
    "responsible_agency": "Department of Sanitation",
    "final_address": "7724 Briarwood Dr",
    "address_councildis": "E",
    "status": "Pending",
    "rowid": "1022858",
    "final_x": "3717102.73375",
    "final_y": "571322.256808",
    "longitude": "-89.954138298087",
    "latitude": "30.063807265389073",
    "geocoded_column": {
      "latitude": "30.063807265389073",
      "longitude": "-89.954138298087"
    }
  },
  {
    "service_request": "2023-1022856",
    "request_type": "Trash/Recycling",
    "request_reason": "Illegal Dumping",
    "date_created": "2023-08-02T14:47:02.000",
    "date_modified": "2023-08-02T14:47:03.000",
    "request_status": "Pending",
    "responsible_agency": "Department of Sanitation",
    "final_address": "4403 Eastview Dr",
    "address_councildis": "E",
    "status": "Pending",
    "rowid": "1022856",
    "final_x": "3705366.04759",
    "final_y": "553305.954839",
    "longitude": "-89.99190521033711",
    "latitude": "30.014652759519564",
    "geocoded_column": {
      "latitude": "30.014652759519564",
      "longitude": "-89.99190521033711"
    }
  },
  {
    "service_request": "2023-1022855",
    "request_type": "Roads/Drainage",
    "request_reason": "Pothole",
    "date_created": "2023-08-02T14:46:21.000",
    "date_modified": "2023-08-02T14:46:22.000",
    "request_status": "Pending",
    "responsible_agency": "Department of Sanitation",
    "final_address": "13000 BLK Curran Rd",
    "address_councildis": "E",
    "status": "Pending",
    "rowid": "1022855",
    "final_x": "3715494.28354",
    "final_y": "569664.598975",
    "longitude": "-89.95928550005252",
    "latitude": "30.059302527648068",
    "geocoded_column": {
      "latitude": "30.059302527648068",
      "longitude": "-89.95928550005252"
    }
  },
  {
    "service_request": "2023-1022853",
    "request_type": "Trash/Recycling",
    "request_reason": "Replace Trash Cart",
    "date_created": "2023-08-02T14:44:10.000",
    "date_modified": "2023-08-02T14:44:11.000",
    "request_status": "Pending",
    "responsible_agency": "Department of Sanitation",
    "final_address": "2340 Audubon St",
    "address_councildis": "A",
    "status": "Assigned to Contractor",
    "contractor": "Richards Disposal",
    "rowid": "1022853",
    "final_x": "3666785.08205",
    "final_y": "529910.882049",
    "longitude": "-90.11458894999286",
    "latitude": "29.951509710346222",
    "geocoded_column": {
      "latitude": "29.951509710346222",
      "longitude": "-90.11458894999286"
    }
  },
  {
    "service_request": "2023-1022852",
    "request_type": "Roads/Drainage",
    "request_reason": "Accessibility Ramps, Curbs and Sidewalk Repair",
    "date_created": "2023-08-02T14:43:33.000",
    "date_modified": "2023-08-02T14:43:34.000",
    "request_status": "Pending",
    "responsible_agency": "Department of Sanitation",
    "final_address": "1835 Painters St",
    "address_councildis": "D",
    "status": "Pending",
    "rowid": "1022852",
    "final_x": "3687366.0198",
    "final_y": "539349.39169",
    "longitude": "-90.04927054367766",
    "latitude": "29.976844374133208",
    "geocoded_column": {
      "latitude": "29.976844374133208",
      "longitude": "-90.04927054367766"
    }
  },
  {
    "service_request": "2023-1022850",
    "request_type": "Trash/Recycling",
    "request_reason": "Illegal Dumping",
    "date_created": "2023-08-02T14:37:56.000",
    "date_modified": "2023-08-02T14:37:56.000",
    "request_status": "Pending",
    "responsible_agency": "Department of Sanitation",
    "final_address": "621 N Dorgenois St",
    "address_councildis": "D",
    "status": "Pending",
    "rowid": "1022850",
    "final_x": "3676891.83317",
    "final_y": "536312.898887",
    "longitude": "-90.08245604718394",
    "latitude": "29.968813645922992",
    "geocoded_column": {
      "latitude": "29.968813645922992",
      "longitude": "-90.08245604718394"
    }
  },
  {
    "service_request": "2023-1022849",
    "request_type": "Parks & Parkways",
    "request_reason": "Request Tree Service (Right of Way/Public Property)",
    "date_created": "2023-08-02T14:37:13.000",
    "date_modified": "2023-08-02T14:37:14.000",
    "request_status": "Pending",
    "responsible_agency": "Department of Parks & Parkway",
    "final_address": "JOSEPHINE ST & BARONNE ST",
    "address_councildis": "B",
    "status": "Pending",
    "rowid": "1022849",
    "final_x": "3677324.2",
    "final_y": "524706.38",
    "longitude": "-90.0814910551931",
    "latitude": "29.936886617349554",
    "geocoded_column": {
      "latitude": "29.936886617349554",
      "longitude": "-90.0814910551931"
    }
  },
  {
    "service_request": "2023-1022848",
    "request_type": "Trash/Recycling",
    "request_reason": "Request a Large Item Pick Up",
    "date_created": "2023-08-02T14:35:21.000",
    "date_modified": "2023-08-02T14:35:21.000",
    "request_status": "Pending",
    "responsible_agency": "Department of Sanitation",
    "final_address": "6800 Pontchartrain Blvd",
    "address_councildis": "A",
    "status": "Assigned to Contractor",
    "contractor": "IV Waste",
    "rowid": "1022848",
    "final_x": "3666337.38861",
    "final_y": "553342.292375",
    "longitude": "-90.1152160345812",
    "latitude": "30.01595125625486",
    "geocoded_column": {
      "latitude": "30.01595125625486",
      "longitude": "-90.1152160345812"
    }
  },
  {
    "service_request": "2023-1022845",
    "request_type": "Trash/Recycling",
    "request_reason": "Order Trash Cart",
    "date_created": "2023-08-02T14:32:33.000",
    "date_modified": "2023-08-02T14:32:34.000",
    "request_status": "Pending",
    "responsible_agency": "Department of Sanitation",
    "final_address": "3225 Gravier St",
    "address_councildis": "B",
    "status": "Assigned to Contractor",
    "contractor": "Richards Disposal",
    "rowid": "1022845",
    "final_x": "3672161.36155",
    "final_y": "534375.476997",
    "longitude": "-90.09746119097116",
    "latitude": "29.963627533146266",
    "geocoded_column": {
      "latitude": "29.963627533146266",
      "longitude": "-90.09746119097116"
    }
  },
  {
    "service_request": "2023-1022844",
    "request_type": "Trash/Recycling",
    "request_reason": "Illegal Dumping",
    "date_created": "2023-08-02T14:31:17.000",
    "date_modified": "2023-08-02T14:31:17.000",
    "request_status": "Pending",
    "responsible_agency": "Department of Sanitation",
    "final_address": "928 N Rendon St",
    "address_councildis": "A",
    "status": "Pending",
    "rowid": "1022844",
    "final_x": "3675606.29659",
    "final_y": "539046.66529",
    "longitude": "-90.08642190563653",
    "latitude": "29.976369097187103",
    "geocoded_column": {
      "latitude": "29.976369097187103",
      "longitude": "-90.08642190563653"
    }
  },
  {
    "service_request": "2023-1022843",
    "request_type": "Trash/Recycling",
    "request_reason": "Missed Trash Pick-Up",
    "date_created": "2023-08-02T14:30:50.000",
    "date_modified": "2023-08-02T14:30:50.000",
    "request_status": "Pending",
    "responsible_agency": "Department of Sanitation",
    "final_address": "2912 Calhoun St",
    "address_councildis": "A",
    "status": "Assigned to Contractor",
    "contractor": "Richards Disposal",
    "rowid": "1022843",
    "final_x": "3666737.22919",
    "final_y": "527368.480895",
    "longitude": "-90.11482541441607",
    "latitude": "29.94452033063126",
    "geocoded_column": {
      "latitude": "29.94452033063126",
      "longitude": "-90.11482541441607"
    }
  },
  {
    "service_request": "2023-1022842",
    "request_type": "Trash/Recycling",
    "request_reason": "Missed Trash Pick-Up",
    "date_created": "2023-08-02T14:29:25.000",
    "date_modified": "2023-08-02T14:29:26.000",
    "request_status": "Pending",
    "responsible_agency": "Department of Sanitation",
    "final_address": "8022 Orpheus Ct",
    "address_councildis": "B",
    "status": "Assigned to Contractor",
    "contractor": "Richards Disposal",
    "rowid": "1022842",
    "final_x": "3668002.52839",
    "final_y": "534577.071045",
    "longitude": "-90.11058760916033",
    "latitude": "29.964304533597552",
    "geocoded_column": {
      "latitude": "29.964304533597552",
      "longitude": "-90.11058760916033"
    }
  },
  {
    "service_request": "2023-1022841",
    "request_type": "Abandoned Vehicles",
    "request_reason": "Abandoned/Junk Vehicles",
    "date_created": "2023-08-02T14:28:16.000",
    "date_modified": "2023-08-02T14:28:16.000",
    "request_status": "Pending",
    "responsible_agency": "Department of Public Works",
    "final_address": "3219 Tulane Ave",
    "address_councildis": "B",
    "status": "Pending",
    "rowid": "1022841",
    "final_x": "3672477.87233",
    "final_y": "534747.970182",
    "longitude": "-90.0964489828439",
    "latitude": "29.964642374049543",
    "geocoded_column": {
      "latitude": "29.964642374049543",
      "longitude": "-90.0964489828439"
    }
  },
  {
    "service_request": "2023-1022840",
    "request_type": "Traffic Signals/Signs/Striping/Streetlights",
    "request_reason": "Striping/Road Surface Markings",
    "date_created": "2023-08-02T14:26:41.000",
    "date_modified": "2023-08-02T14:26:41.000",
    "request_status": "Pending",
    "responsible_agency": "Department of Public Works",
    "final_address": "PHILIP ST & PRYTANIA ST",
    "address_councildis": "B",
    "status": "Pending",
    "rowid": "1022840",
    "final_x": "3677625.7",
    "final_y": "523045.68",
    "longitude": "-90.08059652411043",
    "latitude": "29.93231117647866",
    "geocoded_column": {
      "latitude": "29.93231117647866",
      "longitude": "-90.08059652411043"
    }
  },
  {
    "service_request": "2023-1022839",
    "request_type": "Property Maintenance",
    "request_reason": "Property Maintenance",
    "date_created": "2023-08-02T14:26:29.000",
    "date_modified": "2023-08-02T14:26:29.000",
    "request_status": "Closed",
    "responsible_agency": "Department of Code Enforcement",
    "final_address": "2817 Thalia St",
    "address_councildis": "B",
    "status": "Resolved",
    "rowid": "1022839",
    "final_x": "3675688.91432",
    "final_y": "528156.042944",
    "longitude": "-90.0865352379319",
    "latitude": "29.946421078741288",
    "geocoded_column": {
      "latitude": "29.946421078741288",
      "longitude": "-90.0865352379319"
    }
  },
  {
    "service_request": "2023-1022838",
    "request_type": "Traffic Signals/Signs/Striping/Streetlights",
    "request_reason": "Striping/Road Surface Markings",
    "date_created": "2023-08-02T14:25:21.000",
    "date_modified": "2023-08-02T14:25:21.000",
    "request_status": "Pending",
    "responsible_agency": "Department of Public Works",
    "final_address": "1ST ST & PRYTANIA ST",
    "address_councildis": "B",
    "status": "Pending",
    "rowid": "1022838",
    "final_x": "3677244.5",
    "final_y": "522774.28",
    "longitude": "-90.08180929565539",
    "latitude": "29.931576369254337",
    "geocoded_column": {
      "latitude": "29.931576369254337",
      "longitude": "-90.08180929565539"
    }
  },
  {
    "service_request": "2023-1022837",
    "request_type": "Trash/Recycling",
    "request_reason": "MIssed Recycling Pick-Up",
    "date_created": "2023-08-02T14:17:12.000",
    "date_modified": "2023-08-02T14:17:13.000",
    "request_status": "Pending",
    "responsible_agency": "Department of Sanitation",
    "final_address": "4709 Crowder Blvd",
    "address_councildis": "E",
    "status": "Assigned to Contractor",
    "contractor": "Waste Pro",
    "rowid": "1022837",
    "final_x": "3706560.9178",
    "final_y": "555431.507545",
    "longitude": "-89.98805118892444",
    "latitude": "30.020458692013758",
    "geocoded_column": {
      "latitude": "30.020458692013758",
      "longitude": "-89.98805118892444"
    }
  },
  {
    "service_request": "2023-1022836",
    "request_type": "Abandoned Vehicles",
    "request_reason": "Abandoned/Junk Vehicles",
    "date_created": "2023-08-02T14:16:49.000",
    "date_modified": "2023-08-02T14:19:42.000",
    "request_status": "Pending",
    "responsible_agency": "Department of Public Works",
    "final_address": "1319 Poland Ave",
    "address_councildis": "D",
    "status": "Pending",
    "rowid": "1022836",
    "final_x": "3693326.28016",
    "final_y": "535881.466375",
    "longitude": "-90.030570769949",
    "latitude": "29.967123810324132",
    "geocoded_column": {
      "latitude": "29.967123810324132",
      "longitude": "-90.030570769949"
    }
  },
  {
    "service_request": "2023-1022834",
    "request_type": "Trash/Recycling",
    "request_reason": "MIssed Recycling Pick-Up",
    "date_created": "2023-08-02T14:13:10.000",
    "date_modified": "2023-08-02T14:13:32.000",
    "request_status": "Pending",
    "responsible_agency": "Department of Sanitation",
    "final_address": "1217 Jena St",
    "address_councildis": "B",
    "status": "Assigned to Contractor",
    "contractor": "Richards Disposal",
    "rowid": "1022834",
    "final_x": "3670613.54676",
    "final_y": "519943.063672",
    "longitude": "-90.10283847648998",
    "latitude": "29.923988910636496",
    "geocoded_column": {
      "latitude": "29.923988910636496",
      "longitude": "-90.10283847648998"
    }
  },
  {
    "service_request": "2023-1022833",
    "request_type": "Trash/Recycling",
    "request_reason": "Missed Trash Pick-Up",
    "date_created": "2023-08-02T14:13:04.000",
    "date_modified": "2023-08-02T15:40:21.000",
    "case_close_date": "2023-08-02T10:40:22.000",
    "request_status": "Closed",
    "responsible_agency": "Department of Sanitation",
    "final_address": "234 W Harrison Ave",
    "address_councildis": "A",
    "status": "Invalid Request",
    "contractor": "IV Waste",
    "contractor_action": "Invalid Pick-Up",
    "rowid": "1022833",
    "final_x": "3665543.91495",
    "final_y": "549549.006739",
    "longitude": "-90.11785020310981",
    "latitude": "30.005544212546855",
    "geocoded_column": {
      "latitude": "30.005544212546855",
      "longitude": "-90.11785020310981"
    }
  },
  {
    "service_request": "2023-1022832",
    "request_type": "Roads/Drainage",
    "request_reason": "Damaged Sidewalk",
    "date_created": "2023-08-02T14:10:00.000",
    "date_modified": "2023-08-02T14:10:00.000",
    "request_status": "Pending",
    "responsible_agency": "Department of Public Works",
    "final_address": "4001 Laurel St",
    "address_councildis": "B",
    "status": "Pending",
    "rowid": "1022832",
    "final_x": "3672555.74375",
    "final_y": "518229.045942",
    "longitude": "-90.09676603058865",
    "latitude": "29.91921841645544",
    "geocoded_column": {
      "latitude": "29.91921841645544",
      "longitude": "-90.09676603058865"
    }
  },
  {
    "service_request": "2023-1022831",
    "request_type": "Trash/Recycling",
    "request_reason": "Request a Large Item Pick Up",
    "date_created": "2023-08-02T14:09:04.000",
    "date_modified": "2023-08-02T14:09:05.000",
    "request_status": "Pending",
    "responsible_agency": "Department of Sanitation",
    "final_address": "6226 York St",
    "address_councildis": "A",
    "status": "Assigned to Contractor",
    "contractor": "Richards Disposal",
    "rowid": "1022831",
    "final_x": "3667649.2146",
    "final_y": "528973.851456",
    "longitude": "-90.111891969149",
    "latitude": "29.948907880543572",
    "geocoded_column": {
      "latitude": "29.948907880543572",
      "longitude": "-90.111891969149"
    }
  },