[
  {
    "service_request": "2022-905261",
    "request_type": "Roads/Drainage",
    "request_reason": "Street Subsidence (Sinking)",
    "date_created": "2022-08-01T01:36:26.000",
    "date_modified": "2022-08-01T01:36:26.000",
    "request_status": "Pending",
    "responsible_agency": "Department of Public Works",
    "final_address": "1334 Mandolin St",
    "address_councildis": "D",
    "status": "Pending",
    "rowid": "905261",
    "final_x": "3677521.01902",
    "final_y": "547946.283154",
    "longitude": "-90.08006720549697",
    "latitude": "30.000782509981924",
    "geocoded_column": {
      "latitude": "30.000782509981924",
      "longitude": "-90.08006720549697"
    }
  },
  {
    "service_request": "2022-905260",
    "request_type": "Health Related Questions",
    "request_reason": "Noise Ordinance Complaint",
    "date_created": "2022-08-01T00:08:30.000",
    "date_modified": "2022-08-01T00:08:30.000",
    "request_status": "Pending",
    "responsible_agency": "Health Department",
    "final_address": "1775 Mcshane Pl",
    "address_councildis": "C",
    "status": "Pending",
    "rowid": "905260",
    "final_x": "3683462.43785",
    "final_y": "536121.270855",
    "longitude": "-90.06171241725919",
    "latitude": "29.96808786850646",
    "geocoded_column": {
      "latitude": "29.96808786850646",
      "longitude": "-90.06171241725919"
    }
  },
  {
    "service_request": "2022-905259",
    "request_type": "Parks & Parkways",
    "request_reason": "Request Grass Cutting Service (City Owned Property)",
    "date_created": "2022-07-31T23:20:05.000",
    "date_modified": "2022-07-31T23:20:05.000",
    "request_status": "Pending",
    "responsible_agency": "Department of Parks & Parkway",
    "final_address": "1724 N Derbigny St",
    "address_councildis": "D",
    "status": "Pending",
    "rowid": "905259",
    "final_x": "3682814.1732",
    "final_y": "538254.800713",
    "longitude": "-90.06368500183227",
    "latitude": "29.973974102704698",
    "geocoded_column": {
      "latitude": "29.973974102704698",
      "longitude": "-90.06368500183227"
    }
  },
  {
    "service_request": "2022-905258",
    "request_type": "Trash/Recycling",
    "request_reason": "Order Trash Cart",
    "date_created": "2022-07-31T23:18:24.000",
    "date_modified": "2022-07-31T23:18:25.000",
    "request_status": "Pending",
    "responsible_agency": "Department of Sanitation",
    "final_address": "434 Bermuda St",
    "address_councildis": "C",
    "status": "Assigned to Contractor",
    "contractor": "Richards Disposal",
    "rowid": "905258",
    "final_x": "3686697.75343",
    "final_y": "530264.149057",
    "longitude": "-90.05170208000958",
    "latitude": "29.95188368336942",
    "geocoded_column": {
      "latitude": "29.95188368336942",
      "longitude": "-90.05170208000958"
    }
  },
  {
    "service_request": "2022-905257",
    "request_type": "Trash/Recycling",
    "request_reason": "Illegal Dumping",
    "date_created": "2022-07-31T23:17:29.000",
    "date_modified": "2022-07-31T23:17:29.000",
    "request_status": "Pending",
    "responsible_agency": "Department of Sanitation",
    "final_address": "1724 N Derbigny St",
    "address_councildis": "D",
    "status": "Pending",
    "rowid": "905257",
    "final_x": "3682814.1732",
    "final_y": "538254.800713",
    "longitude": "-90.06368500183227",
    "latitude": "29.973974102704698",
    "geocoded_column": {
      "latitude": "29.973974102704698",
      "longitude": "-90.06368500183227"
    }
  },
  {
    "service_request": "2022-905256",
    "request_type": "Trash/Recycling",
    "request_reason": "Repair Trash Cart",
    "date_created": "2022-07-31T23:14:22.000",
    "date_modified": "2022-07-31T23:14:22.000",
    "request_status": "Pending",
    "responsible_agency": "Department of Sanitation",
    "final_address": "1573 De Battista Pl",
    "address_councildis": "C",
    "status": "Assigned to Contractor",
    "contractor": "Richards Disposal",
    "rowid": "905256",
    "final_x": "3699699.53604",
    "final_y": "525181.368893",
    "longitude": "-90.01083411087838",
    "latitude": "29.937501543146986",
    "geocoded_column": {
      "latitude": "29.937501543146986",
      "longitude": "-90.01083411087838"
    }
  },
  {
    "service_request": "2022-905255",
    "request_type": "Trash/Recycling",
    "request_reason": "Repair Trash Cart",
    "date_created": "2022-07-31T22:47:57.000",
    "date_modified": "2022-07-31T22:47:57.000",
    "request_status": "Pending",
    "responsible_agency": "Department of Sanitation",
    "final_address": "5914 Warwick Ct",
    "address_councildis": "C",
    "status": "Assigned to Contractor",
    "contractor": "Richards Disposal",
    "rowid": "905255",
    "final_x": "3705585.29732",
    "final_y": "515945.855028",
    "longitude": "-89.99259366413682",
    "latitude": "29.911918995712476",
    "geocoded_column": {
      "latitude": "29.911918995712476",
      "longitude": "-89.99259366413682"
    }
  },
  {
    "service_request": "2022-905254",
    "request_type": "Health Related Questions",
    "request_reason": "Noise Ordinance Complaint",
    "date_created": "2022-07-31T22:46:56.000",
    "date_modified": "2022-07-31T22:46:56.000",
    "request_status": "Pending",
    "responsible_agency": "Health Department",
    "final_address": "1775 Mcshane Pl",
    "address_councildis": "C",
    "status": "Pending",
    "rowid": "905254",
    "final_x": "3683462.43785",
    "final_y": "536121.270855",
    "longitude": "-90.06171241725919",
    "latitude": "29.96808786850646",
    "geocoded_column": {
      "latitude": "29.96808786850646",
      "longitude": "-90.06171241725919"
    }
  },
  {
    "service_request": "2022-905253",
    "request_type": "Trash/Recycling",
    "request_reason": "Order Recycling Cart",
    "date_created": "2022-07-31T22:29:55.000",
    "date_modified": "2022-07-31T22:29:55.000",
    "request_status": "Pending",
    "responsible_agency": "Department of Sanitation",
    "final_address": "1829 Jackson Ave",
    "address_councildis": "B",
    "status": "Pending",
    "rowid": "905253",
    "final_x": "3676931.91221",
    "final_y": "524739.0375",
    "longitude": "-90.08272840340027",
    "latitude": "29.93698819341559",
    "geocoded_column": {
      "latitude": "29.93698819341559",
      "longitude": "-90.08272840340027"
    }
  },
  {
    "service_request": "2022-905252",
    "request_type": "Roads/Drainage",
    "request_reason": "Leaking Hydrant",
    "date_created": "2022-07-31T22:22:53.000",
    "date_modified": "2022-07-31T22:22:53.000",
    "request_status": "Pending",
    "responsible_agency": "Department of Public Works",
    "final_address": "7311 Hurst St",
    "address_councildis": "A",
    "status": "Pending",
    "rowid": "905252",
    "final_x": "3661917.52947",
    "final_y": "523899.81958",
    "longitude": "-90.1301576909573",
    "latitude": "29.93512266283675",
    "geocoded_column": {
      "latitude": "29.93512266283675",
      "longitude": "-90.1301576909573"
    }
  },
  {
    "service_request": "2022-905251",
    "request_type": "Abandoned Vehicles",
    "request_reason": "Abandoned/Junk Vehicles",
    "date_created": "2022-07-31T22:11:51.000",
    "date_modified": "2022-07-31T22:11:51.000",
    "request_status": "Pending",
    "responsible_agency": "Department of Public Works",
    "final_address": "8004 Hickory St",
    "address_councildis": "A",
    "status": "Pending",
    "rowid": "905251",
    "final_x": "3663653.71898",
    "final_y": "529624.418945",
    "longitude": "-90.12448586018321",
    "latitude": "29.950813238133858",
    "geocoded_column": {
      "latitude": "29.950813238133858",
      "longitude": "-90.12448586018321"
    }
  },
  {
    "service_request": "2022-905250",
    "request_type": "Health Related Questions",
    "request_reason": "Noise Ordinance Complaint",
    "date_created": "2022-07-31T22:04:00.000",
    "date_modified": "2022-07-31T22:04:00.000",
    "request_status": "Pending",
    "responsible_agency": "Health Department",
    "final_address": "1775 Mcshane Pl",
    "address_councildis": "C",
    "status": "Pending",
    "rowid": "905250",
    "final_x": "3683462.43785",
    "final_y": "536121.270855",
    "longitude": "-90.06171241725919",
    "latitude": "29.96808786850646",
    "geocoded_column": {
      "latitude": "29.96808786850646",
      "longitude": "-90.06171241725919"
    }
  },
  {
    "service_request": "2022-905249",
    "request_type": "Health Related Questions",
    "request_reason": "Noise Ordinance Complaint",
    "date_created": "2022-07-31T21:55:48.000",
    "date_modified": "2022-07-31T21:55:48.000",
    "request_status": "Pending",
    "responsible_agency": "Health Department",
    "final_address": "1775 Mcshane Pl",
    "address_councildis": "C",
    "status": "Pending",
    "rowid": "905249",
    "final_x": "3683462.43785",
    "final_y": "536121.270855",
    "longitude": "-90.06171241725919",
    "latitude": "29.96808786850646",
    "geocoded_column": {
      "latitude": "29.96808786850646",
      "longitude": "-90.06171241725919"
    }
  },
  {
    "service_request": "2022-905248",
    "request_type": "Traffic Signals/Signs/Striping/Streetlights",
    "request_reason": "Street Light Outage/Malfunction",
    "date_created": "2022-07-31T21:52:16.000",
    "date_modified": "2022-07-31T21:52:17.000",
    "request_status": "Pending",
    "responsible_agency": "Department of Public Works",
    "final_address": "6971 Camberley Ct, New Orleans, Louisiana, 70128",
    "address_councildis": "E",
    "status": "Pending",
    "contractor": "Royal Engineering",
    "rowid": "905248",
    "final_x": "3713746.87877",
    "final_y": "564385.910305",
    "longitude": "-89.96500811304813",
    "latitude": "30.044845788438092",
    "geocoded_column": {
      "latitude": "30.044845788438092",
      "longitude": "-89.96500811304813"
    }
  },
  {
    "service_request": "2022-905247",
    "request_type": "Traffic Signals/Signs/Striping/Streetlights",
    "request_reason": "Street Light Outage/Malfunction",
    "date_created": "2022-07-31T21:20:59.000",
    "date_modified": "2022-07-31T21:21:00.000",
    "request_status": "Pending",
    "responsible_agency": "Department of Public Works",
    "final_address": "1725 Delachaise St",
    "address_councildis": "B",
    "status": "Pending",
    "contractor": "Royal Engineering",
    "rowid": "905247",
    "final_x": "3673621.01499",
    "final_y": "521958.910842",
    "longitude": "-90.0932760907818",
    "latitude": "29.929442693780985",
    "geocoded_column": {
      "latitude": "29.929442693780985",
      "longitude": "-90.0932760907818"
    }
  },
  {
    "service_request": "2022-905246",
    "request_type": "Safety & Permits",
    "request_reason": "Construction permit",
    "date_created": "2022-07-31T21:19:33.000",
    "date_modified": "2022-07-31T21:19:33.000",
    "request_status": "Pending",
    "responsible_agency": "Department of Code Enforcement",
    "final_address": "929 Solomon Pl",
    "address_councildis": "A",
    "status": "Pending",
    "rowid": "905246",
    "final_x": "3672442.94439",
    "final_y": "541373.655244",
    "longitude": "-90.09633340239226",
    "latitude": "29.98286180028708",
    "geocoded_column": {
      "latitude": "29.98286180028708",
      "longitude": "-90.09633340239226"
    }
  },
  {
    "service_request": "2022-905245",
    "request_type": "Trash/Recycling",
    "request_reason": "Request a Large Item Pick Up",
    "date_created": "2022-07-31T21:01:15.000",
    "date_modified": "2022-07-31T21:01:16.000",
    "request_status": "Pending",
    "responsible_agency": "Department of Sanitation",
    "final_address": "606 Webster St",
    "address_councildis": "A",
    "status": "Assigned to Contractor",
    "contractor": "Richards Disposal",
    "rowid": "905245",
    "final_x": "3663878.60499",
    "final_y": "518880.054903",
    "longitude": "-90.12413379307146",
    "latitude": "29.921263121696917",
    "geocoded_column": {
      "latitude": "29.921263121696917",
      "longitude": "-90.12413379307146"
    }
  },
  {
    "service_request": "2022-905244",
    "request_type": "Trash/Recycling",
    "request_reason": "Request a Large Item Pick Up",
    "date_created": "2022-07-31T21:00:39.000",
    "date_modified": "2022-07-31T21:00:40.000",
    "request_status": "Pending",
    "responsible_agency": "Department of Sanitation",
    "final_address": "7929 Freret St",
    "address_councildis": "A",
    "status": "Assigned to Contractor",
    "contractor": "Richards Disposal",
    "rowid": "905244",
    "final_x": "3661926.85114",
    "final_y": "527522.518655",
    "longitude": "-90.13000815603785",
    "latitude": "29.9450836666227",
    "geocoded_column": {
      "latitude": "29.9450836666227",
      "longitude": "-90.13000815603785"
    }
  },
  {
    "service_request": "2022-905243",
    "request_type": "Property Maintenance",
    "request_reason": "Property Maintenance",
    "date_created": "2022-07-31T20:43:55.000",
    "date_modified": "2022-07-31T20:43:55.000",
    "request_status": "Pending",
    "responsible_agency": "Department of Code Enforcement",
    "final_address": "7849 Read Blvd Apt 12",
    "address_councildis": "E",
    "status": "Pending",
    "rowid": "905243",
    "final_x": "3708429.38795",
    "final_y": "565267.44797",
    "longitude": "-89.98178086429685",
    "latitude": "30.047443191521047",
    "geocoded_column": {
      "latitude": "30.047443191521047",
      "longitude": "-89.98178086429685"
    }
  },
  {
    "service_request": "2022-905242",
    "request_type": "Trash/Recycling",
    "request_reason": "Missed Trash Pick-Up",
    "date_created": "2022-07-31T20:30:00.000",
    "date_modified": "2022-07-31T20:30:01.000",
    "request_status": "Pending",
    "responsible_agency": "Department of Sanitation",
    "final_address": "3508 Camphor St, New Orleans, Louisiana, 70118",
    "address_councildis": "A",
    "status": "Assigned to Contractor",
    "contractor": "Richards Disposal",
    "rowid": "905242",
    "final_x": "3663671.00979",
    "final_y": "538044.094985",
    "longitude": "-90.12415071709988",
    "latitude": "29.97396409096055",
    "geocoded_column": {
      "latitude": "29.97396409096055",
      "longitude": "-90.12415071709988"
    }
  },
  {
    "service_request": "2022-905241",
    "request_type": "Trash/Recycling",
    "request_reason": "Missed Trash Pick-Up",
    "date_created": "2022-07-31T20:12:52.000",
    "date_modified": "2022-07-31T20:12:53.000",
    "request_status": "Pending",
    "responsible_agency": "Department of Sanitation",
    "final_address": "5620 Christian Ln",
    "address_councildis": "E",
    "status": "Assigned to Contractor",
    "contractor": "Metro Disposal",
    "rowid": "905241",
    "final_x": "3704255.02929",
    "final_y": "556885.407322",
    "longitude": "-89.99528339557685",
    "latitude": "30.024530592405704",
    "geocoded_column": {
      "latitude": "30.024530592405704",
      "longitude": "-89.99528339557685"
    }
  },
  {
    "service_request": "2022-905240",
    "request_type": "Roads/Drainage",
    "request_reason": "Street Flooding / Drainage",
    "date_created": "2022-07-31T20:04:01.000",
    "date_modified": "2022-07-31T20:04:01.000",
    "request_status": "Pending",
    "responsible_agency": "Department of Public Works",
    "final_address": "1300 Esplanade Ave",
    "address_councildis": "C",
    "status": "Pending",
    "rowid": "905240",
    "final_x": "3682063.70882",
    "final_y": "535874.240775",
    "longitude": "-90.06613828092144",
    "latitude": "29.967451228797124",
    "geocoded_column": {
      "latitude": "29.967451228797124",
      "longitude": "-90.06613828092144"
    }
  },
  {
    "service_request": "2022-905239",
    "request_type": "Trash/Recycling",
    "request_reason": "Replace Trash Cart",
    "date_created": "2022-07-31T19:58:41.000",
    "date_modified": "2022-07-31T19:58:42.000",
    "request_status": "Pending",
    "responsible_agency": "Department of Sanitation",
    "final_address": "6019 Charlotte Dr",
    "address_councildis": "D",
    "status": "Assigned to Contractor",
    "contractor": "Metro Disposal",
    "rowid": "905239",
    "final_x": "3679970.27023",
    "final_y": "554642.173208",
    "longitude": "-90.07209701216085",
    "latitude": "30.01911991074156",
    "geocoded_column": {
      "latitude": "30.01911991074156",
      "longitude": "-90.07209701216085"
    }
  },
  {
    "service_request": "2022-905238",
    "request_type": "Roads/Drainage",
    "request_reason": "Street Flooding / Drainage",
    "date_created": "2022-07-31T19:54:41.000",
    "date_modified": "2022-07-31T19:54:41.000",
    "request_status": "Pending",
    "responsible_agency": "Department of Public Works",
    "final_address": "1534 Adams St",
    "address_councildis": "A",
    "status": "Pending",
    "rowid": "905238",
    "final_x": "3663917.26586",
    "final_y": "528391.012672",
    "longitude": "-90.12369482242971",
    "latitude": "29.947414120590413",
    "geocoded_column": {
      "latitude": "29.947414120590413",
      "longitude": "-90.12369482242971"
    }
  },
  {
    "service_request": "2022-905237",
    "request_type": "Property Maintenance",
    "request_reason": "Property Maintenance",
    "date_created": "2022-07-31T19:33:22.000",
    "date_modified": "2022-07-31T19:33:22.000",
    "request_status": "Pending",
    "responsible_agency": "Department of Code Enforcement",
    "final_address": "8118 Burthe St",
    "address_councildis": "A",
    "status": "Pending",
    "rowid": "905237",
    "final_x": "3661126.08256",
    "final_y": "527665.425983",
    "longitude": "-90.1325317161274",
    "latitude": "29.945499715085198",
    "geocoded_column": {
      "latitude": "29.945499715085198",
      "longitude": "-90.1325317161274"
    }
  },
  {
    "service_request": "2022-905236",
    "request_type": "Trash/Recycling",
    "request_reason": "Request a Large Item Pick Up",
    "date_created": "2022-07-31T19:26:29.000",
    "date_modified": "2022-07-31T19:26:30.000",
    "request_status": "Pending",
    "responsible_agency": "Department of Sanitation",
    "final_address": "6718 Argonne Blvd",
    "address_councildis": "A",
    "status": "Assigned to Contractor",
    "contractor": "Metro Disposal",
    "rowid": "905236",
    "final_x": "3670544.8395",
    "final_y": "552066.185686",
    "longitude": "-90.10196566072332",
    "latitude": "30.012318756167737",
    "geocoded_column": {
      "latitude": "30.012318756167737",
      "longitude": "-90.10196566072332"
    }
  },
  {
    "service_request": "2022-905234",
    "request_type": "Traffic Signals/Signs/Striping/Streetlights",
    "request_reason": "Traffic Signal Malfunctioning/Damaged",
    "date_created": "2022-07-31T18:41:24.000",
    "date_modified": "2022-07-31T18:41:24.000",
    "request_status": "Pending",
    "responsible_agency": "Department of Public Works",
    "final_address": "2223 Broadway St",
    "address_councildis": "A",
    "status": "Pending",
    "rowid": "905234",
    "final_x": "3666277.71597",
    "final_y": "529550.944705",
    "longitude": "-90.11620304372894",
    "latitude": "29.950534828339777",
    "geocoded_column": {
      "latitude": "29.950534828339777",
      "longitude": "-90.11620304372894"
    }
  },
  {
    "service_request": "2022-905233",
    "request_type": "Trash/Recycling",
    "request_reason": "Order Recycling Cart",
    "date_created": "2022-07-31T18:07:26.000",
    "date_modified": "2022-07-31T18:07:26.000",
    "request_status": "Pending",
    "responsible_agency": "Department of Sanitation",
    "final_address": "4419 S Rocheblave St",
    "address_councildis": "B",
    "status": "Pending",
    "rowid": "905233",
    "final_x": "3669854.73722",
    "final_y": "528534.334592",
    "longitude": "-90.10494304036925",
    "latitude": "29.947634522690475",
    "geocoded_column": {
      "latitude": "29.947634522690475",
      "longitude": "-90.10494304036925"
    }
  },
  {
    "service_request": "2022-905232",
    "request_type": "Trash/Recycling",
    "request_reason": "Request a Large Item Pick Up",
    "date_created": "2022-07-31T18:04:24.000",
    "date_modified": "2022-07-31T18:31:12.000",
    "request_status": "Pending",
    "responsible_agency": "Department of Sanitation",
    "final_address": "New Orleans,LA",
    "status": "Assigned to Contractor",
    "rowid": "905232",
    "longitude": "0.0",
    "latitude": "0.0",
    "geocoded_column": {
      "latitude": "0.0",
      "longitude": "0.0"
    }
  },
  {
    "service_request": "2022-905231",
    "request_type": "Traffic Signals/Signs/Striping/Streetlights",
    "request_reason": "Street Light Outage/Malfunction",
    "date_created": "2022-07-31T18:03:53.000",
    "date_modified": "2022-07-31T18:03:53.000",
    "request_status": "Pending",
    "responsible_agency": "Department of Public Works",
    "final_address": "2626 St Charles Ave",
    "address_councildis": "B",
    "status": "Pending",
    "contractor": "Royal Engineering",
    "rowid": "905231",
    "final_x": "3676301.32865",
    "final_y": "522622.60185",
    "longitude": "-90.0847919975749",
    "latitude": "29.93118759614614",
    "geocoded_column": {
      "latitude": "29.93118759614614",
      "longitude": "-90.0847919975749"
    }
  },
  {
    "service_request": "2022-905230",
    "request_type": "Safety & Permits",
    "request_reason": "Short term Rental (Enforcement)",
    "date_created": "2022-07-31T18:01:14.000",
    "date_modified": "2022-07-31T18:01:14.000",
    "request_status": "Pending",
    "responsible_agency": "Safety and Permits",
    "status": "Pending",
    "rowid": "905230",
    "longitude": "0.0",
    "latitude": "0.0",
    "geocoded_column": {
      "latitude": "0.0",
      "longitude": "0.0"
    }
  },
  {
    "service_request": "2022-905229",
    "request_type": "Trash/Recycling",
    "request_reason": "Illegal Dumping",
    "date_created": "2022-07-31T17:18:23.000",
    "date_modified": "2022-07-31T17:18:23.000",
    "request_status": "Pending",
    "responsible_agency": "Department of Sanitation",
    "final_address": "1828 Washington Ave",
    "address_councildis": "B",
    "status": "Pending",
    "rowid": "905229",
    "final_x": "3675304.3844",
    "final_y": "523356.957947",
    "longitude": "-90.0879140282435",
    "latitude": "29.93323666860289",
    "geocoded_column": {
      "latitude": "29.93323666860289",
      "longitude": "-90.0879140282435"
    }
  },
  {
    "service_request": "2022-905228",
    "request_type": "Traffic Signals/Signs/Striping/Streetlights",
    "request_reason": "Request for Traffic Calming due to Speeding",
    "date_created": "2022-07-31T17:10:37.000",
    "date_modified": "2022-07-31T17:10:37.000",
    "request_status": "Pending",
    "responsible_agency": "Department of Public Works",
    "final_address": "7979 Earhart Blvd",
    "address_councildis": "B",
    "status": "Pending",
    "rowid": "905228",
    "final_x": "3667067.36417",
    "final_y": "533204.433924",
    "longitude": "-90.11358693504131",
    "latitude": "29.960557640913034",
    "geocoded_column": {
      "latitude": "29.960557640913034",
      "longitude": "-90.11358693504131"
    }
  },
  {
    "service_request": "2022-905227",
    "request_type": "Trash/Recycling",
    "request_reason": "Request a Large Item Pick Up",
    "date_created": "2022-07-31T17:03:29.000",
    "date_modified": "2022-07-31T17:03:29.000",
    "request_status": "Pending",
    "responsible_agency": "Department of Sanitation",
    "final_address": "930 Nashville Ave",
    "address_councildis": "A",
    "status": "Assigned to Contractor",
    "contractor": "Richards Disposal",
    "rowid": "905227",
    "final_x": "3665574.7945",
    "final_y": "519548.132215",
    "longitude": "-90.11875729902627",
    "latitude": "29.92305079704402",
    "geocoded_column": {
      "latitude": "29.92305079704402",
      "longitude": "-90.11875729902627"
    }
  },
  {
    "service_request": "2022-905226",
    "request_type": "Roads/Drainage",
    "request_reason": "Catch Basin - Clogged",
    "date_created": "2022-07-31T16:49:30.000",
    "date_modified": "2022-07-31T16:49:30.000",
    "request_status": "Pending",
    "responsible_agency": "Department of Public Works",
    "final_address": "2222 Arts St",
    "address_councildis": "D",
    "status": "Pending",
    "rowid": "905226",
    "final_x": "3686826.41794",
    "final_y": "540702.213835",
    "longitude": "-90.05092695398193",
    "latitude": "29.980580773837918",
    "geocoded_column": {
      "latitude": "29.980580773837918",
      "longitude": "-90.05092695398193"
    }
  },
  {
    "service_request": "2022-905225",
    "request_type": "Mosquito, Termite & Rodent Control",
    "request_reason": "Rodent Complaint (Rats)",
    "date_created": "2022-07-31T16:47:51.000",
    "date_modified": "2022-07-31T16:47:51.000",
    "request_status": "Pending",
    "responsible_agency": "Mosquito, Termite & Rodent Control Board",
    "final_address": "5542 Pratt Dr",
    "address_councildis": "D",
    "status": "Pending",
    "rowid": "905225",
    "final_x": "3680244.85423",
    "final_y": "552965.284759",
    "longitude": "-90.07128777912374",
    "latitude": "30.014500763127213",
    "geocoded_column": {
      "latitude": "30.014500763127213",
      "longitude": "-90.07128777912374"
    }
  },
  {
    "service_request": "2022-905224",
    "request_type": "Property Maintenance",
    "request_reason": "Property Maintenance",
    "date_created": "2022-07-31T16:41:33.000",
    "date_modified": "2022-07-31T16:41:33.000",
    "request_status": "Pending",
    "responsible_agency": "Department of Code Enforcement",
    "final_address": "5542 Pratt Dr",
    "address_councildis": "D",
    "status": "Pending",
    "rowid": "905224",
    "final_x": "3680244.85423",
    "final_y": "552965.284759",
    "longitude": "-90.07128777912374",
    "latitude": "30.014500763127213",
    "geocoded_column": {
      "latitude": "30.014500763127213",
      "longitude": "-90.07128777912374"
    }
  },
  {
    "service_request": "2022-905223",
    "request_type": "Trash/Recycling",
    "request_reason": "Request a Large Item Pick Up",
    "date_created": "2022-07-31T16:40:58.000",
    "date_modified": "2022-07-31T16:40:59.000",
    "request_status": "Pending",
    "responsible_agency": "Department of Sanitation",
    "final_address": "2637 Milan St",
    "address_councildis": "B",
    "status": "Assigned to Contractor",
    "contractor": "Richards Disposal",
    "rowid": "905223",
    "final_x": "3671265.52385",
    "final_y": "524732.00998",
    "longitude": "-90.10061778106343",
    "latitude": "29.937137706280648",
    "geocoded_column": {
      "latitude": "29.937137706280648",
      "longitude": "-90.10061778106343"
    }
  },
  {
    "service_request": "2022-905222",
    "request_type": "Property Maintenance",
    "request_reason": "Property Maintenance",
    "date_created": "2022-07-31T16:38:51.000",
    "date_modified": "2022-07-31T16:38:51.000",
    "request_status": "Pending",
    "responsible_agency": "Department of Code Enforcement",
    "final_address": "2522 Palmyra St",
    "address_councildis": "B",
    "status": "Pending",
    "rowid": "905222",
    "final_x": "3675469.84859",
    "final_y": "533932.443077",
    "longitude": "-90.08702853436603",
    "latitude": "29.96231080428996",
    "geocoded_column": {
      "latitude": "29.96231080428996",
      "longitude": "-90.08702853436603"
    }
  },
  {
    "service_request": "2022-905221",
    "request_type": "Roads/Drainage",
    "request_reason": "Catch Basin - Clogged",
    "date_created": "2022-07-31T16:38:47.000",
    "date_modified": "2022-07-31T16:38:47.000",
    "request_status": "Pending",
    "responsible_agency": "Department of Public Works",
    "final_address": "5542 Pratt Dr",
    "address_councildis": "D",
    "status": "Pending",
    "rowid": "905221",
    "final_x": "3680244.85423",
    "final_y": "552965.284759",
    "longitude": "-90.07128777912374",
    "latitude": "30.014500763127213",
    "geocoded_column": {
      "latitude": "30.014500763127213",
      "longitude": "-90.07128777912374"
    }
  },
  {
    "service_request": "2022-905220",
    "request_type": "Mosquito, Termite & Rodent Control",
    "request_reason": "Mosquito Complaint",
    "date_created": "2022-07-31T16:36:23.000",
    "date_modified": "2022-07-31T16:36:23.000",
    "request_status": "Pending",
    "responsible_agency": "Mosquito, Termite & Rodent Control Board",
    "final_address": "5542 Pratt Dr",
    "address_councildis": "D",
    "status": "Pending",
    "rowid": "905220",
    "final_x": "3680244.85423",
    "final_y": "552965.284759",
    "longitude": "-90.07128777912374",
    "latitude": "30.014500763127213",
    "geocoded_column": {
      "latitude": "30.014500763127213",
      "longitude": "-90.07128777912374"
    }
  },
  {
    "service_request": "2022-905219",
    "request_type": "Trash/Recycling",
    "request_reason": "Start Trash Service",
    "date_created": "2022-07-31T16:34:55.000",
    "date_modified": "2022-07-31T16:34:55.000",
    "request_status": "Pending",
    "responsible_agency": "Department of Sanitation",
    "final_address": "7801 Hampson St",
    "address_councildis": "A",
    "status": "Assigned to Contractor",
    "contractor": "Richards Disposal",
    "rowid": "905219",
    "final_x": "3661617.67936",
    "final_y": "526404.367998",
    "longitude": "-90.1310213558698",
    "latitude": "29.942018032350934",
    "geocoded_column": {
      "latitude": "29.942018032350934",
      "longitude": "-90.1310213558698"
    }
  },
  {
    "service_request": "2022-905218",
    "request_type": "Property Maintenance",
    "request_reason": "Property Maintenance",
    "date_created": "2022-07-31T16:23:02.000",
    "date_modified": "2022-07-31T16:23:02.000",
    "request_status": "Pending",
    "responsible_agency": "Department of Code Enforcement",
    "final_address": "2501 Banks St",
    "address_councildis": "B",
    "status": "Pending",
    "rowid": "905218",
    "final_x": "3675422.22798",
    "final_y": "533620.953349",
    "longitude": "-90.08718961099208",
    "latitude": "29.96145573647873",
    "geocoded_column": {
      "latitude": "29.96145573647873",
      "longitude": "-90.08718961099208"
    }
  },
  {
    "service_request": "2022-905217",
    "request_type": "Abandoned Vehicles",
    "request_reason": "Abandoned/Junk Vehicles",
    "date_created": "2022-07-31T15:56:39.000",
    "date_modified": "2022-07-31T15:56:39.000",
    "request_status": "Pending",
    "responsible_agency": "Department of Public Works",
    "final_address": "1736 Clouet St",
    "address_councildis": "D",
    "status": "Pending",
    "rowid": "905217",
    "final_x": "3689601.38204",
    "final_y": "538541.978249",
    "longitude": "-90.04223932010265",
    "latitude": "29.974555204363465",
    "geocoded_column": {
      "latitude": "29.974555204363465",
      "longitude": "-90.04223932010265"
    }
  },
  {
    "service_request": "2022-905216",
    "request_type": "Property Maintenance",
    "request_reason": "Property Maintenance",
    "date_created": "2022-07-31T15:54:16.000",
    "date_modified": "2022-07-31T15:54:16.000",
    "request_status": "Pending",
    "responsible_agency": "Department of Code Enforcement",
    "final_address": "1936 St Philip St",
    "address_councildis": "D",
    "status": "Pending",
    "rowid": "905216",
    "final_x": "3679610.44251",
    "final_y": "536094.371399",
    "longitude": "-90.07387809864863",
    "latitude": "29.968130885270682",
    "geocoded_column": {
      "latitude": "29.968130885270682",
      "longitude": "-90.07387809864863"
    }
  },
  {
    "service_request": "2022-905215",
    "request_type": "Abandoned Vehicles",
    "request_reason": "Abandoned/Junk Vehicles",
    "date_created": "2022-07-31T15:53:26.000",
    "date_modified": "2022-07-31T15:53:26.000",
    "request_status": "Pending",
    "responsible_agency": "Department of Public Works",
    "final_address": "1736 Clouet St",
    "address_councildis": "D",
    "status": "Pending",
    "rowid": "905215",
    "final_x": "3689601.38204",
    "final_y": "538541.978249",
    "longitude": "-90.04223932010265",
    "latitude": "29.974555204363465",
    "geocoded_column": {
      "latitude": "29.974555204363465",
      "longitude": "-90.04223932010265"
    }
  },
  {
    "service_request": "2022-905214",
    "request_type": "Trash/Recycling",
    "request_reason": "Repair Trash Cart",
    "date_created": "2022-07-31T15:53:15.000",
    "date_modified": "2022-07-31T15:53:16.000",
    "request_status": "Pending",
    "responsible_agency": "Department of Sanitation",
    "final_address": "4305 S Carrollton Ave, New Orleans, Louisiana, 70119",
    "address_councildis": "A",
    "status": "Assigned to Contractor",
    "contractor": "Richards Disposal",
    "rowid": "905214",
    "final_x": "3669742.43098",
    "final_y": "536962.314376",
    "longitude": "-90.10501237668194",
    "latitude": "29.970811988824202",
    "geocoded_column": {
      "latitude": "29.970811988824202",
      "longitude": "-90.10501237668194"
    }
  },
  {
    "service_request": "2022-905213",
    "request_type": "Trash/Recycling",
    "request_reason": "Request a Large Item Pick Up",
    "date_created": "2022-07-31T15:50:21.000",
    "date_modified": "2022-07-31T15:50:22.000",
    "request_status": "Pending",
    "responsible_agency": "Department of Sanitation",
    "final_address": "4305 S Carrollton Ave, New Orleans, Louisiana, 70119",
    "address_councildis": "A",
    "status": "Assigned to Contractor",
    "contractor": "Richards Disposal",
    "rowid": "905213",
    "final_x": "3669742.43098",
    "final_y": "536962.314376",
    "longitude": "-90.10501237668194",
    "latitude": "29.970811988824202",
    "geocoded_column": {
      "latitude": "29.970811988824202",
      "longitude": "-90.10501237668194"
    }
  },
  {
    "service_request": "2022-905212",
    "request_type": "Property Maintenance",
    "request_reason": "Property Maintenance",
    "date_created": "2022-07-31T15:39:33.000",
    "date_modified": "2022-07-31T15:39:33.000",
    "request_status": "Pending",
    "responsible_agency": "Department of Code Enforcement",
    "final_address": "2431 Ap Tureaud Ave",
    "address_councildis": "D",
    "status": "Pending",
    "rowid": "905212",
    "final_x": "3681663.96546",
    "final_y": "541112.499532",
    "longitude": "-90.06721788753791",
    "latitude": "29.98186677375577",
    "geocoded_column": {
      "latitude": "29.98186677375577",
      "longitude": "-90.06721788753791"
    }
  },
  {
    "service_request": "2022-905211",
    "request_type": "Traffic Signals/Signs/Striping/Streetlights",
    "request_reason": "Street Light Outage/Malfunction",
    "date_created": "2022-07-31T15:24:41.000",
    "date_modified": "2022-07-31T15:24:42.000",
    "request_status": "Pending",
    "responsible_agency": "Department of Public Works",
    "final_address": "1500 St Roch Ave",
    "address_councildis": "C",
    "status": "Pending",
    "contractor": "Royal Engineering",
    "rowid": "905211",
    "final_x": "3686297.54025",
    "final_y": "537931.246601",
    "longitude": "-90.05269519049259",
    "latitude": "29.972977852767453",
    "geocoded_column": {
      "latitude": "29.972977852767453",
      "longitude": "-90.05269519049259"
    }
  },
  {
    "service_request": "2022-905210",
    "request_type": "Trash/Recycling",
    "request_reason": "Request a Large Item Pick Up",
    "date_created": "2022-07-31T15:23:12.000",
    "date_modified": "2022-07-31T15:23:13.000",
    "request_status": "Pending",
    "responsible_agency": "Department of Sanitation",
    "final_address": "810 Homedale St",
    "address_councildis": "A",
    "status": "Assigned to Contractor",
    "contractor": "Metro Disposal",
    "rowid": "905210",
    "final_x": "3668913.93281",
    "final_y": "544598.594639",
    "longitude": "-90.10737085845291",
    "latitude": "29.99183356623971",
    "geocoded_column": {
      "latitude": "29.99183356623971",
      "longitude": "-90.10737085845291"
    }
  },
  {
    "service_request": "2022-905209",
    "request_type": "Trash/Recycling",
    "request_reason": "Request a Large Item Pick Up",
    "date_created": "2022-07-31T15:22:11.000",
    "date_modified": "2022-07-31T15:22:11.000",
    "request_status": "Pending",
    "responsible_agency": "Department of Sanitation",
    "final_address": "2526 Peniston St",
    "address_councildis": "B",
    "status": "Assigned to Contractor",
    "contractor": "Richards Disposal",
    "rowid": "905209",
    "final_x": "3672039.00571",
    "final_y": "524433.091196",
    "longitude": "-90.09818602041159",
    "latitude": "29.936292873152844",
    "geocoded_column": {
      "latitude": "29.936292873152844",
      "longitude": "-90.09818602041159"
    }
  },
  {
    "service_request": "2022-905208",
    "request_type": "Trash/Recycling",
    "request_reason": "Missed Trash Pick-Up",
    "date_created": "2022-07-31T15:13:19.000",
    "date_modified": "2022-07-31T15:13:20.000",
    "request_status": "Pending",
    "responsible_agency": "Department of Sanitation",
    "final_address": "2831 Audubon St",
    "address_councildis": "B",
    "status": "Assigned to Contractor",
    "contractor": "Richards Disposal",
    "rowid": "905208",
    "final_x": "3667694.17434",
    "final_y": "531295.870018",
    "longitude": "-90.11167184375363",
    "latitude": "29.955291355719048",
    "geocoded_column": {
      "latitude": "29.955291355719048",
      "longitude": "-90.11167184375363"
    }
  },
  {
    "service_request": "2022-905207",
    "request_type": "Property Maintenance",
    "request_reason": "Property Maintenance",
    "date_created": "2022-07-31T15:12:02.000",
    "date_modified": "2022-07-31T15:12:02.000",
    "request_status": "Pending",
    "responsible_agency": "Department of Code Enforcement",
    "final_address": "3618 Cadillac St",
    "address_councildis": "D",
    "status": "Pending",
    "rowid": "905207",
    "final_x": "3677006.48776",
    "final_y": "545457.042704",
    "longitude": "-90.08177854058677",
    "latitude": "29.993953439421247",
    "geocoded_column": {
      "latitude": "29.993953439421247",
      "longitude": "-90.08177854058677"
    }
  },
  {
    "service_request": "2022-905206",
    "request_type": "Trash/Recycling",
    "request_reason": "Request a Large Item Pick Up",
    "date_created": "2022-07-31T15:11:22.000",
    "date_modified": "2022-07-31T15:11:23.000",
    "request_status": "Pending",
    "responsible_agency": "Department of Sanitation",
    "final_address": "2426 Joseph St",
    "address_councildis": "A",
    "status": "Assigned to Contractor",
    "contractor": "Richards Disposal",
    "rowid": "905206",
    "final_x": "3667344.75821",
    "final_y": "525040.795453",
    "longitude": "-90.11298553138214",
    "latitude": "29.93810216696791",
    "geocoded_column": {
      "latitude": "29.93810216696791",
      "longitude": "-90.11298553138214"
    }
  },
  {
    "service_request": "2022-905205",
    "request_type": "Abandoned Vehicles",
    "request_reason": "Abandoned/Junk Vehicles",
    "date_created": "2022-07-31T15:08:55.000",
    "date_modified": "2022-07-31T15:08:55.000",
    "request_status": "Pending",
    "responsible_agency": "Department of Public Works",
    "final_address": "1222 Congress St",
    "address_councildis": "C",
    "status": "Pending",
    "rowid": "905205",
    "final_x": "3690817.16176",
    "final_y": "536121.884807",
    "longitude": "-90.03848597759782",
    "latitude": "29.967863078434593",
    "geocoded_column": {
      "latitude": "29.967863078434593",
      "longitude": "-90.03848597759782"
    }
  },
  {
    "service_request": "2022-905204",
    "request_type": "Trash/Recycling",
    "request_reason": "Request a Large Item Pick Up",
    "date_created": "2022-07-31T14:51:20.000",
    "date_modified": "2022-07-31T14:51:21.000",
    "request_status": "Pending",
    "responsible_agency": "Department of Sanitation",
    "final_address": "1418 Terpsichore St, New Orleans, Louisiana, 70130",
    "address_councildis": "B",
    "status": "Assigned to Contractor",
    "contractor": "Richards Disposal",
    "rowid": "905204",
    "final_x": "3679652.62811",
    "final_y": "524811.706748",
    "longitude": "-90.07413643524752",
    "latitude": "29.937106078755804",
    "geocoded_column": {
      "latitude": "29.937106078755804",
      "longitude": "-90.07413643524752"
    }
  },
  {
    "service_request": "2022-905203",
    "request_type": "Trash/Recycling",
    "request_reason": "Dead Animal Pick Up",
    "date_created": "2022-07-31T14:33:41.000",
    "date_modified": "2022-07-31T14:33:42.000",
    "request_status": "Pending",
    "responsible_agency": "Department of Sanitation",
    "final_address": "3819 Patterson St",
    "address_councildis": "C",
    "status": "Assigned to Contractor",
    "contractor": "Richards Disposal",
    "rowid": "905203",
    "final_x": "3698210.46992",
    "final_y": "527073.695742",
    "longitude": "-90.01546645900945",
    "latitude": "29.942751957133805",
    "geocoded_column": {
      "latitude": "29.942751957133805",
      "longitude": "-90.01546645900945"
    }
  },
  {
    "service_request": "2022-905202",
    "request_type": "Trash/Recycling",
    "request_reason": "Request a Large Item Pick Up",
    "date_created": "2022-07-31T14:30:30.000",
    "date_modified": "2022-07-31T14:30:30.000",
    "request_status": "Pending",
    "responsible_agency": "Department of Sanitation",
    "final_address": "920 Lowerline St",
    "address_councildis": "A",
    "status": "Assigned to Contractor",
    "contractor": "Richards Disposal",
    "rowid": "905202",
    "final_x": "3663178.91104",
    "final_y": "526150.92979",
    "longitude": "-90.12610062100495",
    "latitude": "29.94127602130271",
    "geocoded_column": {
      "latitude": "29.94127602130271",
      "longitude": "-90.12610062100495"
    }
  },
  {
    "service_request": "2022-905200",
    "request_type": "Trash/Recycling",
    "request_reason": "Request a Large Item Pick Up",
    "date_created": "2022-07-31T14:26:03.000",
    "date_modified": "2022-07-31T14:26:04.000",
    "request_status": "Pending",
    "responsible_agency": "Department of Sanitation",
    "final_address": "1109 Valmont St",
    "address_councildis": "B",
    "status": "Assigned to Contractor",
    "contractor": "Richards Disposal",
    "rowid": "905200",
    "final_x": "3667642.13114",
    "final_y": "519454.462775",
    "longitude": "-90.11223464447421",
    "latitude": "29.922732818703118",
    "geocoded_column": {
      "latitude": "29.922732818703118",
      "longitude": "-90.11223464447421"
    }
  },
  {
    "service_request": "2022-905198",
    "request_type": "Parks & Parkways",
    "request_reason": "Request Tree Service (Right of Way/Public Property)",
    "date_created": "2022-07-31T14:24:46.000",
    "date_modified": "2022-07-31T14:24:46.000",
    "request_status": "Pending",
    "responsible_agency": "Department of Parks & Parkway",
    "final_address": "4801 Dryades St",
    "address_councildis": "B",
    "status": "Pending",
    "rowid": "905198",
    "final_x": "3669221.27143",
    "final_y": "521877.320378",
    "longitude": "-90.107168068312",
    "latitude": "29.929348538940957",
    "geocoded_column": {
      "latitude": "29.929348538940957",
      "longitude": "-90.107168068312"
    }
  },
  {
    "service_request": "2022-905197",
    "request_type": "Parks & Parkways",
    "request_reason": "Request Tree Service (Right of Way/Public Property)",
    "date_created": "2022-07-31T14:19:56.000",
    "date_modified": "2022-07-31T14:22:57.000",
    "request_status": "Pending",
    "responsible_agency": "Department of Parks & Parkway",
    "final_address": "1400 BLK Marais St",
    "address_councildis": "C",
    "status": "Pending",
    "rowid": "905197",
    "final_x": "3682286.46872",
    "final_y": "536041.935906",
    "longitude": "-90.06542894175865",
    "latitude": "29.967905556921554",
    "geocoded_column": {
      "latitude": "29.967905556921554",
      "longitude": "-90.06542894175865"
    }
  },
  {
    "service_request": "2022-905196",
    "request_type": "Traffic Signals/Signs/Striping/Streetlights",
    "request_reason": "Traffic Signal Malfunctioning/Damaged",
    "date_created": "2022-07-31T14:17:55.000",
    "date_modified": "2022-07-31T14:17:55.000",
    "request_status": "Pending",
    "responsible_agency": "Department of Public Works",
    "final_address": "2223 Broadway St",
    "address_councildis": "A",
    "status": "Pending",
    "rowid": "905196",
    "final_x": "3666277.71597",
    "final_y": "529550.944705",
    "longitude": "-90.11620304372894",
    "latitude": "29.950534828339777",
    "geocoded_column": {
      "latitude": "29.950534828339777",
      "longitude": "-90.11620304372894"
    }
  },
  {
    "service_request": "2022-905194",
    "request_type": "Trash/Recycling",
    "request_reason": "Missed Trash Pick-Up",
    "date_created": "2022-07-31T14:14:50.000",
    "date_modified": "2022-07-31T14:14:51.000",
    "request_status": "Pending",
    "responsible_agency": "Department of Sanitation",
    "final_address": "2111 Danneel St",
    "address_councildis": "B",
    "status": "Assigned to Contractor",
    "contractor": "Richards Disposal",
    "rowid": "905194",
    "final_x": "3676863.2948",
    "final_y": "525181.321725",
    "longitude": "-90.08292979509278",
    "latitude": "29.938206388823982",
    "geocoded_column": {
      "latitude": "29.938206388823982",
      "longitude": "-90.08292979509278"
    }
  },
  {
    "service_request": "2022-905193",
    "request_type": "Property Maintenance",
    "request_reason": "Property Maintenance",
    "date_created": "2022-07-31T14:02:55.000",
    "date_modified": "2022-07-31T14:02:55.000",
    "request_status": "Pending",
    "responsible_agency": "Department of Code Enforcement",
    "final_address": "2617 Banks St A",
    "address_councildis": "B",
    "status": "Pending",
    "rowid": "905193",
    "final_x": "3674982.50094",
    "final_y": "533952.705861",
    "longitude": "-90.08856681469268",
    "latitude": "29.962381086455217",
    "geocoded_column": {
      "latitude": "29.962381086455217",
      "longitude": "-90.08856681469268"
    }
  },
  {
    "service_request": "2022-905192",
    "request_type": "Traffic Signals/Signs/Striping/Streetlights",
    "request_reason": "Street Light Knocked Down/Leaning",
    "date_created": "2022-07-31T13:56:52.000",
    "date_modified": "2022-07-31T13:56:53.000",
    "request_status": "Pending",
    "responsible_agency": "Department of Public Works",
    "final_address": "3216 Prytania St",
    "address_councildis": "B",
    "status": "Pending",
    "contractor": "Royal Engineering",
    "rowid": "905192",
    "final_x": "3675027.54472",
    "final_y": "521167.391929",
    "longitude": "-90.08886306753037",
    "latitude": "29.927224342945344",
    "geocoded_column": {
      "latitude": "29.927224342945344",
      "longitude": "-90.08886306753037"
    }
  },
  {
    "service_request": "2022-905191",
    "request_type": "Trash/Recycling",
    "request_reason": "Illegal Dumping",
    "date_created": "2022-07-31T13:47:34.000",
    "date_modified": "2022-07-31T13:47:34.000",
    "request_status": "Pending",
    "responsible_agency": "Department of Sanitation",
    "final_address": "2615 Banks St A",
    "address_councildis": "B",
    "status": "Pending",
    "rowid": "905191",
    "final_x": "3675000.0555",
    "final_y": "533933.390021",
    "longitude": "-90.0885120424763",
    "latitude": "29.962327450016055",
    "geocoded_column": {
      "latitude": "29.962327450016055",
      "longitude": "-90.0885120424763"
    }
  },
  {
    "service_request": "2022-905190",
    "request_type": "Roads/Drainage",
    "request_reason": "Catch Basin - Clogged",
    "date_created": "2022-07-31T13:43:41.000",
    "date_modified": "2022-07-31T13:43:41.000",
    "request_status": "Pending",
    "responsible_agency": "Department of Public Works",
    "final_address": "815 N Robertson St",
    "address_councildis": "C",
    "status": "Pending",
    "rowid": "905190",
    "final_x": "3680338.48917",
    "final_y": "534768.225094",
    "longitude": "-90.07162501430808",
    "latitude": "29.964462413044657",
    "geocoded_column": {
      "latitude": "29.964462413044657",
      "longitude": "-90.07162501430808"
    }
  },
  {
    "service_request": "2022-905189",
    "request_type": "Trash/Recycling",
    "request_reason": "Return Recycling Cart",
    "date_created": "2022-07-31T13:36:31.000",
    "date_modified": "2022-07-31T13:36:31.000",
    "request_status": "Pending",
    "responsible_agency": "Department of Sanitation",
    "final_address": "1520 Washington Ave",
    "address_councildis": "B",
    "status": "Pending",
    "rowid": "905189",
    "final_x": "3676059.04526",
    "final_y": "522234.505914",
    "longitude": "-90.08557019717861",
    "latitude": "29.93012771545818",
    "geocoded_column": {
      "latitude": "29.93012771545818",
      "longitude": "-90.08557019717861"
    }
  },
  {
    "service_request": "2022-905188",
    "request_type": "Trash/Recycling",
    "request_reason": "Damaged Caused By Contractor",
    "date_created": "2022-07-31T13:23:13.000",
    "date_modified": "2022-07-31T13:23:14.000",
    "request_status": "Pending",
    "responsible_agency": "Department of Sanitation",
    "final_address": "11030 Chaucer St",
    "address_councildis": "E",
    "status": "Assigned to Contractor",
    "contractor": "Metro Disposal",
    "rowid": "905188",
    "final_x": "3713343.29931",
    "final_y": "562160.142943",
    "longitude": "-89.96636751949532",
    "latitude": "30.038739070635426",
    "geocoded_column": {
      "latitude": "30.038739070635426",
      "longitude": "-89.96636751949532"
    }
  },
  {
    "service_request": "2022-905187",
    "request_type": "Trash/Recycling",
    "request_reason": "Replace Trash Cart",
    "date_created": "2022-07-31T13:22:45.000",
    "date_modified": "2022-07-31T13:22:46.000",
    "request_status": "Pending",
    "responsible_agency": "Department of Sanitation",
    "final_address": "418 S Scott St",
    "address_councildis": "B",
    "status": "Assigned to Contractor",
    "contractor": "Richards Disposal",
    "rowid": "905187",
    "final_x": "3670952.65121",
    "final_y": "536682.005383",
    "longitude": "-90.1011998601443",
    "latitude": "29.970005505535237",
    "geocoded_column": {
      "latitude": "29.970005505535237",
      "longitude": "-90.1011998601443"
    }
  },
  {
    "service_request": "2022-905186",
    "request_type": "Property Maintenance",
    "request_reason": "Property Maintenance",
    "date_created": "2022-07-31T13:20:46.000",
    "date_modified": "2022-07-31T13:20:46.000",
    "request_status": "Pending",
    "responsible_agency": "Department of Code Enforcement",
    "final_address": "2227 Painters St",
    "address_councildis": "D",
    "status": "Pending",
    "rowid": "905186",
    "final_x": "3687301.0991",
    "final_y": "540781.316747",
    "longitude": "-90.04942490920642",
    "latitude": "29.980783662639954",
    "geocoded_column": {
      "latitude": "29.980783662639954",
      "longitude": "-90.04942490920642"
    }
  },
  {
    "service_request": "2022-905185",
    "request_type": "Traffic Signals/Signs/Striping/Streetlights",
    "request_reason": "Street Light Outage/Malfunction",
    "date_created": "2022-07-31T13:18:31.000",
    "date_modified": "2022-07-31T13:18:31.000",
    "request_status": "Pending",
    "responsible_agency": "Department of Public Works",
    "final_address": "2932 Bell St",
    "address_councildis": "A",
    "status": "Pending",
    "contractor": "Royal Engineering",
    "rowid": "905185",
    "final_x": "3676706.75272",
    "final_y": "539223.96833",
    "longitude": "-90.08294022115666",
    "latitude": "29.976823645996",
    "geocoded_column": {
      "latitude": "29.976823645996",
      "longitude": "-90.08294022115666"
    }
  },
  {
    "service_request": "2022-905184",
    "request_type": "Property Maintenance",
    "request_reason": "Property Maintenance",
    "date_created": "2022-07-31T13:09:45.000",
    "date_modified": "2022-07-31T13:09:45.000",
    "request_status": "Pending",
    "responsible_agency": "Department of Code Enforcement",
    "final_address": "4441 Wilson Ave",
    "address_councildis": "E",
    "status": "Pending",
    "rowid": "905184",
    "final_x": "3703241.85777",
    "final_y": "553094.476759",
    "longitude": "-89.99862434795693",
    "latitude": "30.01413948166396",
    "geocoded_column": {
      "latitude": "30.01413948166396",
      "longitude": "-89.99862434795693"
    }
  },
  {
    "service_request": "2022-905183",
    "request_type": "Trash/Recycling",
    "request_reason": "Order Trash Cart",
    "date_created": "2022-07-31T13:08:29.000",
    "date_modified": "2022-07-31T18:34:33.000",
    "request_status": "Pending",
    "responsible_agency": "Department of Sanitation",
    "final_address": "6921 boston dr 70127",
    "status": "Assigned to Contractor",
    "rowid": "905183",
    "longitude": "0.0",
    "latitude": "0.0",
    "geocoded_column": {
      "latitude": "0.0",
      "longitude": "0.0"
    }
  },
  {
    "service_request": "2022-905182",
    "request_type": "Property Maintenance",
    "request_reason": "Property Maintenance",
    "date_created": "2022-07-31T13:08:24.000",
    "date_modified": "2022-07-31T13:08:24.000",
    "request_status": "Pending",
    "responsible_agency": "Department of Code Enforcement",
    "final_address": "4437 Wilson Ave",
    "address_councildis": "E",
    "status": "Pending",
    "rowid": "905182",
    "final_x": "3703246.02442",
    "final_y": "553045.865687",
    "longitude": "-89.99861297257154",
    "latitude": "30.014005686317823",
    "geocoded_column": {
      "latitude": "30.014005686317823",
      "longitude": "-89.99861297257154"
    }
  },
  {
    "service_request": "2022-905181",
    "request_type": "Trash/Recycling",
    "request_reason": "Illegal Dumping",
    "date_created": "2022-07-31T12:40:28.000",
    "date_modified": "2022-07-31T12:40:28.000",
    "request_status": "Pending",
    "responsible_agency": "Department of Sanitation",
    "final_address": "421 Manassas Pl",
    "address_councildis": "B",
    "status": "Pending",
    "rowid": "905181",
    "final_x": "3674728.57755",
    "final_y": "533794.828549",
    "longitude": "-90.08937408218279",
    "latitude": "29.96195455928395",
    "geocoded_column": {
      "latitude": "29.96195455928395",
      "longitude": "-90.08937408218279"
    }
  },
  {
    "service_request": "2022-905180",
    "request_type": "Roads/Drainage",
    "request_reason": "Pothole",
    "date_created": "2022-07-31T12:35:17.000",
    "date_modified": "2022-07-31T12:35:17.000",
    "request_status": "Pending",
    "responsible_agency": "Department of Public Works",
    "final_address": "4516 Mark Twain Dr",
    "address_councildis": "D",
    "status": "Pending",
    "rowid": "905180",
    "final_x": "3691458.21065",
    "final_y": "550759.554261",
    "longitude": "-90.03593813020397",
    "latitude": "30.0080914586232",
    "geocoded_column": {
      "latitude": "30.0080914586232",
      "longitude": "-90.03593813020397"
    }
  },
  {
    "service_request": "2022-905179",
    "request_type": "Property Maintenance",
    "request_reason": "Property Maintenance",
    "date_created": "2022-07-31T12:34:47.000",
    "date_modified": "2022-07-31T12:34:47.000",
    "request_status": "Pending",
    "responsible_agency": "Department of Code Enforcement",
    "final_address": "4100 Tchoupitoulas St",
    "address_councildis": "B",
    "status": "Pending",
    "rowid": "905179",
    "final_x": "3672255.90913",
    "final_y": "517531.455222",
    "longitude": "-90.09773620253272",
    "latitude": "29.917309157514037",
    "geocoded_column": {
      "latitude": "29.917309157514037",
      "longitude": "-90.09773620253272"
    }
  },
  {
    "service_request": "2022-905178",
    "request_type": "Traffic Signals/Signs/Striping/Streetlights",
    "request_reason": "Street Light Outage/Malfunction",
    "date_created": "2022-07-31T12:33:25.000",
    "date_modified": "2022-07-31T12:33:26.000",
    "request_status": "Pending",
    "responsible_agency": "Department of Public Works",
    "final_address": "2223 Broadway St",
    "address_councildis": "A",
    "status": "Pending",
    "contractor": "Royal Engineering",
    "rowid": "905178",
    "final_x": "3666277.71597",
    "final_y": "529550.944705",
    "longitude": "-90.11620304372894",
    "latitude": "29.950534828339777",
    "geocoded_column": {
      "latitude": "29.950534828339777",
      "longitude": "-90.11620304372894"
    }
  },
  {
    "service_request": "2022-905177",
    "request_type": "Traffic Signals/Signs/Striping/Streetlights",
    "request_reason": "Traffic Signal Malfunctioning/Damaged",
    "date_created": "2022-07-31T11:53:54.000",
    "date_modified": "2022-07-31T11:53:54.000",
    "request_status": "Pending",
    "responsible_agency": "Department of Public Works",
    "final_address": "1139 Oretha Castle Haley Blvd",
    "address_councildis": "B",
    "status": "Pending",
    "rowid": "905177",
    "final_x": "3678583.04571",
    "final_y": "527278.543167",
    "longitude": "-90.07742780941236",
    "latitude": "29.943921338497315",
    "geocoded_column": {
      "latitude": "29.943921338497315",
      "longitude": "-90.07742780941236"
    }
  },
  {
    "service_request": "2022-905176",
    "request_type": "Traffic Signals/Signs/Striping/Streetlights",
    "request_reason": "Street Light Outage/Malfunction",
    "date_created": "2022-07-31T11:45:23.000",
    "date_modified": "2022-07-31T11:45:23.000",
    "request_status": "Pending",
    "responsible_agency": "Department of Public Works",
    "final_address": "2932 Bell St",
    "address_councildis": "A",
    "status": "Pending",
    "contractor": "Royal Engineering",
    "rowid": "905176",
    "final_x": "3676706.75272",
    "final_y": "539223.96833",
    "longitude": "-90.08294022115666",
    "latitude": "29.976823645996",
    "geocoded_column": {
      "latitude": "29.976823645996",
      "longitude": "-90.08294022115666"
    }
  },
  {
    "service_request": "2022-905175",
    "request_type": "Abandoned Vehicles",
    "request_reason": "Abandoned/Junk Vehicles",
    "date_created": "2022-07-31T11:31:11.000",
    "date_modified": "2022-07-31T11:31:11.000",
    "request_status": "Pending",
    "responsible_agency": "Department of Public Works",
    "final_address": "2237 St Ann St",
    "address_councildis": "D",
    "status": "Pending",
    "rowid": "905175",
    "final_x": "3678340.52731",
    "final_y": "536188.399879",
    "longitude": "-90.07788528886358",
    "latitude": "29.96842775099973",
    "geocoded_column": {
      "latitude": "29.96842775099973",
      "longitude": "-90.07788528886358"
    }
  },
  {
    "service_request": "2022-905174",
    "request_type": "Trash/Recycling",
    "request_reason": "Missed Trash Pick-Up",
    "date_created": "2022-07-31T11:29:40.000",
    "date_modified": "2022-07-31T11:30:44.000",
    "request_status": "Pending",
    "responsible_agency": "Department of Sanitation",
    "final_address": "5540 Norgate Dr",
    "address_councildis": "E",
    "status": "Assigned to Contractor",
    "contractor": "Metro Disposal",
    "rowid": "905174",
    "final_x": "3707087.62084",
    "final_y": "558121.129115",
    "longitude": "-89.98628707511972",
    "latitude": "30.02783709007401",
    "geocoded_column": {
      "latitude": "30.02783709007401",
      "longitude": "-89.98628707511972"
    }
  },
  {
    "service_request": "2022-905173",
    "request_type": "Traffic Signals/Signs/Striping/Streetlights",
    "request_reason": "Street Light Outage/Malfunction",
    "date_created": "2022-07-31T11:29:33.000",
    "date_modified": "2022-07-31T11:29:34.000",
    "request_status": "Pending",
    "responsible_agency": "Department of Public Works",
    "final_address": "1631 Jefferson Ave",
    "address_councildis": "B",
    "status": "Pending",
    "contractor": "Royal Engineering",
    "rowid": "905173",
    "final_x": "3667542.61543",
    "final_y": "521827.937658",
    "longitude": "-90.11246895046179",
    "latitude": "29.929262038719504",
    "geocoded_column": {
      "latitude": "29.929262038719504",
      "longitude": "-90.11246895046179"
    }
  },
  {
    "service_request": "2022-905171",
    "request_type": "Traffic Signals/Signs/Striping/Streetlights",
    "request_reason": "Traffic Signal Malfunctioning/Damaged",
    "date_created": "2022-07-31T11:12:19.000",
    "date_modified": "2022-07-31T11:12:19.000",
    "request_status": "Pending",
    "responsible_agency": "Department of Public Works",
    "final_address": "7200 S Claiborne Ave",
    "address_councildis": "A",
    "status": "Pending",
    "rowid": "905171",
    "final_x": "3666219.71866",
    "final_y": "529762.524417",
    "longitude": "-90.11637907473644",
    "latitude": "29.951118297659526",
    "geocoded_column": {
      "latitude": "29.951118297659526",
      "longitude": "-90.11637907473644"
    }
  },
  {
    "service_request": "2022-905170",
    "request_type": "Trash/Recycling",
    "request_reason": "Illegal Dumping",
    "date_created": "2022-07-31T11:08:13.000",
    "date_modified": "2022-07-31T11:08:13.000",
    "request_status": "Pending",
    "responsible_agency": "Department of Sanitation",
    "final_address": "5407 Canal Blvd",
    "address_councildis": "A",
    "status": "Pending",
    "rowid": "905170",
    "final_x": "3668278.22951",
    "final_y": "543349.458382",
    "longitude": "-90.1094210643817",
    "latitude": "29.98841755526119",
    "geocoded_column": {
      "latitude": "29.98841755526119",
      "longitude": "-90.1094210643817"
    }
  },
  {
    "service_request": "2022-905169",
    "request_type": "Trash/Recycling",
    "request_reason": "Missed Trash Pick-Up",
    "date_created": "2022-07-31T11:02:19.000",
    "date_modified": "2022-07-31T11:02:20.000",
    "request_status": "Pending",
    "responsible_agency": "Department of Sanitation",
    "final_address": "5760 Hayne Blvd",
    "address_councildis": "D",
    "status": "Assigned to Contractor",
    "contractor": "Metro Disposal",
    "rowid": "905169",
    "final_x": "3694034.87459",
    "final_y": "559568.475293",
    "longitude": "-90.02748053664283",
    "latitude": "30.032232205285236",
    "geocoded_column": {
      "latitude": "30.032232205285236",
      "longitude": "-90.02748053664283"
    }
  },
  {
    "service_request": "2022-905168",
    "request_type": "Traffic Signals/Signs/Striping/Streetlights",
    "request_reason": "Street Light Outage/Malfunction",
    "date_created": "2022-07-31T10:58:02.000",
    "date_modified": "2022-07-31T10:58:03.000",
    "request_status": "Pending",
    "responsible_agency": "Department of Public Works",
    "final_address": "532 Emerald St",
    "address_councildis": "D",
    "status": "Pending",
    "contractor": "Royal Engineering",
    "rowid": "905168",
    "final_x": "3668383.38478",
    "final_y": "554982.702424",
    "longitude": "-90.10869618452108",
    "latitude": "30.020401838447953",
    "geocoded_column": {
      "latitude": "30.020401838447953",
      "longitude": "-90.10869618452108"
    }
  },
  {
    "service_request": "2022-905167",
    "request_type": "Trash/Recycling",
    "request_reason": "Request a Large Item Pick Up",
    "date_created": "2022-07-31T10:52:03.000",
    "date_modified": "2022-07-31T10:52:04.000",
    "request_status": "Pending",
    "responsible_agency": "Department of Sanitation",
    "final_address": "5526 Laurel St",
    "address_councildis": "A",
    "status": "Assigned to Contractor",
    "contractor": "Richards Disposal",
    "rowid": "905167",
    "final_x": "3665994.63591",
    "final_y": "517832.61119",
    "longitude": "-90.11748947749108",
    "latitude": "29.91832140862825",
    "geocoded_column": {
      "latitude": "29.91832140862825",
      "longitude": "-90.11748947749108"
    }
  },
  {
    "service_request": "2022-905166",
    "request_type": "Trash/Recycling",
    "request_reason": "Missed Trash Pick-Up",
    "date_created": "2022-07-31T10:39:10.000",
    "date_modified": "2022-07-31T10:39:10.000",
    "request_status": "Pending",
    "responsible_agency": "Department of Sanitation",
    "final_address": "2482 Dreux Ave, New Orleans, Louisiana, 70122",
    "address_councildis": "D",
    "status": "Assigned to Contractor",
    "contractor": "Metro Disposal",
    "rowid": "905166",
    "final_x": "3685968.65308",
    "final_y": "552098.058006",
    "longitude": "-90.0532340386648",
    "latitude": "30.011941620521377",
    "geocoded_column": {
      "latitude": "30.011941620521377",
      "longitude": "-90.0532340386648"
    }
  },
  {
    "service_request": "2022-905165",
    "request_type": "Property Maintenance",
    "request_reason": "Property Maintenance",
    "date_created": "2022-07-31T10:37:26.000",
    "date_modified": "2022-07-31T10:37:26.000",
    "request_status": "Pending",
    "responsible_agency": "Department of Code Enforcement",
    "final_address": "4908 Dauphine St",
    "address_councildis": "E",
    "status": "Pending",
    "rowid": "905165",
    "final_x": "3695148.96112",
    "final_y": "533229.826756",
    "longitude": "-90.02491037790062",
    "latitude": "29.959775632578378",
    "geocoded_column": {
      "latitude": "29.959775632578378",
      "longitude": "-90.02491037790062"
    }
  },
  {
    "service_request": "2022-905164",
    "request_type": "Property Maintenance",
    "request_reason": "Property Maintenance",
    "date_created": "2022-07-31T10:25:23.000",
    "date_modified": "2022-07-31T10:25:23.000",
    "request_status": "Pending",
    "responsible_agency": "Department of Code Enforcement",
    "final_address": "5130 Dauphine St",
    "address_councildis": "E",
    "status": "Pending",
    "rowid": "905164",
    "final_x": "3696167.46429",
    "final_y": "532973.155716",
    "longitude": "-90.02170346836226",
    "latitude": "29.959037859543837",
    "geocoded_column": {
      "latitude": "29.959037859543837",
      "longitude": "-90.02170346836226"
    }
  },
  {
    "service_request": "2022-905163",
    "request_type": "Roads/Drainage",
    "request_reason": "Pothole",
    "date_created": "2022-07-31T10:19:32.000",
    "date_modified": "2022-07-31T10:19:32.000",
    "request_status": "Pending",
    "responsible_agency": "Department of Public Works",
    "final_address": "JOSEPH ST & S LIBERTY ST",
    "address_councildis": "A",
    "status": "Pending",
    "rowid": "905163",
    "final_x": "3667124.9",
    "final_y": "523448.88",
    "longitude": "-90.11373313943025",
    "latitude": "29.933731345423737",
    "geocoded_column": {
      "latitude": "29.933731345423737",
      "longitude": "-90.11373313943025"
    }
  },
  {
    "service_request": "2022-905162",
    "request_type": "Trash/Recycling",
    "request_reason": "Order Trash Cart",
    "date_created": "2022-07-31T09:59:19.000",
    "date_modified": "2022-07-31T09:59:19.000",
    "request_status": "Pending",
    "responsible_agency": "Department of Sanitation",
    "final_address": "New Orleans,LA",
    "status": "Assigned to Contractor",
    "rowid": "905162",
    "longitude": "0.0",
    "latitude": "0.0",
    "geocoded_column": {
      "latitude": "0.0",
      "longitude": "0.0"
    }
  },
  {
    "service_request": "2022-905161",
    "request_type": "Trash/Recycling",
    "request_reason": "Repair Recycling Cart",
    "date_created": "2022-07-31T09:53:27.000",
    "date_modified": "2022-07-31T09:53:27.000",
    "request_status": "Pending",
    "responsible_agency": "Department of Sanitation",
    "final_address": "1423 Adams St",
    "address_councildis": "A",
    "status": "Pending",
    "rowid": "905161",
    "final_x": "3663686.52122",
    "final_y": "528004.385919",
    "longitude": "-90.12443625435756",
    "latitude": "29.94635771718048",
    "geocoded_column": {
      "latitude": "29.94635771718048",
      "longitude": "-90.12443625435756"
    }
  },
  {
    "service_request": "2022-905160",
    "request_type": "Trash/Recycling",
    "request_reason": "Missed Trash Pick-Up",
    "date_created": "2022-07-31T09:46:29.000",
    "date_modified": "2022-07-31T09:46:29.000",
    "request_status": "Pending",
    "responsible_agency": "Department of Sanitation",
    "final_address": "4305 S Carrollton Ave, New Orleans, Louisiana, 70119",
    "address_councildis": "A",
    "status": "Assigned to Contractor",
    "contractor": "Richards Disposal",
    "rowid": "905160",
    "final_x": "3669742.43098",
    "final_y": "536962.314376",
    "longitude": "-90.10501237668194",
    "latitude": "29.970811988824202",
    "geocoded_column": {
      "latitude": "29.970811988824202",
      "longitude": "-90.10501237668194"
    }
  },
  {
    "service_request": "2022-905159",
    "request_type": "Roads/Drainage",
    "request_reason": "Pothole",
    "date_created": "2022-07-31T09:41:42.000",
    "date_modified": "2022-07-31T15:25:02.000",
    "request_status": "Pending",
    "responsible_agency": "Department of Public Works",
    "final_address": "7000 Pontchartrain Blvd, New Orleans, Louisiana, 70124",
    "address_councildis": "A",
    "rowid": "905159",
    "final_x": "3666453.41279",
    "final_y": "554342.742152",
    "longitude": "-90.11481583383161",
    "latitude": "30.018698748974682",
    "geocoded_column": {
      "latitude": "30.018698748974682",
      "longitude": "-90.11481583383161"
    }
  },
  {
    "service_request": "2022-905158",
    "request_type": "Mosquito, Termite & Rodent Control",
    "request_reason": "Rodent Complaint (Rats)",
    "date_created": "2022-07-31T09:37:08.000",
    "date_modified": "2022-07-31T09:37:08.000",
    "request_status": "Pending",
    "responsible_agency": "Mosquito, Termite & Rodent Control Board",
    "final_address": "4001 Iberville St",
    "address_councildis": "A",
    "status": "Pending",
    "rowid": "905158",
    "final_x": "3671735.26043",
    "final_y": "538447.294857",
    "longitude": "-90.09866822586865",
    "latitude": "29.97483629271457",
    "geocoded_column": {
      "latitude": "29.97483629271457",
      "longitude": "-90.09866822586865"
    }
  },
  {
    "service_request": "2022-905157",
    "request_type": "Trash/Recycling",
    "request_reason": "Request a Large Item Pick Up",
    "date_created": "2022-07-31T09:22:26.000",
    "date_modified": "2022-07-31T09:22:27.000",
    "request_status": "Pending",
    "responsible_agency": "Department of Sanitation",
    "final_address": "1222 Port St, New Orleans, Louisiana, 70117",
    "address_councildis": "C",
    "status": "Assigned to Contractor",
    "contractor": "Metro Disposal",
    "rowid": "905157",
    "final_x": "3687530.59887",
    "final_y": "536934.906248",
    "longitude": "-90.04883623712632",
    "latitude": "29.970200314896893",
    "geocoded_column": {
      "latitude": "29.970200314896893",
      "longitude": "-90.04883623712632"
    }
  },
  {
    "service_request": "2022-905156",
    "request_type": "Trash/Recycling",
    "request_reason": "Request a Large Item Pick Up",
    "date_created": "2022-07-31T09:12:20.000",
    "date_modified": "2022-07-31T09:12:20.000",
    "request_status": "Pending",
    "responsible_agency": "Department of Sanitation",
    "final_address": "6726 Marshal Foch St",
    "address_councildis": "A",
    "status": "Assigned to Contractor",
    "contractor": "Metro Disposal",
    "rowid": "905156",
    "final_x": "3670176.6866",
    "final_y": "552087.200918",
    "longitude": "-90.10312810760412",
    "latitude": "30.01238741397666",
    "geocoded_column": {
      "latitude": "30.01238741397666",
      "longitude": "-90.10312810760412"
    }
  },
  {
    "service_request": "2022-905155",
    "request_type": "Trash/Recycling",
    "request_reason": "Request a Large Item Pick Up",
    "date_created": "2022-07-31T09:03:33.000",
    "date_modified": "2022-07-31T09:03:33.000",
    "request_status": "Pending",
    "responsible_agency": "Department of Sanitation",
    "final_address": "3148 Maurepas St",
    "address_councildis": "A",
    "status": "Assigned to Contractor",
    "contractor": "Metro Disposal",
    "rowid": "905155",
    "final_x": "3676189.96117",
    "final_y": "540720.699275",
    "longitude": "-90.08452089349295",
    "latitude": "29.980954637882682",
    "geocoded_column": {
      "latitude": "29.980954637882682",
      "longitude": "-90.08452089349295"
    }
  },
  {
    "service_request": "2022-905153",
    "request_type": "Trash/Recycling",
    "request_reason": "Missed Trash Pick-Up",
    "date_created": "2022-07-31T08:55:03.000",
    "date_modified": "2022-07-31T08:55:04.000",
    "request_status": "Pending",
    "responsible_agency": "Department of Sanitation",
    "final_address": "5819 E Louis Prima Dr",
    "address_councildis": "E",
    "status": "Assigned to Contractor",
    "contractor": "Metro Disposal",
    "rowid": "905153",
    "final_x": "3715833.15084",
    "final_y": "562823.657824",
    "longitude": "-89.95847383291007",
    "latitude": "30.04048156009481",
    "geocoded_column": {
      "latitude": "30.04048156009481",
      "longitude": "-89.95847383291007"
    }
  },
  {
    "service_request": "2022-905152",
    "request_type": "Traffic Signals/Signs/Striping/Streetlights",
    "request_reason": "Street Light Outage/Malfunction",
    "date_created": "2022-07-31T08:47:56.000",
    "date_modified": "2022-07-31T08:47:57.000",
    "request_status": "Pending",
    "responsible_agency": "Department of Public Works",
    "final_address": "1500 St Roch Ave",
    "address_councildis": "C",
    "status": "Pending",
    "contractor": "Royal Engineering",
    "rowid": "905152",
    "final_x": "3686297.54025",
    "final_y": "537931.246601",
    "longitude": "-90.05269519049259",
    "latitude": "29.972977852767453",
    "geocoded_column": {
      "latitude": "29.972977852767453",
      "longitude": "-90.05269519049259"
    }
  },
  {
    "service_request": "2022-905151",
    "request_type": "Trash/Recycling",
    "request_reason": "Order Trash Cart",
    "date_created": "2022-07-31T08:19:25.000",
    "date_modified": "2022-07-31T08:19:26.000",
    "request_status": "Pending",
    "responsible_agency": "Department of Sanitation",
    "final_address": "4048 S Inwood Ave",
    "address_councildis": "C",
    "status": "Assigned to Contractor",
    "contractor": "Richards Disposal",
    "rowid": "905151",
    "final_x": "3705114.75979",
    "final_y": "513003.385521",
    "longitude": "-89.99418733115928",
    "latitude": "29.903843341783336",
    "geocoded_column": {
      "latitude": "29.903843341783336",
      "longitude": "-89.99418733115928"
    }
  },
  {
    "service_request": "2022-905150",
    "request_type": "Trash/Recycling",
    "request_reason": "Replace Trash Cart",
    "date_created": "2022-07-31T07:57:58.000",
    "date_modified": "2022-07-31T07:58:57.000",
    "request_status": "Pending",
    "responsible_agency": "Department of Sanitation",
    "final_address": "1800 Andry St B",
    "address_councildis": "E",
    "status": "Assigned to Contractor",
    "contractor": "Metro Disposal",
    "rowid": "905150",
    "final_x": "3697864.80816",
    "final_y": "536636.532871",
    "longitude": "-90.01621073623039",
    "latitude": "29.96905730821308",
    "geocoded_column": {
      "latitude": "29.96905730821308",
      "longitude": "-90.01621073623039"
    }
  },
  {
    "service_request": "2022-905148",
    "request_type": "Trash/Recycling",
    "request_reason": "Replace Trash Cart",
    "date_created": "2022-07-31T06:41:13.000",
    "date_modified": "2022-07-31T06:41:13.000",
    "request_status": "Pending",
    "responsible_agency": "Department of Sanitation",
    "final_address": "3030 Fern St",
    "address_councildis": "B",
    "status": "Assigned to Contractor",
    "contractor": "Richards Disposal",
    "rowid": "905148",
    "final_x": "3666987.79085",
    "final_y": "532853.675524",
    "longitude": "-90.11385000072318",
    "latitude": "29.959595499568675",
    "geocoded_column": {
      "latitude": "29.959595499568675",
      "longitude": "-90.11385000072318"
    }
  },
  {
    "service_request": "2022-905147",
    "request_type": "Trash/Recycling",
    "request_reason": "Missed Trash Pick-Up",
    "date_created": "2022-07-31T06:40:07.000",
    "date_modified": "2022-07-31T06:40:08.000",
    "request_status": "Pending",
    "responsible_agency": "Department of Sanitation",
    "final_address": "3028 Fern St",
    "address_councildis": "B",
    "status": "Assigned to Contractor",
    "contractor": "Richards Disposal",
    "rowid": "905147",
    "final_x": "3666987.79085",
    "final_y": "532853.675524",
    "longitude": "-90.11385000072318",
    "latitude": "29.959595499568675",
    "geocoded_column": {
      "latitude": "29.959595499568675",
      "longitude": "-90.11385000072318"
    }
  },
  {
    "service_request": "2022-905146",
    "request_type": "Trash/Recycling",
    "request_reason": "Replace Trash Cart",
    "date_created": "2022-07-31T01:48:23.000",
    "date_modified": "2022-07-31T01:48:24.000",
    "request_status": "Pending",
    "responsible_agency": "Department of Sanitation",
    "final_address": "1422 St Bernard Ave",
    "address_councildis": "C",
    "status": "Assigned to Contractor",
    "contractor": "Metro Disposal",
    "rowid": "905146",
    "final_x": "3682441.8326",
    "final_y": "537273.132168",
    "longitude": "-90.06489525639716",
    "latitude": "29.971286193466362",
    "geocoded_column": {
      "latitude": "29.971286193466362",
      "longitude": "-90.06489525639716"
    }
  },
  {
    "service_request": "2022-905145",
    "request_type": "Roads/Drainage",
    "request_reason": "Debris in Roadway",
    "date_created": "2022-07-31T00:20:59.000",
    "date_modified": "2022-07-31T00:20:59.000",
    "request_status": "Pending",
    "responsible_agency": "Department of Public Works",
    "final_address": "4700 S Carrollton Ave",
    "address_councildis": "A",
    "status": "Pending",
    "rowid": "905145",
    "final_x": "3670961.73383",
    "final_y": "537965.035465",
    "longitude": "-90.10112760280266",
    "latitude": "29.97353313768043",
    "geocoded_column": {
      "latitude": "29.97353313768043",
      "longitude": "-90.10112760280266"
    }
  },
  {
    "service_request": "2022-905144",
    "request_type": "Traffic Signals/Signs/Striping/Streetlights",
    "request_reason": "Street Light Outage/Malfunction",
    "date_created": "2022-07-30T23:35:15.000",
    "date_modified": "2022-07-30T23:35:16.000",
    "request_status": "Pending",
    "responsible_agency": "Department of Public Works",
    "final_address": "2421 Cambronne St",
    "address_councildis": "A",
    "status": "Pending",
    "contractor": "Royal Engineering",
    "rowid": "905144",
    "final_x": "3664249.49581",
    "final_y": "532428.240899",
    "longitude": "-90.12251114018925",
    "latitude": "29.95850554214829",
    "geocoded_column": {
      "latitude": "29.95850554214829",
      "longitude": "-90.12251114018925"
    }
  },
  {
    "service_request": "2022-905143",
    "request_type": "Traffic Signals/Signs/Striping/Streetlights",
    "request_reason": "Traffic Signal Malfunctioning/Damaged",
    "date_created": "2022-07-30T23:29:09.000",
    "date_modified": "2022-07-30T23:29:09.000",
    "request_status": "Pending",
    "responsible_agency": "Department of Public Works",
    "final_address": "1635 Tulane Ave",
    "address_councildis": "B",
    "status": "Pending",
    "rowid": "905143",
    "final_x": "3677942.03771",
    "final_y": "531999.361283",
    "longitude": "-90.0792885236445",
    "latitude": "29.956921313719782",
    "geocoded_column": {
      "latitude": "29.956921313719782",
      "longitude": "-90.0792885236445"
    }
  },
  {
    "service_request": "2022-905142",
    "request_type": "Roads/Drainage",
    "request_reason": "Pothole",
    "date_created": "2022-07-30T23:06:10.000",
    "date_modified": "2022-07-30T23:06:10.000",
    "request_status": "Pending",
    "responsible_agency": "Department of Public Works",
    "final_address": "1824 Sophie Wright Pl",
    "address_councildis": "B",
    "status": "Pending",
    "rowid": "905142",
    "final_x": "3679653.70095",
    "final_y": "523149.326139",
    "longitude": "-90.07419072006655",
    "latitude": "29.9325350479122",
    "geocoded_column": {
      "latitude": "29.9325350479122",
      "longitude": "-90.07419072006655"
    }
  },
  {
    "service_request": "2022-905141",
    "request_type": "Property Maintenance",
    "request_reason": "Property Maintenance",
    "date_created": "2022-07-30T22:50:15.000",
    "date_modified": "2022-07-30T22:50:15.000",
    "request_status": "Pending",
    "responsible_agency": "Department of Code Enforcement",
    "final_address": "5501 Clements Dr",
    "address_councildis": "E",
    "status": "Pending",
    "rowid": "905141",
    "final_x": "3702551.30199",
    "final_y": "555971.292121",
    "longitude": "-90.00070043086804",
    "latitude": "30.02207172197969",
    "geocoded_column": {
      "latitude": "30.02207172197969",
      "longitude": "-90.00070043086804"
    }
  },
  {
    "service_request": "2022-905140",
    "request_type": "Property Maintenance",
    "request_reason": "Property Maintenance",
    "date_created": "2022-07-30T22:49:14.000",
    "date_modified": "2022-07-30T22:49:14.000",
    "request_status": "Pending",
    "responsible_agency": "Department of Code Enforcement",
    "final_address": "5500 Clements Dr",
    "address_councildis": "E",
    "status": "Pending",
    "rowid": "905140",
    "final_x": "3702382.68804",
    "final_y": "555951.448025",
    "longitude": "-90.00123393353094",
    "latitude": "30.02202254931675",
    "geocoded_column": {
      "latitude": "30.02202254931675",
      "longitude": "-90.00123393353094"
    }
  },
  {
    "service_request": "2022-905139",
    "request_type": "Traffic Signals/Signs/Striping/Streetlights",
    "request_reason": "Street Light Outage/Malfunction",
    "date_created": "2022-07-30T22:25:58.000",
    "date_modified": "2022-07-30T22:25:58.000",
    "request_status": "Pending",
    "responsible_agency": "Department of Public Works",
    "final_address": "3600 BLK Tall Timbers Dr",
    "address_councildis": "C",
    "status": "Pending",
    "contractor": "Royal Engineering",
    "rowid": "905139",
    "final_x": "3703548.70048",
    "final_y": "512341.387507",
    "longitude": "-89.99915411363654",
    "latitude": "29.90207330492072",
    "geocoded_column": {
      "latitude": "29.90207330492072",
      "longitude": "-89.99915411363654"
    }
  },
  {
    "service_request": "2022-905138",
    "request_type": "Traffic Signals/Signs/Striping/Streetlights",
    "request_reason": "Street Light Outage/Malfunction",
    "date_created": "2022-07-30T22:25:23.000",
    "date_modified": "2022-07-30T22:25:23.000",
    "request_status": "Pending",
    "responsible_agency": "Department of Public Works",
    "final_address": "3600 BLK Tall Timbers Dr",
    "address_councildis": "C",
    "status": "Pending",
    "contractor": "Royal Engineering",
    "rowid": "905138",
    "final_x": "3703548.70048",
    "final_y": "512341.387507",
    "longitude": "-89.99915411363654",
    "latitude": "29.90207330492072",
    "geocoded_column": {
      "latitude": "29.90207330492072",
      "longitude": "-89.99915411363654"
    }
  },
  {
    "service_request": "2022-905137",
    "request_type": "Traffic Signals/Signs/Striping/Streetlights",
    "request_reason": "Street Light Outage/Malfunction",
    "date_created": "2022-07-30T22:24:52.000",
    "date_modified": "2022-07-30T22:24:52.000",
    "request_status": "Pending",
    "responsible_agency": "Department of Public Works",
    "final_address": "3600 BLK Tall Timbers Dr",
    "address_councildis": "C",
    "status": "Pending",
    "contractor": "Royal Engineering",
    "rowid": "905137",
    "final_x": "3703548.70048",
    "final_y": "512341.387507",
    "longitude": "-89.99915411363654",
    "latitude": "29.90207330492072",
    "geocoded_column": {
      "latitude": "29.90207330492072",
      "longitude": "-89.99915411363654"
    }
  },
  {
    "service_request": "2022-905136",
    "request_type": "Abandoned Vehicles",
    "request_reason": "Abandoned/Junk Vehicles",
    "date_created": "2022-07-30T22:09:08.000",
    "date_modified": "2022-07-30T22:21:14.000",
    "request_status": "Pending",
    "responsible_agency": "Department of Public Works",
    "final_address": "900 Block of N Gayoso St, New Orleans, Louisiana, 70119",
    "address_councildis": "A",
    "rowid": "905136",
    "final_x": "3676271.12741",
    "final_y": "538403.976785",
    "longitude": "-90.08434429353403",
    "latitude": "29.974582014176427",
    "geocoded_column": {
      "latitude": "29.974582014176427",
      "longitude": "-90.08434429353403"
    }
  },
  {
    "service_request": "2022-905135",
    "request_type": "Traffic Signals/Signs/Striping/Streetlights",
    "request_reason": "Street Light Outage/Malfunction",
    "date_created": "2022-07-30T21:17:08.000",
    "date_modified": "2022-07-30T21:17:09.000",
    "request_status": "Pending",
    "responsible_agency": "Department of Public Works",
    "final_address": "1109 Valmont St",
    "address_councildis": "B",
    "status": "Pending",
    "contractor": "Royal Engineering",
    "rowid": "905135",
    "final_x": "3667642.13114",
    "final_y": "519454.462775",
    "longitude": "-90.11223464447421",
    "latitude": "29.922732818703118",
    "geocoded_column": {
      "latitude": "29.922732818703118",
      "longitude": "-90.11223464447421"
    }
  },
  {
    "service_request": "2022-905134",
    "request_type": "Trash/Recycling",
    "request_reason": "Request a Large Item Pick Up",
    "date_created": "2022-07-30T21:06:24.000",
    "date_modified": "2022-07-30T21:06:25.000",
    "request_status": "Pending",
    "responsible_agency": "Department of Sanitation",
    "final_address": "1511 N Rocheblave St",
    "address_councildis": "D",
    "status": "Assigned to Contractor",
    "contractor": "Metro Disposal",
    "rowid": "905134",
    "final_x": "3679526.65071",
    "final_y": "539023.085514",
    "longitude": "-90.07404106889945",
    "latitude": "29.976186373959163",
    "geocoded_column": {
      "latitude": "29.976186373959163",
      "longitude": "-90.07404106889945"
    }
  },
  {
    "service_request": "2022-905133",
    "request_type": "Trash/Recycling",
    "request_reason": "Request a Large Item Pick Up",
    "date_created": "2022-07-30T21:04:57.000",
    "date_modified": "2022-07-30T21:04:58.000",
    "request_status": "Pending",
    "responsible_agency": "Department of Sanitation",
    "final_address": "537 S Scott St",
    "address_councildis": "B",
    "status": "Assigned to Contractor",
    "contractor": "Richards Disposal",
    "rowid": "905133",
    "final_x": "3670576.87655",
    "final_y": "536313.240455",
    "longitude": "-90.10239910765647",
    "latitude": "29.969002631023248",
    "geocoded_column": {
      "latitude": "29.969002631023248",
      "longitude": "-90.10239910765647"
    }
  },
  {
    "service_request": "2022-905132",
    "request_type": "Trash/Recycling",
    "request_reason": "Replace Trash Cart",
    "date_created": "2022-07-30T20:48:09.000",
    "date_modified": "2022-07-30T20:48:10.000",
    "request_status": "Pending",
    "responsible_agency": "Department of Sanitation",
    "final_address": "573 Joseph St",
    "address_councildis": "A",
    "status": "Assigned to Contractor",
    "contractor": "Richards Disposal",
    "rowid": "905132",
    "final_x": "3666049.51053",
    "final_y": "518432.690102",
    "longitude": "-90.11729616536032",
    "latitude": "29.919969836616907",
    "geocoded_column": {
      "latitude": "29.919969836616907",
      "longitude": "-90.11729616536032"
    }
  },
  {
    "service_request": "2022-905131",
    "request_type": "Trash/Recycling",
    "request_reason": "Missed Trash Pick-Up",
    "date_created": "2022-07-30T20:46:06.000",
    "date_modified": "2022-07-30T20:46:07.000",
    "request_status": "Pending",
    "responsible_agency": "Department of Sanitation",
    "final_address": "1530 Fourth St",
    "address_councildis": "B",
    "status": "Assigned to Contractor",
    "contractor": "Richards Disposal",
    "rowid": "905131",
    "final_x": "3676290.45633",
    "final_y": "522451.070842",
    "longitude": "-90.08483222028408",
    "latitude": "29.930716267468316",
    "geocoded_column": {
      "latitude": "29.930716267468316",
      "longitude": "-90.08483222028408"
    }
  },
  {
    "service_request": "2022-905130",
    "request_type": "Traffic Signals/Signs/Striping/Streetlights",
    "request_reason": "Street Light Outage/Malfunction",
    "date_created": "2022-07-30T20:45:13.000",
    "date_modified": "2022-07-30T20:45:14.000",
    "request_status": "Pending",
    "responsible_agency": "Department of Public Works",
    "final_address": "532 Emerald St",
    "address_councildis": "D",
    "status": "Pending",
    "contractor": "Royal Engineering",
    "rowid": "905130",
    "final_x": "3668383.38478",
    "final_y": "554982.702424",
    "longitude": "-90.10869618452108",
    "latitude": "30.020401838447953",
    "geocoded_column": {
      "latitude": "30.020401838447953",
      "longitude": "-90.10869618452108"
    }
  },
  {
    "service_request": "2022-905129",
    "request_type": "Trash/Recycling",
    "request_reason": "Missed Trash Pick-Up",
    "date_created": "2022-07-30T20:43:04.000",
    "date_modified": "2022-07-30T20:43:05.000",
    "request_status": "Pending",
    "responsible_agency": "Department of Sanitation",
    "final_address": "920 N Rocheblave St",
    "address_councildis": "D",
    "status": "Assigned to Contractor",
    "contractor": "Richards Disposal",
    "rowid": "905129",
    "final_x": "3678102.55554",
    "final_y": "537036.79572",
    "longitude": "-90.07860747686827",
    "latitude": "29.970767716818845",
    "geocoded_column": {
      "latitude": "29.970767716818845",
      "longitude": "-90.07860747686827"
    }
  },
  {
    "service_request": "2022-905128",
    "request_type": "Traffic Signals/Signs/Striping/Streetlights",
    "request_reason": "Street Light Outage/Malfunction",
    "date_created": "2022-07-30T20:30:38.000",
    "date_modified": "2022-07-30T20:30:39.000",
    "request_status": "Pending",
    "responsible_agency": "Department of Public Works",
    "final_address": "1927 Milan St",
    "address_councildis": "B",
    "status": "Pending",
    "contractor": "Royal Engineering",
    "rowid": "905128",
    "final_x": "3671518.6978",
    "final_y": "522242.092346",
    "longitude": "-90.09990311124528",
    "latitude": "29.930283744570684",
    "geocoded_column": {
      "latitude": "29.930283744570684",
      "longitude": "-90.09990311124528"
    }
  },
  {
    "service_request": "2022-905127",
    "request_type": "Trash/Recycling",
    "request_reason": "Missed Trash Pick-Up",
    "date_created": "2022-07-30T20:30:07.000",
    "date_modified": "2022-07-30T20:30:08.000",
    "request_status": "Pending",
    "responsible_agency": "Department of Sanitation",
    "final_address": "44 English Turn Dr",
    "address_councildis": "C",
    "status": "Assigned to Contractor",
    "contractor": "Richards Disposal",
    "rowid": "905127",
    "final_x": "3721101.61222",
    "final_y": "514263.105779",
    "longitude": "-89.94368517752149",
    "latitude": "29.9067837016268",
    "geocoded_column": {
      "latitude": "29.9067837016268",
      "longitude": "-89.94368517752149"
    }
  },
  {
    "service_request": "2022-905126",
    "request_type": "Trash/Recycling",
    "request_reason": "Replace Trash Cart",
    "date_created": "2022-07-30T20:21:48.000",
    "date_modified": "2022-07-30T20:21:49.000",
    "request_status": "Pending",
    "responsible_agency": "Department of Sanitation",
    "final_address": "7328 Nelson St",
    "address_councildis": "A",
    "status": "Assigned to Contractor",
    "contractor": "Richards Disposal",
    "rowid": "905126",
    "final_x": "3666305.75975",
    "final_y": "530662.10925",
    "longitude": "-90.1160772240571",
    "latitude": "29.953589350262273",
    "geocoded_column": {
      "latitude": "29.953589350262273",
      "longitude": "-90.1160772240571"
    }
  },
  {
    "service_request": "2022-905125",
    "request_type": "Trash/Recycling",
    "request_reason": "Missed Trash Pick-Up",
    "date_created": "2022-07-30T20:10:12.000",
    "date_modified": "2022-07-30T20:10:15.000",
    "request_status": "Pending",
    "responsible_agency": "Department of Sanitation",
    "final_address": "1836 General Ogden St",
    "address_councildis": "A",
    "status": "Assigned to Contractor",
    "contractor": "Richards Disposal",
    "rowid": "905125",
    "final_x": "3661458.46336",
    "final_y": "532094.544835",
    "longitude": "-90.13133558140692",
    "latitude": "29.957668787163833",
    "geocoded_column": {
      "latitude": "29.957668787163833",
      "longitude": "-90.13133558140692"
    }
  },
  {
    "service_request": "2022-905124",
    "request_type": "Trash/Recycling",
    "request_reason": "Missed Trash Pick-Up",
    "date_created": "2022-07-30T20:00:12.000",
    "date_modified": "2022-07-30T20:00:13.000",
    "request_status": "Pending",
    "responsible_agency": "Department of Sanitation",
    "final_address": "5013 E Lemans St",
    "address_councildis": "E",
    "status": "Assigned to Contractor",
    "contractor": "Metro Disposal",
    "rowid": "905124",
    "final_x": "3727413.10265",
    "final_y": "562722.917408",
    "longitude": "-89.92188183738126",
    "latitude": "30.039817437661974",
    "geocoded_column": {
      "latitude": "30.039817437661974",
      "longitude": "-89.92188183738126"
    }
  },
  {
    "service_request": "2022-905123",
    "request_type": "Roads/Drainage",
    "request_reason": "Street Flooding / Drainage",
    "date_created": "2022-07-30T19:50:32.000",
    "date_modified": "2022-07-30T19:50:32.000",
    "request_status": "Pending",
    "responsible_agency": "Department of Public Works",
    "final_address": "5212 S Claiborne Ave",
    "address_councildis": "B",
    "status": "Pending",
    "rowid": "905123",
    "final_x": "3668494.46337",
    "final_y": "526081.829182",
    "longitude": "-90.10932068890092",
    "latitude": "29.940930955324554",
    "geocoded_column": {
      "latitude": "29.940930955324554",
      "longitude": "-90.10932068890092"
    }
  },
  {
    "service_request": "2022-905122",
    "request_type": "Health Related Questions",
    "request_reason": "Noise Ordinance Complaint",
    "date_created": "2022-07-30T19:43:09.000",
    "date_modified": "2022-07-30T19:43:09.000",
    "request_status": "Pending",
    "responsible_agency": "Health Department",
    "final_address": "2841 Louisiana Ave",
    "address_councildis": "B",
    "status": "Pending",
    "rowid": "905122",
    "final_x": "3672426.52135",
    "final_y": "525812.615549",
    "longitude": "-90.09691562369595",
    "latitude": "29.94007462510549",
    "geocoded_column": {
      "latitude": "29.94007462510549",
      "longitude": "-90.09691562369595"
    }
  },
  {
    "service_request": "2022-905121",
    "request_type": "Roads/Drainage",
    "request_reason": "Damaged Sidewalk",
    "date_created": "2022-07-30T19:35:32.000",
    "date_modified": "2022-07-30T19:35:32.000",
    "request_status": "Pending",
    "responsible_agency": "Department of Public Works",
    "final_address": "800 Bourbon St",
    "address_councildis": "C",
    "status": "Pending",
    "rowid": "905121",
    "final_x": "3682553.51528",
    "final_y": "533013.631428",
    "longitude": "-90.06469148499534",
    "latitude": "29.95957063099051",
    "geocoded_column": {
      "latitude": "29.95957063099051",
      "longitude": "-90.06469148499534"
    }
  },
  {
    "service_request": "2022-905120",
    "request_type": "Trash/Recycling",
    "request_reason": "Replace Trash Cart",
    "date_created": "2022-07-30T19:33:24.000",
    "date_modified": "2022-07-30T19:33:24.000",
    "request_status": "Pending",
    "responsible_agency": "Department of Sanitation",
    "final_address": "1107 Henry Clay Ave, New Orleans, Louisiana, 70118",
    "address_councildis": "A",
    "status": "Assigned to Contractor",
    "contractor": "Richards Disposal",
    "rowid": "905120",
    "final_x": "3664248.23271",
    "final_y": "520571.964536",
    "longitude": "-90.12291062062125",
    "latitude": "29.925904612599204",
    "geocoded_column": {
      "latitude": "29.925904612599204",
      "longitude": "-90.12291062062125"
    }
  },
  {
    "service_request": "2022-905119",
    "request_type": "Trash/Recycling",
    "request_reason": "Missed Trash Pick-Up",
    "date_created": "2022-07-30T19:27:44.000",
    "date_modified": "2022-07-30T19:27:45.000",
    "request_status": "Pending",
    "responsible_agency": "Department of Sanitation",
    "final_address": "11220 N Parkwood Ct",
    "address_councildis": "E",
    "status": "Assigned to Contractor",
    "contractor": "Metro Disposal",
    "rowid": "905119",
    "final_x": "3716593.71896",
    "final_y": "559158.478172",
    "longitude": "-89.95620942566758",
    "latitude": "30.030378679034335",
    "geocoded_column": {
      "latitude": "30.030378679034335",
      "longitude": "-89.95620942566758"
    }
  },
  {
    "service_request": "2022-905118",
    "request_type": "Roads/Drainage",
    "request_reason": "Pothole",
    "date_created": "2022-07-30T19:24:42.000",
    "date_modified": "2022-07-30T19:24:42.000",
    "request_status": "Pending",
    "responsible_agency": "Department of Public Works",
    "final_address": "5629 Marshal Foch St",
    "address_councildis": "A",
    "status": "Pending",
    "rowid": "905118",
    "final_x": "3669645.75674",
    "final_y": "544568.408911",
    "longitude": "-90.10506019576123",
    "latitude": "29.99172901590333",
    "geocoded_column": {
      "latitude": "29.99172901590333",
      "longitude": "-90.10506019576123"
    }
  },
  {
    "service_request": "2022-905117",
    "request_type": "Traffic Signals/Signs/Striping/Streetlights",
    "request_reason": "Traffic Sign Missing/Damaged",
    "date_created": "2022-07-30T19:02:18.000",
    "date_modified": "2022-07-30T19:02:18.000",
    "request_status": "Pending",
    "responsible_agency": "Department of Public Works",
    "final_address": "3232 Nashville Ave",
    "address_councildis": "A",
    "status": "Pending",
    "rowid": "905117",
    "final_x": "3667873.83585",
    "final_y": "527745.302655",
    "longitude": "-90.11122411313474",
    "latitude": "29.94552318453011",
    "geocoded_column": {
      "latitude": "29.94552318453011",
      "longitude": "-90.11122411313474"
    }
  },
  {
    "service_request": "2022-905116",
    "request_type": "Traffic Signals/Signs/Striping/Streetlights",
    "request_reason": "Request for Stop Sign",
    "date_created": "2022-07-30T18:51:01.000",
    "date_modified": "2022-07-30T18:51:01.000",
    "request_status": "Pending",
    "responsible_agency": "Department of Public Works",
    "final_address": "4515 Majestic Oaks Dr",
    "address_councildis": "D",
    "status": "Pending",
    "rowid": "905116",
    "final_x": "3697947.71248",
    "final_y": "553145.398423",
    "longitude": "-90.01534923404188",
    "latitude": "30.014447998282407",
    "geocoded_column": {
      "latitude": "30.014447998282407",
      "longitude": "-90.01534923404188"
    }
  },