[
  {
    "service_request": "2025-1232744",
    "request_type": "Trash/Recycling",
    "request_reason": "Request a Large Item Pick Up",
    "date_created": "2025-10-10T21:00:45.000",
    "date_modified": "2025-10-10T21:00:51.000",
    "request_status": "Pending",
    "responsible_agency": "Department of Sanitation",
    "final_address": "4516 S Miro St",
    "address_councildis": "B",
    "status": "Assigned to Contractor",
    "contractor": "IV Waste",
    "rowid": "1232744",
    "final_x": "3669595.28154",
    "final_y": "527722.034239",
    "longitude": "-90.1057897220994",
    "latitude": "29.94540860700847",
    "geocoded_column": {
      "latitude": "29.94540860700847",
      "longitude": "-90.1057897220994"
    }
  },
  {
    "service_request": "2025-1232743",
    "request_type": "General Services",
    "request_reason": "General Service Request",
    "date_created": "2025-10-10T20:26:59.000",
    "date_modified": "2025-10-10T20:27:01.000",
    "request_status": "Pending",
    "responsible_agency": "Orleans Parish Communication District",
    "final_address": "2115 Decatur St",
    "address_councildis": "C",
    "status": "Pending",
    "rowid": "1232743",
    "final_x": "3684898.51484",
    "final_y": "534157.975429",
    "longitude": "-90.05724628809114",
    "latitude": "29.96264558501145",
    "geocoded_column": {
      "latitude": "29.96264558501145",
      "longitude": "-90.05724628809114"
    }
  },
  {
    "service_request": "2025-1232742",
    "request_type": "General Services",
    "request_reason": "General Service Request",
    "date_created": "2025-10-10T20:25:02.000",
    "date_modified": "2025-10-10T20:25:04.000",
    "request_status": "Pending",
    "responsible_agency": "Orleans Parish Communication District",
    "final_address": "321 S Telemachus St",
    "address_councildis": "A",
    "status": "Pending",
    "rowid": "1232742",
    "final_x": "3671674.19367",
    "final_y": "536661.727751",
    "longitude": "-90.09892184231201",
    "latitude": "29.969928395041624",
    "geocoded_column": {
      "latitude": "29.969928395041624",
      "longitude": "-90.09892184231201"
    }
  },
  {
    "service_request": "2025-1232741",
    "request_type": "Parks & Parkways",
    "request_reason": "Park Maintenance/Clean Up",
    "date_created": "2025-10-10T20:19:32.000",
    "date_modified": "2025-10-10T20:19:34.000",
    "request_status": "Pending",
    "responsible_agency": "Department of Parks & Parkway",
    "final_address": "4877 Laurel St",
    "address_councildis": "B",
    "status": "Pending",
    "rowid": "1232741",
    "final_x": "3669019.95425",
    "final_y": "517892.334326",
    "longitude": "-90.10793812367308",
    "latitude": "29.91839701307734",
    "geocoded_column": {
      "latitude": "29.91839701307734",
      "longitude": "-90.10793812367308"
    }
  },
  {
    "service_request": "2025-1232740",
    "request_type": "General Services",
    "request_reason": "General Service Request",
    "date_created": "2025-10-10T20:00:27.000",
    "date_modified": "2025-10-10T20:00:29.000",
    "request_status": "Pending",
    "responsible_agency": "Orleans Parish Communication District",
    "final_address": "4821 Laurel St",
    "address_councildis": "B",
    "status": "Pending",
    "rowid": "1232740",
    "final_x": "3669472.27521",
    "final_y": "517924.58079",
    "longitude": "-90.10650929377935",
    "latitude": "29.91847237203799",
    "geocoded_column": {
      "latitude": "29.91847237203799",
      "longitude": "-90.10650929377935"
    }
  },
  {
    "service_request": "2025-1232739",
    "request_type": "Trash/Recycling",
    "request_reason": "Damaged Caused By Contractor",
    "date_created": "2025-10-10T19:56:34.000",
    "date_modified": "2025-10-10T19:56:37.000",
    "request_status": "Pending",
    "responsible_agency": "Department of Sanitation",
    "final_address": "4821 Laurel St",
    "address_councildis": "B",
    "status": "Assigned to Contractor",
    "contractor": "IV Waste",
    "rowid": "1232739",
    "final_x": "3669472.27521",
    "final_y": "517924.58079",
    "longitude": "-90.10650929377935",
    "latitude": "29.91847237203799",
    "geocoded_column": {
      "latitude": "29.91847237203799",
      "longitude": "-90.10650929377935"
    }
  },
  {
    "service_request": "2025-1232738",
    "request_type": "Trash/Recycling",
    "request_reason": "Order Trash Cart",
    "date_created": "2025-10-10T19:50:19.000",
    "date_modified": "2025-10-10T19:50:21.000",
    "request_status": "Pending",
    "responsible_agency": "Department of Sanitation",
    "final_address": "5315 Wingate Dr A",
    "address_councildis": "D",
    "status": "Assigned to Contractor",
    "contractor": "IV Waste",
    "rowid": "1232738",
    "final_x": "3681452.73564",
    "final_y": "552528.807446",
    "longitude": "-90.06748670558777",
    "latitude": "30.013263972987087",
    "geocoded_column": {
      "latitude": "30.013263972987087",
      "longitude": "-90.06748670558777"
    }
  },
  {
    "service_request": "2025-1232737",
    "request_type": "Streetlights",
    "request_reason": "Streetlight Outage/Malfunction",
    "date_created": "2025-10-10T19:46:52.000",
    "date_modified": "2025-10-10T19:46:54.000",
    "request_status": "Pending",
    "responsible_agency": "Department of Public Works",
    "final_address": "1233 Esplanade Ave",
    "address_councildis": "C",
    "status": "Pending",
    "rowid": "1232737",
    "final_x": "3682417.56232",
    "final_y": "535789.505799",
    "longitude": "-90.06502376816086",
    "latitude": "29.96720747182911",
    "geocoded_column": {
      "latitude": "29.96720747182911",
      "longitude": "-90.06502376816086"
    }
  },
  {
    "service_request": "2025-1232736",
    "request_type": "Streetlights",
    "request_reason": "Streetlight Outage/Malfunction",
    "date_created": "2025-10-10T19:40:57.000",
    "date_modified": "2025-10-10T19:40:59.000",
    "request_status": "Pending",
    "responsible_agency": "Department of Public Works",
    "final_address": "1233 Esplanade Ave",
    "address_councildis": "C",
    "status": "Pending",
    "rowid": "1232736",
    "final_x": "3682417.56232",
    "final_y": "535789.505799",
    "longitude": "-90.06502376816086",
    "latitude": "29.96720747182911",
    "geocoded_column": {
      "latitude": "29.96720747182911",
      "longitude": "-90.06502376816086"
    }
  },
  {
    "service_request": "2025-1232735",
    "request_type": "Trash/Recycling",
    "request_reason": "Order Trash Cart",
    "date_created": "2025-10-10T19:15:35.000",
    "date_modified": "2025-10-10T19:15:37.000",
    "request_status": "Pending",
    "responsible_agency": "Department of Sanitation",
    "final_address": "2330 Royal St",
    "address_councildis": "C",
    "status": "Assigned to Contractor",
    "contractor": "IV Waste",
    "rowid": "1232735",
    "final_x": "3685793.51254",
    "final_y": "534895.464646",
    "longitude": "-90.05439401673364",
    "latitude": "29.964645988251217",
    "geocoded_column": {
      "latitude": "29.964645988251217",
      "longitude": "-90.05439401673364"
    }
  },
  {
    "service_request": "2025-1232734",
    "request_type": "Roads and Streets",
    "request_reason": "Pothole",
    "date_created": "2025-10-10T19:12:11.000",
    "date_modified": "2025-10-10T19:12:13.000",
    "request_status": "Pending",
    "responsible_agency": "Department of Public Works",
    "final_address": "1500 Gallier St",
    "address_councildis": "D",
    "status": "Pending",
    "rowid": "1232734",
    "final_x": "3690792.30652",
    "final_y": "537183.931016",
    "longitude": "-90.03852657086316",
    "latitude": "29.97078410360367",
    "geocoded_column": {
      "latitude": "29.97078410360367",
      "longitude": "-90.03852657086316"
    }
  },
  {
    "service_request": "2025-1232733",
    "request_type": "Trash/Recycling",
    "request_reason": "Request a Large Item Pick Up",
    "date_created": "2025-10-10T18:59:00.000",
    "date_modified": "2025-10-10T18:59:03.000",
    "request_status": "Pending",
    "responsible_agency": "Department of Sanitation",
    "final_address": "1808 Tennessee St",
    "address_councildis": "E",
    "status": "Assigned to Contractor",
    "contractor": "Waste Pro",
    "rowid": "1232733",
    "final_x": "3696391.13546",
    "final_y": "537041.110856",
    "longitude": "-90.02085003666046",
    "latitude": "29.970216248836593",
    "geocoded_column": {
      "latitude": "29.970216248836593",
      "longitude": "-90.02085003666046"
    }
  },
  {
    "service_request": "2025-1232732",
    "request_type": "Streetlights",
    "request_reason": "Streetlight Outage/Malfunction",
    "date_created": "2025-10-10T18:41:06.000",
    "date_modified": "2025-10-10T18:41:08.000",
    "request_status": "Pending",
    "responsible_agency": "Department of Public Works",
    "final_address": "1500 Gallier St",
    "address_councildis": "D",
    "status": "Pending",
    "rowid": "1232732",
    "final_x": "3690792.30652",
    "final_y": "537183.931016",
    "longitude": "-90.03852657086316",
    "latitude": "29.97078410360367",
    "geocoded_column": {
      "latitude": "29.97078410360367",
      "longitude": "-90.03852657086316"
    }
  },
  {
    "service_request": "2025-1232731",
    "request_type": "Street and Traffic Signs",
    "request_reason": "Stop Sign Missing or Damaged",
    "date_created": "2025-10-10T18:32:48.000",
    "date_modified": "2025-10-10T18:32:51.000",
    "request_status": "Pending",
    "responsible_agency": "Department of Public Works",
    "final_address": "3929 Eagle St",
    "address_councildis": "A",
    "status": "Pending",
    "rowid": "1232731",
    "final_x": "3666833.73108",
    "final_y": "537340.89588",
    "longitude": "-90.11418572625236",
    "latitude": "29.97193837767911",
    "geocoded_column": {
      "latitude": "29.97193837767911",
      "longitude": "-90.11418572625236"
    }
  },
  {
    "service_request": "2025-1232730",
    "request_type": "Property Maintenance",
    "request_reason": "Property Maintenance",
    "date_created": "2025-10-10T18:27:08.000",
    "date_modified": "2025-10-10T18:27:15.000",
    "request_status": "Pending",
    "responsible_agency": "Department of Code Enforcement",
    "final_address": "1481 N Prieur St",
    "address_councildis": "D",
    "status": "Pending",
    "rowid": "1232730",
    "final_x": "3680786.72527",
    "final_y": "537836.658889",
    "longitude": "-90.07010269366204",
    "latitude": "29.97288597275933",
    "geocoded_column": {
      "latitude": "29.97288597275933",
      "longitude": "-90.07010269366204"
    }
  },
  {
    "service_request": "2025-1232729",
    "request_type": "Trash/Recycling",
    "request_reason": "Order Trash Cart",
    "date_created": "2025-10-10T17:52:40.000",
    "date_modified": "2025-10-10T17:52:42.000",
    "request_status": "Pending",
    "responsible_agency": "Department of Sanitation",
    "final_address": "6501 Brunswick Ct",
    "address_councildis": "C",
    "status": "Assigned to Contractor",
    "contractor": "Richards Disposal",
    "rowid": "1232729",
    "final_x": "3707939.1644",
    "final_y": "516897.923317",
    "longitude": "-89.98512895385878",
    "latitude": "29.914460911233036",
    "geocoded_column": {
      "latitude": "29.914460911233036",
      "longitude": "-89.98512895385878"
    }
  },
  {
    "service_request": "2025-1232728",
    "request_type": "Trash/Recycling",
    "request_reason": "MIssed Recycling Pick-Up",
    "date_created": "2025-10-10T17:42:29.000",
    "date_modified": "2025-10-10T17:42:31.000",
    "request_status": "Pending",
    "responsible_agency": "Department of Sanitation",
    "final_address": "1124 Jackson Ave",
    "address_councildis": "B",
    "status": "Assigned to Contractor",
    "contractor": "IV Waste",
    "rowid": "1232728",
    "final_x": "3678674.23976",
    "final_y": "522220.253882",
    "longitude": "-90.07731494512066",
    "latitude": "29.93000996235017",
    "geocoded_column": {
      "latitude": "29.93000996235017",
      "longitude": "-90.07731494512066"
    }
  },
  {
    "service_request": "2025-1232727",
    "request_type": "Street and Traffic Signs",
    "request_reason": "Traffic or Parking Sign Damaged or Missing",
    "date_created": "2025-10-10T17:34:23.000",
    "date_modified": "2025-10-10T17:34:25.000",
    "request_status": "Pending",
    "responsible_agency": "Department of Public Works",
    "final_address": "1217 Jackson Ave",
    "address_councildis": "B",
    "status": "Pending",
    "rowid": "1232727",
    "final_x": "3678580.02978",
    "final_y": "522534.201466",
    "longitude": "-90.07760148912215",
    "latitude": "29.93087605466259",
    "geocoded_column": {
      "latitude": "29.93087605466259",
      "longitude": "-90.07760148912215"
    }
  },
  {
    "service_request": "2025-1232726",
    "request_type": "General Services",
    "request_reason": "General Service Request",
    "date_created": "2025-10-10T17:29:25.000",
    "date_modified": "2025-10-10T17:29:27.000",
    "request_status": "Pending",
    "responsible_agency": "Orleans Parish Communication District",
    "final_address": "5104 St Claude Ave",
    "address_councildis": "E",
    "status": "Pending",
    "rowid": "1232726",
    "final_x": "3696434.01437",
    "final_y": "534084.165189",
    "longitude": "-90.02082158787235",
    "latitude": "29.9620843502078",
    "geocoded_column": {
      "latitude": "29.9620843502078",
      "longitude": "-90.02082158787235"
    }
  },
  {
    "service_request": "2025-1232725",
    "request_type": "Safety & Permits",
    "request_reason": "Construction permit",
    "date_created": "2025-10-10T17:20:06.000",
    "date_modified": "2025-10-10T17:20:08.000",
    "request_status": "Pending",
    "responsible_agency": "Safety and Permits",
    "final_address": "1400 Josephine St",
    "address_councildis": "B",
    "status": "Pending",
    "rowid": "1232725",
    "final_x": "3678486.32469",
    "final_y": "523139.655419",
    "longitude": "-90.07787636132585",
    "latitude": "29.932543677986526",
    "geocoded_column": {
      "latitude": "29.932543677986526",
      "longitude": "-90.07787636132585"
    }
  },
  {
    "service_request": "2025-1232724",
    "request_type": "Streetlights",
    "request_reason": "Streetlight Outage/Malfunction",
    "date_created": "2025-10-10T17:18:45.000",
    "date_modified": "2025-10-10T17:18:47.000",
    "request_status": "Pending",
    "responsible_agency": "Department of Public Works",
    "final_address": "6361 Louisville St",
    "address_councildis": "A",
    "status": "Pending",
    "rowid": "1232724",
    "final_x": "3668066.15316",
    "final_y": "549814.744788",
    "longitude": "-90.10987289640458",
    "latitude": "30.006201090675304",
    "geocoded_column": {
      "latitude": "30.006201090675304",
      "longitude": "-90.10987289640458"
    }
  },
  {
    "service_request": "2025-1232723",
    "request_type": "Trash/Recycling",
    "request_reason": "Order Trash Cart",
    "date_created": "2025-10-10T17:07:27.000",
    "date_modified": "2025-10-10T17:07:29.000",
    "request_status": "Pending",
    "responsible_agency": "Department of Sanitation",
    "final_address": "6020 Orleans Ave",
    "address_councildis": "A",
    "status": "Assigned to Contractor",
    "contractor": "IV Waste",
    "rowid": "1232723",
    "final_x": "3670805.40705",
    "final_y": "547262.530449",
    "longitude": "-90.10130559573899",
    "latitude": "29.999102686171103",
    "geocoded_column": {
      "latitude": "29.999102686171103",
      "longitude": "-90.10130559573899"
    }
  },
  {
    "service_request": "2025-1232722",
    "request_type": "Abandoned Vehicles",
    "request_reason": "Abandoned/Junk Vehicles",
    "date_created": "2025-10-10T17:00:29.000",
    "date_modified": "2025-10-10T17:01:25.000",
    "request_status": "Pending",
    "responsible_agency": "Department of Public Works",
    "final_address": "AUBRY ST & N DUPRE ST",
    "address_councildis": "D",
    "status": "Inspected",
    "rowid": "1232722",
    "final_x": "3679188.5",
    "final_y": "541490.38",
    "longitude": "-90.07502347543073",
    "latitude": "29.982980792808643",
    "geocoded_column": {
      "latitude": "29.982980792808643",
      "longitude": "-90.07502347543073"
    }
  },
  {
    "service_request": "2025-1232721",
    "request_type": "Trash/Recycling",
    "request_reason": "Request a Large Item Pick Up",
    "date_created": "2025-10-10T16:52:07.000",
    "date_modified": "2025-10-10T16:52:08.000",
    "request_status": "Pending",
    "responsible_agency": "Department of Sanitation",
    "final_address": "6943 W Laverne St",
    "address_councildis": "D",
    "status": "Assigned to Contractor",
    "contractor": "Waste Pro",
    "rowid": "1232721",
    "final_x": "3696010.48099",
    "final_y": "556442.892314",
    "longitude": "-90.02135060664318",
    "latitude": "30.02357598859011",
    "geocoded_column": {
      "latitude": "30.02357598859011",
      "longitude": "-90.02135060664318"
    }
  },
  {
    "service_request": "2025-1232720",
    "request_type": "Abandoned Vehicles",
    "request_reason": "Abandoned/Junk Vehicles",
    "date_created": "2025-10-10T16:48:32.000",
    "date_modified": "2025-10-10T16:49:04.000",
    "request_status": "Pending",
    "responsible_agency": "Department of Public Works",
    "final_address": "1414 Melpomene St",
    "address_councildis": "B",
    "status": "Inspected",
    "rowid": "1232720",
    "final_x": "3679879.55451",
    "final_y": "525058.721213",
    "longitude": "-90.07341144074786",
    "latitude": "29.937778427821854",
    "geocoded_column": {
      "latitude": "29.937778427821854",
      "longitude": "-90.07341144074786"
    }
  },
  {
    "service_request": "2025-1232719",
    "request_type": "Safety & Permits",
    "request_reason": "Zoning Enforcement",
    "date_created": "2025-10-10T16:48:06.000",
    "date_modified": "2025-10-10T16:48:09.000",
    "request_status": "Pending",
    "responsible_agency": "Safety and Permits",
    "final_address": "6072 Warrington Dr",
    "address_councildis": "D",
    "status": "Pending",
    "rowid": "1232719",
    "final_x": "3680622.93691",
    "final_y": "555299.309785",
    "longitude": "-90.07001191988691",
    "latitude": "30.02090702716998",
    "geocoded_column": {
      "latitude": "30.02090702716998",
      "longitude": "-90.07001191988691"
    }
  },
  {
    "service_request": "2025-1232718",
    "request_type": "Trash/Recycling",
    "request_reason": "Request a Large Item Pick Up",
    "date_created": "2025-10-10T16:45:48.000",
    "date_modified": "2025-10-10T16:45:49.000",
    "request_status": "Pending",
    "responsible_agency": "Department of Sanitation",
    "final_address": "3818 Clermont Dr",
    "address_councildis": "D",
    "status": "Assigned to Contractor",
    "contractor": "IV Waste",
    "rowid": "1232718",
    "final_x": "3685248.91861",
    "final_y": "546653.996561",
    "longitude": "-90.05569976736643",
    "latitude": "29.99699451171434",
    "geocoded_column": {
      "latitude": "29.99699451171434",
      "longitude": "-90.05569976736643"
    }
  },
  {
    "service_request": "2025-1232717",
    "request_type": "Streetlights",
    "request_reason": "Streetlight Outage/Malfunction",
    "date_created": "2025-10-10T16:37:04.000",
    "date_modified": "2025-10-10T16:37:05.000",
    "request_status": "Pending",
    "responsible_agency": "Department of Public Works",
    "final_address": "5427 Baccich St",
    "address_councildis": "D",
    "status": "Pending",
    "rowid": "1232717",
    "final_x": "3687703.0463",
    "final_y": "553245.861015",
    "longitude": "-90.04771367654159",
    "latitude": "30.01504426508736",
    "geocoded_column": {
      "latitude": "30.01504426508736",
      "longitude": "-90.04771367654159"
    }
  },
  {
    "service_request": "2025-1232716",
    "request_type": "Trash/Recycling",
    "request_reason": "Request a Large Item Pick Up",
    "date_created": "2025-10-10T16:31:09.000",
    "date_modified": "2025-10-10T16:31:18.000",
    "request_status": "Pending",
    "responsible_agency": "Department of Sanitation",
    "final_address": "5541 New England Dr",
    "address_councildis": "E",
    "status": "Assigned to Contractor",
    "contractor": "Waste Pro",
    "rowid": "1232716",
    "final_x": "3723772.15807",
    "final_y": "563819.609761",
    "longitude": "-89.93334584153907",
    "latitude": "30.04295570498817",
    "geocoded_column": {
      "latitude": "30.04295570498817",
      "longitude": "-89.93334584153907"
    }
  },
  {
    "service_request": "2025-1232715",
    "request_type": "Abandoned Vehicles",
    "request_reason": "Abandoned/Junk Vehicles",
    "date_created": "2025-10-10T16:21:44.000",
    "date_modified": "2025-10-10T16:23:46.000",
    "request_status": "Pending",
    "responsible_agency": "Department of Public Works",
    "final_address": "1716 Paul Morphy St",
    "address_councildis": "D",
    "status": "Inspected",
    "rowid": "1232715",
    "final_x": "3679354.35464",
    "final_y": "541072.892428",
    "longitude": "-90.07451410849826",
    "latitude": "29.981827838137853",
    "geocoded_column": {
      "latitude": "29.981827838137853",
      "longitude": "-90.07451410849826"
    }
  },
  {
    "service_request": "2025-1232714",
    "request_type": "Streetlights",
    "request_reason": "Streetlight Outage/Malfunction",
    "date_created": "2025-10-10T16:21:17.000",
    "date_modified": "2025-10-10T16:21:19.000",
    "request_status": "Pending",
    "responsible_agency": "Department of Public Works",
    "final_address": "2321 Laurel St",
    "address_councildis": "B",
    "status": "Pending",
    "rowid": "1232714",
    "final_x": "3678817.63592",
    "final_y": "521160.475129",
    "longitude": "-90.07689895173172",
    "latitude": "29.927091594306507",
    "geocoded_column": {
      "latitude": "29.927091594306507",
      "longitude": "-90.07689895173172"
    }
  },
  {
    "service_request": "2025-1232713",
    "request_type": "Trash/Recycling",
    "request_reason": "Request a Large Item Pick Up",
    "date_created": "2025-10-10T16:15:38.000",
    "date_modified": "2025-10-10T16:15:40.000",
    "request_status": "Pending",
    "responsible_agency": "Department of Sanitation",
    "final_address": "10220 Deerfield Dr",
    "address_councildis": "E",
    "status": "Assigned to Contractor",
    "contractor": "Waste Pro",
    "rowid": "1232713",
    "final_x": "3709990.47512",
    "final_y": "563389.776288",
    "longitude": "-89.97691726561213",
    "latitude": "30.042229625686183",
    "geocoded_column": {
      "latitude": "30.042229625686183",
      "longitude": "-89.97691726561213"
    }
  },
  {
    "service_request": "2025-1232712",
    "request_type": "Trash/Recycling",
    "request_reason": "Request a Large Item Pick Up",
    "date_created": "2025-10-10T16:13:43.000",
    "date_modified": "2025-10-10T18:18:14.000",
    "case_close_date": "2025-10-10T13:18:12.000",
    "request_status": "Closed",
    "responsible_agency": "Department of Sanitation",
    "final_address": "7558 Lafourche St",
    "address_councildis": "E",
    "status": "Assigned to Contractor",
    "contractor": "Waste Pro",
    "contractor_action": "Additional information required from resident",
    "rowid": "1232712",
    "final_x": "3710383.48549",
    "final_y": "565170.788514",
    "longitude": "-89.9756085180776",
    "latitude": "30.047113895845946",
    "geocoded_column": {
      "latitude": "30.047113895845946",
      "longitude": "-89.9756085180776"
    }
  },
  {
    "service_request": "2025-1232711",
    "request_type": "Trash/Recycling",
    "request_reason": "Request a Large Item Pick Up",
    "date_created": "2025-10-10T16:13:01.000",
    "date_modified": "2025-10-10T16:13:02.000",
    "request_status": "Pending",
    "responsible_agency": "Department of Sanitation",
    "final_address": "2513 Robert St",
    "address_councildis": "B",
    "status": "Assigned to Contractor",
    "contractor": "IV Waste",
    "rowid": "1232711",
    "final_x": "3668908.01134",
    "final_y": "524731.733948",
    "longitude": "-90.10806061969005",
    "latitude": "29.937206475416225",
    "geocoded_column": {
      "latitude": "29.937206475416225",
      "longitude": "-90.10806061969005"
    }
  },
  {
    "service_request": "2025-1232710",
    "request_type": "Streetlights",
    "request_reason": "Streetlight Outage/Malfunction",
    "date_created": "2025-10-10T16:08:26.000",
    "date_modified": "2025-10-10T16:08:29.000",
    "request_status": "Pending",
    "responsible_agency": "Department of Public Works",
    "final_address": "5158 Van Chu Dr",
    "address_councildis": "E",
    "status": "Pending",
    "rowid": "1232710",
    "final_x": "3727427.59942",
    "final_y": "563679.936097",
    "longitude": "-89.9217987661668",
    "latitude": "30.042448350220937",
    "geocoded_column": {
      "latitude": "30.042448350220937",
      "longitude": "-89.9217987661668"
    }
  },
  {
    "service_request": "2025-1232709",
    "request_type": "Trash/Recycling",
    "request_reason": "Request a Large Item Pick Up",
    "date_created": "2025-10-10T16:07:56.000",
    "date_modified": "2025-10-10T16:07:58.000",
    "request_status": "Pending",
    "responsible_agency": "Department of Sanitation",
    "final_address": "7201 Beauvoir Ct",
    "address_councildis": "E",
    "status": "Assigned to Contractor",
    "contractor": "Waste Pro",
    "rowid": "1232709",
    "final_x": "3716408.00914",
    "final_y": "567668.837348",
    "longitude": "-89.95647311653306",
    "latitude": "30.053784847464954",
    "geocoded_column": {
      "latitude": "30.053784847464954",
      "longitude": "-89.95647311653306"
    }
  },
  {
    "service_request": "2025-1232708",
    "request_type": "Trash/Recycling",
    "request_reason": "Replace Recycling Cart",
    "date_created": "2025-10-10T16:06:53.000",
    "date_modified": "2025-10-10T16:06:54.000",
    "request_status": "Pending",
    "responsible_agency": "Department of Sanitation",
    "final_address": "2364 Marais St",
    "address_councildis": "C",
    "status": "Pending",
    "rowid": "1232708",
    "final_x": "3686333.75849",
    "final_y": "536745.651912",
    "longitude": "-90.05262265712503",
    "latitude": "29.96971676845789",
    "geocoded_column": {
      "latitude": "29.96971676845789",
      "longitude": "-90.05262265712503"
    }
  },
  {
    "service_request": "2025-1232707",
    "request_type": "Safety & Permits",
    "request_reason": "Licenses & Permits",
    "date_created": "2025-10-10T16:00:37.000",
    "date_modified": "2025-10-10T16:04:11.000",
    "request_status": "Pending",
    "responsible_agency": "Safety and Permits",
    "final_address": "1714 Fern St",
    "address_councildis": "A",
    "status": "Pending",
    "rowid": "1232707",
    "final_x": "3663778.13479",
    "final_y": "529274.242497",
    "longitude": "-90.12410468496573",
    "latitude": "29.94984675615018",
    "geocoded_column": {
      "latitude": "29.94984675615018",
      "longitude": "-90.12410468496573"
    }
  },
  {
    "service_request": "2025-1232706",
    "request_type": "Trash/Recycling",
    "request_reason": "Repair Trash Cart",
    "date_created": "2025-10-10T16:00:17.000",
    "date_modified": "2025-10-10T16:00:30.000",
    "request_status": "Pending",
    "responsible_agency": "Department of Sanitation",
    "final_address": "2538 Chartres St",
    "address_councildis": "C",
    "status": "Assigned to Contractor",
    "contractor": "IV Waste",
    "rowid": "1232706",
    "final_x": "3686594.81206",
    "final_y": "534600.02887",
    "longitude": "-90.05187400896696",
    "latitude": "29.96380902567455",
    "geocoded_column": {
      "latitude": "29.96380902567455",
      "longitude": "-90.05187400896696"
    }
  },
  {
    "service_request": "2025-1232705",
    "request_type": "Drainage",
    "request_reason": "Catch Basin Not Draining",
    "date_created": "2025-10-10T15:59:51.000",
    "date_modified": "2025-10-10T16:01:48.000",
    "request_status": "Pending",
    "responsible_agency": "Sewerage & Water Board",
    "final_address": "GENERAL PERSHING ST & LAUREL ST",
    "address_councildis": "B",
    "status": "Pending",
    "rowid": "1232705",
    "final_x": "3671530.9",
    "final_y": "518094.48",
    "longitude": "-90.10000552147967",
    "latitude": "29.918878774222197",
    "geocoded_column": {
      "latitude": "29.918878774222197",
      "longitude": "-90.10000552147967"
    }
  },
  {
    "service_request": "2025-1232704",
    "request_type": "Parks & Parkways",
    "request_reason": "Request Tree Service (Right of Way/Public Property)",
    "date_created": "2025-10-10T15:57:58.000",
    "date_modified": "2025-10-10T15:57:59.000",
    "request_status": "Pending",
    "responsible_agency": "Department of Parks & Parkway",
    "final_address": "5801 Vicksburg St",
    "address_councildis": "A",
    "status": "Pending",
    "rowid": "1232704",
    "final_x": "3668844.42753",
    "final_y": "545978.685392",
    "longitude": "-90.1075437757926",
    "latitude": "29.99563038577434",
    "geocoded_column": {
      "latitude": "29.99563038577434",
      "longitude": "-90.1075437757926"
    }
  },
  {
    "service_request": "2025-1232703",
    "request_type": "Property Maintenance",
    "request_reason": "Property Maintenance",
    "date_created": "2025-10-10T15:53:56.000",
    "date_modified": "2025-10-10T15:53:57.000",
    "request_status": "Pending",
    "responsible_agency": "Department of Code Enforcement",
    "final_address": "1834 Second St",
    "address_councildis": "B",
    "status": "Pending",
    "rowid": "1232703",
    "final_x": "3676092.4724",
    "final_y": "523900.472508",
    "longitude": "-90.08540739563448",
    "latitude": "29.9347075796011",
    "geocoded_column": {
      "latitude": "29.9347075796011",
      "longitude": "-90.08540739563448"
    }
  },
  {
    "service_request": "2025-1232702",
    "request_type": "Abandoned Vehicles",
    "request_reason": "Abandoned/Junk Vehicles",
    "date_created": "2025-10-10T15:53:28.000",
    "date_modified": "2025-10-10T15:53:30.000",
    "request_status": "Pending",
    "responsible_agency": "Department of Public Works",
    "final_address": "1904 Frenchmen St",
    "address_councildis": "D",
    "status": "Pending",
    "rowid": "1232702",
    "final_x": "3684318.24463",
    "final_y": "539283.737034",
    "longitude": "-90.05889867067965",
    "latitude": "29.976757407178777",
    "geocoded_column": {
      "latitude": "29.976757407178777",
      "longitude": "-90.05889867067965"
    }
  },
  {
    "service_request": "2025-1232701",
    "request_type": "Trash/Recycling",
    "request_reason": "Repair Recycling Cart",
    "date_created": "2025-10-10T15:51:52.000",
    "date_modified": "2025-10-10T15:51:54.000",
    "request_status": "Pending",
    "responsible_agency": "Department of Sanitation",
    "final_address": "1639 Valence St",
    "address_councildis": "B",
    "status": "Pending",
    "rowid": "1232701",
    "final_x": "3669798.09198",
    "final_y": "521093.186041",
    "longitude": "-90.10537367639839",
    "latitude": "29.927175434748424",
    "geocoded_column": {
      "latitude": "29.927175434748424",
      "longitude": "-90.10537367639839"
    }
  },
  {
    "service_request": "2025-1232700",
    "request_type": "Streetlights",
    "request_reason": "Streetlight Outage/Malfunction",
    "date_created": "2025-10-10T15:51:01.000",
    "date_modified": "2025-10-10T15:52:32.000",
    "request_status": "Pending",
    "responsible_agency": "Department of Public Works",
    "final_address": "FRANKFORT ST & FRANKLIN AVE",
    "address_councildis": "D",
    "status": "Pending",
    "rowid": "1232700",
    "final_x": "3686293.7",
    "final_y": "557115.48",
    "longitude": "-90.05202981656129",
    "latitude": "30.025727690286928",
    "geocoded_column": {
      "latitude": "30.025727690286928",
      "longitude": "-90.05202981656129"
    }
  },
  {
    "service_request": "2025-1232699",
    "request_type": "Trash/Recycling",
    "request_reason": "Request a Large Item Pick Up",
    "date_created": "2025-10-10T15:50:44.000",
    "date_modified": "2025-10-10T15:51:30.000",
    "request_status": "Pending",
    "responsible_agency": "Department of Sanitation",
    "final_address": "3506 Live Oak St",
    "address_councildis": "A",
    "status": "Assigned to Contractor",
    "contractor": "IV Waste",
    "rowid": "1232699",
    "final_x": "3664117.46279",
    "final_y": "537601.942344",
    "longitude": "-90.12275546517425",
    "latitude": "29.97273535580651",
    "geocoded_column": {
      "latitude": "29.97273535580651",
      "longitude": "-90.12275546517425"
    }
  },
  {
    "service_request": "2025-1232698",
    "request_type": "Abandoned Vehicles",
    "request_reason": "Abandoned/Junk Vehicles",
    "date_created": "2025-10-10T15:50:15.000",
    "date_modified": "2025-10-10T15:50:16.000",
    "request_status": "Pending",
    "responsible_agency": "Department of Public Works",
    "final_address": "N CLAIBORNE AVE & ST BERNARD AVE",
    "address_councildis": "D",
    "status": "Pending",
    "rowid": "1232698",
    "final_x": "3682143.48",
    "final_y": "537838.4",
    "longitude": "-90.06581774710449",
    "latitude": "29.972849562408335",
    "geocoded_column": {
      "latitude": "29.972849562408335",
      "longitude": "-90.06581774710449"
    }
  },
  {
    "service_request": "2025-1232697",
    "request_type": "Trash/Recycling",
    "request_reason": "Order Second Trash Cart",
    "date_created": "2025-10-10T15:48:39.000",
    "date_modified": "2025-10-10T15:48:41.000",
    "request_status": "Pending",
    "responsible_agency": "Department of Sanitation",
    "final_address": "3506 Live Oak St",
    "address_councildis": "A",
    "status": "Assigned to Contractor",
    "contractor": "IV Waste",
    "rowid": "1232697",
    "final_x": "3664117.46279",
    "final_y": "537601.942344",
    "longitude": "-90.12275546517425",
    "latitude": "29.97273535580651",
    "geocoded_column": {
      "latitude": "29.97273535580651",
      "longitude": "-90.12275546517425"
    }
  },
  {
    "service_request": "2025-1232696",
    "request_type": "Trash/Recycling",
    "request_reason": "Missed Trash Pick-Up",
    "date_created": "2025-10-10T15:47:44.000",
    "date_modified": "2025-10-10T16:10:39.000",
    "case_close_date": "2025-10-10T11:10:38.000",
    "request_status": "Closed",
    "responsible_agency": "Department of Sanitation",
    "final_address": "3506 Live Oak St",
    "address_councildis": "A",
    "status": "Invalid Request",
    "contractor": "IV Waste",
    "contractor_action": "Invalid",
    "rowid": "1232696",
    "final_x": "3664117.46279",
    "final_y": "537601.942344",
    "longitude": "-90.12275546517425",
    "latitude": "29.97273535580651",
    "geocoded_column": {
      "latitude": "29.97273535580651",
      "longitude": "-90.12275546517425"
    }
  },
  {
    "service_request": "2025-1232694",
    "request_type": "Trash/Recycling",
    "request_reason": "Replace Trash Cart",
    "date_created": "2025-10-10T15:45:39.000",
    "date_modified": "2025-10-10T15:45:41.000",
    "request_status": "Pending",
    "responsible_agency": "Department of Sanitation",
    "final_address": "3430 Coliseum St",
    "address_councildis": "B",
    "status": "Assigned to Contractor",
    "contractor": "IV Waste",
    "rowid": "1232694",
    "final_x": "3674364.17492",
    "final_y": "520427.713272",
    "longitude": "-90.090982476753",
    "latitude": "29.925210258964285",
    "geocoded_column": {
      "latitude": "29.925210258964285",
      "longitude": "-90.090982476753"
    }
  },
  {
    "service_request": "2025-1232693",
    "request_type": "Trash/Recycling",
    "request_reason": "Illegal Dumping",
    "date_created": "2025-10-10T15:41:23.000",
    "date_modified": "2025-10-10T15:41:25.000",
    "request_status": "Pending",
    "responsible_agency": "Department of Sanitation",
    "final_address": "3500 BLK Eagle St",
    "address_councildis": "A",
    "status": "Pending",
    "rowid": "1232693",
    "final_x": "3665767.84002",
    "final_y": "536230.386316",
    "longitude": "-90.117589205824",
    "latitude": "29.96891598544402",
    "geocoded_column": {
      "latitude": "29.96891598544402",
      "longitude": "-90.117589205824"
    }
  },
  {
    "service_request": "2025-1232692",
    "request_type": "Trash/Recycling",
    "request_reason": "Missed Trash Pick-Up",
    "date_created": "2025-10-10T15:39:30.000",
    "date_modified": "2025-10-10T15:39:32.000",
    "request_status": "Pending",
    "responsible_agency": "Department of Sanitation",
    "final_address": "5211 Urquhart St",
    "address_councildis": "E",
    "status": "Assigned to Contractor",
    "contractor": "Waste Pro",
    "rowid": "1232692",
    "final_x": "3696789.48003",
    "final_y": "534890.77191",
    "longitude": "-90.01966988534018",
    "latitude": "29.964291031687843",
    "geocoded_column": {
      "latitude": "29.964291031687843",
      "longitude": "-90.01966988534018"
    }
  },
  {
    "service_request": "2025-1232691",
    "request_type": "Trash/Recycling",
    "request_reason": "Request a Large Item Pick Up",
    "date_created": "2025-10-10T15:37:22.000",
    "date_modified": "2025-10-10T15:37:24.000",
    "request_status": "Pending",
    "responsible_agency": "Department of Sanitation",
    "final_address": "413 Warrington Dr",
    "address_councildis": "D",
    "status": "Assigned to Contractor",
    "contractor": "IV Waste",
    "rowid": "1232691",
    "final_x": "3681616.03464",
    "final_y": "548268.293266",
    "longitude": "-90.06711951851727",
    "latitude": "30.001544132266257",
    "geocoded_column": {
      "latitude": "30.001544132266257",
      "longitude": "-90.06711951851727"
    }
  },
  {
    "service_request": "2025-1232690",
    "request_type": "Trash/Recycling",
    "request_reason": "Request a Large Item Pick Up",
    "date_created": "2025-10-10T15:32:58.000",
    "date_modified": "2025-10-10T15:33:00.000",
    "request_status": "Pending",
    "responsible_agency": "Department of Sanitation",
    "final_address": "7680 Pineridge St",
    "address_councildis": "E",
    "status": "Assigned to Contractor",
    "contractor": "Waste Pro",
    "rowid": "1232690",
    "final_x": "3718729.76453",
    "final_y": "572199.001641",
    "longitude": "-89.94896171963559",
    "latitude": "30.0661639983821",
    "geocoded_column": {
      "latitude": "30.0661639983821",
      "longitude": "-89.94896171963559"
    }
  },
  {
    "service_request": "2025-1232689",
    "request_type": "Mosquito, Termite & Rodent Control",
    "request_reason": "Rodent Complaint (Mice & Rats)",
    "date_created": "2025-10-10T15:28:43.000",
    "date_modified": "2025-10-10T15:28:44.000",
    "request_status": "Pending",
    "responsible_agency": "Mosquito, Termite & Rodent Control Board",
    "final_address": "2139 Andry St",
    "address_councildis": "E",
    "status": "Pending",
    "rowid": "1232689",
    "final_x": "3698325.75837",
    "final_y": "538009.590409",
    "longitude": "-90.01470513144226",
    "latitude": "29.972818145672193",
    "geocoded_column": {
      "latitude": "29.972818145672193",
      "longitude": "-90.01470513144226"
    }
  },
  {
    "service_request": "2025-1232688",
    "request_type": "Trash/Recycling",
    "request_reason": "Request a Large Item Pick Up",
    "date_created": "2025-10-10T15:28:41.000",
    "date_modified": "2025-10-10T15:28:42.000",
    "request_status": "Pending",
    "responsible_agency": "Department of Sanitation",
    "final_address": "4852 Treves St",
    "address_councildis": "E",
    "status": "Assigned to Contractor",
    "contractor": "Waste Pro",
    "rowid": "1232688",
    "final_x": "3729966.40614",
    "final_y": "562493.223455",
    "longitude": "-89.91382173107141",
    "latitude": "30.039099147911124",
    "geocoded_column": {
      "latitude": "30.039099147911124",
      "longitude": "-89.91382173107141"
    }
  },
  {
    "service_request": "2025-1232687",
    "request_type": "Trash/Recycling",
    "request_reason": "Request a Large Item Pick Up",
    "date_created": "2025-10-10T15:26:46.000",
    "date_modified": "2025-10-10T15:26:47.000",
    "request_status": "Pending",
    "responsible_agency": "Department of Sanitation",
    "final_address": "4036 Buick St",
    "address_councildis": "D",
    "status": "Assigned to Contractor",
    "contractor": "IV Waste",
    "rowid": "1232687",
    "final_x": "3688823.39798",
    "final_y": "548225.948754",
    "longitude": "-90.04435232604216",
    "latitude": "30.001206735602302",
    "geocoded_column": {
      "latitude": "30.001206735602302",
      "longitude": "-90.04435232604216"
    }
  },
  {
    "service_request": "2025-1232686",
    "request_type": "Property Maintenance",
    "request_reason": "Property Maintenance",
    "date_created": "2025-10-10T15:26:17.000",
    "date_modified": "2025-10-10T15:26:19.000",
    "request_status": "Pending",
    "responsible_agency": "Department of Code Enforcement",
    "final_address": "2141 Andry St",
    "address_councildis": "E",
    "status": "Pending",
    "rowid": "1232686",
    "final_x": "3698332.86634",
    "final_y": "538038.610633",
    "longitude": "-90.0146816285329",
    "latitude": "29.972897715915302",
    "geocoded_column": {
      "latitude": "29.972897715915302",
      "longitude": "-90.0146816285329"
    }
  },
  {
    "service_request": "2025-1232685",
    "request_type": "Property Maintenance",
    "request_reason": "Property Maintenance",
    "date_created": "2025-10-10T15:24:12.000",
    "date_modified": "2025-10-10T15:25:23.000",
    "request_status": "Pending",
    "responsible_agency": "Department of Code Enforcement",
    "final_address": "2137 Andry St",
    "address_councildis": "E",
    "status": "Pending",
    "rowid": "1232685",
    "final_x": "3698317.72112",
    "final_y": "537978.616073",
    "longitude": "-90.01473164015462",
    "latitude": "29.97273323172436",
    "geocoded_column": {
      "latitude": "29.97273323172436",
      "longitude": "-90.01473164015462"
    }
  },
  {
    "service_request": "2025-1232684",
    "request_type": "Trash/Recycling",
    "request_reason": "Repair Trash Cart",
    "date_created": "2025-10-10T15:22:30.000",
    "date_modified": "2025-10-10T15:22:32.000",
    "request_status": "Pending",
    "responsible_agency": "Department of Sanitation",
    "final_address": "1926 Burgundy St",
    "address_councildis": "C",
    "status": "Assigned to Contractor",
    "contractor": "IV Waste",
    "rowid": "1232684",
    "final_x": "3684186.74127",
    "final_y": "535489.54119",
    "longitude": "-90.05944722238421",
    "latitude": "29.966328708504015",
    "geocoded_column": {
      "latitude": "29.966328708504015",
      "longitude": "-90.05944722238421"
    }
  },
  {
    "service_request": "2025-1232683",
    "request_type": "Trash/Recycling",
    "request_reason": "Request a Large Item Pick Up",
    "date_created": "2025-10-10T15:20:45.000",
    "date_modified": "2025-10-10T15:20:47.000",
    "request_status": "Pending",
    "responsible_agency": "Department of Sanitation",
    "final_address": "7015 Lake Willow Dr",
    "address_councildis": "E",
    "status": "Assigned to Contractor",
    "contractor": "Waste Pro",
    "rowid": "1232683",
    "final_x": "3702522.84855",
    "final_y": "558959.186396",
    "longitude": "-90.00068053410376",
    "latitude": "30.030288186723276",
    "geocoded_column": {
      "latitude": "30.030288186723276",
      "longitude": "-90.00068053410376"
    }
  },
  {
    "service_request": "2025-1232682",
    "request_type": "Trash/Recycling",
    "request_reason": "Request a Large Item Pick Up",
    "date_created": "2025-10-10T15:18:59.000",
    "date_modified": "2025-10-10T15:19:01.000",
    "request_status": "Pending",
    "responsible_agency": "Department of Sanitation",
    "final_address": "1360 Constance St",
    "address_councildis": "B",
    "status": "Assigned to Contractor",
    "contractor": "IV Waste",
    "rowid": "1232682",
    "final_x": "3680814.24968",
    "final_y": "524653.779068",
    "longitude": "-90.07047462524456",
    "latitude": "29.93663667826864",
    "geocoded_column": {
      "latitude": "29.93663667826864",
      "longitude": "-90.07047462524456"
    }
  },
  {
    "service_request": "2025-1232681",
    "request_type": "Trash/Recycling",
    "request_reason": "Request a Large Item Pick Up",
    "date_created": "2025-10-10T15:18:26.000",
    "date_modified": "2025-10-10T15:18:47.000",
    "request_status": "Pending",
    "responsible_agency": "Department of Sanitation",
    "final_address": "7621 Poitevent Ave",
    "address_councildis": "E",
    "status": "Assigned to Contractor",
    "contractor": "Waste Pro",
    "rowid": "1232681",
    "final_x": "3706998.22731",
    "final_y": "564179.977697",
    "longitude": "-89.98634448589046",
    "latitude": "30.04449942094845",
    "geocoded_column": {
      "latitude": "30.04449942094845",
      "longitude": "-89.98634448589046"
    }
  },
  {
    "service_request": "2025-1232680",
    "request_type": "Property Maintenance",
    "request_reason": "Property Maintenance",
    "date_created": "2025-10-10T15:18:22.000",
    "date_modified": "2025-10-10T15:18:24.000",
    "request_status": "Pending",
    "responsible_agency": "Department of Code Enforcement",
    "final_address": "2139 Andry St",
    "address_councildis": "E",
    "status": "Pending",
    "rowid": "1232680",
    "final_x": "3698325.75837",
    "final_y": "538009.590409",
    "longitude": "-90.01470513144226",
    "latitude": "29.972818145672193",
    "geocoded_column": {
      "latitude": "29.972818145672193",
      "longitude": "-90.01470513144226"
    }
  },
  {
    "service_request": "2025-1232679",
    "request_type": "Trash/Recycling",
    "request_reason": "Request a Large Item Pick Up",
    "date_created": "2025-10-10T15:16:58.000",
    "date_modified": "2025-10-10T15:17:00.000",
    "request_status": "Pending",
    "responsible_agency": "Department of Sanitation",
    "final_address": "309 Wallace Dr",
    "address_councildis": "D",
    "status": "Assigned to Contractor",
    "contractor": "IV Waste",
    "rowid": "1232679",
    "final_x": "3682323.06325",
    "final_y": "547890.474514",
    "longitude": "-90.06489916090287",
    "latitude": "30.00048376397373",
    "geocoded_column": {
      "latitude": "30.00048376397373",
      "longitude": "-90.06489916090287"
    }
  },
  {
    "service_request": "2025-1232678",
    "request_type": "Health Related Request",
    "request_reason": "Noise Ordinance Complaint",
    "date_created": "2025-10-10T15:15:54.000",
    "date_modified": "2025-10-10T15:19:33.000",
    "request_status": "Pending",
    "responsible_agency": "Health Department",
    "final_address": "1215 N Broad St",
    "address_councildis": "A",
    "status": "Pending",
    "rowid": "1232678",
    "final_x": "3677912.37896",
    "final_y": "538802.925449",
    "longitude": "-90.07914702761227",
    "latitude": "29.97562969252081",
    "geocoded_column": {
      "latitude": "29.97562969252081",
      "longitude": "-90.07914702761227"
    }
  },
  {
    "service_request": "2025-1232677",
    "request_type": "Abandoned Vehicles",
    "request_reason": "Abandoned/Junk Vehicles",
    "date_created": "2025-10-10T15:08:56.000",
    "date_modified": "2025-10-10T15:11:13.000",
    "request_status": "Pending",
    "responsible_agency": "Department of Public Works",
    "final_address": "1554 Paul Morphy St",
    "address_councildis": "D",
    "status": "Inspected",
    "rowid": "1232677",
    "final_x": "3678696.64699",
    "final_y": "540191.267531",
    "longitude": "-90.07662200111794",
    "latitude": "29.9794235266938",
    "geocoded_column": {
      "latitude": "29.9794235266938",
      "longitude": "-90.07662200111794"
    }
  },
  {
    "service_request": "2025-1232676",
    "request_type": "Abandoned Vehicles",
    "request_reason": "Abandoned/Junk Vehicles",
    "date_created": "2025-10-10T15:06:27.000",
    "date_modified": "2025-10-10T15:06:28.000",
    "request_status": "Pending",
    "responsible_agency": "Department of Public Works",
    "final_address": "4300 BLK Wellington Ave",
    "address_councildis": "D",
    "status": "Pending",
    "rowid": "1232676",
    "final_x": "3677228.30266",
    "final_y": "548460.855622",
    "longitude": "-90.08097415166026",
    "latitude": "30.002206202085432",
    "geocoded_column": {
      "latitude": "30.002206202085432",
      "longitude": "-90.08097415166026"
    }
  },
  {
    "service_request": "2025-1232675",
    "request_type": "Parks & Parkways",
    "request_reason": "Request Grass Cutting Service (City Owned Property)",
    "date_created": "2025-10-10T15:06:09.000",
    "date_modified": "2025-10-10T15:06:10.000",
    "request_status": "Pending",
    "responsible_agency": "Department of Parks & Parkway",
    "final_address": "FLORIDA AVE & GIBSON ST",
    "address_councildis": "D",
    "status": "Pending",
    "rowid": "1232675",
    "final_x": "3678987.0",
    "final_y": "544526.88",
    "longitude": "-90.07555463768034",
    "latitude": "29.9913361892588",
    "geocoded_column": {
      "latitude": "29.9913361892588",
      "longitude": "-90.07555463768034"
    }
  },
  {
    "service_request": "2025-1232674",
    "request_type": "Parks & Parkways",
    "request_reason": "Request Tree Service (Right of Way/Public Property)",
    "date_created": "2025-10-10T14:53:11.000",
    "date_modified": "2025-10-10T16:21:23.000",
    "request_status": "Pending",
    "responsible_agency": "Department of Parks & Parkway",
    "final_address": "2427 Marengo St",
    "address_councildis": "B",
    "status": "Pending",
    "rowid": "1232674",
    "final_x": "3671700.23291",
    "final_y": "524017.205436",
    "longitude": "-90.09926968009744",
    "latitude": "29.93515935869871",
    "geocoded_column": {
      "latitude": "29.93515935869871",
      "longitude": "-90.09926968009744"
    }
  },
  {
    "service_request": "2025-1232673",
    "request_type": "Trash/Recycling",
    "request_reason": "Repair Trash Cart",
    "date_created": "2025-10-10T14:52:24.000",
    "date_modified": "2025-10-10T14:55:38.000",
    "request_status": "Pending",
    "responsible_agency": "Department of Sanitation",
    "final_address": "6228 Music St",
    "address_councildis": "D",
    "status": "Assigned to Contractor",
    "contractor": "IV Waste",
    "rowid": "1232673",
    "final_x": "3685182.96073",
    "final_y": "556118.738522",
    "longitude": "-90.05557471654629",
    "latitude": "30.023021125700893",
    "geocoded_column": {
      "latitude": "30.023021125700893",
      "longitude": "-90.05557471654629"
    }
  },
  {
    "service_request": "2025-1232672",
    "request_type": "Trash/Recycling",
    "request_reason": "Return Recycling Cart",
    "date_created": "2025-10-10T14:51:19.000",
    "date_modified": "2025-10-10T14:55:23.000",
    "request_status": "Pending",
    "responsible_agency": "Department of Sanitation",
    "final_address": "6228 Music St",
    "address_councildis": "D",
    "status": "Pending",
    "rowid": "1232672",
    "final_x": "3685182.96073",
    "final_y": "556118.738522",
    "longitude": "-90.05557471654629",
    "latitude": "30.023021125700893",
    "geocoded_column": {
      "latitude": "30.023021125700893",
      "longitude": "-90.05557471654629"
    }
  },
  {
    "service_request": "2025-1232671",
    "request_type": "Abandoned Vehicles",
    "request_reason": "Abandoned/Junk Vehicles",
    "date_created": "2025-10-10T14:44:54.000",
    "date_modified": "2025-10-10T14:46:37.000",
    "request_status": "Pending",
    "responsible_agency": "Department of Public Works",
    "final_address": "2027 Franklin Ave",
    "address_councildis": "D",
    "status": "Inspected",
    "rowid": "1232671",
    "final_x": "3687719.71068",
    "final_y": "540081.444747",
    "longitude": "-90.04812754657699",
    "latitude": "29.978846358385393",
    "geocoded_column": {
      "latitude": "29.978846358385393",
      "longitude": "-90.04812754657699"
    }
  },
  {
    "service_request": "2025-1232670",
    "request_type": "Trash/Recycling",
    "request_reason": "Damaged Caused By Contractor",
    "date_created": "2025-10-10T14:41:21.000",
    "date_modified": "2025-10-10T14:41:22.000",
    "request_status": "Pending",
    "responsible_agency": "Department of Sanitation",
    "final_address": "1414 Lesseps St",
    "address_councildis": "D",
    "status": "Assigned to Contractor",
    "contractor": "IV Waste",
    "rowid": "1232670",
    "final_x": "3692966.59965",
    "final_y": "536337.891015",
    "longitude": "-90.0316902652183",
    "latitude": "29.968390056195275",
    "geocoded_column": {
      "latitude": "29.968390056195275",
      "longitude": "-90.0316902652183"
    }
  },
  {
    "service_request": "2025-1232669",
    "request_type": "Trash/Recycling",
    "request_reason": "Request a Large Item Pick Up",
    "date_created": "2025-10-10T14:35:14.000",
    "date_modified": "2025-10-10T14:35:16.000",
    "request_status": "Pending",
    "responsible_agency": "Department of Sanitation",
    "final_address": "4419 St Anthony Ave",
    "address_councildis": "D",
    "status": "Assigned to Contractor",
    "contractor": "IV Waste",
    "rowid": "1232669",
    "final_x": "3682579.75042",
    "final_y": "548865.156435",
    "longitude": "-90.06405416269567",
    "latitude": "30.003155974079068",
    "geocoded_column": {
      "latitude": "30.003155974079068",
      "longitude": "-90.06405416269567"
    }
  },
  {
    "service_request": "2025-1232668",
    "request_type": "Abandoned Vehicles",
    "request_reason": "Abandoned/Junk Vehicles",
    "date_created": "2025-10-10T14:33:32.000",
    "date_modified": "2025-10-10T14:35:22.000",
    "request_status": "Pending",
    "responsible_agency": "Department of Public Works",
    "final_address": "AUBRY ST & ROUSSELIN DR",
    "address_councildis": "D",
    "status": "Inspected",
    "rowid": "1232668",
    "final_x": "3680019.9",
    "final_y": "540845.48",
    "longitude": "-90.07241990586616",
    "latitude": "29.98118241177107",
    "geocoded_column": {
      "latitude": "29.98118241177107",
      "longitude": "-90.07241990586616"
    }
  },
  {
    "service_request": "2025-1232667",
    "request_type": "Street and Traffic Signs",
    "request_reason": "Traffic or Parking Sign Damaged or Missing",
    "date_created": "2025-10-10T14:31:44.000",
    "date_modified": "2025-10-10T14:31:46.000",
    "request_status": "Pending",
    "responsible_agency": "Department of Public Works",
    "final_address": "6101 General Meyer Ave",
    "address_councildis": "C",
    "status": "Pending",
    "rowid": "1232667",
    "final_x": "3706673.89419",
    "final_y": "520871.479225",
    "longitude": "-89.98897539756219",
    "latitude": "29.92542768275815",
    "geocoded_column": {
      "latitude": "29.92542768275815",
      "longitude": "-89.98897539756219"
    }
  },
  {
    "service_request": "2025-1232666",
    "request_type": "General Services",
    "request_reason": "General Service Request",
    "date_created": "2025-10-10T14:30:44.000",
    "date_modified": "2025-10-10T14:30:46.000",
    "request_status": "Pending",
    "responsible_agency": "Orleans Parish Communication District",
    "final_address": "4400 Dauphine St",
    "address_councildis": "C",
    "status": "Pending",
    "rowid": "1232666",
    "final_x": "3692958.8847",
    "final_y": "533817.264645",
    "longitude": "-90.03180504753568",
    "latitude": "29.961459463078267",
    "geocoded_column": {
      "latitude": "29.961459463078267",
      "longitude": "-90.03180504753568"
    }
  },
  {
    "service_request": "2025-1232665",
    "request_type": "Trash/Recycling",
    "request_reason": "Request a Large Item Pick Up",
    "date_created": "2025-10-10T14:30:31.000",
    "date_modified": "2025-10-10T14:30:33.000",
    "request_status": "Pending",
    "responsible_agency": "Department of Sanitation",
    "final_address": "14575 Beekman Rd",
    "address_councildis": "E",
    "status": "Assigned to Contractor",
    "contractor": "Waste Pro",
    "rowid": "1232665",
    "final_x": "3721127.23679",
    "final_y": "573100.187113",
    "longitude": "-89.94134845520738",
    "latitude": "30.068562016212294",
    "geocoded_column": {
      "latitude": "30.068562016212294",
      "longitude": "-89.94134845520738"
    }
  },
  {
    "service_request": "2025-1232664",
    "request_type": "Roads and Streets",
    "request_reason": "Pothole",
    "date_created": "2025-10-10T14:28:49.000",
    "date_modified": "2025-10-10T14:28:51.000",
    "request_status": "Pending",
    "responsible_agency": "Department of Public Works",
    "final_address": "6131 Craigie Rd",
    "address_councildis": "E",
    "status": "Pending",
    "rowid": "1232664",
    "final_x": "3695927.05712",
    "final_y": "558904.968156",
    "longitude": "-90.02152514289642",
    "latitude": "30.030348385462304",
    "geocoded_column": {
      "latitude": "30.030348385462304",
      "longitude": "-90.02152514289642"
    }
  },
  {
    "service_request": "2025-1232663",
    "request_type": "Trash/Recycling",
    "request_reason": "MIssed Recycling Pick-Up",
    "date_created": "2025-10-10T14:24:12.000",
    "date_modified": "2025-10-10T15:34:21.000",
    "case_close_date": "2025-10-10T10:34:20.000",
    "request_status": "Closed",
    "responsible_agency": "Department of Sanitation",
    "final_address": "1503 Pauline St",
    "address_councildis": "D",
    "status": "Invalid Request",
    "contractor": "IV Waste",
    "contractor_action": "Invalid",
    "rowid": "1232663",
    "final_x": "3691631.82908",
    "final_y": "536975.488712",
    "longitude": "-90.03588271873772",
    "latitude": "29.970184849227778",
    "geocoded_column": {
      "latitude": "29.970184849227778",
      "longitude": "-90.03588271873772"
    }
  },
  {
    "service_request": "2025-1232662",
    "request_type": "Street and Traffic Signs",
    "request_reason": "Additional Signage Request",
    "date_created": "2025-10-10T14:23:55.000",
    "date_modified": "2025-10-10T14:23:57.000",
    "request_status": "Pending",
    "responsible_agency": "Department of Public Works",
    "final_address": "1616 Fats Domino Ave",
    "address_councildis": "E",
    "status": "Pending",
    "rowid": "1232662",
    "final_x": "3698472.09655",
    "final_y": "535826.659847",
    "longitude": "-90.01432233063797",
    "latitude": "29.966811239283324",
    "geocoded_column": {
      "latitude": "29.966811239283324",
      "longitude": "-90.01432233063797"
    }
  },
  {
    "service_request": "2025-1232661",
    "request_type": "Trash/Recycling",
    "request_reason": "Request a Large Item Pick Up",
    "date_created": "2025-10-10T14:10:31.000",
    "date_modified": "2025-10-10T14:10:33.000",
    "request_status": "Pending",
    "responsible_agency": "Department of Sanitation",
    "final_address": "1615 Lisbon St",
    "address_councildis": "D",
    "status": "Assigned to Contractor",
    "contractor": "IV Waste",
    "rowid": "1232661",
    "final_x": "3679069.3661",
    "final_y": "556270.297434",
    "longitude": "-90.07488705930703",
    "latitude": "30.02362389504491",
    "geocoded_column": {
      "latitude": "30.02362389504491",
      "longitude": "-90.07488705930703"
    }
  },
  {
    "service_request": "2025-1232660",
    "request_type": "Trash/Recycling",
    "request_reason": "Order Trash Cart",
    "date_created": "2025-10-10T14:07:01.000",
    "date_modified": "2025-10-10T14:07:03.000",
    "request_status": "Pending",
    "responsible_agency": "Department of Sanitation",
    "final_address": "2506 S Miro St",
    "address_councildis": "B",
    "status": "Assigned to Contractor",
    "contractor": "IV Waste",
    "rowid": "1232660",
    "final_x": "3672777.51598",
    "final_y": "528857.871552",
    "longitude": "-90.09570363302636",
    "latitude": "29.948437662680778",
    "geocoded_column": {
      "latitude": "29.948437662680778",
      "longitude": "-90.09570363302636"
    }
  },
  {
    "service_request": "2025-1232659",
    "request_type": "Trash/Recycling",
    "request_reason": "Request a Large Item Pick Up",
    "date_created": "2025-10-10T14:04:25.000",
    "date_modified": "2025-10-10T14:04:27.000",
    "request_status": "Pending",
    "responsible_agency": "Department of Sanitation",
    "final_address": "1524 Paul Morphy St",
    "address_councildis": "D",
    "status": "Assigned to Contractor",
    "contractor": "IV Waste",
    "rowid": "1232659",
    "final_x": "3678525.42306",
    "final_y": "539963.57185",
    "longitude": "-90.07717067834827",
    "latitude": "29.978802604831735",
    "geocoded_column": {
      "latitude": "29.978802604831735",
      "longitude": "-90.07717067834827"
    }
  },
  {
    "service_request": "2025-1232658",
    "request_type": "Trash/Recycling",
    "request_reason": "Request a Large Item Pick Up",
    "date_created": "2025-10-10T14:01:41.000",
    "date_modified": "2025-10-10T14:01:42.000",
    "request_status": "Pending",
    "responsible_agency": "Department of Sanitation",
    "final_address": "6850 Catina St",
    "address_councildis": "A",
    "status": "Assigned to Contractor",
    "contractor": "IV Waste",
    "rowid": "1232658",
    "final_x": "3667043.25997",
    "final_y": "553449.463831",
    "longitude": "-90.11298218151042",
    "latitude": "30.016225287949762",
    "geocoded_column": {
      "latitude": "30.016225287949762",
      "longitude": "-90.11298218151042"
    }
  },
  {
    "service_request": "2025-1232657",
    "request_type": "Streetlights",
    "request_reason": "Streetlight Outage/Malfunction",
    "date_created": "2025-10-10T14:01:36.000",
    "date_modified": "2025-10-10T14:01:37.000",
    "request_status": "Pending",
    "responsible_agency": "Department of Public Works",
    "final_address": "60 N Lark St",
    "address_councildis": "D",
    "status": "Pending",
    "rowid": "1232657",
    "final_x": "3675018.40718",
    "final_y": "556713.679898",
    "longitude": "-90.08767205297468",
    "latitude": "30.024964747090234",
    "geocoded_column": {
      "latitude": "30.024964747090234",
      "longitude": "-90.08767205297468"
    }
  },
  {
    "service_request": "2025-1232656",
    "request_type": "Streetlights",
    "request_reason": "Streetlight Outage/Malfunction",
    "date_created": "2025-10-10T13:58:19.000",
    "date_modified": "2025-10-10T13:58:20.000",
    "request_status": "Pending",
    "responsible_agency": "Department of Public Works",
    "final_address": "60 N Lark St",
    "address_councildis": "D",
    "status": "Pending",
    "rowid": "1232656",
    "final_x": "3675018.40718",
    "final_y": "556713.679898",
    "longitude": "-90.08767205297468",
    "latitude": "30.024964747090234",
    "geocoded_column": {
      "latitude": "30.024964747090234",
      "longitude": "-90.08767205297468"
    }
  },
  {
    "service_request": "2025-1232655",
    "request_type": "Streetlights",
    "request_reason": "Streetlight Outage/Malfunction",
    "date_created": "2025-10-10T13:55:17.000",
    "date_modified": "2025-10-10T13:55:20.000",
    "request_status": "Pending",
    "responsible_agency": "Department of Public Works",
    "final_address": "60 N Lark St",
    "address_councildis": "D",
    "status": "Pending",
    "rowid": "1232655",
    "final_x": "3675018.40718",
    "final_y": "556713.679898",
    "longitude": "-90.08767205297468",
    "latitude": "30.024964747090234",
    "geocoded_column": {
      "latitude": "30.024964747090234",
      "longitude": "-90.08767205297468"
    }
  },
  {
    "service_request": "2025-1232654",
    "request_type": "Trash/Recycling",
    "request_reason": "Replace Recycling Cart",
    "date_created": "2025-10-10T13:48:32.000",
    "date_modified": "2025-10-10T13:48:34.000",
    "request_status": "Pending",
    "responsible_agency": "Department of Sanitation",
    "final_address": "60 N Lark St",
    "address_councildis": "D",
    "status": "Pending",
    "rowid": "1232654",
    "final_x": "3675018.40718",
    "final_y": "556713.679898",
    "longitude": "-90.08767205297468",
    "latitude": "30.024964747090234",
    "geocoded_column": {
      "latitude": "30.024964747090234",
      "longitude": "-90.08767205297468"
    }
  },
  {
    "service_request": "2025-1232653",
    "request_type": "Trash/Recycling",
    "request_reason": "Change Size of Trash Cart",
    "date_created": "2025-10-10T13:45:43.000",
    "date_modified": "2025-10-10T15:56:15.000",
    "request_status": "Pending",
    "responsible_agency": "Department of Sanitation",
    "final_address": "7009 Queensway Dr",
    "address_councildis": "E",
    "status": "Assigned to Contractor",
    "contractor": "Waste Pro",
    "rowid": "1232653",
    "final_x": "3719335.78361",
    "final_y": "569324.081126",
    "longitude": "-89.94715597150181",
    "latitude": "30.058239022818135",
    "geocoded_column": {
      "latitude": "30.058239022818135",
      "longitude": "-89.94715597150181"
    }
  },
  {
    "service_request": "2025-1232652",
    "request_type": "Trash/Recycling",
    "request_reason": "Request a Large Item Pick Up",
    "date_created": "2025-10-10T13:45:41.000",
    "date_modified": "2025-10-10T13:45:43.000",
    "request_status": "Pending",
    "responsible_agency": "Department of Sanitation",
    "final_address": "1016 N White St",
    "address_councildis": "A",
    "status": "Assigned to Contractor",
    "contractor": "IV Waste",
    "rowid": "1232652",
    "final_x": "3677110.0381",
    "final_y": "538292.274313",
    "longitude": "-90.08169866082069",
    "latitude": "29.974249700339058",
    "geocoded_column": {
      "latitude": "29.974249700339058",
      "longitude": "-90.08169866082069"
    }
  },
  {
    "service_request": "2025-1232651",
    "request_type": "Trash/Recycling",
    "request_reason": "Replace Trash Cart",
    "date_created": "2025-10-10T13:44:36.000",
    "date_modified": "2025-10-10T13:44:39.000",
    "request_status": "Pending",
    "responsible_agency": "Department of Sanitation",
    "final_address": "4414 Werner Dr",
    "address_councildis": "E",
    "status": "Assigned to Contractor",
    "contractor": "Waste Pro",
    "rowid": "1232651",
    "final_x": "3704874.28452",
    "final_y": "553400.018967",
    "longitude": "-89.99345545435297",
    "latitude": "30.01492722037077",
    "geocoded_column": {
      "latitude": "30.01492722037077",
      "longitude": "-89.99345545435297"
    }
  },
  {
    "service_request": "2025-1232650",
    "request_type": "Abandoned Vehicles",
    "request_reason": "Abandoned/Junk Vehicles",
    "date_created": "2025-10-10T13:35:54.000",
    "date_modified": "2025-10-10T13:36:22.000",
    "request_status": "Pending",
    "responsible_agency": "Department of Public Works",
    "final_address": "1600 BLK Martin Luther King, Jr. Blvd",
    "address_councildis": "B",
    "status": "Inspected",
    "rowid": "1232650",
    "final_x": "3678991.35983",
    "final_y": "525654.111537",
    "longitude": "-90.07619491932508",
    "latitude": "29.939442378413734",
    "geocoded_column": {
      "latitude": "29.939442378413734",
      "longitude": "-90.07619491932508"
    }
  },
  {
    "service_request": "2025-1232649",
    "request_type": "Trash/Recycling",
    "request_reason": "Replace Trash Cart",
    "date_created": "2025-10-10T13:35:01.000",
    "date_modified": "2025-10-10T13:38:54.000",
    "request_status": "Pending",
    "responsible_agency": "Department of Sanitation",
    "final_address": "2113 Second St",
    "address_councildis": "B",
    "status": "Assigned to Contractor",
    "contractor": "IV Waste",
    "rowid": "1232649",
    "final_x": "3675666.53985",
    "final_y": "524661.793148",
    "longitude": "-90.08672591015727",
    "latitude": "29.936813710829952",
    "geocoded_column": {
      "latitude": "29.936813710829952",
      "longitude": "-90.08672591015727"
    }
  },
  {
    "service_request": "2025-1232648",
    "request_type": "Streetlights",
    "request_reason": "Streetlight Outage/Malfunction",
    "date_created": "2025-10-10T13:34:10.000",
    "date_modified": "2025-10-10T13:34:12.000",
    "request_status": "Pending",
    "responsible_agency": "Department of Public Works",
    "final_address": "4831 Virgilian St",
    "address_councildis": "D",
    "status": "Pending",
    "rowid": "1232648",
    "final_x": "3697510.49264",
    "final_y": "554279.334808",
    "longitude": "-90.01668945785562",
    "latitude": "30.017579716075627",
    "geocoded_column": {
      "latitude": "30.017579716075627",
      "longitude": "-90.01668945785562"
    }
  },
  {
    "service_request": "2025-1232647",
    "request_type": "Trash/Recycling",
    "request_reason": "Request a Large Item Pick Up",
    "date_created": "2025-10-10T13:27:18.000",
    "date_modified": "2025-10-10T13:27:20.000",
    "request_status": "Pending",
    "responsible_agency": "Department of Sanitation",
    "final_address": "2441 Jonquil St",
    "address_councildis": "D",
    "status": "Assigned to Contractor",
    "contractor": "IV Waste",
    "rowid": "1232647",
    "final_x": "3686105.31823",
    "final_y": "547225.795729",
    "longitude": "-90.05297426308964",
    "latitude": "29.99854046943418",
    "geocoded_column": {
      "latitude": "29.99854046943418",
      "longitude": "-90.05297426308964"
    }
  },
  {
    "service_request": "2025-1232646",
    "request_type": "Utility Poles",
    "request_reason": "Wires Sagging/Hanging Low",
    "date_created": "2025-10-10T13:24:37.000",
    "date_modified": "2025-10-10T13:24:39.000",
    "request_status": "Pending",
    "responsible_agency": "Utility Company Collective",
    "final_address": "4615 Laine Ave",
    "address_councildis": "E",
    "status": "Pending",
    "rowid": "1232646",
    "final_x": "3705842.64062",
    "final_y": "554581.643352",
    "longitude": "-89.99035218117533",
    "latitude": "30.018145061773644",
    "geocoded_column": {
      "latitude": "30.018145061773644",
      "longitude": "-89.99035218117533"
    }
  },
  {
    "service_request": "2025-1232645",
    "request_type": "Streetlights",
    "request_reason": "Streetlight Outage/Malfunction",
    "date_created": "2025-10-10T13:23:31.000",
    "date_modified": "2025-10-10T13:24:04.000",
    "request_status": "Pending",
    "responsible_agency": "Department of Public Works",
    "final_address": "1754 L. B. Landry Ave",
    "address_councildis": "C",
    "status": "Pending",
    "rowid": "1232645",
    "final_x": "3690084.72585",
    "final_y": "524459.404284",
    "longitude": "-90.04121434776312",
    "latitude": "29.935818018493602",
    "geocoded_column": {
      "latitude": "29.935818018493602",
      "longitude": "-90.04121434776312"
    }
  },
  {
    "service_request": "2025-1232644",
    "request_type": "Streetlights",
    "request_reason": "Streetlight Outage/Malfunction",
    "date_created": "2025-10-10T13:22:36.000",
    "date_modified": "2025-10-10T13:22:37.000",
    "request_status": "Pending",
    "responsible_agency": "Department of Public Works",
    "final_address": "1725 Sixth St",
    "address_councildis": "B",
    "status": "Pending",
    "rowid": "1232644",
    "final_x": "3675187.11131",
    "final_y": "522769.339578",
    "longitude": "-90.08830440886994",
    "latitude": "29.931624413537506",
    "geocoded_column": {
      "latitude": "29.931624413537506",
      "longitude": "-90.08830440886994"
    }
  },
  {
    "service_request": "2025-1232643",
    "request_type": "Streetlights",
    "request_reason": "Streetlight Outage/Malfunction",
    "date_created": "2025-10-10T13:22:16.000",
    "date_modified": "2025-10-10T13:22:18.000",
    "request_status": "Pending",
    "responsible_agency": "Department of Public Works",
    "final_address": "8823 Forshey St",
    "address_councildis": "A",
    "status": "Pending",
    "rowid": "1232643",
    "final_x": "3665074.205",
    "final_y": "535729.501511",
    "longitude": "-90.11979651206029",
    "latitude": "29.96755893574385",
    "geocoded_column": {
      "latitude": "29.96755893574385",
      "longitude": "-90.11979651206029"
    }
  },
  {
    "service_request": "2025-1232642",
    "request_type": "Trash/Recycling",
    "request_reason": "Repair Trash Cart",
    "date_created": "2025-10-10T13:20:12.000",
    "date_modified": "2025-10-10T13:20:15.000",
    "request_status": "Pending",
    "responsible_agency": "Department of Sanitation",
    "final_address": "2524 Chippewa St",
    "address_councildis": "B",
    "status": "Assigned to Contractor",
    "contractor": "IV Waste",
    "rowid": "1232642",
    "final_x": "3678481.20002",
    "final_y": "519937.18892",
    "longitude": "-90.07800329900324",
    "latitude": "29.92373809479093",
    "geocoded_column": {
      "latitude": "29.92373809479093",
      "longitude": "-90.07800329900324"
    }
  },
  {
    "service_request": "2025-1232641",
    "request_type": "Trash/Recycling",
    "request_reason": "Order Recycling Cart",
    "date_created": "2025-10-10T13:16:35.000",
    "date_modified": "2025-10-10T13:17:48.000",
    "request_status": "Pending",
    "responsible_agency": "Department of Sanitation",
    "final_address": "6310 Pandora St",
    "address_councildis": "D",
    "status": "Pending",
    "rowid": "1232641",
    "final_x": "3696824.49667",
    "final_y": "557263.729243",
    "longitude": "-90.01874874124934",
    "latitude": "30.025807324753462",
    "geocoded_column": {
      "latitude": "30.025807324753462",
      "longitude": "-90.01874874124934"
    }
  },
  {
    "service_request": "2025-1232640",
    "request_type": "Parks & Parkways",
    "request_reason": "Request Tree Service (Right of Way/Public Property)",
    "date_created": "2025-10-10T13:15:08.000",
    "date_modified": "2025-10-10T13:15:09.000",
    "request_status": "Pending",
    "responsible_agency": "Department of Parks & Parkway",
    "final_address": "1942 Wilton Dr",
    "address_councildis": "D",
    "status": "Pending",
    "rowid": "1232640",
    "final_x": "3681807.66671",
    "final_y": "550993.684885",
    "longitude": "-90.06641893940545",
    "latitude": "30.009032155400305",
    "geocoded_column": {
      "latitude": "30.009032155400305",
      "longitude": "-90.06641893940545"
    }
  },
  {
    "service_request": "2025-1232639",
    "request_type": "Healthy Homes",
    "request_reason": "Healthy Homes",
    "date_created": "2025-10-10T13:13:06.000",
    "date_modified": "2025-10-10T13:13:09.000",
    "request_status": "Pending",
    "responsible_agency": "Department of Code Enforcement",
    "final_address": "0 BLK Christy Ln",
    "address_councildis": "E",
    "status": "Pending",
    "rowid": "1232639",
    "final_x": "3707901.2423",
    "final_y": "557813.484226",
    "longitude": "-89.98372756106613",
    "latitude": "30.026964862117318",
    "geocoded_column": {
      "latitude": "30.026964862117318",
      "longitude": "-89.98372756106613"
    }
  },
  {
    "service_request": "2025-1232638",
    "request_type": "Trash/Recycling",
    "request_reason": "Request a Large Item Pick Up",
    "date_created": "2025-10-10T13:07:39.000",
    "date_modified": "2025-10-10T13:07:41.000",
    "request_status": "Pending",
    "responsible_agency": "Department of Sanitation",
    "final_address": "932 N Dupre St",
    "address_councildis": "A",
    "status": "Assigned to Contractor",
    "contractor": "IV Waste",
    "rowid": "1232638",
    "final_x": "3676636.32091",
    "final_y": "538270.336777",
    "longitude": "-90.0831955273403",
    "latitude": "29.974203599354865",
    "geocoded_column": {
      "latitude": "29.974203599354865",
      "longitude": "-90.0831955273403"
    }
  },
  {
    "service_request": "2025-1232637",
    "request_type": "Trash/Recycling",
    "request_reason": "Repair Trash Cart",
    "date_created": "2025-10-10T13:07:26.000",
    "date_modified": "2025-10-10T13:07:27.000",
    "request_status": "Pending",
    "responsible_agency": "Department of Sanitation",
    "final_address": "6310 Pandora St",
    "address_councildis": "D",
    "status": "Assigned to Contractor",
    "contractor": "Waste Pro",
    "rowid": "1232637",
    "final_x": "3696824.49667",
    "final_y": "557263.729243",
    "longitude": "-90.01874874124934",
    "latitude": "30.025807324753462",
    "geocoded_column": {
      "latitude": "30.025807324753462",
      "longitude": "-90.01874874124934"
    }
  },
  {
    "service_request": "2025-1232636",
    "request_type": "Trash/Recycling",
    "request_reason": "Repair Recycling Cart",
    "date_created": "2025-10-10T13:02:53.000",
    "date_modified": "2025-10-10T13:02:55.000",
    "request_status": "Pending",
    "responsible_agency": "Department of Sanitation",
    "final_address": "1019 Valmont St",
    "address_councildis": "B",
    "status": "Pending",
    "rowid": "1232636",
    "final_x": "3667595.90804",
    "final_y": "519136.534775",
    "longitude": "-90.11239124649103",
    "latitude": "29.921859971359826",
    "geocoded_column": {
      "latitude": "29.921859971359826",
      "longitude": "-90.11239124649103"
    }
  },
  {
    "service_request": "2025-1232635",
    "request_type": "Street and Traffic Signs",
    "request_reason": "Additional Signage Request",
    "date_created": "2025-10-10T13:00:40.000",
    "date_modified": "2025-10-10T13:00:42.000",
    "request_status": "Pending",
    "responsible_agency": "Department of Public Works",
    "final_address": "200 BLK N Saint Patrick St",
    "address_councildis": "A",
    "status": "Pending",
    "rowid": "1232635",
    "final_x": "3669483.60358",
    "final_y": "540324.496895",
    "longitude": "-90.10571602816766",
    "latitude": "29.98006448436108",
    "geocoded_column": {
      "latitude": "29.98006448436108",
      "longitude": "-90.10571602816766"
    }
  },
  {
    "service_request": "2025-1232634",
    "request_type": "Abandoned Vehicles",
    "request_reason": "Abandoned/Junk Vehicles",
    "date_created": "2025-10-10T12:58:20.000",
    "date_modified": "2025-10-10T12:58:21.000",
    "request_status": "Pending",
    "responsible_agency": "Department of Public Works",
    "final_address": "201 Millaudon St",
    "address_councildis": "A",
    "status": "Pending",
    "rowid": "1232634",
    "final_x": "3661080.90797",
    "final_y": "523673.982651",
    "longitude": "-90.13280638528813",
    "latitude": "29.934525811298574",
    "geocoded_column": {
      "latitude": "29.934525811298574",
      "longitude": "-90.13280638528813"
    }
  },
  {
    "service_request": "2025-1232633",
    "request_type": "Trash/Recycling",
    "request_reason": "Illegal Dumping",
    "date_created": "2025-10-10T12:56:50.000",
    "date_modified": "2025-10-10T12:56:51.000",
    "request_status": "Pending",
    "responsible_agency": "Department of Sanitation",
    "final_address": "PLEASANT ST & TCHOUPITOULAS ST",
    "address_councildis": "B",
    "status": "Pending",
    "rowid": "1232633",
    "final_x": "3676463.5",
    "final_y": "518085.88",
    "longitude": "-90.08443614266109",
    "latitude": "29.918708219227508",
    "geocoded_column": {
      "latitude": "29.918708219227508",
      "longitude": "-90.08443614266109"
    }
  },
  {
    "service_request": "2025-1232632",
    "request_type": "Trash/Recycling",
    "request_reason": "Request a Large Item Pick Up",
    "date_created": "2025-10-10T12:55:35.000",
    "date_modified": "2025-10-10T12:55:36.000",
    "request_status": "Pending",
    "responsible_agency": "Department of Sanitation",
    "final_address": "5088 Basinview Dr",
    "address_councildis": "E",
    "status": "Assigned to Contractor",
    "contractor": "Waste Pro",
    "rowid": "1232632",
    "final_x": "3698535.57168",
    "final_y": "556035.314393",
    "longitude": "-90.0133867196999",
    "latitude": "30.02237556522415",
    "geocoded_column": {
      "latitude": "30.02237556522415",
      "longitude": "-90.0133867196999"
    }
  },
  {
    "service_request": "2025-1232631",
    "request_type": "Trash/Recycling",
    "request_reason": "Replace Trash Cart",
    "date_created": "2025-10-10T12:54:58.000",
    "date_modified": "2025-10-10T12:54:59.000",
    "request_status": "Pending",
    "responsible_agency": "Department of Sanitation",
    "final_address": "8029 Trapier Ave Apt B",
    "address_councildis": "E",
    "status": "Assigned to Contractor",
    "contractor": "Waste Pro",
    "rowid": "1232631",
    "final_x": "3706056.91211",
    "final_y": "564792.05277",
    "longitude": "-89.98929675826726",
    "latitude": "30.04621277627332",
    "geocoded_column": {
      "latitude": "30.04621277627332",
      "longitude": "-89.98929675826726"
    }
  },
  {
    "service_request": "2025-1232630",
    "request_type": "Abandoned Vehicles",
    "request_reason": "Abandoned/Junk Vehicles",
    "date_created": "2025-10-10T12:54:55.000",
    "date_modified": "2025-10-10T12:54:57.000",
    "request_status": "Pending",
    "responsible_agency": "Department of Public Works",
    "final_address": "N PETERS ST & MARIGNY ST",
    "address_councildis": "C",
    "status": "Pending",
    "rowid": "1232630",
    "final_x": "3685617.9",
    "final_y": "533892.28",
    "longitude": "-90.05498393107216",
    "latitude": "29.961892965599795",
    "geocoded_column": {
      "latitude": "29.961892965599795",
      "longitude": "-90.05498393107216"
    }
  },
  {
    "service_request": "2025-1232629",
    "request_type": "Parks & Parkways",
    "request_reason": "Request Tree Service (Right of Way/Public Property)",
    "date_created": "2025-10-10T12:54:43.000",
    "date_modified": "2025-10-10T12:54:45.000",
    "request_status": "Pending",
    "responsible_agency": "Department of Parks & Parkway",
    "final_address": "7815 Belfast St",
    "address_councildis": "A",
    "status": "Pending",
    "rowid": "1232629",
    "final_x": "3666366.51418",
    "final_y": "531714.974147",
    "longitude": "-90.11585006266361",
    "latitude": "29.95648261018579",
    "geocoded_column": {
      "latitude": "29.95648261018579",
      "longitude": "-90.11585006266361"
    }
  },
  {
    "service_request": "2025-1232628",
    "request_type": "Trash/Recycling",
    "request_reason": "Repair Trash Cart",
    "date_created": "2025-10-10T12:51:51.000",
    "date_modified": "2025-10-10T12:51:53.000",
    "request_status": "Pending",
    "responsible_agency": "Department of Sanitation",
    "final_address": "311 S Clark St",
    "address_councildis": "B",
    "status": "Assigned to Contractor",
    "contractor": "IV Waste",
    "rowid": "1232628",
    "final_x": "3672234.02727",
    "final_y": "536270.442823",
    "longitude": "-90.09716716127414",
    "latitude": "29.968835898002062",
    "geocoded_column": {
      "latitude": "29.968835898002062",
      "longitude": "-90.09716716127414"
    }
  },
  {
    "service_request": "2025-1232627",
    "request_type": "Healthy Homes",
    "request_reason": "Healthy Homes",
    "date_created": "2025-10-10T12:48:59.000",
    "date_modified": "2025-10-10T12:49:00.000",
    "request_status": "Pending",
    "responsible_agency": "Department of Code Enforcement",
    "final_address": "8851 Gervais St",
    "address_councildis": "E",
    "status": "Pending",
    "rowid": "1232627",
    "final_x": "3704790.57079",
    "final_y": "563227.13968",
    "longitude": "-89.99335685321489",
    "latitude": "30.04195066712997",
    "geocoded_column": {
      "latitude": "30.04195066712997",
      "longitude": "-89.99335685321489"
    }
  },
  {
    "service_request": "2025-1232626",
    "request_type": "Safety & Permits",
    "request_reason": "Construction permit",
    "date_created": "2025-10-10T12:46:26.000",
    "date_modified": "2025-10-10T12:46:31.000",
    "request_status": "Pending",
    "responsible_agency": "Safety and Permits",
    "final_address": "840 Poydras St",
    "address_councildis": "B",
    "status": "Pending",
    "rowid": "1232626",
    "final_x": "3679990.1588",
    "final_y": "529463.526337",
    "longitude": "-90.07290928486657",
    "latitude": "29.94988682878874",
    "geocoded_column": {
      "latitude": "29.94988682878874",
      "longitude": "-90.07290928486657"
    }
  },
  {
    "service_request": "2025-1232625",
    "request_type": "Trash/Recycling",
    "request_reason": "Request a Large Item Pick Up",
    "date_created": "2025-10-10T12:45:24.000",
    "date_modified": "2025-10-10T12:46:41.000",
    "request_status": "Pending",
    "responsible_agency": "Department of Sanitation",
    "final_address": "4641 De Montluzin St",
    "address_councildis": "D",
    "status": "Assigned to Contractor",
    "contractor": "IV Waste",
    "rowid": "1232625",
    "final_x": "3687233.8982",
    "final_y": "550080.853396",
    "longitude": "-90.04930801689552",
    "latitude": "30.006356118835825",
    "geocoded_column": {
      "latitude": "30.006356118835825",
      "longitude": "-90.04930801689552"
    }
  },
  {
    "service_request": "2025-1232624",
    "request_type": "Abandoned Vehicles",
    "request_reason": "Abandoned/Junk Vehicles",
    "date_created": "2025-10-10T12:42:34.000",
    "date_modified": "2025-10-10T13:01:40.000",
    "request_status": "Pending",
    "responsible_agency": "Department of Public Works",
    "final_address": "N RAMPART ST & MAZANT ST",
    "address_councildis": "C",
    "status": "Inspected",
    "rowid": "1232624",
    "final_x": "3691996.8",
    "final_y": "534794.98",
    "longitude": "-90.03480814556413",
    "latitude": "29.964177850628925",
    "geocoded_column": {
      "latitude": "29.964177850628925",
      "longitude": "-90.03480814556413"
    }
  },
  {
    "service_request": "2025-1232623",
    "request_type": "Trash/Recycling",
    "request_reason": "Request a Large Item Pick Up",
    "date_created": "2025-10-10T12:40:08.000",
    "date_modified": "2025-10-10T12:40:10.000",
    "request_status": "Pending",
    "responsible_agency": "Department of Sanitation",
    "final_address": "7825 Bass St",
    "address_councildis": "E",
    "status": "Assigned to Contractor",
    "contractor": "Waste Pro",
    "rowid": "1232623",
    "final_x": "3719950.86694",
    "final_y": "573882.428778",
    "longitude": "-89.9450372118941",
    "latitude": "30.07075209190991",
    "geocoded_column": {
      "latitude": "30.07075209190991",
      "longitude": "-89.9450372118941"
    }
  },
  {
    "service_request": "2025-1232622",
    "request_type": "Roads and Streets",
    "request_reason": "Pothole",
    "date_created": "2025-10-10T12:33:47.000",
    "date_modified": "2025-10-10T12:33:51.000",
    "request_status": "Pending",
    "responsible_agency": "Department of Public Works",
    "final_address": "137 20Th St",
    "address_councildis": "A",
    "status": "Pending",
    "rowid": "1232622",
    "final_x": "3665871.96135",
    "final_y": "549061.416275",
    "longitude": "-90.11683018088755",
    "latitude": "30.004193935145118",
    "geocoded_column": {
      "latitude": "30.004193935145118",
      "longitude": "-90.11683018088755"
    }
  },
  {
    "service_request": "2025-1232621",
    "request_type": "Property Maintenance",
    "request_reason": "Property Maintenance",
    "date_created": "2025-10-10T12:32:07.000",
    "date_modified": "2025-10-10T12:32:10.000",
    "request_status": "Pending",
    "responsible_agency": "Department of Code Enforcement",
    "final_address": "9 Fortress Rd",
    "address_councildis": "D",
    "status": "Pending",
    "rowid": "1232621",
    "final_x": "3676570.36027",
    "final_y": "554680.282136",
    "longitude": "-90.08283824688196",
    "latitude": "30.019327158244973",
    "geocoded_column": {
      "latitude": "30.019327158244973",
      "longitude": "-90.08283824688196"
    }
  },
  {
    "service_request": "2025-1232620",
    "request_type": "Abandoned Vehicles",
    "request_reason": "Abandoned/Junk Vehicles",
    "date_created": "2025-10-10T12:30:58.000",
    "date_modified": "2025-10-10T12:34:57.000",
    "request_status": "Pending",
    "responsible_agency": "Department of Public Works",
    "final_address": "3200 BLK Martin Luther King, Jr. Blvd",
    "address_councildis": "B",
    "status": "Inspected",
    "rowid": "1232620",
    "final_x": "3674299.29244",
    "final_y": "528576.428855",
    "longitude": "-90.09090837904951",
    "latitude": "29.94761850473799",
    "geocoded_column": {
      "latitude": "29.94761850473799",
      "longitude": "-90.09090837904951"
    }
  },
  {
    "service_request": "2025-1232619",
    "request_type": "Trash/Recycling",
    "request_reason": "Repair Trash Cart",
    "date_created": "2025-10-10T12:29:39.000",
    "date_modified": "2025-10-10T12:29:41.000",
    "request_status": "Pending",
    "responsible_agency": "Department of Sanitation",
    "final_address": "2317 Baronne St",
    "address_councildis": "B",
    "status": "Assigned to Contractor",
    "contractor": "IV Waste",
    "rowid": "1232619",
    "final_x": "3676591.82389",
    "final_y": "523900.632444",
    "longitude": "-90.08383094508086",
    "latitude": "29.93469305611972",
    "geocoded_column": {
      "latitude": "29.93469305611972",
      "longitude": "-90.08383094508086"
    }
  },
  {
    "service_request": "2025-1232618",
    "request_type": "Trash/Recycling",
    "request_reason": "Missed Trash Pick-Up",
    "date_created": "2025-10-10T12:26:45.000",
    "date_modified": "2025-10-10T12:27:59.000",
    "request_status": "Pending",
    "responsible_agency": "Department of Sanitation",
    "final_address": "7105 Dreux Ave",
    "address_councildis": "E",
    "status": "Assigned to Contractor",
    "contractor": "Waste Pro",
    "rowid": "1232618",
    "final_x": "3701284.84125",
    "final_y": "554519.563544",
    "longitude": "-90.00475528629066",
    "latitude": "30.018120462742665",
    "geocoded_column": {
      "latitude": "30.018120462742665",
      "longitude": "-90.00475528629066"
    }
  },
  {
    "service_request": "2025-1232617",
    "request_type": "Traffic Signals",
    "request_reason": "Traffic Signal Malfunctioning or Damaged",
    "date_created": "2025-10-10T12:26:06.000",
    "date_modified": "2025-10-10T12:26:07.000",
    "request_status": "Pending",
    "responsible_agency": "Department of Public Works",
    "final_address": "1111 Canal St",
    "address_councildis": "C",
    "status": "Pending",
    "rowid": "1232617",
    "final_x": "3679986.71823",
    "final_y": "531707.587395",
    "longitude": "-90.07284220329849",
    "latitude": "29.956057344840524",
    "geocoded_column": {
      "latitude": "29.956057344840524",
      "longitude": "-90.07284220329849"
    }
  },
  {
    "service_request": "2025-1232616",
    "request_type": "Trash/Recycling",
    "request_reason": "Replace Trash Cart",
    "date_created": "2025-10-10T12:24:53.000",
    "date_modified": "2025-10-10T12:24:55.000",
    "request_status": "Pending",
    "responsible_agency": "Department of Sanitation",
    "final_address": "918 Harmony St",
    "address_councildis": "B",
    "status": "Assigned to Contractor",
    "contractor": "IV Waste",
    "rowid": "1232616",
    "final_x": "3676021.63144",
    "final_y": "519459.142391",
    "longitude": "-90.08578369731111",
    "latitude": "29.922497484388856",
    "geocoded_column": {
      "latitude": "29.922497484388856",
      "longitude": "-90.08578369731111"
    }
  },
  {
    "service_request": "2025-1232615",
    "request_type": "Property Maintenance",
    "request_reason": "Property Maintenance",
    "date_created": "2025-10-10T12:24:07.000",
    "date_modified": "2025-10-10T12:24:09.000",
    "request_status": "Pending",
    "responsible_agency": "Department of Code Enforcement",
    "final_address": "4645 Western St",
    "address_councildis": "D",
    "status": "Pending",
    "rowid": "1232615",
    "final_x": "3684205.31426",
    "final_y": "549792.92994",
    "longitude": "-90.05888617333001",
    "latitude": "30.005657403722303",
    "geocoded_column": {
      "latitude": "30.005657403722303",
      "longitude": "-90.05888617333001"
    }
  },
  {
    "service_request": "2025-1232614",
    "request_type": "Trash/Recycling",
    "request_reason": "Request a Large Item Pick Up",
    "date_created": "2025-10-10T12:20:56.000",
    "date_modified": "2025-10-10T12:25:45.000",
    "request_status": "Pending",
    "responsible_agency": "Department of Sanitation",
    "final_address": "10411 Castlewood Dr",
    "address_councildis": "E",
    "status": "Assigned to Contractor",
    "contractor": "Waste Pro",
    "rowid": "1232614",
    "final_x": "3709541.48683",
    "final_y": "564880.66493",
    "longitude": "-89.97828050801787",
    "latitude": "30.04634357855448",
    "geocoded_column": {
      "latitude": "30.04634357855448",
      "longitude": "-89.97828050801787"
    }
  },
  {
    "service_request": "2025-1232613",
    "request_type": "Trash/Recycling",
    "request_reason": "Repair Recycling Cart",
    "date_created": "2025-10-10T12:19:51.000",
    "date_modified": "2025-10-10T12:19:52.000",
    "request_status": "Pending",
    "responsible_agency": "Department of Sanitation",
    "final_address": "4616 Prytania St",
    "address_councildis": "B",
    "status": "Pending",
    "rowid": "1232613",
    "final_x": "3670003.14324",
    "final_y": "520153.915832",
    "longitude": "-90.1047581715368",
    "latitude": "29.924586697032236",
    "geocoded_column": {
      "latitude": "29.924586697032236",
      "longitude": "-90.1047581715368"
    }
  },
  {
    "service_request": "2025-1232612",
    "request_type": "Abandoned Vehicles",
    "request_reason": "Abandoned/Junk Vehicles",
    "date_created": "2025-10-10T12:18:24.000",
    "date_modified": "2025-10-10T12:18:25.000",
    "request_status": "Pending",
    "responsible_agency": "Department of Public Works",
    "final_address": "6327 Dorothea St",
    "address_councildis": "D",
    "status": "Pending",
    "rowid": "1232612",
    "final_x": "3696777.77347",
    "final_y": "557715.425755",
    "longitude": "-90.01888000622726",
    "latitude": "30.027050791698343",
    "geocoded_column": {
      "latitude": "30.027050791698343",
      "longitude": "-90.01888000622726"
    }
  },
  {
    "service_request": "2025-1232611",
    "request_type": "Trash/Recycling",
    "request_reason": "Illegal Dumping",
    "date_created": "2025-10-10T12:16:36.000",
    "date_modified": "2025-10-10T12:16:38.000",
    "request_status": "Pending",
    "responsible_agency": "Department of Sanitation",
    "final_address": "HICKORY ST & JOLIET ST",
    "address_councildis": "A",
    "status": "Pending",
    "rowid": "1232611",
    "final_x": "3662324.9",
    "final_y": "530894.18",
    "longitude": "-90.12863946417642",
    "latitude": "29.954343152143696",
    "geocoded_column": {
      "latitude": "29.954343152143696",
      "longitude": "-90.12863946417642"
    }
  },
  {
    "service_request": "2025-1232610",
    "request_type": "Trash/Recycling",
    "request_reason": "Request a Large Item Pick Up",
    "date_created": "2025-10-10T12:11:20.000",
    "date_modified": "2025-10-10T16:04:21.000",
    "request_status": "Pending",
    "responsible_agency": "Department of Sanitation",
    "final_address": "7371 Beau St",
    "address_councildis": "E",
    "status": "Assigned to Contractor",
    "contractor": "Waste Pro",
    "rowid": "1232610",
    "final_x": "3695591.04547",
    "final_y": "557948.428059",
    "longitude": "-90.0226215136728",
    "latitude": "30.02772883818136",
    "geocoded_column": {
      "latitude": "30.02772883818136",
      "longitude": "-90.0226215136728"
    }
  },
  {
    "service_request": "2025-1232609",
    "request_type": "Trash/Recycling",
    "request_reason": "Request a Large Item Pick Up",
    "date_created": "2025-10-10T12:09:29.000",
    "date_modified": "2025-10-10T12:09:31.000",
    "request_status": "Pending",
    "responsible_agency": "Department of Sanitation",
    "final_address": "2336 Lark St",
    "address_councildis": "D",
    "status": "Assigned to Contractor",
    "contractor": "IV Waste",
    "rowid": "1232609",
    "final_x": "3684371.95593",
    "final_y": "557771.429211",
    "longitude": "-90.05807918824961",
    "latitude": "30.027590255128235",
    "geocoded_column": {
      "latitude": "30.027590255128235",
      "longitude": "-90.05807918824961"
    }
  },
  {
    "service_request": "2025-1232608",
    "request_type": "Trash/Recycling",
    "request_reason": "Repair Recycling Cart",
    "date_created": "2025-10-10T12:08:03.000",
    "date_modified": "2025-10-10T12:08:05.000",
    "request_status": "Pending",
    "responsible_agency": "Department of Sanitation",
    "final_address": "2901 Chestnut St",
    "address_councildis": "B",
    "status": "Pending",
    "rowid": "1232608",
    "final_x": "3676131.29537",
    "final_y": "521160.090425",
    "longitude": "-90.08537905530429",
    "latitude": "29.92717125810571",
    "geocoded_column": {
      "latitude": "29.92717125810571",
      "longitude": "-90.08537905530429"
    }
  },
  {
    "service_request": "2025-1232607",
    "request_type": "Trash/Recycling",
    "request_reason": "Replace Trash Cart",
    "date_created": "2025-10-10T12:03:34.000",
    "date_modified": "2025-10-10T12:03:36.000",
    "request_status": "Pending",
    "responsible_agency": "Department of Sanitation",
    "final_address": "6033 Erin Dr",
    "address_councildis": "E",
    "status": "Assigned to Contractor",
    "contractor": "Waste Pro",
    "rowid": "1232607",
    "final_x": "3695570.75402",
    "final_y": "558487.776092",
    "longitude": "-90.022666138278",
    "latitude": "30.029212477829198",
    "geocoded_column": {
      "latitude": "30.029212477829198",
      "longitude": "-90.022666138278"
    }
  },
  {
    "service_request": "2025-1232606",
    "request_type": "Trash/Recycling",
    "request_reason": "Order Recycling Cart",
    "date_created": "2025-10-10T12:00:54.000",
    "date_modified": "2025-10-10T12:00:56.000",
    "request_status": "Pending",
    "responsible_agency": "Department of Sanitation",
    "final_address": "3212 Jackson Ave",
    "address_councildis": "B",
    "status": "Pending",
    "rowid": "1232606",
    "final_x": "3673824.18964",
    "final_y": "528579.710592",
    "longitude": "-90.0924083544113",
    "latitude": "29.947641684788607",
    "geocoded_column": {
      "latitude": "29.947641684788607",
      "longitude": "-90.0924083544113"
    }
  },
  {
    "service_request": "2025-1232605",
    "request_type": "Trash/Recycling",
    "request_reason": "Request a Large Item Pick Up",
    "date_created": "2025-10-10T12:00:37.000",
    "date_modified": "2025-10-10T12:01:05.000",
    "request_status": "Pending",
    "responsible_agency": "Department of Sanitation",
    "final_address": "11414 S St Andrews Cir",
    "address_councildis": "E",
    "status": "Assigned to Contractor",
    "contractor": "Waste Pro",
    "rowid": "1232605",
    "final_x": "3719621.64428",
    "final_y": "559403.849245",
    "longitude": "-89.9466318876631",
    "latitude": "30.03095294136438",
    "geocoded_column": {
      "latitude": "30.03095294136438",
      "longitude": "-89.9466318876631"
    }
  },