[
  {
    "service_request": "2023-1043728",
    "request_type": "Trash/Recycling",
    "request_reason": "Replace Trash Cart",
    "date_created": "2023-10-17T01:33:18.000",
    "date_modified": "2023-10-17T01:33:18.000",
    "request_status": "Pending",
    "responsible_agency": "Department of Sanitation",
    "final_address": "1826 Terpsichore St",
    "address_councildis": "B",
    "status": "Assigned to Contractor",
    "contractor": "Richards Disposal",
    "rowid": "1043728",
    "final_x": "3678043.49378",
    "final_y": "525866.662781",
    "longitude": "-90.07918011379928",
    "latitude": "29.94005538485159",
    "geocoded_column": {
      "latitude": "29.94005538485159",
      "longitude": "-90.07918011379928"
    }
  },
  {
    "service_request": "2023-1043727",
    "request_type": "Trash/Recycling",
    "request_reason": "Replace Trash Cart",
    "date_created": "2023-10-17T01:28:05.000",
    "date_modified": "2023-10-17T01:28:05.000",
    "request_status": "Pending",
    "responsible_agency": "Department of Sanitation",
    "final_address": "1826 Terpsichore St, New Orleans, Louisiana, 70113",
    "address_councildis": "B",
    "status": "Assigned to Contractor",
    "contractor": "Richards Disposal",
    "rowid": "1043727",
    "final_x": "3678043.49378",
    "final_y": "525866.662781",
    "longitude": "-90.07918011379928",
    "latitude": "29.94005538485159",
    "geocoded_column": {
      "latitude": "29.94005538485159",
      "longitude": "-90.07918011379928"
    }
  },
  {
    "service_request": "2023-1043726",
    "request_type": "Abandoned Vehicles",
    "request_reason": "Vehicle Blocking Your Driveway",
    "date_created": "2023-10-17T00:09:06.000",
    "date_modified": "2023-10-17T00:09:06.000",
    "request_status": "Pending",
    "responsible_agency": "Department of Public Works",
    "final_address": "2700 leonidas",
    "status": "Pending",
    "rowid": "1043726",
    "longitude": "0.0",
    "latitude": "0.0",
    "geocoded_column": {
      "latitude": "0.0",
      "longitude": "0.0"
    }
  },
  {
    "service_request": "2023-1043725",
    "request_type": "Health Related Request",
    "request_reason": "Noise Ordinance Complaint",
    "date_created": "2023-10-17T00:05:00.000",
    "date_modified": "2023-10-17T00:05:00.000",
    "request_status": "Pending",
    "responsible_agency": "Health Department",
    "final_address": "8500 Belfast St",
    "address_councildis": "A",
    "status": "Pending",
    "rowid": "1043725",
    "final_x": "3664478.02631",
    "final_y": "533321.966916",
    "longitude": "-90.12175965772317",
    "latitude": "29.96095635448794",
    "geocoded_column": {
      "latitude": "29.96095635448794",
      "longitude": "-90.12175965772317"
    }
  },
  {
    "service_request": "2023-1043724",
    "request_type": "Roads/Drainage",
    "request_reason": "Pothole",
    "date_created": "2023-10-17T00:00:36.000",
    "date_modified": "2023-10-17T00:00:36.000",
    "request_status": "Pending",
    "responsible_agency": "Department of Public Works",
    "final_address": "4916 Carondelet St",
    "address_councildis": "B",
    "status": "Pending",
    "rowid": "1043724",
    "final_x": "3668888.81063",
    "final_y": "521012.255673",
    "longitude": "-90.10824678520471",
    "latitude": "29.926979664804104",
    "geocoded_column": {
      "latitude": "29.926979664804104",
      "longitude": "-90.10824678520471"
    }
  },
  {
    "service_request": "2023-1043723",
    "request_type": "Roads/Drainage",
    "request_reason": "Pothole",
    "date_created": "2023-10-16T23:42:10.000",
    "date_modified": "2023-10-16T23:42:10.000",
    "request_status": "Pending",
    "responsible_agency": "Department of Public Works",
    "final_address": "4630 St Charles Ave",
    "address_councildis": "B",
    "status": "Pending",
    "rowid": "1043723",
    "final_x": "3669824.55719",
    "final_y": "520628.244792",
    "longitude": "-90.10530586201752",
    "latitude": "29.925896214610017",
    "geocoded_column": {
      "latitude": "29.925896214610017",
      "longitude": "-90.10530586201752"
    }
  },
  {
    "service_request": "2023-1043722",
    "request_type": "Roads/Drainage",
    "request_reason": "Pothole",
    "date_created": "2023-10-16T23:35:34.000",
    "date_modified": "2023-10-16T23:35:34.000",
    "request_status": "Pending",
    "responsible_agency": "Department of Public Works",
    "final_address": "1407 Valence St",
    "address_councildis": "B",
    "status": "Pending",
    "rowid": "1043722",
    "final_x": "3669839.25287",
    "final_y": "520292.863992",
    "longitude": "-90.10527081865904",
    "latitude": "29.924973591096933",
    "geocoded_column": {
      "latitude": "29.924973591096933",
      "longitude": "-90.10527081865904"
    }
  },
  {
    "service_request": "2023-1043721",
    "request_type": "Roads/Drainage",
    "request_reason": "Pothole",
    "date_created": "2023-10-16T22:35:52.000",
    "date_modified": "2023-10-16T22:35:52.000",
    "request_status": "Pending",
    "responsible_agency": "Department of Public Works",
    "final_address": "5823 Perrier St",
    "address_councildis": "A",
    "status": "Pending",
    "rowid": "1043721",
    "final_x": "3665601.07367",
    "final_y": "520421.208184",
    "longitude": "-90.11864512991228",
    "latitude": "29.92545071542357",
    "geocoded_column": {
      "latitude": "29.92545071542357",
      "longitude": "-90.11864512991228"
    }
  },
  {
    "service_request": "2023-1043720",
    "request_type": "Roads/Drainage",
    "request_reason": "Pothole",
    "date_created": "2023-10-16T22:31:04.000",
    "date_modified": "2023-10-16T22:31:04.000",
    "request_status": "Pending",
    "responsible_agency": "Department of Public Works",
    "final_address": "5901 Garfield St",
    "address_councildis": "A",
    "status": "Pending",
    "rowid": "1043720",
    "final_x": "3665664.98592",
    "final_y": "521477.944953",
    "longitude": "-90.118408008815",
    "latitude": "29.928354545024927",
    "geocoded_column": {
      "latitude": "29.928354545024927",
      "longitude": "-90.118408008815"
    }
  },
  {
    "service_request": "2023-1043719",
    "request_type": "Property Maintenance",
    "request_reason": "Property Maintenance",
    "date_created": "2023-10-16T22:11:39.000",
    "date_modified": "2023-10-16T22:11:39.000",
    "request_status": "Pending",
    "responsible_agency": "Department of Code Enforcement",
    "final_address": "3530 Rue Delphine",
    "address_councildis": "C",
    "status": "Pending",
    "rowid": "1043719",
    "final_x": "3703099.76298",
    "final_y": "517646.425398",
    "longitude": "-90.00037616316847",
    "latitude": "29.916674716567393",
    "geocoded_column": {
      "latitude": "29.916674716567393",
      "longitude": "-90.00037616316847"
    }
  },
  {
    "service_request": "2023-1043718",
    "request_type": "Trash/Recycling",
    "request_reason": "Repair Recycling Cart",
    "date_created": "2023-10-16T21:32:05.000",
    "date_modified": "2023-10-16T21:32:05.000",
    "request_status": "Pending",
    "responsible_agency": "Department of Sanitation",
    "final_address": "800 Poland Ave",
    "address_councildis": "C",
    "status": "Pending",
    "rowid": "1043718",
    "final_x": "3692710.14467",
    "final_y": "533903.995781",
    "longitude": "-90.03258741357921",
    "latitude": "29.961705709714334",
    "geocoded_column": {
      "latitude": "29.961705709714334",
      "longitude": "-90.03258741357921"
    }
  },
  {
    "service_request": "2023-1043717",
    "request_type": "Trash/Recycling",
    "request_reason": "Order Trash Cart",
    "date_created": "2023-10-16T21:21:37.000",
    "date_modified": "2023-10-16T21:21:38.000",
    "request_status": "Pending",
    "responsible_agency": "Department of Sanitation",
    "final_address": "3700 S Liberty St Apt 2A",
    "address_councildis": "B",
    "status": "Assigned to Contractor",
    "contractor": "Richards Disposal",
    "rowid": "1043717",
    "final_x": "3672508.33364",
    "final_y": "523537.204859",
    "longitude": "-90.09673485761313",
    "latitude": "29.933815556842777",
    "geocoded_column": {
      "latitude": "29.933815556842777",
      "longitude": "-90.09673485761313"
    }
  },
  {
    "service_request": "2023-1043715",
    "request_type": "Abandoned Vehicles",
    "request_reason": "Vehicle Blocking Your Driveway",
    "date_created": "2023-10-16T21:03:56.000",
    "date_modified": "2023-10-16T21:03:56.000",
    "request_status": "Pending",
    "responsible_agency": "Department of Public Works",
    "final_address": "5300 block of Memphis Street ",
    "status": "Pending",
    "rowid": "1043715",
    "longitude": "0.0",
    "latitude": "0.0",
    "geocoded_column": {
      "latitude": "0.0",
      "longitude": "0.0"
    }
  },
  {
    "service_request": "2023-1043714",
    "request_type": "Abandoned Vehicles",
    "request_reason": "Abandoned/Junk Vehicles",
    "date_created": "2023-10-16T20:49:06.000",
    "date_modified": "2023-10-16T20:49:06.000",
    "request_status": "Pending",
    "responsible_agency": "Department of Public Works",
    "final_address": "718 N Alexander St",
    "address_councildis": "A",
    "status": "Pending",
    "rowid": "1043714",
    "final_x": "3671557.85511",
    "final_y": "541113.009804",
    "longitude": "-90.09913783594916",
    "latitude": "29.98217135771704",
    "geocoded_column": {
      "latitude": "29.98217135771704",
      "longitude": "-90.09913783594916"
    }
  },
  {
    "service_request": "2023-1043713",
    "request_type": "Trash/Recycling",
    "request_reason": "Request a Large Item Pick Up",
    "date_created": "2023-10-16T20:46:32.000",
    "date_modified": "2023-10-16T20:46:32.000",
    "request_status": "Pending",
    "responsible_agency": "Department of Sanitation",
    "final_address": "3034 Fern St, New Orleans, Louisiana, 70125",
    "address_councildis": "B",
    "status": "Assigned to Contractor",
    "contractor": "Richards Disposal",
    "rowid": "1043713",
    "final_x": "3667008.30017",
    "final_y": "532875.532868",
    "longitude": "-90.11378450217582",
    "latitude": "29.95965499988123",
    "geocoded_column": {
      "latitude": "29.95965499988123",
      "longitude": "-90.11378450217582"
    }
  },
  {
    "service_request": "2023-1043712",
    "request_type": "Traffic Signals/Signs/Striping/Streetlights",
    "request_reason": "Street Light Outage/Malfunction",
    "date_created": "2023-10-16T20:39:43.000",
    "date_modified": "2023-10-16T20:39:44.000",
    "request_status": "Pending",
    "responsible_agency": "Department of Public Works",
    "final_address": "3209 S Saratoga St",
    "address_councildis": "B",
    "status": "Assigned to Contractor",
    "contractor": "Legacy Professional Services",
    "rowid": "1043712",
    "final_x": "3673945.90107",
    "final_y": "523420.328251",
    "longitude": "-90.09220051268814",
    "latitude": "29.933451446530363",
    "geocoded_column": {
      "latitude": "29.933451446530363",
      "longitude": "-90.09220051268814"
    }
  },
  {
    "service_request": "2023-1043711",
    "request_type": "Property Maintenance",
    "request_reason": "Property Maintenance",
    "date_created": "2023-10-16T20:20:29.000",
    "date_modified": "2023-10-16T20:20:29.000",
    "request_status": "Pending",
    "responsible_agency": "Department of Code Enforcement",
    "final_address": "1966 N Galvez St",
    "address_councildis": "D",
    "status": "Pending",
    "rowid": "1043711",
    "final_x": "3683399.84994",
    "final_y": "539816.39169",
    "longitude": "-90.06178057610414",
    "latitude": "29.978250076153554",
    "geocoded_column": {
      "latitude": "29.978250076153554",
      "longitude": "-90.06178057610414"
    }
  },
  {
    "service_request": "2023-1043710",
    "request_type": "Trash/Recycling",
    "request_reason": "Request a Large Item Pick Up",
    "date_created": "2023-10-16T20:14:42.000",
    "date_modified": "2023-10-16T20:14:43.000",
    "request_status": "Pending",
    "responsible_agency": "Department of Sanitation",
    "final_address": "6955 Louisville St",
    "address_councildis": "A",
    "status": "Assigned to Contractor",
    "contractor": "IV Waste",
    "rowid": "1043710",
    "final_x": "3668432.39668",
    "final_y": "553846.346007",
    "longitude": "-90.1085796995859",
    "latitude": "30.017275820468473",
    "geocoded_column": {
      "latitude": "30.017275820468473",
      "longitude": "-90.1085796995859"
    }
  },
  {
    "service_request": "2023-1043709",
    "request_type": "Tax and Revenue",
    "request_reason": "Pay Property Tax",
    "date_created": "2023-10-16T20:12:51.000",
    "date_modified": "2023-10-16T20:12:51.000",
    "request_status": "Pending",
    "responsible_agency": "Bureau of Treasury",
    "final_address": "1239 N Johnson St",
    "address_councildis": "D",
    "status": "Pending",
    "rowid": "1043709",
    "final_x": "3679913.42984",
    "final_y": "537205.315016",
    "longitude": "-90.0728826595838",
    "latitude": "29.971176438212357",
    "geocoded_column": {
      "latitude": "29.971176438212357",
      "longitude": "-90.0728826595838"
    }
  },
  {
    "service_request": "2023-1043708",
    "request_type": "Trash/Recycling",
    "request_reason": "Order Recycling Cart",
    "date_created": "2023-10-16T20:10:25.000",
    "date_modified": "2023-10-16T20:10:25.000",
    "request_status": "Pending",
    "responsible_agency": "Department of Sanitation",
    "final_address": "4320 Rayne Dr",
    "address_councildis": "D",
    "status": "Pending",
    "rowid": "1043708",
    "final_x": "3679684.16674",
    "final_y": "548137.361746",
    "longitude": "-90.07322702562011",
    "latitude": "30.001242675564438",
    "geocoded_column": {
      "latitude": "30.001242675564438",
      "longitude": "-90.07322702562011"
    }
  },
  {
    "service_request": "2023-1043707",
    "request_type": "Trash/Recycling",
    "request_reason": "Replace Trash Cart",
    "date_created": "2023-10-16T20:07:29.000",
    "date_modified": "2023-10-16T20:07:30.000",
    "request_status": "Pending",
    "responsible_agency": "Department of Sanitation",
    "final_address": "1309 General Taylor St",
    "address_councildis": "B",
    "status": "Assigned to Contractor",
    "contractor": "Richards Disposal",
    "rowid": "1043707",
    "final_x": "3672828.44353",
    "final_y": "520362.03756",
    "longitude": "-90.09583254057156",
    "latitude": "29.925075366813143",
    "geocoded_column": {
      "latitude": "29.925075366813143",
      "longitude": "-90.09583254057156"
    }
  },
  {
    "service_request": "2023-1043706",
    "request_type": "Roads/Drainage",
    "request_reason": "Pothole",
    "date_created": "2023-10-16T20:05:56.000",
    "date_modified": "2023-10-16T20:05:56.000",
    "request_status": "Pending",
    "responsible_agency": "Department of Public Works",
    "final_address": "6030 Chestnut St",
    "address_councildis": "A",
    "status": "Pending",
    "rowid": "1043706",
    "final_x": "3664661.37773",
    "final_y": "519852.51884",
    "longitude": "-90.1216304547064",
    "latitude": "29.923914355909606",
    "geocoded_column": {
      "latitude": "29.923914355909606",
      "longitude": "-90.1216304547064"
    }
  },
  {
    "service_request": "2023-1043705",
    "request_type": "Trash/Recycling",
    "request_reason": "Request a Large Item Pick Up",
    "date_created": "2023-10-16T20:04:32.000",
    "date_modified": "2023-10-16T20:04:33.000",
    "request_status": "Pending",
    "responsible_agency": "Department of Sanitation",
    "final_address": "5881 Bellaire Dr",
    "address_councildis": "A",
    "status": "Assigned to Contractor",
    "contractor": "IV Waste",
    "rowid": "1043705",
    "final_x": "3664276.74208",
    "final_y": "546965.773137",
    "longitude": "-90.12193978337716",
    "latitude": "29.99847810763874",
    "geocoded_column": {
      "latitude": "29.99847810763874",
      "longitude": "-90.12193978337716"
    }
  },
  {
    "service_request": "2023-1043704",
    "request_type": "Trash/Recycling",
    "request_reason": "Missed Trash Pick-Up",
    "date_created": "2023-10-16T19:57:00.000",
    "date_modified": "2023-10-16T19:57:00.000",
    "request_status": "Pending",
    "responsible_agency": "Department of Sanitation",
    "final_address": "1009 Valence St",
    "address_councildis": "B",
    "status": "Assigned to Contractor",
    "contractor": "Richards Disposal",
    "rowid": "1043704",
    "final_x": "3669942.38087",
    "final_y": "519145.628343",
    "longitude": "-90.10498409846822",
    "latitude": "29.921816017954118",
    "geocoded_column": {
      "latitude": "29.921816017954118",
      "longitude": "-90.10498409846822"
    }
  },
  {
    "service_request": "2023-1043703",
    "request_type": "Trash/Recycling",
    "request_reason": "Request a Large Item Pick Up",
    "date_created": "2023-10-16T19:54:36.000",
    "date_modified": "2023-10-16T19:54:37.000",
    "request_status": "Pending",
    "responsible_agency": "Department of Sanitation",
    "final_address": "7322 Strathmore Drive",
    "status": "Assigned to Contractor",
    "rowid": "1043703",
    "longitude": "0.0",
    "latitude": "0.0",
    "geocoded_column": {
      "latitude": "0.0",
      "longitude": "0.0"
    }
  },
  {
    "service_request": "2023-1043702",
    "request_type": "Abandoned Vehicles",
    "request_reason": "Abandoned/Junk Vehicles",
    "date_created": "2023-10-16T19:42:47.000",
    "date_modified": "2023-10-16T19:42:47.000",
    "request_status": "Pending",
    "responsible_agency": "Department of Public Works",
    "final_address": "5300 BLK Memphis St",
    "address_councildis": "A",
    "status": "Pending",
    "rowid": "1043702",
    "final_x": "3668671.64326",
    "final_y": "542431.311907",
    "longitude": "-90.10820939959505",
    "latitude": "29.985881405171614",
    "geocoded_column": {
      "latitude": "29.985881405171614",
      "longitude": "-90.10820939959505"
    }
  },
  {
    "service_request": "2023-1043701",
    "request_type": "Traffic Signals/Signs/Striping/Streetlights",
    "request_reason": "Street Name Sign Damaged or Missing",
    "date_created": "2023-10-16T19:30:43.000",
    "date_modified": "2023-10-16T19:30:43.000",
    "request_status": "Pending",
    "responsible_agency": "Department of Public Works",
    "final_address": "TOULOUSE ST & N LOPEZ ST",
    "address_councildis": "A",
    "status": "Pending",
    "rowid": "1043701",
    "final_x": "3674972.4",
    "final_y": "537679.68",
    "longitude": "-90.08847084863419",
    "latitude": "29.97262930610931",
    "geocoded_column": {
      "latitude": "29.97262930610931",
      "longitude": "-90.08847084863419"
    }
  },
  {
    "service_request": "2023-1043699",
    "request_type": "Property Maintenance",
    "request_reason": "Property Maintenance",
    "date_created": "2023-10-16T19:18:11.000",
    "date_modified": "2023-10-16T19:18:11.000",
    "request_status": "Pending",
    "responsible_agency": "Department of Code Enforcement",
    "final_address": "5621 Baccich St",
    "address_councildis": "D",
    "status": "Pending",
    "rowid": "1043699",
    "final_x": "3687671.10985",
    "final_y": "554010.586136",
    "longitude": "-90.04778747275033",
    "latitude": "30.01714796215931",
    "geocoded_column": {
      "latitude": "30.01714796215931",
      "longitude": "-90.04778747275033"
    }
  },
  {
    "service_request": "2023-1043698",
    "request_type": "Roads/Drainage",
    "request_reason": "Catch Basin - Clogged",
    "date_created": "2023-10-16T19:07:41.000",
    "date_modified": "2023-10-16T19:07:41.000",
    "request_status": "Pending",
    "responsible_agency": "Department of Public Works",
    "final_address": "2421 Lauradale Dr",
    "address_councildis": "C",
    "status": "Pending",
    "rowid": "1043698",
    "final_x": "3692611.65033",
    "final_y": "522640.996282",
    "longitude": "-90.03330196848576",
    "latitude": "29.93073942110244",
    "geocoded_column": {
      "latitude": "29.93073942110244",
      "longitude": "-90.03330196848576"
    }
  },
  {
    "service_request": "2023-1043697",
    "request_type": "Trash/Recycling",
    "request_reason": "Request a Large Item Pick Up",
    "date_created": "2023-10-16T19:00:59.000",
    "date_modified": "2023-10-16T19:01:00.000",
    "request_status": "Pending",
    "responsible_agency": "Department of Sanitation",
    "final_address": "7021 Wayside Dr",
    "address_councildis": "E",
    "status": "Assigned to Contractor",
    "contractor": "Waste Pro",
    "rowid": "1043697",
    "final_x": "3717762.22629",
    "final_y": "567773.500324",
    "longitude": "-89.95218883564827",
    "latitude": "30.05402781490846",
    "geocoded_column": {
      "latitude": "30.05402781490846",
      "longitude": "-89.95218883564827"
    }
  },
  {
    "service_request": "2023-1043696",
    "request_type": "Traffic Signals/Signs/Striping/Streetlights",
    "request_reason": "Street Light Outage/Malfunction",
    "date_created": "2023-10-16T18:52:54.000",
    "date_modified": "2023-10-16T18:52:55.000",
    "request_status": "Pending",
    "responsible_agency": "Department of Public Works",
    "final_address": "5939 Law St, New Orleans, Louisiana, 70117",
    "address_councildis": "E",
    "status": "Assigned to Contractor",
    "contractor": "Legacy Professional Services",
    "rowid": "1043696",
    "final_x": "3701207.99818",
    "final_y": "538883.392649",
    "longitude": "-90.00557056064444",
    "latitude": "29.975129267389658",
    "geocoded_column": {
      "latitude": "29.975129267389658",
      "longitude": "-90.00557056064444"
    }
  },
  {
    "service_request": "2023-1043695",
    "request_type": "Traffic Signals/Signs/Striping/Streetlights",
    "request_reason": "Street Light Outage/Malfunction",
    "date_created": "2023-10-16T18:51:39.000",
    "date_modified": "2023-10-16T18:51:40.000",
    "request_status": "Pending",
    "responsible_agency": "Department of Public Works",
    "final_address": "2606 Gordon St, New Orleans, Louisiana, 70117",
    "address_councildis": "E",
    "status": "Assigned to Contractor",
    "contractor": "Legacy Professional Services",
    "rowid": "1043695",
    "final_x": "3701309.80452",
    "final_y": "538869.135625",
    "longitude": "-90.00524955372448",
    "latitude": "29.975086821609285",
    "geocoded_column": {
      "latitude": "29.975086821609285",
      "longitude": "-90.00524955372448"
    }
  },
  {
    "service_request": "2023-1043693",
    "request_type": "Roads/Drainage",
    "request_reason": "Road Shoulder Repair",
    "date_created": "2023-10-16T18:35:41.000",
    "date_modified": "2023-10-16T18:35:41.000",
    "request_status": "Pending",
    "responsible_agency": "Department of Public Works",
    "final_address": "1605 N Prieur St",
    "address_councildis": "D",
    "status": "Pending",
    "rowid": "1043693",
    "final_x": "3681324.21474",
    "final_y": "538491.870473",
    "longitude": "-90.06838235690552",
    "latitude": "29.974671273699926",
    "geocoded_column": {
      "latitude": "29.974671273699926",
      "longitude": "-90.06838235690552"
    }
  },
  {
    "service_request": "2023-1043692",
    "request_type": "Traffic Signals/Signs/Striping/Streetlights",
    "request_reason": "Street Name Sign Damaged or Missing",
    "date_created": "2023-10-16T18:34:37.000",
    "date_modified": "2023-10-16T18:34:37.000",
    "request_status": "Pending",
    "responsible_agency": "Department of Public Works",
    "final_address": "CONGRESS DR & MIRABEAU AVE",
    "address_councildis": "D",
    "status": "Pending",
    "rowid": "1043692",
    "final_x": "3692201.5",
    "final_y": "552103.48",
    "longitude": "-90.03354169861278",
    "latitude": "30.011763594879003",
    "geocoded_column": {
      "latitude": "30.011763594879003",
      "longitude": "-90.03354169861278"
    }
  },
  {
    "service_request": "2023-1043691",
    "request_type": "Trash/Recycling",
    "request_reason": "Request a Large Item Pick Up",
    "date_created": "2023-10-16T18:33:35.000",
    "date_modified": "2023-10-16T18:33:35.000",
    "request_status": "Pending",
    "responsible_agency": "Department of Sanitation",
    "final_address": "815 Alix St",
    "address_councildis": "C",
    "status": "Assigned to Contractor",
    "contractor": "Richards Disposal",
    "rowid": "1043691",
    "final_x": "3688010.75689",
    "final_y": "530289.452097",
    "longitude": "-90.04755535259278",
    "latitude": "29.95191281107817",
    "geocoded_column": {
      "latitude": "29.95191281107817",
      "longitude": "-90.04755535259278"
    }
  },
  {
    "service_request": "2023-1043690",
    "request_type": "Trash/Recycling",
    "request_reason": "Replace Recycling Cart",
    "date_created": "2023-10-16T18:20:44.000",
    "date_modified": "2023-10-16T18:20:44.000",
    "request_status": "Pending",
    "responsible_agency": "Department of Sanitation",
    "final_address": "6461 Vicksburg St",
    "address_councildis": "A",
    "status": "Pending",
    "rowid": "1043690",
    "final_x": "3669252.83591",
    "final_y": "550462.483412",
    "longitude": "-90.10610194635039",
    "latitude": "30.00794725198003",
    "geocoded_column": {
      "latitude": "30.00794725198003",
      "longitude": "-90.10610194635039"
    }
  },
  {
    "service_request": "2023-1043689",
    "request_type": "Trash/Recycling",
    "request_reason": "Order Recycling Cart",
    "date_created": "2023-10-16T18:20:41.000",
    "date_modified": "2023-10-16T18:20:41.000",
    "request_status": "Pending",
    "responsible_agency": "Department of Sanitation",
    "final_address": "3531 Havana St",
    "address_councildis": "D",
    "status": "Pending",
    "rowid": "1043689",
    "final_x": "3680876.56911",
    "final_y": "545484.476432",
    "longitude": "-90.06955255655863",
    "latitude": "29.993912073564108",
    "geocoded_column": {
      "latitude": "29.993912073564108",
      "longitude": "-90.06955255655863"
    }
  },
  {
    "service_request": "2023-1043688",
    "request_type": "Traffic Signals/Signs/Striping/Streetlights",
    "request_reason": "Street Light Outage/Malfunction",
    "date_created": "2023-10-16T18:19:31.000",
    "date_modified": "2023-10-16T18:19:32.000",
    "request_status": "Pending",
    "responsible_agency": "Department of Public Works",
    "final_address": "2338 Lake Oaks Prkwy",
    "address_councildis": "D",
    "status": "Assigned to Contractor",
    "contractor": "Legacy Professional Services",
    "rowid": "1043688",
    "final_x": "3684343.14082",
    "final_y": "558321.488348",
    "longitude": "-90.05815089818311",
    "latitude": "30.029103595101887",
    "geocoded_column": {
      "latitude": "30.029103595101887",
      "longitude": "-90.05815089818311"
    }
  },
  {
    "service_request": "2023-1043687",
    "request_type": "Trash/Recycling",
    "request_reason": "Request a Large Item Pick Up",
    "date_created": "2023-10-16T18:17:50.000",
    "date_modified": "2023-10-16T18:17:51.000",
    "request_status": "Pending",
    "responsible_agency": "Department of Sanitation",
    "final_address": "6461 Vicksburg St",
    "address_councildis": "A",
    "status": "Assigned to Contractor",
    "contractor": "IV Waste",
    "rowid": "1043687",
    "final_x": "3669252.83591",
    "final_y": "550462.483412",
    "longitude": "-90.10610194635039",
    "latitude": "30.00794725198003",
    "geocoded_column": {
      "latitude": "30.00794725198003",
      "longitude": "-90.10610194635039"
    }
  },
  {
    "service_request": "2023-1043686",
    "request_type": "Traffic Signals/Signs/Striping/Streetlights",
    "request_reason": "Street Light Outage/Malfunction",
    "date_created": "2023-10-16T18:13:34.000",
    "date_modified": "2023-10-16T18:13:35.000",
    "request_status": "Pending",
    "responsible_agency": "Department of Public Works",
    "final_address": "100 BLK N Norman C Francis Pkwy",
    "address_councildis": "B",
    "status": "Assigned to Contractor",
    "contractor": "Legacy Professional Services",
    "rowid": "1043686",
    "final_x": "3673429.82436",
    "final_y": "536868.49298",
    "longitude": "-90.09337031508771",
    "latitude": "29.97044480739492",
    "geocoded_column": {
      "latitude": "29.97044480739492",
      "longitude": "-90.09337031508771"
    }
  },
  {
    "service_request": "2023-1043685",
    "request_type": "Trash/Recycling",
    "request_reason": "Repair Recycling Cart",
    "date_created": "2023-10-16T18:07:11.000",
    "date_modified": "2023-10-16T18:07:11.000",
    "request_status": "Pending",
    "responsible_agency": "Department of Sanitation",
    "final_address": "5713 Rhodes Ave",
    "address_councildis": "C",
    "status": "Pending",
    "rowid": "1043685",
    "final_x": "3704482.95332",
    "final_y": "519695.37836",
    "longitude": "-89.99593479388254",
    "latitude": "29.922264312654917",
    "geocoded_column": {
      "latitude": "29.922264312654917",
      "longitude": "-89.99593479388254"
    }
  },
  {
    "service_request": "2023-1043684",
    "request_type": "Trash/Recycling",
    "request_reason": "Missed Trash Pick-Up",
    "date_created": "2023-10-16T18:06:39.000",
    "date_modified": "2023-10-16T18:06:40.000",
    "request_status": "Pending",
    "responsible_agency": "Department of Sanitation",
    "final_address": "4360 San Remo St",
    "address_councildis": "E",
    "status": "Assigned to Contractor",
    "contractor": "Waste Pro",
    "rowid": "1043684",
    "final_x": "3760654.85827",
    "final_y": "573630.212266",
    "longitude": "-89.8163740824647",
    "latitude": "30.068639759135237",
    "geocoded_column": {
      "latitude": "30.068639759135237",
      "longitude": "-89.8163740824647"
    }
  },
  {
    "service_request": "2023-1043683",
    "request_type": "Abandoned Vehicles",
    "request_reason": "Abandoned/Junk Vehicles",
    "date_created": "2023-10-16T17:52:50.000",
    "date_modified": "2023-10-16T17:52:50.000",
    "request_status": "Pending",
    "responsible_agency": "Department of Public Works",
    "final_address": "2420 Hamilton St",
    "address_councildis": "A",
    "status": "Pending",
    "rowid": "1043683",
    "final_x": "3662294.96877",
    "final_y": "534054.897541",
    "longitude": "-90.12862904545331",
    "latitude": "29.96303496457737",
    "geocoded_column": {
      "latitude": "29.96303496457737",
      "longitude": "-90.12862904545331"
    }
  },
  {
    "service_request": "2023-1043682",
    "request_type": "Trash/Recycling",
    "request_reason": "Request a Large Item Pick Up",
    "date_created": "2023-10-16T17:52:29.000",
    "date_modified": "2023-10-16T17:52:30.000",
    "request_status": "Pending",
    "responsible_agency": "Department of Sanitation",
    "final_address": "616 Esplanade Ave, New Orleans, Louisiana, 70116",
    "address_councildis": "C",
    "status": "Assigned to Contractor",
    "contractor": "Empire Services",
    "rowid": "1043682",
    "final_x": "3684167.67407",
    "final_y": "534245.294789",
    "longitude": "-90.05955111661594",
    "latitude": "29.962908042840077",
    "geocoded_column": {
      "latitude": "29.962908042840077",
      "longitude": "-90.05955111661594"
    }
  },
  {
    "service_request": "2023-1043681",
    "request_type": "Trash/Recycling",
    "request_reason": "Request a Large Item Pick Up",
    "date_created": "2023-10-16T17:51:30.000",
    "date_modified": "2023-10-16T17:51:31.000",
    "request_status": "Pending",
    "responsible_agency": "Department of Sanitation",
    "final_address": "4627 Baccich St",
    "address_councildis": "D",
    "status": "Assigned to Contractor",
    "contractor": "IV Waste",
    "rowid": "1043681",
    "final_x": "3687822.79766",
    "final_y": "549933.14562",
    "longitude": "-90.04745277794852",
    "latitude": "30.005931817810335",
    "geocoded_column": {
      "latitude": "30.005931817810335",
      "longitude": "-90.04745277794852"
    }
  },
  {
    "service_request": "2023-1043680",
    "request_type": "Trash/Recycling",
    "request_reason": "Request a Large Item Pick Up",
    "date_created": "2023-10-16T17:50:53.000",
    "date_modified": "2023-10-16T17:50:54.000",
    "request_status": "Pending",
    "responsible_agency": "Department of Sanitation",
    "final_address": "8116 Belfast St",
    "address_councildis": "A",
    "status": "Assigned to Contractor",
    "contractor": "Richards Disposal",
    "rowid": "1043680",
    "final_x": "3665460.03418",
    "final_y": "532428.337283",
    "longitude": "-90.11868856178884",
    "latitude": "29.95847057822675",
    "geocoded_column": {
      "latitude": "29.95847057822675",
      "longitude": "-90.11868856178884"
    }
  },
  {
    "service_request": "2023-1043679",
    "request_type": "Trash/Recycling",
    "request_reason": "Replace Trash Cart",
    "date_created": "2023-10-16T17:44:09.000",
    "date_modified": "2023-10-16T17:44:10.000",
    "request_status": "Pending",
    "responsible_agency": "Department of Sanitation",
    "final_address": "2246 Lark St",
    "address_councildis": "D",
    "status": "Assigned to Contractor",
    "contractor": "IV Waste",
    "rowid": "1043679",
    "final_x": "3683919.28009",
    "final_y": "557710.647643",
    "longitude": "-90.05951174203479",
    "latitude": "30.027436973291554",
    "geocoded_column": {
      "latitude": "30.027436973291554",
      "longitude": "-90.05951174203479"
    }
  },
  {
    "service_request": "2023-1043678",
    "request_type": "Trash/Recycling",
    "request_reason": "Request a Large Item Pick Up",
    "date_created": "2023-10-16T17:39:33.000",
    "date_modified": "2023-10-16T17:39:33.000",
    "request_status": "Pending",
    "responsible_agency": "Department of Sanitation",
    "final_address": "2916 Laurel St",
    "address_councildis": "B",
    "status": "Assigned to Contractor",
    "contractor": "Richards Disposal",
    "rowid": "1043678",
    "final_x": "3676924.29333",
    "final_y": "519820.149688",
    "longitude": "-90.08292192079136",
    "latitude": "29.923463083481074",
    "geocoded_column": {
      "latitude": "29.923463083481074",
      "longitude": "-90.08292192079136"
    }
  },
  {
    "service_request": "2023-1043677",
    "request_type": "Trash/Recycling",
    "request_reason": "Missed Trash Pick-Up",
    "date_created": "2023-10-16T17:30:14.000",
    "date_modified": "2023-10-16T17:30:15.000",
    "request_status": "Pending",
    "responsible_agency": "Department of Sanitation",
    "final_address": "532 Chartres St",
    "address_councildis": "C",
    "status": "Assigned to Contractor",
    "contractor": "Empire Services",
    "rowid": "1043677",
    "final_x": "3682564.34799",
    "final_y": "531852.082691",
    "longitude": "-90.0646978875855",
    "latitude": "29.956376438175962",
    "geocoded_column": {
      "latitude": "29.956376438175962",
      "longitude": "-90.0646978875855"
    }
  },
  {
    "service_request": "2023-1043676",
    "request_type": "Trash/Recycling",
    "request_reason": "Missed Trash Pick-Up",
    "date_created": "2023-10-16T17:22:07.000",
    "date_modified": "2023-10-16T17:22:08.000",
    "request_status": "Pending",
    "responsible_agency": "Department of Sanitation",
    "final_address": "1012 N Gayoso St",
    "address_councildis": "A",
    "status": "Assigned to Contractor",
    "contractor": "Richards Disposal",
    "rowid": "1043676",
    "final_x": "3676470.98081",
    "final_y": "538731.459529",
    "longitude": "-90.08370182767003",
    "latitude": "29.975476488065166",
    "geocoded_column": {
      "latitude": "29.975476488065166",
      "longitude": "-90.08370182767003"
    }
  },
  {
    "service_request": "2023-1043674",
    "request_type": "Trash/Recycling",
    "request_reason": "Replace Trash Cart",
    "date_created": "2023-10-16T16:58:26.000",
    "date_modified": "2023-10-16T16:58:28.000",
    "request_status": "Pending",
    "responsible_agency": "Department of Sanitation",
    "final_address": "1710 Cambronne St",
    "address_councildis": "A",
    "status": "Assigned to Contractor",
    "contractor": "Richards Disposal",
    "rowid": "1043674",
    "final_x": "3662389.12141",
    "final_y": "530506.482498",
    "longitude": "-90.12844955020033",
    "latitude": "29.953275252440363",
    "geocoded_column": {
      "latitude": "29.953275252440363",
      "longitude": "-90.12844955020033"
    }
  },
  {
    "service_request": "2023-1043673",
    "request_type": "Trash/Recycling",
    "request_reason": "Dead Animal Pick Up",
    "date_created": "2023-10-16T16:50:01.000",
    "date_modified": "2023-10-16T16:50:02.000",
    "request_status": "Pending",
    "responsible_agency": "Department of Sanitation",
    "final_address": "PONTCHARTRAIN BLVD & VETERANS HWY & POLK AVE",
    "address_councildis": "A",
    "status": "Assigned to Contractor",
    "contractor": "IV Waste",
    "rowid": "1043673",
    "final_x": "3666077.8",
    "final_y": "547430.48",
    "longitude": "-90.11623462521324",
    "latitude": "29.9997034127852",
    "geocoded_column": {
      "latitude": "29.9997034127852",
      "longitude": "-90.11623462521324"
    }
  },
  {
    "service_request": "2023-1043672",
    "request_type": "Trash/Recycling",
    "request_reason": "Request a Large Item Pick Up",
    "date_created": "2023-10-16T16:47:59.000",
    "date_modified": "2023-10-16T16:48:00.000",
    "request_status": "Pending",
    "responsible_agency": "Department of Sanitation",
    "final_address": "10500 Prentiss Ave",
    "address_councildis": "E",
    "status": "Assigned to Contractor",
    "contractor": "Waste Pro",
    "rowid": "1043672",
    "final_x": "3714447.94898",
    "final_y": "556311.189722",
    "longitude": "-89.96309760141675",
    "latitude": "30.022620501685957",
    "geocoded_column": {
      "latitude": "30.022620501685957",
      "longitude": "-89.96309760141675"
    }
  },
  {
    "service_request": "2023-1043671",
    "request_type": "Trash/Recycling",
    "request_reason": "Missed Trash Pick-Up",
    "date_created": "2023-10-16T16:46:57.000",
    "date_modified": "2023-10-16T16:46:58.000",
    "request_status": "Pending",
    "responsible_agency": "Department of Sanitation",
    "final_address": "9311 Forshey St",
    "address_councildis": "A",
    "status": "Assigned to Contractor",
    "contractor": "Richards Disposal",
    "rowid": "1043671",
    "final_x": "3663835.67731",
    "final_y": "536865.1394",
    "longitude": "-90.12366996579719",
    "latitude": "29.97071757444581",
    "geocoded_column": {
      "latitude": "29.97071757444581",
      "longitude": "-90.12366996579719"
    }
  },
  {
    "service_request": "2023-1043670",
    "request_type": "Trash/Recycling",
    "request_reason": "Request a Large Item Pick Up",
    "date_created": "2023-10-16T16:45:49.000",
    "date_modified": "2023-10-16T16:45:50.000",
    "request_status": "Pending",
    "responsible_agency": "Department of Sanitation",
    "final_address": "18 Brownlee Ct",
    "address_councildis": "E",
    "status": "Assigned to Contractor",
    "contractor": "Waste Pro",
    "rowid": "1043670",
    "final_x": "3712586.14981",
    "final_y": "567257.8081",
    "longitude": "-89.96856841616861",
    "latitude": "30.052780404013546",
    "geocoded_column": {
      "latitude": "30.052780404013546",
      "longitude": "-89.96856841616861"
    }
  },
  {
    "service_request": "2023-1043669",
    "request_type": "Traffic Signals/Signs/Striping/Streetlights",
    "request_reason": "Request for Stop Sign",
    "date_created": "2023-10-16T16:42:43.000",
    "date_modified": "2023-10-16T16:42:43.000",
    "request_status": "Pending",
    "responsible_agency": "Department of Public Works",
    "final_address": "2700 BLK Saint Ann St",
    "address_councildis": "A",
    "status": "Pending",
    "rowid": "1043669",
    "final_x": "3676680.02456",
    "final_y": "537401.577544",
    "longitude": "-90.08308743842419",
    "latitude": "29.971813497348588",
    "geocoded_column": {
      "latitude": "29.971813497348588",
      "longitude": "-90.08308743842419"
    }
  },
  {
    "service_request": "2023-1043668",
    "request_type": "Trash/Recycling",
    "request_reason": "Order Recycling Cart",
    "date_created": "2023-10-16T16:40:14.000",
    "date_modified": "2023-10-16T16:40:15.000",
    "request_status": "Pending",
    "responsible_agency": "Department of Sanitation",
    "final_address": "2628 Eton St",
    "address_councildis": "C",
    "status": "Pending",
    "contractor": "Richards Disposal",
    "rowid": "1043668",
    "final_x": "3704025.95537",
    "final_y": "521200.422137",
    "longitude": "-89.99732194467693",
    "latitude": "29.926417319660175",
    "geocoded_column": {
      "latitude": "29.926417319660175",
      "longitude": "-89.99732194467693"
    }
  },
  {
    "service_request": "2023-1043667",
    "request_type": "Trash/Recycling",
    "request_reason": "Order Trash Cart",
    "date_created": "2023-10-16T16:40:03.000",
    "date_modified": "2023-10-16T16:40:04.000",
    "request_status": "Pending",
    "responsible_agency": "Department of Sanitation",
    "final_address": "2628 Eton St",
    "address_councildis": "C",
    "status": "Assigned to Contractor",
    "contractor": "Richards Disposal",
    "rowid": "1043667",
    "final_x": "3704025.95537",
    "final_y": "521200.422137",
    "longitude": "-89.99732194467693",
    "latitude": "29.926417319660175",
    "geocoded_column": {
      "latitude": "29.926417319660175",
      "longitude": "-89.99732194467693"
    }
  },
  {
    "service_request": "2023-1043666",
    "request_type": "Trash/Recycling",
    "request_reason": "Missed Trash Pick-Up",
    "date_created": "2023-10-16T16:36:42.000",
    "date_modified": "2023-10-16T16:36:43.000",
    "request_status": "Pending",
    "responsible_agency": "Department of Sanitation",
    "final_address": "1312 St Maurice Ave",
    "address_councildis": "E",
    "status": "Assigned to Contractor",
    "contractor": "Waste Pro",
    "rowid": "1043666",
    "final_x": "3700121.31306",
    "final_y": "534000.519621",
    "longitude": "-90.00918078569877",
    "latitude": "29.96173770400343",
    "geocoded_column": {
      "latitude": "29.96173770400343",
      "longitude": "-90.00918078569877"
    }
  },
  {
    "service_request": "2023-1043665",
    "request_type": "Trash/Recycling",
    "request_reason": "Request a Large Item Pick Up",
    "date_created": "2023-10-16T16:34:49.000",
    "date_modified": "2023-10-16T16:34:49.000",
    "request_status": "Pending",
    "responsible_agency": "Department of Sanitation",
    "final_address": "6943 E Laverne St",
    "address_councildis": "D",
    "status": "Assigned to Contractor",
    "contractor": "Waste Pro",
    "rowid": "1043665",
    "final_x": "3697249.60528",
    "final_y": "556858.326938",
    "longitude": "-90.01742017392971",
    "latitude": "30.02467920585212",
    "geocoded_column": {
      "latitude": "30.02467920585212",
      "longitude": "-90.01742017392971"
    }
  },
  {
    "service_request": "2023-1043664",
    "request_type": "Trash/Recycling",
    "request_reason": "Repair Recycling Cart",
    "date_created": "2023-10-16T16:33:25.000",
    "date_modified": "2023-10-16T16:33:25.000",
    "request_status": "Pending",
    "responsible_agency": "Department of Sanitation",
    "final_address": "7334 Beryl St",
    "address_councildis": "D",
    "status": "Pending",
    "rowid": "1043664",
    "final_x": "3668582.00135",
    "final_y": "555710.681177",
    "longitude": "-90.1080440179437",
    "latitude": "30.022397682919582",
    "geocoded_column": {
      "latitude": "30.022397682919582",
      "longitude": "-90.1080440179437"
    }
  },
  {
    "service_request": "2023-1043662",
    "request_type": "Roads/Drainage",
    "request_reason": "Road Shoulder Repair",
    "date_created": "2023-10-16T16:17:37.000",
    "date_modified": "2023-10-16T16:17:37.000",
    "request_status": "Pending",
    "responsible_agency": "Department of Public Works",
    "final_address": "935 Barracks St",
    "address_councildis": "C",
    "status": "Pending",
    "rowid": "1043662",
    "final_x": "3683086.21858",
    "final_y": "534841.932102",
    "longitude": "-90.06294532425949",
    "latitude": "29.96458160274991",
    "geocoded_column": {
      "latitude": "29.96458160274991",
      "longitude": "-90.06294532425949"
    }
  },
  {
    "service_request": "2023-1043661",
    "request_type": "Property Maintenance",
    "request_reason": "Property Maintenance",
    "date_created": "2023-10-16T16:16:36.000",
    "date_modified": "2023-10-16T16:16:36.000",
    "request_status": "Pending",
    "responsible_agency": "Department of Code Enforcement",
    "final_address": "2802 N Rampart St",
    "address_councildis": "C",
    "status": "Pending",
    "rowid": "1043661",
    "final_x": "3687614.24438",
    "final_y": "535762.497287",
    "longitude": "-90.04861359000519",
    "latitude": "29.966974021265088",
    "geocoded_column": {
      "latitude": "29.966974021265088",
      "longitude": "-90.04861359000519"
    }
  },
  {
    "service_request": "2023-1043660",
    "request_type": "Trash/Recycling",
    "request_reason": "Replace Trash Cart",
    "date_created": "2023-10-16T16:15:34.000",
    "date_modified": "2023-10-16T16:15:35.000",
    "request_status": "Pending",
    "responsible_agency": "Department of Sanitation",
    "final_address": "3114 Bienville Ave",
    "address_councildis": "B",
    "status": "Assigned to Contractor",
    "contractor": "Richards Disposal",
    "rowid": "1043660",
    "final_x": "3674401.34152",
    "final_y": "536730.936839",
    "longitude": "-90.09030686233679",
    "latitude": "29.970037631146166",
    "geocoded_column": {
      "latitude": "29.970037631146166",
      "longitude": "-90.09030686233679"
    }
  },
  {
    "service_request": "2023-1043659",
    "request_type": "Trash/Recycling",
    "request_reason": "Replace Trash Cart",
    "date_created": "2023-10-16T16:15:33.000",
    "date_modified": "2023-10-16T16:15:34.000",
    "request_status": "Pending",
    "responsible_agency": "Department of Sanitation",
    "final_address": "3114 Bienville Ave",
    "address_councildis": "B",
    "status": "Assigned to Contractor",
    "contractor": "Richards Disposal",
    "rowid": "1043659",
    "final_x": "3674401.34152",
    "final_y": "536730.936839",
    "longitude": "-90.09030686233679",
    "latitude": "29.970037631146166",
    "geocoded_column": {
      "latitude": "29.970037631146166",
      "longitude": "-90.09030686233679"
    }
  },
  {
    "service_request": "2023-1043658",
    "request_type": "Trash/Recycling",
    "request_reason": "Replace Trash Cart",
    "date_created": "2023-10-16T16:14:58.000",
    "date_modified": "2023-10-16T16:14:58.000",
    "request_status": "Pending",
    "responsible_agency": "Department of Sanitation",
    "final_address": "3114 Bienville Ave",
    "address_councildis": "B",
    "status": "Assigned to Contractor",
    "contractor": "Richards Disposal",
    "rowid": "1043658",
    "final_x": "3674401.34152",
    "final_y": "536730.936839",
    "longitude": "-90.09030686233679",
    "latitude": "29.970037631146166",
    "geocoded_column": {
      "latitude": "29.970037631146166",
      "longitude": "-90.09030686233679"
    }
  },
  {
    "service_request": "2023-1043657",
    "request_type": "Trash/Recycling",
    "request_reason": "Illegal Dumping",
    "date_created": "2023-10-16T16:11:39.000",
    "date_modified": "2023-10-16T16:11:39.000",
    "request_status": "Pending",
    "responsible_agency": "Department of Sanitation",
    "final_address": "AMELIA ST & TCHOUPITOULAS ST",
    "address_councildis": "B",
    "status": "Pending",
    "rowid": "1043657",
    "final_x": "3674004.9",
    "final_y": "517748.98",
    "longitude": "-90.09220818599879",
    "latitude": "29.917855306658524",
    "geocoded_column": {
      "latitude": "29.917855306658524",
      "longitude": "-90.09220818599879"
    }
  },
  {
    "service_request": "2023-1043656",
    "request_type": "Trash/Recycling",
    "request_reason": "Request a Large Item Pick Up",
    "date_created": "2023-10-16T16:08:54.000",
    "date_modified": "2023-10-16T16:08:55.000",
    "request_status": "Pending",
    "responsible_agency": "Department of Sanitation",
    "final_address": "2906 St Philip St",
    "address_councildis": "A",
    "status": "Assigned to Contractor",
    "contractor": "Richards Disposal",
    "rowid": "1043656",
    "final_x": "3676586.78536",
    "final_y": "538419.041289",
    "longitude": "-90.08334684892458",
    "latitude": "29.97461397178986",
    "geocoded_column": {
      "latitude": "29.97461397178986",
      "longitude": "-90.08334684892458"
    }
  },
  {
    "service_request": "2023-1043655",
    "request_type": "Trash/Recycling",
    "request_reason": "Order Trash Cart",
    "date_created": "2023-10-16T16:06:55.000",
    "date_modified": "2023-10-16T16:06:55.000",
    "request_status": "Pending",
    "responsible_agency": "Department of Sanitation",
    "final_address": "835 Pontalba St",
    "address_councildis": "A",
    "status": "Assigned to Contractor",
    "contractor": "IV Waste",
    "rowid": "1043655",
    "final_x": "3669019.09038",
    "final_y": "544427.007503",
    "longitude": "-90.10704448737287",
    "latitude": "29.991358666431196",
    "geocoded_column": {
      "latitude": "29.991358666431196",
      "longitude": "-90.10704448737287"
    }
  },
  {
    "service_request": "2023-1043654",
    "request_type": "Trash/Recycling",
    "request_reason": "Request a Large Item Pick Up",
    "date_created": "2023-10-16T16:06:22.000",
    "date_modified": "2023-10-16T16:06:23.000",
    "request_status": "Pending",
    "responsible_agency": "Department of Sanitation",
    "final_address": "4856 Tchoupitoulas St",
    "address_councildis": "B",
    "status": "Assigned to Contractor",
    "contractor": "Richards Disposal",
    "rowid": "1043654",
    "final_x": "3669223.33018",
    "final_y": "517212.147509",
    "longitude": "-90.1073191445732",
    "latitude": "29.916520731579396",
    "geocoded_column": {
      "latitude": "29.916520731579396",
      "longitude": "-90.1073191445732"
    }
  },
  {
    "service_request": "2023-1043653",
    "request_type": "Trash/Recycling",
    "request_reason": "MIssed Recycling Pick-Up",
    "date_created": "2023-10-16T16:05:46.000",
    "date_modified": "2023-10-16T16:05:47.000",
    "request_status": "Pending",
    "responsible_agency": "Department of Sanitation",
    "final_address": "3145 N Robertson St",
    "address_councildis": "D",
    "status": "Assigned to Contractor",
    "contractor": "IV Waste",
    "rowid": "1043653",
    "final_x": "3689794.18108",
    "final_y": "537442.603848",
    "longitude": "-90.04166955541221",
    "latitude": "29.971526338046548",
    "geocoded_column": {
      "latitude": "29.971526338046548",
      "longitude": "-90.04166955541221"
    }
  },
  {
    "service_request": "2023-1043652",
    "request_type": "Trash/Recycling",
    "request_reason": "Repair Trash Cart",
    "date_created": "2023-10-16T15:59:32.000",
    "date_modified": "2023-10-16T15:59:32.000",
    "request_status": "Pending",
    "responsible_agency": "Department of Sanitation",
    "final_address": "928 Taft Pl",
    "address_councildis": "A",
    "status": "Assigned to Contractor",
    "contractor": "Richards Disposal",
    "rowid": "1043652",
    "final_x": "3673913.11944",
    "final_y": "540281.059019",
    "longitude": "-90.09172723216493",
    "latitude": "29.979813812692882",
    "geocoded_column": {
      "latitude": "29.979813812692882",
      "longitude": "-90.09172723216493"
    }
  },
  {
    "service_request": "2023-1043651",
    "request_type": "Abandoned Vehicles",
    "request_reason": "Abandoned/Junk Vehicles",
    "date_created": "2023-10-16T15:59:24.000",
    "date_modified": "2023-10-16T15:59:24.000",
    "request_status": "Pending",
    "responsible_agency": "Department of Public Works",
    "final_address": "5300 BLK Constance St",
    "address_councildis": "B",
    "status": "Pending",
    "rowid": "1043651",
    "final_x": "3667276.17591",
    "final_y": "518291.386105",
    "longitude": "-90.113428911014",
    "latitude": "29.919545442340482",
    "geocoded_column": {
      "latitude": "29.919545442340482",
      "longitude": "-90.113428911014"
    }
  },
  {
    "service_request": "2023-1043650",
    "request_type": "Trash/Recycling",
    "request_reason": "Illegal Dumping",
    "date_created": "2023-10-16T15:58:07.000",
    "date_modified": "2023-10-16T15:58:08.000",
    "request_status": "Pending",
    "responsible_agency": "Department of Sanitation",
    "final_address": "11230 Morrison Rd",
    "address_councildis": "E",
    "status": "Pending",
    "rowid": "1043650",
    "final_x": "3712007.42283",
    "final_y": "565415.276322",
    "longitude": "-89.97046685922776",
    "latitude": "30.04773312953699",
    "geocoded_column": {
      "latitude": "30.04773312953699",
      "longitude": "-89.97046685922776"
    }
  },
  {
    "service_request": "2023-1043649",
    "request_type": "Trash/Recycling",
    "request_reason": "Request a Large Item Pick Up",
    "date_created": "2023-10-16T15:54:18.000",
    "date_modified": "2023-10-16T15:54:19.000",
    "request_status": "Pending",
    "responsible_agency": "Department of Sanitation",
    "final_address": "12400 N Lake Carmel Dr",
    "address_councildis": "E",
    "status": "Assigned to Contractor",
    "contractor": "Waste Pro",
    "rowid": "1043649",
    "final_x": "3715367.01125",
    "final_y": "567568.389604",
    "longitude": "-89.95976722187062",
    "latitude": "30.053543010614035",
    "geocoded_column": {
      "latitude": "30.053543010614035",
      "longitude": "-89.95976722187062"
    }
  },
  {
    "service_request": "2023-1043648",
    "request_type": "Safety & Permits",
    "request_reason": "Licenses & Permits",
    "date_created": "2023-10-16T15:53:08.000",
    "date_modified": "2023-10-16T15:53:08.000",
    "request_status": "Pending",
    "responsible_agency": "Safety and Permits",
    "final_address": "5902 Marshal Foch St",
    "address_councildis": "A",
    "status": "Pending",
    "rowid": "1043648",
    "final_x": "3669674.05025",
    "final_y": "546565.222929",
    "longitude": "-90.10490320086377",
    "latitude": "29.997218731775796",
    "geocoded_column": {
      "latitude": "29.997218731775796",
      "longitude": "-90.10490320086377"
    }
  },
  {
    "service_request": "2023-1043647",
    "request_type": "Trash/Recycling",
    "request_reason": "Replace Trash Cart",
    "date_created": "2023-10-16T15:52:13.000",
    "date_modified": "2023-10-16T15:52:14.000",
    "request_status": "Pending",
    "responsible_agency": "Department of Sanitation",
    "final_address": "423 Seattle St",
    "address_councildis": "A",
    "status": "Assigned to Contractor",
    "contractor": "IV Waste",
    "rowid": "1043647",
    "final_x": "3664765.83213",
    "final_y": "552220.935958",
    "longitude": "-90.1202189834646",
    "latitude": "30.012913762192497",
    "geocoded_column": {
      "latitude": "30.012913762192497",
      "longitude": "-90.1202189834646"
    }
  },
  {
    "service_request": "2023-1043646",
    "request_type": "Trash/Recycling",
    "request_reason": "Request a Large Item Pick Up",
    "date_created": "2023-10-16T15:50:46.000",
    "date_modified": "2023-10-16T15:50:46.000",
    "request_status": "Pending",
    "responsible_agency": "Department of Sanitation",
    "final_address": "1521 St Andrew St",
    "address_councildis": "B",
    "status": "Assigned to Contractor",
    "contractor": "Richards Disposal",
    "rowid": "1043646",
    "final_x": "3678437.75688",
    "final_y": "523925.83622",
    "longitude": "-90.07800249512528",
    "latitude": "29.934706880168793",
    "geocoded_column": {
      "latitude": "29.934706880168793",
      "longitude": "-90.07800249512528"
    }
  },
  {
    "service_request": "2023-1043645",
    "request_type": "Trash/Recycling",
    "request_reason": "Repair Trash Cart",
    "date_created": "2023-10-16T15:49:38.000",
    "date_modified": "2023-10-16T15:49:38.000",
    "request_status": "Pending",
    "responsible_agency": "Department of Sanitation",
    "final_address": "2311 Toledano St",
    "address_councildis": "B",
    "status": "Assigned to Contractor",
    "contractor": "Richards Disposal",
    "rowid": "1043645",
    "final_x": "3673557.3348",
    "final_y": "524093.691004",
    "longitude": "-90.0934041929337",
    "latitude": "29.93531454265305",
    "geocoded_column": {
      "latitude": "29.93531454265305",
      "longitude": "-90.0934041929337"
    }
  },
  {
    "service_request": "2023-1043644",
    "request_type": "Abandoned Vehicles",
    "request_reason": "Abandoned/Junk Vehicles",
    "date_created": "2023-10-16T15:41:14.000",
    "date_modified": "2023-10-16T15:41:14.000",
    "request_status": "Pending",
    "responsible_agency": "Department of Public Works",
    "final_address": "TOLEDANO ST & S GALVEZ ST",
    "address_councildis": "B",
    "status": "Pending",
    "rowid": "1043644",
    "final_x": "3671915.3",
    "final_y": "527988.58",
    "longitude": "-90.09845559397772",
    "latitude": "29.946072975147402",
    "geocoded_column": {
      "latitude": "29.946072975147402",
      "longitude": "-90.09845559397772"
    }
  },
  {
    "service_request": "2023-1043643",
    "request_type": "Trash/Recycling",
    "request_reason": "Missed Trash Pick-Up",
    "date_created": "2023-10-16T15:38:17.000",
    "date_modified": "2023-10-16T15:38:17.000",
    "request_status": "Pending",
    "responsible_agency": "Department of Sanitation",
    "final_address": "319 30th Street ",
    "address_councildis": "A",
    "status": "Assigned to Contractor",
    "contractor": "IV Waste",
    "rowid": "1043643",
    "final_x": "3665110.43367",
    "final_y": "550581.477588",
    "longitude": "-90.11918511083631",
    "latitude": "30.008395786165796",
    "geocoded_column": {
      "latitude": "30.008395786165796",
      "longitude": "-90.11918511083631"
    }
  },
  {
    "service_request": "2023-1043642",
    "request_type": "Property Maintenance",
    "request_reason": "Property Maintenance",
    "date_created": "2023-10-16T15:36:59.000",
    "date_modified": "2023-10-16T15:36:59.000",
    "request_status": "Pending",
    "responsible_agency": "Department of Code Enforcement",
    "final_address": "544 Atlantic Ave",
    "address_councildis": "C",
    "status": "Pending",
    "rowid": "1043642",
    "final_x": "3688857.2415",
    "final_y": "529484.970945",
    "longitude": "-90.04491112538211",
    "latitude": "29.949674619086586",
    "geocoded_column": {
      "latitude": "29.949674619086586",
      "longitude": "-90.04491112538211"
    }
  },
  {
    "service_request": "2023-1043641",
    "request_type": "Property Maintenance",
    "request_reason": "Property Maintenance",
    "date_created": "2023-10-16T15:36:24.000",
    "date_modified": "2023-10-16T15:36:24.000",
    "request_status": "Pending",
    "responsible_agency": "Department of Code Enforcement",
    "final_address": "540 Atlantic Ave",
    "address_councildis": "C",
    "status": "Pending",
    "rowid": "1043641",
    "final_x": "3688858.10953",
    "final_y": "529510.144577",
    "longitude": "-90.04490749086993",
    "latitude": "29.949743811099847",
    "geocoded_column": {
      "latitude": "29.949743811099847",
      "longitude": "-90.04490749086993"
    }
  },
  {
    "service_request": "2023-1043640",
    "request_type": "Property Maintenance",
    "request_reason": "Property Maintenance",
    "date_created": "2023-10-16T15:36:09.000",
    "date_modified": "2023-10-16T15:36:09.000",
    "request_status": "Pending",
    "responsible_agency": "Department of Code Enforcement",
    "final_address": "536 Atlantic Ave",
    "address_councildis": "C",
    "status": "Pending",
    "rowid": "1043640",
    "final_x": "3688861.58179",
    "final_y": "529548.339009",
    "longitude": "-90.04489517133467",
    "latitude": "29.94984872532574",
    "geocoded_column": {
      "latitude": "29.94984872532574",
      "longitude": "-90.04489517133467"
    }
  },
  {
    "service_request": "2023-1043639",
    "request_type": "Property Maintenance",
    "request_reason": "Property Maintenance",
    "date_created": "2023-10-16T15:35:27.000",
    "date_modified": "2023-10-16T15:35:27.000",
    "request_status": "Pending",
    "responsible_agency": "Department of Code Enforcement",
    "final_address": "532 Atlantic Ave",
    "address_councildis": "C",
    "status": "Pending",
    "rowid": "1043639",
    "final_x": "3688862.44982",
    "final_y": "529580.457089",
    "longitude": "-90.04489129024866",
    "latitude": "29.949937012185735",
    "geocoded_column": {
      "latitude": "29.949937012185735",
      "longitude": "-90.04489129024866"
    }
  },
  {
    "service_request": "2023-1043638",
    "request_type": "Property Maintenance",
    "request_reason": "Property Maintenance",
    "date_created": "2023-10-16T15:34:42.000",
    "date_modified": "2023-10-16T15:34:43.000",
    "request_status": "Pending",
    "responsible_agency": "Department of Code Enforcement",
    "final_address": "528 Atlantic Ave",
    "address_councildis": "C",
    "status": "Pending",
    "rowid": "1043638",
    "final_x": "3688859.84566",
    "final_y": "529612.575105",
    "longitude": "-90.04489837245035",
    "latitude": "29.950025406223745",
    "geocoded_column": {
      "latitude": "29.950025406223745",
      "longitude": "-90.04489837245035"
    }
  },
  {
    "service_request": "2023-1043637",
    "request_type": "Trash/Recycling",
    "request_reason": "Order Recycling Cart",
    "date_created": "2023-10-16T15:30:56.000",
    "date_modified": "2023-10-16T15:30:56.000",
    "request_status": "Pending",
    "responsible_agency": "Department of Sanitation",
    "final_address": "100 BLK N Carrollton Ave",
    "address_councildis": "A",
    "status": "Pending",
    "rowid": "1043637",
    "final_x": "3671489.32398",
    "final_y": "538677.137656",
    "longitude": "-90.09943714008182",
    "latitude": "29.9754755669433",
    "geocoded_column": {
      "latitude": "29.9754755669433",
      "longitude": "-90.09943714008182"
    }
  },
  {
    "service_request": "2023-1043636",
    "request_type": "Trash/Recycling",
    "request_reason": "Dead Animal Pick Up",
    "date_created": "2023-10-16T15:30:16.000",
    "date_modified": "2023-10-16T15:30:17.000",
    "request_status": "Pending",
    "responsible_agency": "Department of Sanitation",
    "final_address": "4528 Freret St",
    "address_councildis": "B",
    "status": "Assigned to Contractor",
    "contractor": "Richards Disposal",
    "rowid": "1043636",
    "final_x": "3669841.90055",
    "final_y": "523938.333308",
    "longitude": "-90.10513911435855",
    "latitude": "29.934997387234766",
    "geocoded_column": {
      "latitude": "29.934997387234766",
      "longitude": "-90.10513911435855"
    }
  },
  {
    "service_request": "2023-1043635",
    "request_type": "Trash/Recycling",
    "request_reason": "Request a Large Item Pick Up",
    "date_created": "2023-10-16T15:26:27.000",
    "date_modified": "2023-10-16T15:26:44.000",
    "request_status": "Pending",
    "responsible_agency": "Department of Sanitation",
    "final_address": "2368 Magazine St",
    "address_councildis": "B",
    "status": "Assigned to Contractor",
    "contractor": "Richards Disposal",
    "rowid": "1043635",
    "final_x": "3678127.71899",
    "final_y": "521486.103929",
    "longitude": "-90.07906558983451",
    "latitude": "29.928007750806092",
    "geocoded_column": {
      "latitude": "29.928007750806092",
      "longitude": "-90.07906558983451"
    }
  },
  {
    "service_request": "2023-1043634",
    "request_type": "Roads/Drainage",
    "request_reason": "Pothole",
    "date_created": "2023-10-16T15:25:17.000",
    "date_modified": "2023-10-16T15:25:17.000",
    "request_status": "Pending",
    "responsible_agency": "Department of Public Works",
    "final_address": "4918 Warrington Dr",
    "address_councildis": "D",
    "status": "Pending",
    "rowid": "1043634",
    "final_x": "3680987.44456",
    "final_y": "550691.232532",
    "longitude": "-90.0690208378165",
    "latitude": "30.00822543108846",
    "geocoded_column": {
      "latitude": "30.00822543108846",
      "longitude": "-90.0690208378165"
    }
  },
  {
    "service_request": "2023-1043633",
    "request_type": "Property Maintenance",
    "request_reason": "Property Maintenance",
    "date_created": "2023-10-16T15:23:12.000",
    "date_modified": "2023-10-16T15:23:12.000",
    "request_status": "Pending",
    "responsible_agency": "Department of Code Enforcement",
    "final_address": "2022 Treasure St",
    "address_councildis": "D",
    "status": "Pending",
    "rowid": "1043633",
    "final_x": "3683086.76437",
    "final_y": "543885.094158",
    "longitude": "-90.0626269041298",
    "latitude": "29.989447126826214",
    "geocoded_column": {
      "latitude": "29.989447126826214",
      "longitude": "-90.0626269041298"
    }
  },
  {
    "service_request": "2023-1043632",
    "request_type": "Roads/Drainage",
    "request_reason": "Pothole",
    "date_created": "2023-10-16T15:19:37.000",
    "date_modified": "2023-10-16T15:19:37.000",
    "request_status": "Pending",
    "responsible_agency": "Department of Public Works",
    "final_address": "1315 Peniston St",
    "address_councildis": "B",
    "status": "Pending",
    "rowid": "1043632",
    "final_x": "3673101.31451",
    "final_y": "520423.11276",
    "longitude": "-90.09496908964098",
    "latitude": "29.925235197927364",
    "geocoded_column": {
      "latitude": "29.925235197927364",
      "longitude": "-90.09496908964098"
    }
  },
  {
    "service_request": "2023-1043631",
    "request_type": "Traffic Signals/Signs/Striping/Streetlights",
    "request_reason": "Traffic Signal Malfunctioning/Damaged",
    "date_created": "2023-10-16T15:17:23.000",
    "date_modified": "2023-10-16T15:17:24.000",
    "request_status": "Pending",
    "responsible_agency": "Department of Public Works",
    "final_address": "CROWDER BLVD & MORRISON RD",
    "address_councildis": "E",
    "status": "Pending",
    "rowid": "1043631",
    "final_x": "3703739.9",
    "final_y": "560831.58",
    "longitude": "-89.99676565482832",
    "latitude": "30.035397561791353",
    "geocoded_column": {
      "latitude": "30.035397561791353",
      "longitude": "-89.99676565482832"
    }
  },
  {
    "service_request": "2023-1043630",
    "request_type": "Trash/Recycling",
    "request_reason": "Request a Large Item Pick Up",
    "date_created": "2023-10-16T15:15:56.000",
    "date_modified": "2023-10-16T15:15:57.000",
    "request_status": "Pending",
    "responsible_agency": "Department of Sanitation",
    "final_address": "8000 Gus St",
    "address_councildis": "E",
    "status": "Assigned to Contractor",
    "contractor": "Waste Pro",
    "rowid": "1043630",
    "final_x": "3703402.78666",
    "final_y": "563010.017184",
    "longitude": "-89.99775074040811",
    "latitude": "30.04139821670854",
    "geocoded_column": {
      "latitude": "30.04139821670854",
      "longitude": "-89.99775074040811"
    }
  },
  {
    "service_request": "2023-1043629",
    "request_type": "Trash/Recycling",
    "request_reason": "Request a Large Item Pick Up",
    "date_created": "2023-10-16T15:14:23.000",
    "date_modified": "2023-10-16T15:14:24.000",
    "request_status": "Pending",
    "responsible_agency": "Department of Sanitation",
    "final_address": "2371 Prancer St",
    "address_councildis": "C",
    "status": "Assigned to Contractor",
    "contractor": "Richards Disposal",
    "rowid": "1043629",
    "final_x": "3699902.82096",
    "final_y": "522592.751162",
    "longitude": "-90.01028669325834",
    "latitude": "29.930377289025692",
    "geocoded_column": {
      "latitude": "29.930377289025692",
      "longitude": "-90.01028669325834"
    }
  },
  {
    "service_request": "2023-1043628",
    "request_type": "Roads/Drainage",
    "request_reason": "Pothole",
    "date_created": "2023-10-16T15:13:45.000",
    "date_modified": "2023-10-16T15:13:45.000",
    "request_status": "Pending",
    "responsible_agency": "Department of Public Works",
    "final_address": "1421 Constantinople St",
    "address_councildis": "B",
    "status": "Pending",
    "rowid": "1043628",
    "final_x": "3672433.24257",
    "final_y": "520667.657465",
    "longitude": "-90.09706965638372",
    "latitude": "29.925927453713577",
    "geocoded_column": {
      "latitude": "29.925927453713577",
      "longitude": "-90.09706965638372"
    }
  },
  {
    "service_request": "2023-1043627",
    "request_type": "Trash/Recycling",
    "request_reason": "Replace Trash Cart",
    "date_created": "2023-10-16T15:12:01.000",
    "date_modified": "2023-10-16T15:12:02.000",
    "request_status": "Pending",
    "responsible_agency": "Department of Sanitation",
    "final_address": "3100 Monroe St",
    "address_councildis": "A",
    "status": "Assigned to Contractor",
    "contractor": "Richards Disposal",
    "rowid": "1043627",
    "final_x": "3664964.75271",
    "final_y": "534883.101062",
    "longitude": "-90.12017046623276",
    "latitude": "29.965234800534574",
    "geocoded_column": {
      "latitude": "29.965234800534574",
      "longitude": "-90.12017046623276"
    }
  },
  {
    "service_request": "2023-1043626",
    "request_type": "Trash/Recycling",
    "request_reason": "Request a Large Item Pick Up",
    "date_created": "2023-10-16T15:10:35.000",
    "date_modified": "2023-10-16T15:10:35.000",
    "request_status": "Pending",
    "responsible_agency": "Department of Sanitation",
    "final_address": "111 Egret St",
    "address_councildis": "D",
    "status": "Assigned to Contractor",
    "contractor": "IV Waste",
    "rowid": "1043626",
    "final_x": "3673608.99393",
    "final_y": "555871.256217",
    "longitude": "-90.09215441425657",
    "latitude": "30.022690440306643",
    "geocoded_column": {
      "latitude": "30.022690440306643",
      "longitude": "-90.09215441425657"
    }
  },
  {
    "service_request": "2023-1043625",
    "request_type": "Parks & Parkways",
    "request_reason": "Request Tree Service (Right of Way/Public Property)",
    "date_created": "2023-10-16T15:09:43.000",
    "date_modified": "2023-10-16T15:09:43.000",
    "request_status": "Pending",
    "responsible_agency": "Department of Parks & Parkway",
    "final_address": "BURGUNDY ST & ANDRY ST",
    "address_councildis": "E",
    "status": "Pending",
    "rowid": "1043625",
    "final_x": "3696946.1",
    "final_y": "533190.78",
    "longitude": "-90.0192368622843",
    "latitude": "29.959611718824487",
    "geocoded_column": {
      "latitude": "29.959611718824487",
      "longitude": "-90.0192368622843"
    }
  },
  {
    "service_request": "2023-1043624",
    "request_type": "Roads/Drainage",
    "request_reason": "Pothole",
    "date_created": "2023-10-16T15:07:18.000",
    "date_modified": "2023-10-16T15:07:18.000",
    "request_status": "Pending",
    "responsible_agency": "Department of Public Works",
    "final_address": "1312 Milan St",
    "address_councildis": "B",
    "status": "Pending",
    "rowid": "1043624",
    "final_x": "3671625.82823",
    "final_y": "520286.919608",
    "longitude": "-90.09963137110304",
    "latitude": "29.92490447494246",
    "geocoded_column": {
      "latitude": "29.92490447494246",
      "longitude": "-90.09963137110304"
    }
  },
  {
    "service_request": "2023-1043623",
    "request_type": "Trash/Recycling",
    "request_reason": "Order Recycling Cart",
    "date_created": "2023-10-16T15:07:06.000",
    "date_modified": "2023-10-16T15:07:06.000",
    "request_status": "Pending",
    "responsible_agency": "Department of Sanitation",
    "final_address": "3113 Marais St",
    "address_councildis": "C",
    "status": "Pending",
    "rowid": "1043623",
    "final_x": "3689214.59119",
    "final_y": "536353.469383",
    "longitude": "-90.04353869772486",
    "latitude": "29.968549552987593",
    "geocoded_column": {
      "latitude": "29.968549552987593",
      "longitude": "-90.04353869772486"
    }
  },
  {
    "service_request": "2023-1043622",
    "request_type": "Trash/Recycling",
    "request_reason": "Illegal Dumping",
    "date_created": "2023-10-16T15:05:58.000",
    "date_modified": "2023-10-16T15:05:58.000",
    "request_status": "Pending",
    "responsible_agency": "Department of Sanitation",
    "final_address": "2190 Law St",
    "address_councildis": "D",
    "status": "Pending",
    "rowid": "1043622",
    "final_x": "3684373.44751",
    "final_y": "541696.012044",
    "longitude": "-90.05863956836227",
    "latitude": "29.983388627986635",
    "geocoded_column": {
      "latitude": "29.983388627986635",
      "longitude": "-90.05863956836227"
    }
  },
  {
    "service_request": "2023-1043621",
    "request_type": "Safety & Permits",
    "request_reason": "Licenses & Permits",
    "date_created": "2023-10-16T15:04:14.000",
    "date_modified": "2023-10-16T15:04:14.000",
    "request_status": "Pending",
    "responsible_agency": "Safety and Permits",
    "final_address": "22 Stilt St",
    "address_councildis": "D",
    "status": "Pending",
    "rowid": "1043621",
    "final_x": "3673190.41416",
    "final_y": "557449.820187",
    "longitude": "-90.0934230574922",
    "latitude": "30.027043382080823",
    "geocoded_column": {
      "latitude": "30.027043382080823",
      "longitude": "-90.0934230574922"
    }
  },
  {
    "service_request": "2023-1043620",
    "request_type": "Abandoned Vehicles",
    "request_reason": "Abandoned/Junk Vehicles",
    "date_created": "2023-10-16T15:03:04.000",
    "date_modified": "2023-10-16T15:03:04.000",
    "request_status": "Pending",
    "responsible_agency": "Department of Public Works",
    "final_address": "2107 Milan St",
    "address_councildis": "B",
    "status": "Pending",
    "rowid": "1043620",
    "final_x": "3671444.00257",
    "final_y": "522849.688443",
    "longitude": "-90.10011826938208",
    "latitude": "29.93195664904832",
    "geocoded_column": {
      "latitude": "29.93195664904832",
      "longitude": "-90.10011826938208"
    }
  },
  {
    "service_request": "2023-1043619",
    "request_type": "Traffic Signals/Signs/Striping/Streetlights",
    "request_reason": "Street Light Knocked Down/Leaning",
    "date_created": "2023-10-16T15:02:18.000",
    "date_modified": "2023-10-16T15:02:19.000",
    "request_status": "Pending",
    "responsible_agency": "Department of Public Works",
    "final_address": "STATE ST & S CLAIBORNE AVE",
    "address_councildis": "A",
    "status": "Pending",
    "contractor": "Legacy Professional Services",
    "rowid": "1043619",
    "final_x": "3667381.4",
    "final_y": "527121.68",
    "longitude": "-90.11279987165463",
    "latitude": "29.943822856335906",
    "geocoded_column": {
      "latitude": "29.943822856335906",
      "longitude": "-90.11279987165463"
    }
  },
  {
    "service_request": "2023-1043618",
    "request_type": "Roads/Drainage",
    "request_reason": "Pothole",
    "date_created": "2023-10-16T14:59:51.000",
    "date_modified": "2023-10-16T14:59:51.000",
    "request_status": "Pending",
    "responsible_agency": "Department of Public Works",
    "final_address": "4216 Chestnut St",
    "address_councildis": "B",
    "status": "Pending",
    "rowid": "1043618",
    "final_x": "3671574.31393",
    "final_y": "519539.203703",
    "longitude": "-90.09981939416457",
    "latitude": "29.922850019854593",
    "geocoded_column": {
      "latitude": "29.922850019854593",
      "longitude": "-90.09981939416457"
    }
  },
  {
    "service_request": "2023-1043617",
    "request_type": "Trash/Recycling",
    "request_reason": "MIssed Recycling Pick-Up",
    "date_created": "2023-10-16T14:59:16.000",
    "date_modified": "2023-10-16T14:59:16.000",
    "request_status": "Pending",
    "responsible_agency": "Department of Sanitation",
    "final_address": "424 Abalon Ct",
    "address_councildis": "C",
    "status": "Assigned to Contractor",
    "contractor": "Richards Disposal",
    "rowid": "1043617",
    "final_x": "3689401.11407",
    "final_y": "529995.963585",
    "longitude": "-90.04317571073875",
    "latitude": "29.95106284643129",
    "geocoded_column": {
      "latitude": "29.95106284643129",
      "longitude": "-90.04317571073875"
    }
  },
  {
    "service_request": "2023-1043616",
    "request_type": "Trash/Recycling",
    "request_reason": "Order Recycling Cart",
    "date_created": "2023-10-16T14:57:56.000",
    "date_modified": "2023-10-16T14:57:57.000",
    "request_status": "Pending",
    "responsible_agency": "Department of Sanitation",
    "final_address": "7626 Forum Blvd",
    "address_councildis": "E",
    "status": "Pending",
    "rowid": "1043616",
    "final_x": "3720124.29503",
    "final_y": "573061.987945",
    "longitude": "-89.94452039854686",
    "latitude": "30.06849044731799",
    "geocoded_column": {
      "latitude": "30.06849044731799",
      "longitude": "-89.94452039854686"
    }
  },
  {
    "service_request": "2023-1043615",
    "request_type": "Trash/Recycling",
    "request_reason": "Request a Large Item Pick Up",
    "date_created": "2023-10-16T14:57:00.000",
    "date_modified": "2023-10-16T14:57:01.000",
    "request_status": "Pending",
    "responsible_agency": "Department of Sanitation",
    "final_address": "7626 Forum Blvd",
    "address_councildis": "E",
    "status": "Assigned to Contractor",
    "contractor": "Waste Pro",
    "rowid": "1043615",
    "final_x": "3720124.29503",
    "final_y": "573061.987945",
    "longitude": "-89.94452039854686",
    "latitude": "30.06849044731799",
    "geocoded_column": {
      "latitude": "30.06849044731799",
      "longitude": "-89.94452039854686"
    }
  },
  {
    "service_request": "2023-1043614",
    "request_type": "Abandoned Vehicles",
    "request_reason": "Abandoned/Junk Vehicles",
    "date_created": "2023-10-16T14:54:16.000",
    "date_modified": "2023-10-16T14:54:16.000",
    "request_status": "Pending",
    "responsible_agency": "Department of Public Works",
    "final_address": "2000 BLK Agriculture St",
    "address_councildis": "D",
    "status": "Pending",
    "rowid": "1043614",
    "final_x": "3683490.17235",
    "final_y": "543224.144967",
    "longitude": "-90.06137583051301",
    "latitude": "29.987617443208613",
    "geocoded_column": {
      "latitude": "29.987617443208613",
      "longitude": "-90.06137583051301"
    }
  },
  {
    "service_request": "2023-1043613",
    "request_type": "Trash/Recycling",
    "request_reason": "Repair Trash Cart",
    "date_created": "2023-10-16T14:53:09.000",
    "date_modified": "2023-10-16T14:53:10.000",
    "request_status": "Pending",
    "responsible_agency": "Department of Sanitation",
    "final_address": "1225 N Lopez St",
    "address_councildis": "A",
    "status": "Assigned to Contractor",
    "contractor": "Richards Disposal",
    "rowid": "1043613",
    "final_x": "3676320.39752",
    "final_y": "539666.97953",
    "longitude": "-90.08414519994008",
    "latitude": "29.978053361790312",
    "geocoded_column": {
      "latitude": "29.978053361790312",
      "longitude": "-90.08414519994008"
    }
  },
  {
    "service_request": "2023-1043612",
    "request_type": "Trash/Recycling",
    "request_reason": "Order Recycling Cart",
    "date_created": "2023-10-16T14:52:36.000",
    "date_modified": "2023-10-16T14:52:36.000",
    "request_status": "Pending",
    "responsible_agency": "Department of Sanitation",
    "final_address": "5074 Charmes Ct",
    "address_councildis": "E",
    "status": "Pending",
    "rowid": "1043612",
    "final_x": "3726737.80134",
    "final_y": "561350.014558",
    "longitude": "-89.92406932886001",
    "latitude": "30.03606537773163",
    "geocoded_column": {
      "latitude": "30.03606537773163",
      "longitude": "-89.92406932886001"
    }
  },
  {
    "service_request": "2023-1043611",
    "request_type": "Trash/Recycling",
    "request_reason": "Replace Trash Cart",
    "date_created": "2023-10-16T14:52:29.000",
    "date_modified": "2023-10-16T14:52:30.000",
    "request_status": "Pending",
    "responsible_agency": "Department of Sanitation",
    "final_address": "2403 Felicity St",
    "address_councildis": "B",
    "status": "Assigned to Contractor",
    "contractor": "Richards Disposal",
    "rowid": "1043611",
    "final_x": "3676138.93998",
    "final_y": "526972.010238",
    "longitude": "-90.0851550698029",
    "latitude": "29.94315190805746",
    "geocoded_column": {
      "latitude": "29.94315190805746",
      "longitude": "-90.0851550698029"
    }
  },
  {
    "service_request": "2023-1043610",
    "request_type": "Trash/Recycling",
    "request_reason": "Order Recycling Cart",
    "date_created": "2023-10-16T14:51:54.000",
    "date_modified": "2023-10-16T14:51:54.000",
    "request_status": "Pending",
    "responsible_agency": "Department of Sanitation",
    "final_address": "5074 Charmes Ct",
    "address_councildis": "E",
    "status": "Pending",
    "rowid": "1043610",
    "final_x": "3726737.80134",
    "final_y": "561350.014558",
    "longitude": "-89.92406932886001",
    "latitude": "30.03606537773163",
    "geocoded_column": {
      "latitude": "30.03606537773163",
      "longitude": "-89.92406932886001"
    }
  },
  {
    "service_request": "2023-1043609",
    "request_type": "Trash/Recycling",
    "request_reason": "Missed Trash Pick-Up",
    "date_created": "2023-10-16T14:44:24.000",
    "date_modified": "2023-10-16T14:44:25.000",
    "request_status": "Pending",
    "responsible_agency": "Department of Sanitation",
    "final_address": "7570 Forum Blvd",
    "address_councildis": "E",
    "status": "Assigned to Contractor",
    "contractor": "Waste Pro",
    "rowid": "1043609",
    "final_x": "3720442.44607",
    "final_y": "572908.557289",
    "longitude": "-89.94352054955368",
    "latitude": "30.068057971051882",
    "geocoded_column": {
      "latitude": "30.068057971051882",
      "longitude": "-89.94352054955368"
    }
  },
  {
    "service_request": "2023-1043607",
    "request_type": "Trash/Recycling",
    "request_reason": "Replace Trash Cart",
    "date_created": "2023-10-16T14:35:42.000",
    "date_modified": "2023-10-16T14:35:43.000",
    "request_status": "Pending",
    "responsible_agency": "Department of Sanitation",
    "final_address": "4532 Crowder Blvd",
    "address_councildis": "E",
    "status": "Assigned to Contractor",
    "contractor": "Waste Pro",
    "rowid": "1043607",
    "final_x": "3706426.34052",
    "final_y": "554556.5958",
    "longitude": "-89.98850885385117",
    "latitude": "30.018057366864394",
    "geocoded_column": {
      "latitude": "30.018057366864394",
      "longitude": "-89.98850885385117"
    }
  },
  {
    "service_request": "2023-1043605",
    "request_type": "Traffic Signals/Signs/Striping/Streetlights",
    "request_reason": "Street Light Outage/Malfunction",
    "date_created": "2023-10-16T14:31:54.000",
    "date_modified": "2023-10-16T14:31:55.000",
    "request_status": "Pending",
    "responsible_agency": "Department of Public Works",
    "final_address": "4532 Crowder Blvd",
    "address_councildis": "E",
    "status": "Assigned to Contractor",
    "contractor": "Legacy Professional Services",
    "rowid": "1043605",
    "final_x": "3706426.34052",
    "final_y": "554556.5958",
    "longitude": "-89.98850885385117",
    "latitude": "30.018057366864394",
    "geocoded_column": {
      "latitude": "30.018057366864394",
      "longitude": "-89.98850885385117"
    }
  },
  {
    "service_request": "2023-1043604",
    "request_type": "Trash/Recycling",
    "request_reason": "Request a Large Item Pick Up",
    "date_created": "2023-10-16T14:25:03.000",
    "date_modified": "2023-10-16T14:25:03.000",
    "request_status": "Pending",
    "responsible_agency": "Department of Sanitation",
    "final_address": "3000 St Charles Ave",
    "address_councildis": "B",
    "status": "Assigned to Contractor",
    "contractor": "Richards Disposal",
    "rowid": "1043604",
    "final_x": "3675161.83656",
    "final_y": "521938.745786",
    "longitude": "-90.08841268664591",
    "latitude": "29.929341305245412",
    "geocoded_column": {
      "latitude": "29.929341305245412",
      "longitude": "-90.08841268664591"
    }
  },
  {
    "service_request": "2023-1043602",
    "request_type": "Parks & Parkways",
    "request_reason": "Request Tree Service (Right of Way/Public Property)",
    "date_created": "2023-10-16T14:24:38.000",
    "date_modified": "2023-10-16T14:36:52.000",
    "request_status": "Pending",
    "responsible_agency": "Department of Parks & Parkway",
    "final_address": "754 Louisiana Ave",
    "address_councildis": "B",
    "status": "Pending",
    "rowid": "1043602",
    "final_x": "3675426.43291",
    "final_y": "518554.241399",
    "longitude": "-90.08769355276756",
    "latitude": "29.920027102836496",
    "geocoded_column": {
      "latitude": "29.920027102836496",
      "longitude": "-90.08769355276756"
    }
  },
  {
    "service_request": "2023-1043601",
    "request_type": "Property Maintenance",
    "request_reason": "Property Maintenance",
    "date_created": "2023-10-16T14:21:08.000",
    "date_modified": "2023-10-16T14:21:08.000",
    "request_status": "Pending",
    "responsible_agency": "Department of Code Enforcement",
    "final_address": "5644 Abbey Dr",
    "address_councildis": "C",
    "status": "Pending",
    "rowid": "1043601",
    "final_x": "3704558.50308",
    "final_y": "521262.015225",
    "longitude": "-89.9956385840526",
    "latitude": "29.926569594888942",
    "geocoded_column": {
      "latitude": "29.926569594888942",
      "longitude": "-89.9956385840526"
    }
  },
  {
    "service_request": "2023-1043600",
    "request_type": "Trash/Recycling",
    "request_reason": "MIssed Recycling Pick-Up",
    "date_created": "2023-10-16T14:20:04.000",
    "date_modified": "2023-10-16T14:20:05.000",
    "request_status": "Pending",
    "responsible_agency": "Department of Sanitation",
    "final_address": "18 Eugenie Ct",
    "address_councildis": "C",
    "status": "Assigned to Contractor",
    "contractor": "Richards Disposal",
    "rowid": "1043600",
    "final_x": "3700172.697",
    "final_y": "511799.900016",
    "longitude": "-90.00982828285903",
    "latitude": "29.90069205166559",
    "geocoded_column": {
      "latitude": "29.90069205166559",
      "longitude": "-90.00982828285903"
    }
  },
  {
    "service_request": "2023-1043599",
    "request_type": "Roads/Drainage",
    "request_reason": "Pothole",
    "date_created": "2023-10-16T14:16:38.000",
    "date_modified": "2023-10-16T14:16:38.000",
    "request_status": "Pending",
    "responsible_agency": "Department of Public Works",
    "final_address": "2655 Clover St",
    "address_councildis": "D",
    "status": "Pending",
    "rowid": "1043599",
    "final_x": "3687572.58441",
    "final_y": "546762.308753",
    "longitude": "-90.04835559689974",
    "latitude": "29.99722088512379",
    "geocoded_column": {
      "latitude": "29.99722088512379",
      "longitude": "-90.04835559689974"
    }
  },
  {
    "service_request": "2023-1043598",
    "request_type": "Abandoned Vehicles",
    "request_reason": "Abandoned/Junk Vehicles",
    "date_created": "2023-10-16T14:13:29.000",
    "date_modified": "2023-10-16T14:13:29.000",
    "request_status": "Pending",
    "responsible_agency": "Department of Public Works",
    "final_address": "700 BLK N Lopez St",
    "address_councildis": "A",
    "status": "Pending",
    "rowid": "1043598",
    "final_x": "3675241.20001",
    "final_y": "538031.474578",
    "longitude": "-90.08760984943025",
    "latitude": "29.973588588776185",
    "geocoded_column": {
      "latitude": "29.973588588776185",
      "longitude": "-90.08760984943025"
    }
  },
  {
    "service_request": "2023-1043597",
    "request_type": "Trash/Recycling",
    "request_reason": "Request a Large Item Pick Up",
    "date_created": "2023-10-16T14:12:31.000",
    "date_modified": "2023-10-16T14:12:32.000",
    "request_status": "Pending",
    "responsible_agency": "Department of Sanitation",
    "final_address": "4717 Pauger St",
    "address_councildis": "D",
    "status": "Assigned to Contractor",
    "contractor": "IV Waste",
    "rowid": "1043597",
    "final_x": "3682806.2916",
    "final_y": "549991.72258",
    "longitude": "-90.06329903886248",
    "latitude": "30.00624672329286",
    "geocoded_column": {
      "latitude": "30.00624672329286",
      "longitude": "-90.06329903886248"
    }
  },
  {
    "service_request": "2023-1043596",
    "request_type": "Trash/Recycling",
    "request_reason": "Request a Large Item Pick Up",
    "date_created": "2023-10-16T14:11:37.000",
    "date_modified": "2023-10-16T14:11:37.000",
    "request_status": "Pending",
    "responsible_agency": "Department of Sanitation",
    "final_address": "1205 Egania St",
    "address_councildis": "E",
    "status": "Assigned to Contractor",
    "contractor": "Waste Pro",
    "rowid": "1043596",
    "final_x": "3696964.076",
    "final_y": "534472.084357",
    "longitude": "-90.01913369304675",
    "latitude": "29.963134284662143",
    "geocoded_column": {
      "latitude": "29.963134284662143",
      "longitude": "-90.01913369304675"
    }
  },
  {
    "service_request": "2023-1043595",
    "request_type": "Trash/Recycling",
    "request_reason": "Request a Large Item Pick Up",
    "date_created": "2023-10-16T14:10:03.000",
    "date_modified": "2023-10-16T14:10:04.000",
    "request_status": "Pending",
    "responsible_agency": "Department of Sanitation",
    "final_address": "2627 St Nick Dr",
    "address_councildis": "C",
    "status": "Assigned to Contractor",
    "contractor": "Richards Disposal",
    "rowid": "1043595",
    "final_x": "3699284.81821",
    "final_y": "521248.357945",
    "longitude": "-90.01228654993855",
    "latitude": "29.92670027705097",
    "geocoded_column": {
      "latitude": "29.92670027705097",
      "longitude": "-90.01228654993855"
    }
  },
  {
    "service_request": "2023-1043594",
    "request_type": "Trash/Recycling",
    "request_reason": "Request a Large Item Pick Up",
    "date_created": "2023-10-16T14:10:02.000",
    "date_modified": "2023-10-16T14:10:02.000",
    "request_status": "Pending",
    "responsible_agency": "Department of Sanitation",
    "final_address": "18 Forest Oaks Dr",
    "address_councildis": "C",
    "status": "Assigned to Contractor",
    "contractor": "Richards Disposal",
    "rowid": "1043594",
    "final_x": "3722118.50079",
    "final_y": "510377.611183",
    "longitude": "-89.94062486966037",
    "latitude": "29.896066022182907",
    "geocoded_column": {
      "latitude": "29.896066022182907",
      "longitude": "-89.94062486966037"
    }
  },
  {
    "service_request": "2023-1043593",
    "request_type": "Trash/Recycling",
    "request_reason": "Request a Large Item Pick Up",
    "date_created": "2023-10-16T14:08:34.000",
    "date_modified": "2023-10-16T16:51:11.000",
    "request_status": "Pending",
    "responsible_agency": "Department of Sanitation",
    "final_address": "10230 Flossmoor Drive 70127",
    "address_councildis": "E",
    "status": "Assigned to Contractor",
    "contractor": "Waste Pro",
    "rowid": "1043593",
    "final_x": "3709920.83774",
    "final_y": "563674.766305",
    "longitude": "-89.97712668421181",
    "latitude": "30.04301550060245",
    "geocoded_column": {
      "latitude": "30.04301550060245",
      "longitude": "-89.97712668421181"
    }
  },
  {
    "service_request": "2023-1043592",
    "request_type": "Abandoned Vehicles",
    "request_reason": "Abandoned/Junk Vehicles",
    "date_created": "2023-10-16T14:08:05.000",
    "date_modified": "2023-10-16T14:08:05.000",
    "request_status": "Pending",
    "responsible_agency": "Department of Public Works",
    "final_address": "2901 General De Gaulle Dr",
    "address_councildis": "C",
    "status": "Pending",
    "rowid": "1043592",
    "final_x": "3693976.7071",
    "final_y": "521584.242681",
    "longitude": "-90.02903067299009",
    "latitude": "29.92779105192668",
    "geocoded_column": {
      "latitude": "29.92779105192668",
      "longitude": "-90.02903067299009"
    }
  },
  {
    "service_request": "2023-1043591",
    "request_type": "Property Maintenance",
    "request_reason": "Property Maintenance",
    "date_created": "2023-10-16T14:00:15.000",
    "date_modified": "2023-10-16T14:00:15.000",
    "request_status": "Pending",
    "responsible_agency": "Department of Code Enforcement",
    "final_address": "4800 Majestic Oaks Dr",
    "address_councildis": "D",
    "status": "Pending",
    "rowid": "1043591",
    "final_x": "3697614.35152",
    "final_y": "554572.5158",
    "longitude": "-90.01635065972093",
    "latitude": "30.01838257101776",
    "geocoded_column": {
      "latitude": "30.01838257101776",
      "longitude": "-90.01635065972093"
    }
  },
  {
    "service_request": "2023-1043590",
    "request_type": "Property Maintenance",
    "request_reason": "Property Maintenance",
    "date_created": "2023-10-16T13:59:52.000",
    "date_modified": "2023-10-16T13:59:52.000",
    "request_status": "Pending",
    "responsible_agency": "Department of Code Enforcement",
    "final_address": "4629 Wilson Ave",
    "address_councildis": "E",
    "status": "Pending",
    "rowid": "1043590",
    "final_x": "3703167.16631",
    "final_y": "554365.681368",
    "longitude": "-89.99881355651851",
    "latitude": "30.017637200269487",
    "geocoded_column": {
      "latitude": "30.017637200269487",
      "longitude": "-89.99881355651851"
    }
  },
  {
    "service_request": "2023-1043589",
    "request_type": "Trash/Recycling",
    "request_reason": "Return Recycling Cart",
    "date_created": "2023-10-16T13:57:37.000",
    "date_modified": "2023-10-16T13:57:38.000",
    "request_status": "Pending",
    "responsible_agency": "Department of Sanitation",
    "final_address": "7820 Cohn St",
    "address_councildis": "A",
    "status": "Pending",
    "rowid": "1043589",
    "final_x": "3664279.77748",
    "final_y": "529529.581953",
    "longitude": "-90.12251224116548",
    "latitude": "29.9505342910818",
    "geocoded_column": {
      "latitude": "29.9505342910818",
      "longitude": "-90.12251224116548"
    }
  },
  {
    "service_request": "2023-1043588",
    "request_type": "Roads/Drainage",
    "request_reason": "Pothole",
    "date_created": "2023-10-16T13:56:20.000",
    "date_modified": "2023-10-16T13:56:20.000",
    "request_status": "Pending",
    "responsible_agency": "Department of Public Works",
    "final_address": "6070 Chestnut St",
    "address_councildis": "A",
    "status": "Pending",
    "rowid": "1043588",
    "final_x": "3664412.78983",
    "final_y": "519991.592952",
    "longitude": "-90.12241052146828",
    "latitude": "29.92430399204139",
    "geocoded_column": {
      "latitude": "29.92430399204139",
      "longitude": "-90.12241052146828"
    }
  },
  {
    "service_request": "2023-1043587",
    "request_type": "Property Maintenance",
    "request_reason": "Property Maintenance",
    "date_created": "2023-10-16T13:55:51.000",
    "date_modified": "2023-10-16T13:55:51.000",
    "request_status": "Pending",
    "responsible_agency": "Department of Code Enforcement",
    "final_address": "4722 Wilson Ave",
    "address_councildis": "E",
    "status": "Pending",
    "rowid": "1043587",
    "final_x": "3702949.38929",
    "final_y": "554806.719704",
    "longitude": "-89.99948541981256",
    "latitude": "30.01885685895731",
    "geocoded_column": {
      "latitude": "30.01885685895731",
      "longitude": "-89.99948541981256"
    }
  },
  {
    "service_request": "2023-1043586",
    "request_type": "Property Maintenance",
    "request_reason": "Property Maintenance",
    "date_created": "2023-10-16T13:54:03.000",
    "date_modified": "2023-10-16T13:54:03.000",
    "request_status": "Pending",
    "responsible_agency": "Department of Code Enforcement",
    "final_address": "4814 Wilson Ave",
    "address_councildis": "E",
    "status": "Pending",
    "rowid": "1043586",
    "final_x": "3702893.4211",
    "final_y": "555286.480089",
    "longitude": "-89.99964461437486",
    "latitude": "30.020177807212683",
    "geocoded_column": {
      "latitude": "30.020177807212683",
      "longitude": "-89.99964461437486"
    }
  },
  {
    "service_request": "2023-1043585",
    "request_type": "Property Maintenance",
    "request_reason": "Property Maintenance",
    "date_created": "2023-10-16T13:52:58.000",
    "date_modified": "2023-10-16T13:52:58.000",
    "request_status": "Pending",
    "responsible_agency": "Department of Code Enforcement",
    "final_address": "4808 Wilson Ave",
    "address_councildis": "E",
    "status": "Pending",
    "rowid": "1043585",
    "final_x": "3702886.1073",
    "final_y": "555243.082073",
    "longitude": "-89.99966931953797",
    "latitude": "30.020058713402577",
    "geocoded_column": {
      "latitude": "30.020058713402577",
      "longitude": "-89.99966931953797"
    }
  },
  {
    "service_request": "2023-1043584",
    "request_type": "Abandoned Vehicles",
    "request_reason": "Abandoned/Junk Vehicles",
    "date_created": "2023-10-16T13:52:54.000",
    "date_modified": "2023-10-16T13:52:54.000",
    "request_status": "Pending",
    "responsible_agency": "Department of Public Works",
    "final_address": "4725 Crowder Blvd",
    "address_councildis": "E",
    "status": "Pending",
    "rowid": "1043584",
    "final_x": "3706541.38091",
    "final_y": "555632.403865",
    "longitude": "-89.98810546678577",
    "latitude": "30.021011709723457",
    "geocoded_column": {
      "latitude": "30.021011709723457",
      "longitude": "-89.98810546678577"
    }
  },
  {
    "service_request": "2023-1043583",
    "request_type": "Trash/Recycling",
    "request_reason": "Illegal Dumping",
    "date_created": "2023-10-16T13:50:19.000",
    "date_modified": "2023-10-16T13:50:19.000",
    "request_status": "Pending",
    "responsible_agency": "Department of Sanitation",
    "final_address": "4854 Wilson Ave",
    "address_councildis": "E",
    "status": "Pending",
    "rowid": "1043583",
    "final_x": "3702851.32804",
    "final_y": "555593.000153",
    "longitude": "-89.9997663425383",
    "latitude": "30.021021966709068",
    "geocoded_column": {
      "latitude": "30.021021966709068",
      "longitude": "-89.9997663425383"
    }
  },
  {
    "service_request": "2023-1043582",
    "request_type": "Trash/Recycling",
    "request_reason": "Illegal Dumping",
    "date_created": "2023-10-16T13:47:17.000",
    "date_modified": "2023-10-16T13:47:17.000",
    "request_status": "Pending",
    "responsible_agency": "Department of Sanitation",
    "final_address": "4443 Wilson Ave",
    "address_councildis": "E",
    "status": "Pending",
    "rowid": "1043582",
    "final_x": "3703234.64132",
    "final_y": "553145.246167",
    "longitude": "-89.99864527971475",
    "latitude": "30.01427930928578",
    "geocoded_column": {
      "latitude": "30.01427930928578",
      "longitude": "-89.99864527971475"
    }
  },