[
  {
    "service_request": "2023-1055912",
    "request_type": "Roads/Drainage",
    "request_reason": "Pothole",
    "date_created": "2023-12-15T01:29:13.000",
    "date_modified": "2023-12-15T01:29:13.000",
    "request_status": "Pending",
    "responsible_agency": "Department of Public Works",
    "final_address": "1200 BLK Amelia St",
    "address_councildis": "B",
    "status": "Pending",
    "rowid": "1055912",
    "final_x": "3673521.46558",
    "final_y": "519660.816109",
    "longitude": "-90.09366883741032",
    "latitude": "29.923126634409968",
    "geocoded_column": {
      "latitude": "29.923126634409968",
      "longitude": "-90.09366883741032"
    }
  },
  {
    "service_request": "2023-1055911",
    "request_type": "Property Maintenance",
    "request_reason": "Property Maintenance",
    "date_created": "2023-12-15T00:55:53.000",
    "date_modified": "2023-12-15T00:55:53.000",
    "request_status": "Pending",
    "responsible_agency": "Department of Code Enforcement",
    "final_address": "635 Webster St",
    "address_councildis": "A",
    "status": "Pending",
    "rowid": "1055911",
    "final_x": "3664025.9913",
    "final_y": "519045.922231",
    "longitude": "-90.12366303030785",
    "latitude": "29.921714927493692",
    "geocoded_column": {
      "latitude": "29.921714927493692",
      "longitude": "-90.12366303030785"
    }
  },
  {
    "service_request": "2023-1055910",
    "request_type": "Roads/Drainage",
    "request_reason": "Pothole",
    "date_created": "2023-12-14T23:35:20.000",
    "date_modified": "2023-12-14T23:35:20.000",
    "request_status": "Pending",
    "responsible_agency": "Department of Public Works",
    "final_address": "1312 Milan St",
    "address_councildis": "B",
    "status": "Pending",
    "rowid": "1055910",
    "final_x": "3671625.82823",
    "final_y": "520286.919608",
    "longitude": "-90.09963137110304",
    "latitude": "29.92490447494246",
    "geocoded_column": {
      "latitude": "29.92490447494246",
      "longitude": "-90.09963137110304"
    }
  },
  {
    "service_request": "2023-1055909",
    "request_type": "Property Maintenance",
    "request_reason": "Property Maintenance",
    "date_created": "2023-12-14T23:26:12.000",
    "date_modified": "2023-12-14T23:26:12.000",
    "request_status": "Pending",
    "responsible_agency": "Department of Code Enforcement",
    "final_address": "1506 Alvar St",
    "address_councildis": "D",
    "status": "Pending",
    "rowid": "1055909",
    "final_x": "3691838.20009",
    "final_y": "536956.376904",
    "longitude": "-90.03523166377539",
    "latitude": "29.970125871599834",
    "geocoded_column": {
      "latitude": "29.970125871599834",
      "longitude": "-90.03523166377539"
    }
  },
  {
    "service_request": "2023-1055908",
    "request_type": "Abandoned Vehicles",
    "request_reason": "Abandoned/Junk Vehicles",
    "date_created": "2023-12-14T23:24:54.000",
    "date_modified": "2023-12-14T23:24:54.000",
    "request_status": "Pending",
    "responsible_agency": "Department of Public Works",
    "final_address": "2209 St Ann St",
    "address_councildis": "D",
    "status": "Pending",
    "rowid": "1055908",
    "final_x": "3678538.78152",
    "final_y": "536091.362247",
    "longitude": "-90.07726255150196",
    "latitude": "29.96815495640017",
    "geocoded_column": {
      "latitude": "29.96815495640017",
      "longitude": "-90.07726255150196"
    }
  },
  {
    "service_request": "2023-1055907",
    "request_type": "Roads/Drainage",
    "request_reason": "Pothole",
    "date_created": "2023-12-14T22:35:48.000",
    "date_modified": "2023-12-14T22:35:48.000",
    "request_status": "Pending",
    "responsible_agency": "Department of Public Works",
    "final_address": "6021 Coliseum St",
    "address_councildis": "A",
    "status": "Pending",
    "rowid": "1055907",
    "final_x": "3664837.14196",
    "final_y": "520295.634808",
    "longitude": "-90.12106082921962",
    "latitude": "29.925127673780054",
    "geocoded_column": {
      "latitude": "29.925127673780054",
      "longitude": "-90.12106082921962"
    }
  },
  {
    "service_request": "2023-1055906",
    "request_type": "Roads/Drainage",
    "request_reason": "Pothole",
    "date_created": "2023-12-14T22:31:33.000",
    "date_modified": "2023-12-14T22:31:33.000",
    "request_status": "Pending",
    "responsible_agency": "Department of Public Works",
    "final_address": "6070 Chestnut St",
    "address_councildis": "A",
    "status": "Pending",
    "rowid": "1055906",
    "final_x": "3664412.78983",
    "final_y": "519991.592952",
    "longitude": "-90.12241052146828",
    "latitude": "29.92430399204139",
    "geocoded_column": {
      "latitude": "29.92430399204139",
      "longitude": "-90.12241052146828"
    }
  },
  {
    "service_request": "2023-1055905",
    "request_type": "Mosquito, Termite & Rodent Control",
    "request_reason": "Non-Rodent Complaint (Mice, Possums, Snakes)",
    "date_created": "2023-12-14T22:29:05.000",
    "date_modified": "2023-12-14T22:29:05.000",
    "request_status": "Pending",
    "responsible_agency": "Mosquito, Termite & Rodent Control Board",
    "final_address": "5027 Burgundy St",
    "address_councildis": "E",
    "status": "Pending",
    "rowid": "1055905",
    "final_x": "3695998.51651",
    "final_y": "533474.019588",
    "longitude": "-90.02221886349557",
    "latitude": "29.960420374902743",
    "geocoded_column": {
      "latitude": "29.960420374902743",
      "longitude": "-90.02221886349557"
    }
  },
  {
    "service_request": "2023-1055904",
    "request_type": "Roads/Drainage",
    "request_reason": "Pothole",
    "date_created": "2023-12-14T22:25:05.000",
    "date_modified": "2023-12-14T22:25:05.000",
    "request_status": "Pending",
    "responsible_agency": "Department of Public Works",
    "final_address": "904 Webster St",
    "address_councildis": "A",
    "status": "Pending",
    "rowid": "1055904",
    "final_x": "3664215.56743",
    "final_y": "519827.876856",
    "longitude": "-90.1230385456298",
    "latitude": "29.923859553599424",
    "geocoded_column": {
      "latitude": "29.923859553599424",
      "longitude": "-90.1230385456298"
    }
  },
  {
    "service_request": "2023-1055903",
    "request_type": "Trash/Recycling",
    "request_reason": "Replace Trash Cart",
    "date_created": "2023-12-14T22:20:55.000",
    "date_modified": "2023-12-14T22:20:56.000",
    "request_status": "Pending",
    "responsible_agency": "Department of Sanitation",
    "final_address": "223 S Olympia St",
    "address_councildis": "A",
    "status": "Assigned to Contractor",
    "contractor": "Richards Disposal",
    "rowid": "1055903",
    "final_x": "3668974.47687",
    "final_y": "539184.826378",
    "longitude": "-90.1073625806033",
    "latitude": "29.976945763937277",
    "geocoded_column": {
      "latitude": "29.976945763937277",
      "longitude": "-90.1073625806033"
    }
  },
  {
    "service_request": "2023-1055902",
    "request_type": "Safety & Permits",
    "request_reason": "Licenses & Permits",
    "date_created": "2023-12-14T21:21:18.000",
    "date_modified": "2023-12-14T21:21:18.000",
    "request_status": "Pending",
    "responsible_agency": "Safety and Permits",
    "final_address": "4400 BLK Woodland Dr",
    "address_councildis": "C",
    "status": "Pending",
    "rowid": "1055902",
    "final_x": "3705461.35216",
    "final_y": "513702.268643",
    "longitude": "-89.99306769308465",
    "latitude": "29.905753889332093",
    "geocoded_column": {
      "latitude": "29.905753889332093",
      "longitude": "-89.99306769308465"
    }
  },
  {
    "service_request": "2023-1055901",
    "request_type": "Trash/Recycling",
    "request_reason": "Missed Trash Pick-Up",
    "date_created": "2023-12-14T20:38:17.000",
    "date_modified": "2023-12-14T20:38:18.000",
    "request_status": "Pending",
    "responsible_agency": "Department of Sanitation",
    "final_address": "1235 Annunciation St",
    "address_councildis": "B",
    "status": "Assigned to Contractor",
    "contractor": "Richards Disposal",
    "rowid": "1055901",
    "final_x": "3681311.94402",
    "final_y": "525145.822269",
    "longitude": "-90.06888624172376",
    "latitude": "29.937974541770746",
    "geocoded_column": {
      "latitude": "29.937974541770746",
      "longitude": "-90.06888624172376"
    }
  },
  {
    "service_request": "2023-1055900",
    "request_type": "Property Maintenance",
    "request_reason": "Property Maintenance",
    "date_created": "2023-12-14T20:36:10.000",
    "date_modified": "2023-12-14T20:36:10.000",
    "request_status": "Pending",
    "responsible_agency": "Department of Code Enforcement",
    "final_address": "1075 Prytania St",
    "address_councildis": "B",
    "status": "Pending",
    "rowid": "1055900",
    "final_x": "3680348.15528",
    "final_y": "526534.69267",
    "longitude": "-90.07188073227375",
    "latitude": "29.941822682868306",
    "geocoded_column": {
      "latitude": "29.941822682868306",
      "longitude": "-90.07188073227375"
    }
  },
  {
    "service_request": "2023-1055899",
    "request_type": "Roads/Drainage",
    "request_reason": "Service Cut",
    "date_created": "2023-12-14T19:06:54.000",
    "date_modified": "2023-12-14T19:06:54.000",
    "request_status": "Pending",
    "responsible_agency": "Department of Public Works",
    "final_address": "1200 BLK Esplanade Ave",
    "address_councildis": "C",
    "status": "Pending",
    "rowid": "1055899",
    "final_x": "3682199.27861",
    "final_y": "535815.593183",
    "longitude": "-90.0657121983856",
    "latitude": "29.967285844912197",
    "geocoded_column": {
      "latitude": "29.967285844912197",
      "longitude": "-90.0657121983856"
    }
  },
  {
    "service_request": "2023-1055898",
    "request_type": "Traffic Signals/Signs/Striping/Streetlights",
    "request_reason": "Street Light Outage/Malfunction",
    "date_created": "2023-12-14T18:58:58.000",
    "date_modified": "2023-12-14T18:58:59.000",
    "request_status": "Pending",
    "responsible_agency": "Department of Public Works",
    "final_address": "POLK AVE & WEST END BLVD",
    "address_councildis": "A",
    "status": "Assigned to Contractor",
    "contractor": "Legacy Professional Services",
    "rowid": "1055898",
    "final_x": "3666453.2",
    "final_y": "547537.78",
    "longitude": "-90.11504511338072",
    "latitude": "29.999987481371257",
    "geocoded_column": {
      "latitude": "29.999987481371257",
      "longitude": "-90.11504511338072"
    }
  },
  {
    "service_request": "2023-1055897",
    "request_type": "Traffic Signals/Signs/Striping/Streetlights",
    "request_reason": "Street Light Outage/Malfunction",
    "date_created": "2023-12-14T18:01:57.000",
    "date_modified": "2023-12-14T18:01:58.000",
    "request_status": "Pending",
    "responsible_agency": "Department of Public Works",
    "final_address": "1929 Milan St",
    "address_councildis": "B",
    "status": "Assigned to Contractor",
    "contractor": "Legacy Professional Services",
    "rowid": "1055897",
    "final_x": "3671500.41358",
    "final_y": "522274.874042",
    "longitude": "-90.09995971785597",
    "latitude": "29.9303744248725",
    "geocoded_column": {
      "latitude": "29.9303744248725",
      "longitude": "-90.09995971785597"
    }
  },
  {
    "service_request": "2023-1055896",
    "request_type": "Traffic Signals/Signs/Striping/Streetlights",
    "request_reason": "Traffic Signal Malfunctioning/Damaged",
    "date_created": "2023-12-14T17:50:23.000",
    "date_modified": "2023-12-14T17:50:23.000",
    "request_status": "Pending",
    "responsible_agency": "Department of Public Works",
    "final_address": "3400 BLK S Claiborne Ave",
    "address_councildis": "B",
    "status": "Pending",
    "rowid": "1055896",
    "final_x": "3672058.24771",
    "final_y": "526014.518297",
    "longitude": "-90.09807145022116",
    "latitude": "29.940640713574588",
    "geocoded_column": {
      "latitude": "29.940640713574588",
      "longitude": "-90.09807145022116"
    }
  },
  {
    "service_request": "2023-1055895",
    "request_type": "Trash/Recycling",
    "request_reason": "Order Recycling Cart",
    "date_created": "2023-12-14T17:45:22.000",
    "date_modified": "2023-12-14T17:45:22.000",
    "request_status": "Pending",
    "responsible_agency": "Department of Sanitation",
    "final_address": "408 Olivier St",
    "address_councildis": "C",
    "status": "Pending",
    "rowid": "1055895",
    "final_x": "3687283.65782",
    "final_y": "530255.859649",
    "longitude": "-90.04985236963665",
    "latitude": "29.951842857737738",
    "geocoded_column": {
      "latitude": "29.951842857737738",
      "longitude": "-90.04985236963665"
    }
  },
  {
    "service_request": "2023-1055894",
    "request_type": "Roads/Drainage",
    "request_reason": "Damaged Sidewalk",
    "date_created": "2023-12-14T17:18:26.000",
    "date_modified": "2023-12-14T17:18:26.000",
    "request_status": "Pending",
    "responsible_agency": "Department of Public Works",
    "final_address": "626 Delaronde St",
    "address_councildis": "C",
    "status": "Pending",
    "rowid": "1055894",
    "final_x": "3687432.65276",
    "final_y": "531278.410498",
    "longitude": "-90.04934573572714",
    "latitude": "29.95464993179056",
    "geocoded_column": {
      "latitude": "29.95464993179056",
      "longitude": "-90.04934573572714"
    }
  },
  {
    "service_request": "2023-1055893",
    "request_type": "Trash/Recycling",
    "request_reason": "Request a Large Item Pick Up",
    "date_created": "2023-12-14T17:16:22.000",
    "date_modified": "2023-12-14T17:16:23.000",
    "request_status": "Pending",
    "responsible_agency": "Department of Sanitation",
    "final_address": "4905 Magnolia St",
    "address_councildis": "B",
    "status": "Assigned to Contractor",
    "contractor": "Richards Disposal",
    "rowid": "1055893",
    "final_x": "3669119.92897",
    "final_y": "524649.074876",
    "longitude": "-90.10739437274366",
    "latitude": "29.936972956896803",
    "geocoded_column": {
      "latitude": "29.936972956896803",
      "longitude": "-90.10739437274366"
    }
  },
  {
    "service_request": "2023-1055892",
    "request_type": "Trash/Recycling",
    "request_reason": "Replace Trash Cart",
    "date_created": "2023-12-14T17:15:21.000",
    "date_modified": "2023-12-14T17:15:22.000",
    "request_status": "Pending",
    "responsible_agency": "Department of Sanitation",
    "final_address": "4219 Buchanan St",
    "address_councildis": "D",
    "status": "Assigned to Contractor",
    "contractor": "IV Waste",
    "rowid": "1055892",
    "final_x": "3677277.10587",
    "final_y": "547689.199506",
    "longitude": "-90.08084662285874",
    "latitude": "30.00008295413093",
    "geocoded_column": {
      "latitude": "30.00008295413093",
      "longitude": "-90.08084662285874"
    }
  },
  {
    "service_request": "2023-1055891",
    "request_type": "Traffic Signals/Signs/Striping/Streetlights",
    "request_reason": "Traffic Signal Malfunctioning/Damaged",
    "date_created": "2023-12-14T16:57:12.000",
    "date_modified": "2023-12-14T17:06:16.000",
    "case_close_date": "2023-12-14T11:06:16.000",
    "request_status": "Closed",
    "responsible_agency": "Department of Public Works",
    "final_address": "POLK AVE & WEST END BLVD",
    "address_councildis": "A",
    "status": "Duplicate Request",
    "rowid": "1055891",
    "final_x": "3666453.2",
    "final_y": "547537.78",
    "longitude": "-90.11504511338072",
    "latitude": "29.999987481371257",
    "geocoded_column": {
      "latitude": "29.999987481371257",
      "longitude": "-90.11504511338072"
    }
  },
  {
    "service_request": "2023-1055890",
    "request_type": "Trash/Recycling",
    "request_reason": "Repair Trash Cart",
    "date_created": "2023-12-14T16:51:54.000",
    "date_modified": "2023-12-14T16:51:56.000",
    "request_status": "Pending",
    "responsible_agency": "Department of Sanitation",
    "final_address": "8427 Pritchard Pl",
    "address_councildis": "A",
    "status": "Assigned to Contractor",
    "contractor": "Richards Disposal",
    "rowid": "1055890",
    "final_x": "3665118.09069",
    "final_y": "533794.977413",
    "longitude": "-90.11972262560158",
    "latitude": "29.962238353425324",
    "geocoded_column": {
      "latitude": "29.962238353425324",
      "longitude": "-90.11972262560158"
    }
  },
  {
    "service_request": "2023-1055889",
    "request_type": "Trash/Recycling",
    "request_reason": "Repair Trash Cart",
    "date_created": "2023-12-14T16:48:57.000",
    "date_modified": "2023-12-14T16:48:58.000",
    "request_status": "Pending",
    "responsible_agency": "Department of Sanitation",
    "final_address": "8425 Pritchard Pl",
    "address_councildis": "A",
    "status": "Assigned to Contractor",
    "contractor": "Richards Disposal",
    "rowid": "1055889",
    "final_x": "3665118.09069",
    "final_y": "533794.977413",
    "longitude": "-90.11972262560158",
    "latitude": "29.962238353425324",
    "geocoded_column": {
      "latitude": "29.962238353425324",
      "longitude": "-90.11972262560158"
    }
  },
  {
    "service_request": "2023-1055888",
    "request_type": "Trash/Recycling",
    "request_reason": "Request a Large Item Pick Up",
    "date_created": "2023-12-14T16:46:43.000",
    "date_modified": "2023-12-14T16:46:44.000",
    "request_status": "Pending",
    "responsible_agency": "Department of Sanitation",
    "final_address": "4703 Rosemont Pl",
    "address_councildis": "E",
    "status": "Assigned to Contractor",
    "contractor": "Waste Pro",
    "rowid": "1055888",
    "final_x": "3702795.81828",
    "final_y": "554648.91292",
    "longitude": "-89.99997644837131",
    "latitude": "30.018427865368288",
    "geocoded_column": {
      "latitude": "30.018427865368288",
      "longitude": "-89.99997644837131"
    }
  },
  {
    "service_request": "2023-1055887",
    "request_type": "Abandoned Vehicles",
    "request_reason": "Abandoned/Junk Vehicles",
    "date_created": "2023-12-14T16:44:34.000",
    "date_modified": "2023-12-14T16:44:34.000",
    "request_status": "Pending",
    "responsible_agency": "Department of Public Works",
    "final_address": "10200 Almonaster Ave",
    "address_councildis": "E",
    "status": "Inspected",
    "rowid": "1055887",
    "final_x": "3713684.56383",
    "final_y": "551626.395989",
    "longitude": "-89.96568637555853",
    "latitude": "30.00976423388402",
    "geocoded_column": {
      "latitude": "30.00976423388402",
      "longitude": "-89.96568637555853"
    }
  },
  {
    "service_request": "2023-1055886",
    "request_type": "Roads/Drainage",
    "request_reason": "Debris in Roadway",
    "date_created": "2023-12-14T16:41:47.000",
    "date_modified": "2023-12-14T16:43:26.000",
    "request_status": "Pending",
    "responsible_agency": "Department of Public Works",
    "final_address": "1433 Esplanade Ave",
    "address_councildis": "C",
    "status": "Inspected",
    "rowid": "1055886",
    "final_x": "3681646.72418",
    "final_y": "536366.610439",
    "longitude": "-90.06743794676748",
    "latitude": "29.968817749314113",
    "geocoded_column": {
      "latitude": "29.968817749314113",
      "longitude": "-90.06743794676748"
    }
  },
  {
    "service_request": "2023-1055885",
    "request_type": "Abandoned Vehicles",
    "request_reason": "Abandoned/Junk Vehicles",
    "date_created": "2023-12-14T16:33:49.000",
    "date_modified": "2023-12-14T16:33:49.000",
    "request_status": "Pending",
    "responsible_agency": "Department of Public Works",
    "final_address": "3141 Toulouse St",
    "address_councildis": "A",
    "status": "Pending",
    "rowid": "1055885",
    "final_x": "3674907.02401",
    "final_y": "537938.260361",
    "longitude": "-90.08866844741681",
    "latitude": "29.97334226687232",
    "geocoded_column": {
      "latitude": "29.97334226687232",
      "longitude": "-90.08866844741681"
    }
  },
  {
    "service_request": "2023-1055884",
    "request_type": "Abandoned Vehicles",
    "request_reason": "Abandoned/Junk Vehicles",
    "date_created": "2023-12-14T16:32:33.000",
    "date_modified": "2023-12-14T16:32:34.000",
    "request_status": "Pending",
    "responsible_agency": "Department of Public Works",
    "final_address": "1834 Elysian Fields Ave",
    "address_councildis": "D",
    "status": "Pending",
    "rowid": "1055884",
    "final_x": "3684670.35657",
    "final_y": "539165.081354",
    "longitude": "-90.057790764599",
    "latitude": "29.97642037246964",
    "geocoded_column": {
      "latitude": "29.97642037246964",
      "longitude": "-90.057790764599"
    }
  },
  {
    "service_request": "2023-1055883",
    "request_type": "Trash/Recycling",
    "request_reason": "Missed Trash Pick-Up",
    "date_created": "2023-12-14T16:31:03.000",
    "date_modified": "2023-12-14T16:57:50.000",
    "case_close_date": "2023-12-14T10:57:50.000",
    "request_status": "Closed",
    "responsible_agency": "Department of Sanitation",
    "final_address": "2717 Wisteria St",
    "address_councildis": "D",
    "status": "Assigned to Contractor",
    "contractor": "IV Waste",
    "contractor_action": "Completed",
    "rowid": "1055883",
    "final_x": "3687866.27862",
    "final_y": "548487.65109",
    "longitude": "-90.04736666284391",
    "latitude": "30.001955892269834",
    "geocoded_column": {
      "latitude": "30.001955892269834",
      "longitude": "-90.04736666284391"
    }
  },
  {
    "service_request": "2023-1055882",
    "request_type": "Traffic Signals/Signs/Striping/Streetlights",
    "request_reason": "Street Light Outage/Malfunction",
    "date_created": "2023-12-14T16:27:54.000",
    "date_modified": "2023-12-14T16:31:26.000",
    "request_status": "Pending",
    "responsible_agency": "Department of Public Works",
    "final_address": "6800 Almonaster Ave",
    "address_councildis": "E",
    "status": "Assigned to Contractor",
    "contractor": "Legacy Professional Services",
    "rowid": "1055882",
    "final_x": "3701139.11684",
    "final_y": "549881.524756",
    "longitude": "-90.00538555163135",
    "latitude": "30.005372258207707",
    "geocoded_column": {
      "latitude": "30.005372258207707",
      "longitude": "-90.00538555163135"
    }
  },
  {
    "service_request": "2023-1055881",
    "request_type": "Traffic Signals/Signs/Striping/Streetlights",
    "request_reason": "Street Light Outage/Malfunction",
    "date_created": "2023-12-14T16:26:37.000",
    "date_modified": "2023-12-14T16:26:37.000",
    "request_status": "Pending",
    "responsible_agency": "Department of Public Works",
    "final_address": "2515 Independence St",
    "address_councildis": "D",
    "status": "Assigned to Contractor",
    "contractor": "Legacy Professional Services",
    "rowid": "1055881",
    "final_x": "3692310.62896",
    "final_y": "540871.457227",
    "longitude": "-90.0335994428406",
    "latitude": "29.980876223601005",
    "geocoded_column": {
      "latitude": "29.980876223601005",
      "longitude": "-90.0335994428406"
    }
  },
  {
    "service_request": "2023-1055880",
    "request_type": "Abandoned Vehicles",
    "request_reason": "Abandoned/Junk Vehicles",
    "date_created": "2023-12-14T16:22:43.000",
    "date_modified": "2023-12-14T16:55:30.000",
    "request_status": "Pending",
    "responsible_agency": "Department of Public Works",
    "final_address": "10200 Almonaster Ave",
    "address_councildis": "E",
    "status": "Inspected",
    "rowid": "1055880",
    "final_x": "3713684.56383",
    "final_y": "551626.395989",
    "longitude": "-89.96568637555853",
    "latitude": "30.00976423388402",
    "geocoded_column": {
      "latitude": "30.00976423388402",
      "longitude": "-89.96568637555853"
    }
  },
  {
    "service_request": "2023-1055879",
    "request_type": "Trash/Recycling",
    "request_reason": "Missed Trash Pick-Up",
    "date_created": "2023-12-14T16:20:20.000",
    "date_modified": "2023-12-14T16:20:20.000",
    "request_status": "Pending",
    "responsible_agency": "Department of Sanitation",
    "final_address": "5902 Dauphine St",
    "address_councildis": "E",
    "status": "Assigned to Contractor",
    "contractor": "Waste Pro",
    "rowid": "1055879",
    "final_x": "3698609.33354",
    "final_y": "532300.451971",
    "longitude": "-90.01401715551592",
    "latitude": "29.9571110791231",
    "geocoded_column": {
      "latitude": "29.9571110791231",
      "longitude": "-90.01401715551592"
    }
  },
  {
    "service_request": "2023-1055878",
    "request_type": "Traffic Signals/Signs/Striping/Streetlights",
    "request_reason": "Traffic Signal Malfunctioning/Damaged",
    "date_created": "2023-12-14T16:19:32.000",
    "date_modified": "2023-12-14T16:19:32.000",
    "request_status": "Pending",
    "responsible_agency": "Department of Public Works",
    "final_address": "0 Woodland Hwy",
    "address_councildis": "C",
    "status": "Pending",
    "rowid": "1055878",
    "final_x": "3710318.00286",
    "final_y": "515197.930035",
    "longitude": "-89.97768408167424",
    "latitude": "29.909709345201403",
    "geocoded_column": {
      "latitude": "29.909709345201403",
      "longitude": "-89.97768408167424"
    }
  },
  {
    "service_request": "2023-1055877",
    "request_type": "Trash/Recycling",
    "request_reason": "Replace Trash Cart",
    "date_created": "2023-12-14T16:14:52.000",
    "date_modified": "2023-12-14T16:14:53.000",
    "request_status": "Pending",
    "responsible_agency": "Department of Sanitation",
    "final_address": "2111 S Gayoso St",
    "address_councildis": "A",
    "status": "Assigned to Contractor",
    "contractor": "Richards Disposal",
    "rowid": "1055877",
    "final_x": "3669668.59054",
    "final_y": "529088.619072",
    "longitude": "-90.10551202685355",
    "latitude": "29.94916410981376",
    "geocoded_column": {
      "latitude": "29.94916410981376",
      "longitude": "-90.10551202685355"
    }
  },
  {
    "service_request": "2023-1055876",
    "request_type": "Trash/Recycling",
    "request_reason": "Missed Trash Pick-Up",
    "date_created": "2023-12-14T16:14:13.000",
    "date_modified": "2023-12-14T16:14:14.000",
    "request_status": "Pending",
    "responsible_agency": "Department of Sanitation",
    "final_address": "2032 Jefferson Ave",
    "address_councildis": "A",
    "status": "Assigned to Contractor",
    "contractor": "Richards Disposal",
    "rowid": "1055876",
    "final_x": "3667652.09274",
    "final_y": "523277.828155",
    "longitude": "-90.1120745672925",
    "latitude": "29.933245567747143",
    "geocoded_column": {
      "latitude": "29.933245567747143",
      "longitude": "-90.1120745672925"
    }
  },
  {
    "service_request": "2023-1055875",
    "request_type": "Trash/Recycling",
    "request_reason": "Request a Large Item Pick Up",
    "date_created": "2023-12-14T16:12:43.000",
    "date_modified": "2023-12-14T16:12:44.000",
    "request_status": "Pending",
    "responsible_agency": "Department of Sanitation",
    "final_address": "3425 Joliet St",
    "address_councildis": "A",
    "status": "Assigned to Contractor",
    "contractor": "Richards Disposal",
    "rowid": "1055875",
    "final_x": "3666307.98004",
    "final_y": "535201.99847",
    "longitude": "-90.11591790807896",
    "latitude": "29.96607249038967",
    "geocoded_column": {
      "latitude": "29.96607249038967",
      "longitude": "-90.11591790807896"
    }
  },
  {
    "service_request": "2023-1055874",
    "request_type": "Trash/Recycling",
    "request_reason": "Replace Trash Cart",
    "date_created": "2023-12-14T16:11:15.000",
    "date_modified": "2023-12-14T16:11:16.000",
    "request_status": "Pending",
    "responsible_agency": "Department of Sanitation",
    "final_address": "209 S Gayoso St",
    "address_councildis": "B",
    "status": "Assigned to Contractor",
    "contractor": "Richards Disposal",
    "rowid": "1055874",
    "final_x": "3673968.05697",
    "final_y": "535497.381318",
    "longitude": "-90.09171743364111",
    "latitude": "29.96665868742196",
    "geocoded_column": {
      "latitude": "29.96665868742196",
      "longitude": "-90.09171743364111"
    }
  },
  {
    "service_request": "2023-1055873",
    "request_type": "Roads/Drainage",
    "request_reason": "Catch Basin - Broken/Damage",
    "date_created": "2023-12-14T15:58:46.000",
    "date_modified": "2023-12-14T15:58:46.000",
    "request_status": "Pending",
    "responsible_agency": "Department of Public Works",
    "final_address": "11100 BLK Lake Forest Blvd",
    "address_councildis": "E",
    "status": "Pending",
    "rowid": "1055873",
    "final_x": "3715272.97657",
    "final_y": "561043.976781",
    "longitude": "-89.96031154375501",
    "latitude": "30.035606623871825",
    "geocoded_column": {
      "latitude": "30.035606623871825",
      "longitude": "-89.96031154375501"
    }
  },
  {
    "service_request": "2023-1055872",
    "request_type": "Trash/Recycling",
    "request_reason": "Request a Large Item Pick Up",
    "date_created": "2023-12-14T15:51:59.000",
    "date_modified": "2023-12-14T15:52:00.000",
    "request_status": "Pending",
    "responsible_agency": "Department of Sanitation",
    "final_address": "8211 Spruce St",
    "address_councildis": "A",
    "status": "Assigned to Contractor",
    "contractor": "Richards Disposal",
    "rowid": "1055872",
    "final_x": "3663540.47405",
    "final_y": "530792.477634",
    "longitude": "-90.12480453259907",
    "latitude": "29.954028306590008",
    "geocoded_column": {
      "latitude": "29.954028306590008",
      "longitude": "-90.12480453259907"
    }
  },
  {
    "service_request": "2023-1055871",
    "request_type": "Trash/Recycling",
    "request_reason": "Missed Trash Pick-Up",
    "date_created": "2023-12-14T15:50:59.000",
    "date_modified": "2023-12-14T15:51:52.000",
    "request_status": "Pending",
    "responsible_agency": "Department of Sanitation",
    "final_address": "12911 Mcraven Ct",
    "address_councildis": "E",
    "status": "Assigned to Contractor",
    "contractor": "Waste Pro",
    "rowid": "1055871",
    "final_x": "3716513.64607",
    "final_y": "568029.423333",
    "longitude": "-89.95612552974627",
    "latitude": "30.05477281983414",
    "geocoded_column": {
      "latitude": "30.05477281983414",
      "longitude": "-89.95612552974627"
    }
  },
  {
    "service_request": "2023-1055870",
    "request_type": "Trash/Recycling",
    "request_reason": "Request a Large Item Pick Up",
    "date_created": "2023-12-14T15:50:30.000",
    "date_modified": "2023-12-14T15:50:32.000",
    "request_status": "Pending",
    "responsible_agency": "Department of Sanitation",
    "final_address": "2434 Chartres St",
    "address_councildis": "C",
    "status": "Assigned to Contractor",
    "contractor": "IV Waste",
    "rowid": "1055870",
    "final_x": "3686203.5983",
    "final_y": "534571.242437",
    "longitude": "-90.05311043707961",
    "latitude": "29.963741897367576",
    "geocoded_column": {
      "latitude": "29.963741897367576",
      "longitude": "-90.05311043707961"
    }
  },
  {
    "service_request": "2023-1055869",
    "request_type": "Traffic Signals/Signs/Striping/Streetlights",
    "request_reason": "Traffic Signal Malfunctioning/Damaged",
    "date_created": "2023-12-14T15:49:42.000",
    "date_modified": "2023-12-14T15:49:42.000",
    "request_status": "Pending",
    "responsible_agency": "Department of Public Works",
    "final_address": "6003 West End Blvd",
    "address_councildis": "A",
    "status": "Pending",
    "rowid": "1055869",
    "final_x": "3666541.54996",
    "final_y": "547658.805074",
    "longitude": "-90.11476194461453",
    "latitude": "30.00031767539576",
    "geocoded_column": {
      "latitude": "30.00031767539576",
      "longitude": "-90.11476194461453"
    }
  },
  {
    "service_request": "2023-1055868",
    "request_type": "Trash/Recycling",
    "request_reason": "Request a Large Item Pick Up",
    "date_created": "2023-12-14T15:48:40.000",
    "date_modified": "2023-12-14T15:48:41.000",
    "request_status": "Pending",
    "responsible_agency": "Department of Sanitation",
    "final_address": "3519 Lancaster St",
    "address_councildis": "C",
    "status": "Assigned to Contractor",
    "contractor": "Richards Disposal",
    "rowid": "1055868",
    "final_x": "3709806.08408",
    "final_y": "517724.33407",
    "longitude": "-89.97920554760717",
    "latitude": "29.916672720337868",
    "geocoded_column": {
      "latitude": "29.916672720337868",
      "longitude": "-89.97920554760717"
    }
  },
  {
    "service_request": "2023-1055867",
    "request_type": "Trash/Recycling",
    "request_reason": "Request a Large Item Pick Up",
    "date_created": "2023-12-14T15:48:36.000",
    "date_modified": "2023-12-14T15:48:37.000",
    "request_status": "Pending",
    "responsible_agency": "Department of Sanitation",
    "final_address": "1825 Gordon St",
    "address_councildis": "E",
    "status": "Assigned to Contractor",
    "contractor": "Waste Pro",
    "rowid": "1055867",
    "final_x": "3700287.1882",
    "final_y": "536124.832455",
    "longitude": "-90.00857942588374",
    "latitude": "29.9675735304615",
    "geocoded_column": {
      "latitude": "29.9675735304615",
      "longitude": "-90.00857942588374"
    }
  },
  {
    "service_request": "2023-1055866",
    "request_type": "Trash/Recycling",
    "request_reason": "Order Trash Cart",
    "date_created": "2023-12-14T15:47:33.000",
    "date_modified": "2023-12-14T15:47:34.000",
    "request_status": "Pending",
    "responsible_agency": "Department of Sanitation",
    "final_address": "1825 Gordon St",
    "address_councildis": "E",
    "status": "Assigned to Contractor",
    "contractor": "Waste Pro",
    "rowid": "1055866",
    "final_x": "3700287.1882",
    "final_y": "536124.832455",
    "longitude": "-90.00857942588374",
    "latitude": "29.9675735304615",
    "geocoded_column": {
      "latitude": "29.9675735304615",
      "longitude": "-90.00857942588374"
    }
  },
  {
    "service_request": "2023-1055865",
    "request_type": "Trash/Recycling",
    "request_reason": "Missed Trash Pick-Up",
    "date_created": "2023-12-14T15:46:20.000",
    "date_modified": "2023-12-14T15:46:20.000",
    "request_status": "Pending",
    "responsible_agency": "Department of Sanitation",
    "final_address": "4400 BLK Fontainebleau Dr",
    "address_councildis": "B",
    "status": "Assigned to Contractor",
    "contractor": "Richards Disposal",
    "rowid": "1055865",
    "final_x": "3669127.97896",
    "final_y": "529605.691889",
    "longitude": "-90.1072015100937",
    "latitude": "29.950601808595195",
    "geocoded_column": {
      "latitude": "29.950601808595195",
      "longitude": "-90.1072015100937"
    }
  },
  {
    "service_request": "2023-1055864",
    "request_type": "Roads/Drainage",
    "request_reason": "Street Subsidence (Sinking)",
    "date_created": "2023-12-14T15:38:09.000",
    "date_modified": "2023-12-14T15:38:09.000",
    "request_status": "Pending",
    "responsible_agency": "Department of Public Works",
    "final_address": "435 S Olympia St",
    "address_councildis": "A",
    "status": "Pending",
    "rowid": "1055864",
    "final_x": "3668461.19559",
    "final_y": "538440.881609",
    "longitude": "-90.10900879723772",
    "latitude": "29.974915256519992",
    "geocoded_column": {
      "latitude": "29.974915256519992",
      "longitude": "-90.10900879723772"
    }
  },
  {
    "service_request": "2023-1055863",
    "request_type": "Trash/Recycling",
    "request_reason": "Request a Large Item Pick Up",
    "date_created": "2023-12-14T15:34:59.000",
    "date_modified": "2023-12-14T15:35:00.000",
    "request_status": "Pending",
    "responsible_agency": "Department of Sanitation",
    "final_address": "2530 Philip St",
    "address_councildis": "B",
    "status": "Assigned to Contractor",
    "contractor": "Richards Disposal",
    "rowid": "1055863",
    "final_x": "3675159.13889",
    "final_y": "526287.249214",
    "longitude": "-90.088272041672",
    "latitude": "29.94129835150488",
    "geocoded_column": {
      "latitude": "29.94129835150488",
      "longitude": "-90.088272041672"
    }
  },
  {
    "service_request": "2023-1055862",
    "request_type": "Trash/Recycling",
    "request_reason": "Request a Large Item Pick Up",
    "date_created": "2023-12-14T15:34:36.000",
    "date_modified": "2023-12-14T15:34:36.000",
    "request_status": "Pending",
    "responsible_agency": "Department of Sanitation",
    "final_address": "7311 Malvern Dr",
    "address_councildis": "E",
    "status": "Assigned to Contractor",
    "contractor": "Waste Pro",
    "rowid": "1055862",
    "final_x": "3702913.17751",
    "final_y": "560718.447198",
    "longitude": "-89.99938238132644",
    "latitude": "30.03511298036947",
    "geocoded_column": {
      "latitude": "30.03511298036947",
      "longitude": "-89.99938238132644"
    }
  },
  {
    "service_request": "2023-1055861",
    "request_type": "Trash/Recycling",
    "request_reason": "Request a Large Item Pick Up",
    "date_created": "2023-12-14T15:29:43.000",
    "date_modified": "2023-12-14T15:29:44.000",
    "request_status": "Pending",
    "responsible_agency": "Department of Sanitation",
    "final_address": "2627 Urquhart St",
    "address_councildis": "C",
    "status": "Assigned to Contractor",
    "contractor": "IV Waste",
    "rowid": "1055861",
    "final_x": "3687530.92751",
    "final_y": "537178.705096",
    "longitude": "-90.04882656807028",
    "latitude": "29.970870666262897",
    "geocoded_column": {
      "latitude": "29.970870666262897",
      "longitude": "-90.04882656807028"
    }
  },
  {
    "service_request": "2023-1055860",
    "request_type": "Trash/Recycling",
    "request_reason": "Missed Trash Pick-Up",
    "date_created": "2023-12-14T15:23:38.000",
    "date_modified": "2023-12-14T15:23:39.000",
    "request_status": "Pending",
    "responsible_agency": "Department of Sanitation",
    "final_address": "7500 Adventure Ave",
    "address_councildis": "E",
    "status": "Assigned to Contractor",
    "contractor": "Waste Pro",
    "rowid": "1055860",
    "final_x": "3725804.00563",
    "final_y": "570325.174183",
    "longitude": "-89.9266720657113",
    "latitude": "30.06077486458573",
    "geocoded_column": {
      "latitude": "30.06077486458573",
      "longitude": "-89.9266720657113"
    }
  },
  {
    "service_request": "2023-1055859",
    "request_type": "Trash/Recycling",
    "request_reason": "MIssed Recycling Pick-Up",
    "date_created": "2023-12-14T15:19:53.000",
    "date_modified": "2023-12-14T15:19:54.000",
    "request_status": "Pending",
    "responsible_agency": "Department of Sanitation",
    "final_address": "11137 Winchester Park Dr",
    "address_councildis": "E",
    "status": "Assigned to Contractor",
    "contractor": "Waste Pro",
    "rowid": "1055859",
    "final_x": "3715016.478",
    "final_y": "561447.954399",
    "longitude": "-89.96110682674389",
    "latitude": "30.036725848477847",
    "geocoded_column": {
      "latitude": "30.036725848477847",
      "longitude": "-89.96110682674389"
    }
  },
  {
    "service_request": "2023-1055858",
    "request_type": "Traffic Signals/Signs/Striping/Streetlights",
    "request_reason": "Traffic Sign Missing/Damaged",
    "date_created": "2023-12-14T15:15:47.000",
    "date_modified": "2023-12-14T17:03:29.000",
    "case_close_date": "2023-12-14T11:03:29.000",
    "request_status": "Closed",
    "responsible_agency": "Department of Public Works",
    "final_address": "CROWDER BLVD & HAYNE BLVD",
    "address_councildis": "E",
    "status": "Duplicate Request",
    "rowid": "1055858",
    "final_x": "3702703.2",
    "final_y": "563269.78",
    "longitude": "-89.99995211704505",
    "latitude": "30.042134864972766",
    "geocoded_column": {
      "latitude": "30.042134864972766",
      "longitude": "-89.99995211704505"
    }
  },
  {
    "service_request": "2023-1055857",
    "request_type": "Traffic Signals/Signs/Striping/Streetlights",
    "request_reason": "Street Light Outage/Malfunction",
    "date_created": "2023-12-14T15:15:23.000",
    "date_modified": "2023-12-14T15:15:23.000",
    "request_status": "Pending",
    "responsible_agency": "Department of Public Works",
    "final_address": "1647 Farragut St",
    "address_councildis": "C",
    "status": "Assigned to Contractor",
    "contractor": "Legacy Professional Services",
    "rowid": "1055857",
    "final_x": "3692208.61149",
    "final_y": "524889.401788",
    "longitude": "-90.0344938429481",
    "latitude": "29.936934339022127",
    "geocoded_column": {
      "latitude": "29.936934339022127",
      "longitude": "-90.0344938429481"
    }
  },
  {
    "service_request": "2023-1055856",
    "request_type": "Trash/Recycling",
    "request_reason": "Request a Large Item Pick Up",
    "date_created": "2023-12-14T15:15:15.000",
    "date_modified": "2023-12-14T15:15:16.000",
    "request_status": "Pending",
    "responsible_agency": "Department of Sanitation",
    "final_address": "1522 Prytania St",
    "address_councildis": "B",
    "status": "Assigned to Contractor",
    "contractor": "Richards Disposal",
    "rowid": "1055856",
    "final_x": "3679575.36981",
    "final_y": "525037.622461",
    "longitude": "-90.07437250775676",
    "latitude": "29.937729606540298",
    "geocoded_column": {
      "latitude": "29.937729606540298",
      "longitude": "-90.07437250775676"
    }
  },
  {
    "service_request": "2023-1055855",
    "request_type": "Abandoned Vehicles",
    "request_reason": "Abandoned/Junk Vehicles",
    "date_created": "2023-12-14T15:10:05.000",
    "date_modified": "2023-12-14T15:10:05.000",
    "request_status": "Pending",
    "responsible_agency": "Department of Public Works",
    "final_address": "10200 BLK Almonaster Ave",
    "address_councildis": "E",
    "status": "Inspected",
    "rowid": "1055855",
    "final_x": "3714488.88923",
    "final_y": "551896.847109",
    "longitude": "-89.96313503455288",
    "latitude": "30.010481447366526",
    "geocoded_column": {
      "latitude": "30.010481447366526",
      "longitude": "-89.96313503455288"
    }
  },
  {
    "service_request": "2023-1055854",
    "request_type": "Abandoned Vehicles",
    "request_reason": "Abandoned/Junk Vehicles",
    "date_created": "2023-12-14T15:09:46.000",
    "date_modified": "2023-12-14T15:09:47.000",
    "request_status": "Pending",
    "responsible_agency": "Department of Public Works",
    "final_address": "724 Milan St",
    "address_councildis": "B",
    "status": "Pending",
    "rowid": "1055854",
    "final_x": "3671815.49102",
    "final_y": "518335.527158",
    "longitude": "-90.09909901756886",
    "latitude": "29.919533151433747",
    "geocoded_column": {
      "latitude": "29.919533151433747",
      "longitude": "-90.09909901756886"
    }
  },
  {
    "service_request": "2023-1055853",
    "request_type": "Property Maintenance",
    "request_reason": "Property Maintenance",
    "date_created": "2023-12-14T15:09:34.000",
    "date_modified": "2023-12-14T15:09:34.000",
    "request_status": "Pending",
    "responsible_agency": "Department of Code Enforcement",
    "final_address": "3954 Sullen Pl",
    "address_councildis": "C",
    "status": "Pending",
    "rowid": "1055853",
    "final_x": "3707569.1139",
    "final_y": "516271.450676",
    "longitude": "-89.9863201946041",
    "latitude": "29.912750295390346",
    "geocoded_column": {
      "latitude": "29.912750295390346",
      "longitude": "-89.9863201946041"
    }
  },
  {
    "service_request": "2023-1055851",
    "request_type": "Traffic Signals/Signs/Striping/Streetlights",
    "request_reason": "Additional signage",
    "date_created": "2023-12-14T15:02:30.000",
    "date_modified": "2023-12-14T15:02:30.000",
    "request_status": "Pending",
    "responsible_agency": "Department of Public Works",
    "final_address": "3900 BLK Tchoupitoulas St",
    "address_councildis": "B",
    "status": "Pending",
    "rowid": "1055851",
    "final_x": "3673210.05545",
    "final_y": "517668.134727",
    "longitude": "-90.09471983554349",
    "latitude": "29.91765665708728",
    "geocoded_column": {
      "latitude": "29.91765665708728",
      "longitude": "-90.09471983554349"
    }
  },
  {
    "service_request": "2023-1055850",
    "request_type": "Health Related Request",
    "request_reason": "Noise Ordinance Complaint",
    "date_created": "2023-12-14T14:59:27.000",
    "date_modified": "2023-12-14T15:00:37.000",
    "request_status": "Pending",
    "responsible_agency": "Health Department",
    "final_address": "3022 Delachaise St A",
    "address_councildis": "B",
    "status": "Pending",
    "rowid": "1055850",
    "final_x": "3671748.69012",
    "final_y": "526321.616062",
    "longitude": "-90.09903833425366",
    "latitude": "29.941494304887982",
    "geocoded_column": {
      "latitude": "29.941494304887982",
      "longitude": "-90.09903833425366"
    }
  },
  {
    "service_request": "2023-1055849",
    "request_type": "Roads/Drainage",
    "request_reason": "Catch Basin - Clogged",
    "date_created": "2023-12-14T14:58:17.000",
    "date_modified": "2023-12-14T14:58:17.000",
    "request_status": "Pending",
    "responsible_agency": "Department of Public Works",
    "final_address": "6416 Memphis St",
    "address_councildis": "A",
    "status": "Pending",
    "rowid": "1055849",
    "final_x": "3669364.74804",
    "final_y": "550144.038356",
    "longitude": "-90.10575915955147",
    "latitude": "30.007068343338894",
    "geocoded_column": {
      "latitude": "30.007068343338894",
      "longitude": "-90.10575915955147"
    }
  },
  {
    "service_request": "2023-1055848",
    "request_type": "Roads/Drainage",
    "request_reason": "Pothole",
    "date_created": "2023-12-14T14:50:23.000",
    "date_modified": "2023-12-14T14:50:23.000",
    "request_status": "Pending",
    "responsible_agency": "Department of Public Works",
    "final_address": "1836 Valence St",
    "address_councildis": "B",
    "status": "Pending",
    "rowid": "1055848",
    "final_x": "3669548.88276",
    "final_y": "521749.076666",
    "longitude": "-90.10613819354518",
    "latitude": "29.928986265896693",
    "geocoded_column": {
      "latitude": "29.928986265896693",
      "longitude": "-90.10613819354518"
    }
  },
  {
    "service_request": "2023-1055847",
    "request_type": "Trash/Recycling",
    "request_reason": "Order Trash Cart",
    "date_created": "2023-12-14T14:50:06.000",
    "date_modified": "2023-12-14T14:51:29.000",
    "request_status": "Pending",
    "responsible_agency": "Department of Sanitation",
    "final_address": "6822 W Coronet Ct",
    "address_councildis": "E",
    "status": "Assigned to Contractor",
    "contractor": "Waste Pro",
    "rowid": "1055847",
    "final_x": "3702339.25501",
    "final_y": "557381.698459",
    "longitude": "-90.00131863496833",
    "latitude": "30.02595657534957",
    "geocoded_column": {
      "latitude": "30.02595657534957",
      "longitude": "-90.00131863496833"
    }
  },
  {
    "service_request": "2023-1055846",
    "request_type": "Trash/Recycling",
    "request_reason": "MIssed Recycling Pick-Up",
    "date_created": "2023-12-14T14:47:36.000",
    "date_modified": "2023-12-14T15:12:52.000",
    "case_close_date": "2023-12-14T09:12:52.000",
    "request_status": "Closed",
    "responsible_agency": "Department of Sanitation",
    "final_address": "1715 Annette St",
    "address_councildis": "D",
    "status": "Invalid Request",
    "contractor": "IV Waste",
    "contractor_action": "Invalid Pick-Up",
    "rowid": "1055846",
    "final_x": "3682991.60642",
    "final_y": "538512.856713",
    "longitude": "-90.06311559386236",
    "latitude": "29.9746782598321",
    "geocoded_column": {
      "latitude": "29.9746782598321",
      "longitude": "-90.06311559386236"
    }
  },
  {
    "service_request": "2023-1055845",
    "request_type": "Trash/Recycling",
    "request_reason": "Request a Large Item Pick Up",
    "date_created": "2023-12-14T14:47:08.000",
    "date_modified": "2023-12-14T14:47:10.000",
    "request_status": "Pending",
    "responsible_agency": "Department of Sanitation",
    "final_address": "2325 Clouet St",
    "address_councildis": "D",
    "status": "Assigned to Contractor",
    "contractor": "IV Waste",
    "rowid": "1055845",
    "final_x": "3690271.49142",
    "final_y": "540682.665419",
    "longitude": "-90.0400466511945",
    "latitude": "29.98042055540787",
    "geocoded_column": {
      "latitude": "29.98042055540787",
      "longitude": "-90.0400466511945"
    }
  },
  {
    "service_request": "2023-1055844",
    "request_type": "Trash/Recycling",
    "request_reason": "Request a Large Item Pick Up",
    "date_created": "2023-12-14T14:46:56.000",
    "date_modified": "2023-12-14T14:46:57.000",
    "request_status": "Pending",
    "responsible_agency": "Department of Sanitation",
    "final_address": "6006 Annunciation St",
    "address_councildis": "A",
    "status": "Assigned to Contractor",
    "contractor": "Richards Disposal",
    "rowid": "1055844",
    "final_x": "3664158.82957",
    "final_y": "517858.598518",
    "longitude": "-90.12328329392733",
    "latitude": "29.91844630078243",
    "geocoded_column": {
      "latitude": "29.91844630078243",
      "longitude": "-90.12328329392733"
    }
  },
  {
    "service_request": "2023-1055843",
    "request_type": "Roads/Drainage",
    "request_reason": "Pothole",
    "date_created": "2023-12-14T14:46:14.000",
    "date_modified": "2023-12-14T14:46:14.000",
    "request_status": "Pending",
    "responsible_agency": "Department of Public Works",
    "final_address": "1301 Constantinople St",
    "address_councildis": "B",
    "status": "Pending",
    "rowid": "1055843",
    "final_x": "3672430.66305",
    "final_y": "520250.7726",
    "longitude": "-90.09709199725775",
    "latitude": "29.924781230435865",
    "geocoded_column": {
      "latitude": "29.924781230435865",
      "longitude": "-90.09709199725775"
    }
  },
  {
    "service_request": "2023-1055842",
    "request_type": "Trash/Recycling",
    "request_reason": "Repair Trash Cart",
    "date_created": "2023-12-14T14:32:19.000",
    "date_modified": "2023-12-14T14:32:20.000",
    "request_status": "Pending",
    "responsible_agency": "Department of Sanitation",
    "final_address": "4735 Dryades St",
    "address_councildis": "B",
    "status": "Assigned to Contractor",
    "contractor": "Richards Disposal",
    "rowid": "1055842",
    "final_x": "3669368.2347",
    "final_y": "521891.175738",
    "longitude": "-90.10670366319093",
    "latitude": "29.92938231164555",
    "geocoded_column": {
      "latitude": "29.92938231164555",
      "longitude": "-90.10670366319093"
    }
  },
  {
    "service_request": "2023-1055841",
    "request_type": "Roads/Drainage",
    "request_reason": "Pothole",
    "date_created": "2023-12-14T14:30:04.000",
    "date_modified": "2023-12-14T14:30:04.000",
    "request_status": "Pending",
    "responsible_agency": "Department of Public Works",
    "final_address": "ROBERT ST & FRERET ST",
    "address_councildis": "B",
    "status": "Pending",
    "rowid": "1055841",
    "final_x": "3668815.9",
    "final_y": "523918.08",
    "longitude": "-90.1083788829074",
    "latitude": "29.934971896551595",
    "geocoded_column": {
      "latitude": "29.934971896551595",
      "longitude": "-90.1083788829074"
    }
  },
  {
    "service_request": "2023-1055840",
    "request_type": "Traffic Signals/Signs/Striping/Streetlights",
    "request_reason": "Street Light Outage/Malfunction",
    "date_created": "2023-12-14T14:29:33.000",
    "date_modified": "2023-12-14T14:29:34.000",
    "request_status": "Pending",
    "responsible_agency": "Department of Public Works",
    "final_address": "7472 Garfield St",
    "address_councildis": "A",
    "status": "Assigned to Contractor",
    "contractor": "Legacy Professional Services",
    "rowid": "1055840",
    "final_x": "3661029.3136",
    "final_y": "523998.158076",
    "longitude": "-90.13295854714063",
    "latitude": "29.93541867798147",
    "geocoded_column": {
      "latitude": "29.93541867798147",
      "longitude": "-90.13295854714063"
    }
  },
  {
    "service_request": "2023-1055839",
    "request_type": "Roads/Drainage",
    "request_reason": "Pothole",
    "date_created": "2023-12-14T14:27:36.000",
    "date_modified": "2023-12-14T14:27:36.000",
    "request_status": "Pending",
    "responsible_agency": "Department of Public Works",
    "final_address": "FRERET ST & UPPERLINE ST",
    "address_councildis": "B",
    "status": "Pending",
    "rowid": "1055839",
    "final_x": "3669167.8",
    "final_y": "523908.18",
    "longitude": "-90.10726826899554",
    "latitude": "29.934934325859306",
    "geocoded_column": {
      "latitude": "29.934934325859306",
      "longitude": "-90.10726826899554"
    }
  },
  {
    "service_request": "2023-1055838",
    "request_type": "Abandoned Vehicles",
    "request_reason": "Abandoned/Junk Vehicles",
    "date_created": "2023-12-14T14:24:51.000",
    "date_modified": "2023-12-14T14:26:08.000",
    "request_status": "Pending",
    "responsible_agency": "Department of Public Works",
    "final_address": "7721 Henley St",
    "address_councildis": "E",
    "status": "Pending",
    "rowid": "1055838",
    "final_x": "3696815.76227",
    "final_y": "559611.581789",
    "longitude": "-90.01869122249302",
    "latitude": "30.032263296443084",
    "geocoded_column": {
      "latitude": "30.032263296443084",
      "longitude": "-90.01869122249302"
    }
  },
  {
    "service_request": "2023-1055837",
    "request_type": "Trash/Recycling",
    "request_reason": "Order Trash Cart",
    "date_created": "2023-12-14T14:21:40.000",
    "date_modified": "2023-12-14T14:21:41.000",
    "request_status": "Pending",
    "responsible_agency": "Department of Sanitation",
    "final_address": "7111 Yorktown Dr",
    "address_councildis": "E",
    "status": "Assigned to Contractor",
    "contractor": "Waste Pro",
    "rowid": "1055837",
    "final_x": "3706037.77956",
    "final_y": "560910.530846",
    "longitude": "-89.9895010994405",
    "latitude": "30.035540745399427",
    "geocoded_column": {
      "latitude": "30.035540745399427",
      "longitude": "-89.9895010994405"
    }
  },
  {
    "service_request": "2023-1055836",
    "request_type": "Trash/Recycling",
    "request_reason": "Request a Large Item Pick Up",
    "date_created": "2023-12-14T14:21:07.000",
    "date_modified": "2023-12-14T14:21:08.000",
    "request_status": "Pending",
    "responsible_agency": "Department of Sanitation",
    "final_address": "7111 Yorktown Dr",
    "address_councildis": "E",
    "status": "Assigned to Contractor",
    "contractor": "Waste Pro",
    "rowid": "1055836",
    "final_x": "3706037.77956",
    "final_y": "560910.530846",
    "longitude": "-89.9895010994405",
    "latitude": "30.035540745399427",
    "geocoded_column": {
      "latitude": "30.035540745399427",
      "longitude": "-89.9895010994405"
    }
  },
  {
    "service_request": "2023-1055834",
    "request_type": "Trash/Recycling",
    "request_reason": "Request a Large Item Pick Up",
    "date_created": "2023-12-14T14:16:37.000",
    "date_modified": "2023-12-14T14:16:38.000",
    "request_status": "Pending",
    "responsible_agency": "Department of Sanitation",
    "final_address": "7531 Pebble Dr",
    "address_councildis": "E",
    "status": "Assigned to Contractor",
    "contractor": "Waste Pro",
    "rowid": "1055834",
    "final_x": "3715540.61656",
    "final_y": "568535.393061",
    "longitude": "-89.95918185160555",
    "latitude": "30.056196149312207",
    "geocoded_column": {
      "latitude": "30.056196149312207",
      "longitude": "-89.95918185160555"
    }
  },
  {
    "service_request": "2023-1055835",
    "request_type": "EMS",
    "request_reason": "EMS Lost & Found",
    "date_created": "2023-12-14T14:16:37.000",
    "date_modified": "2023-12-14T14:16:39.000",
    "request_status": "Pending",
    "responsible_agency": "Emergency Medical Services",
    "final_address": "7920 Wave Dr",
    "address_councildis": "E",
    "status": "Pending",
    "rowid": "1055835",
    "final_x": "3714203.63224",
    "final_y": "569677.786214",
    "longitude": "-89.96336461220459",
    "latitude": "30.059381279620585",
    "geocoded_column": {
      "latitude": "30.059381279620585",
      "longitude": "-89.96336461220459"
    }
  },
  {
    "service_request": "2023-1055833",
    "request_type": "Trash/Recycling",
    "request_reason": "Missed Trash Pick-Up",
    "date_created": "2023-12-14T14:16:12.000",
    "date_modified": "2023-12-14T14:16:13.000",
    "request_status": "Pending",
    "responsible_agency": "Department of Sanitation",
    "final_address": "2314 Delery St",
    "address_councildis": "E",
    "status": "Assigned to Contractor",
    "contractor": "Waste Pro",
    "rowid": "1055833",
    "final_x": "3702208.70065",
    "final_y": "537434.866696",
    "longitude": "-90.00246323893724",
    "latitude": "29.971114425544155",
    "geocoded_column": {
      "latitude": "29.971114425544155",
      "longitude": "-90.00246323893724"
    }
  },
  {
    "service_request": "2023-1055832",
    "request_type": "Abandoned Vehicles",
    "request_reason": "Abandoned/Junk Vehicles",
    "date_created": "2023-12-14T14:03:18.000",
    "date_modified": "2023-12-14T14:03:18.000",
    "request_status": "Pending",
    "responsible_agency": "Department of Public Works",
    "final_address": "416 N Prieur St",
    "address_councildis": "B",
    "status": "Pending",
    "rowid": "1055832",
    "final_x": "3678355.06018",
    "final_y": "534461.656261",
    "longitude": "-90.07789914039961",
    "latitude": "29.963679356261295",
    "geocoded_column": {
      "latitude": "29.963679356261295",
      "longitude": "-90.07789914039961"
    }
  },
  {
    "service_request": "2023-1055831",
    "request_type": "Trash/Recycling",
    "request_reason": "Repair Trash Cart",
    "date_created": "2023-12-14T13:57:07.000",
    "date_modified": "2023-12-14T13:57:08.000",
    "request_status": "Pending",
    "responsible_agency": "Department of Sanitation",
    "final_address": "6440 Catina St",
    "address_councildis": "A",
    "status": "Assigned to Contractor",
    "contractor": "IV Waste",
    "rowid": "1055831",
    "final_x": "3666877.75169",
    "final_y": "550771.820501",
    "longitude": "-90.11359517529846",
    "latitude": "30.0088675525267",
    "geocoded_column": {
      "latitude": "30.0088675525267",
      "longitude": "-90.11359517529846"
    }
  },
  {
    "service_request": "2023-1055830",
    "request_type": "Trash/Recycling",
    "request_reason": "Request a Large Item Pick Up",
    "date_created": "2023-12-14T13:53:35.000",
    "date_modified": "2023-12-14T13:54:46.000",
    "request_status": "Pending",
    "responsible_agency": "Department of Sanitation",
    "final_address": "7636 Shorewood Blvd",
    "address_councildis": "E",
    "status": "Assigned to Contractor",
    "contractor": "Waste Pro",
    "rowid": "1055830",
    "final_x": "3719693.38713",
    "final_y": "572702.317545",
    "longitude": "-89.9458963425588",
    "latitude": "30.067515858773984",
    "geocoded_column": {
      "latitude": "30.067515858773984",
      "longitude": "-89.9458963425588"
    }
  },
  {
    "service_request": "2023-1055829",
    "request_type": "Trash/Recycling",
    "request_reason": "Repair Trash Cart",
    "date_created": "2023-12-14T13:49:50.000",
    "date_modified": "2023-12-14T13:49:52.000",
    "request_status": "Pending",
    "responsible_agency": "Department of Sanitation",
    "final_address": "4701 Mendez St",
    "address_councildis": "D",
    "status": "Assigned to Contractor",
    "contractor": "IV Waste",
    "rowid": "1055829",
    "final_x": "3690955.82403",
    "final_y": "554108.065432",
    "longitude": "-90.03740567066518",
    "latitude": "30.017314255374885",
    "geocoded_column": {
      "latitude": "30.017314255374885",
      "longitude": "-90.03740567066518"
    }
  },
  {
    "service_request": "2023-1055828",
    "request_type": "Traffic Signals/Signs/Striping/Streetlights",
    "request_reason": "Street Name Sign Damaged or Missing",
    "date_created": "2023-12-14T13:45:02.000",
    "date_modified": "2023-12-14T13:45:02.000",
    "request_status": "Pending",
    "responsible_agency": "Department of Public Works",
    "final_address": "VALENCE ST & S LIBERTY ST",
    "address_councildis": "B",
    "status": "Pending",
    "rowid": "1055828",
    "final_x": "3669497.5",
    "final_y": "523242.18",
    "longitude": "-90.10624992288712",
    "latitude": "29.93309333523494",
    "geocoded_column": {
      "latitude": "29.93309333523494",
      "longitude": "-90.10624992288712"
    }
  },
  {
    "service_request": "2023-1055827",
    "request_type": "Trash/Recycling",
    "request_reason": "Request a Large Item Pick Up",
    "date_created": "2023-12-14T13:43:24.000",
    "date_modified": "2023-12-14T13:43:24.000",
    "request_status": "Pending",
    "responsible_agency": "Department of Sanitation",
    "final_address": "3111 Dickens Dr",
    "address_councildis": "C",
    "status": "Assigned to Contractor",
    "contractor": "Richards Disposal",
    "rowid": "1055827",
    "final_x": "3708281.69611",
    "final_y": "518782.493879",
    "longitude": "-89.9839777682127",
    "latitude": "29.919631737935237",
    "geocoded_column": {
      "latitude": "29.919631737935237",
      "longitude": "-89.9839777682127"
    }
  },
  {
    "service_request": "2023-1055826",
    "request_type": "Trash/Recycling",
    "request_reason": "Request a Large Item Pick Up",
    "date_created": "2023-12-14T13:38:45.000",
    "date_modified": "2023-12-14T13:38:46.000",
    "request_status": "Pending",
    "responsible_agency": "Department of Sanitation",
    "final_address": "1721 St Ann St",
    "address_councildis": "D",
    "status": "Assigned to Contractor",
    "contractor": "Richards Disposal",
    "rowid": "1055826",
    "final_x": "3679827.94479",
    "final_y": "535067.36615",
    "longitude": "-90.07322688548359",
    "latitude": "29.965300396750646",
    "geocoded_column": {
      "latitude": "29.965300396750646",
      "longitude": "-90.07322688548359"
    }
  },
  {
    "service_request": "2023-1055825",
    "request_type": "Trash/Recycling",
    "request_reason": "Replace Recycling Cart",
    "date_created": "2023-12-14T13:36:24.000",
    "date_modified": "2023-12-14T13:36:24.000",
    "request_status": "Pending",
    "responsible_agency": "Department of Sanitation",
    "final_address": "917 Leontine St",
    "address_councildis": "B",
    "status": "Pending",
    "rowid": "1055825",
    "final_x": "3667228.90055",
    "final_y": "518845.794039",
    "longitude": "-90.11355950727835",
    "latitude": "29.921071273714446",
    "geocoded_column": {
      "latitude": "29.921071273714446",
      "longitude": "-90.11355950727835"
    }
  },
  {
    "service_request": "2023-1055824",
    "request_type": "Trash/Recycling",
    "request_reason": "Request a Large Item Pick Up",
    "date_created": "2023-12-14T13:34:35.000",
    "date_modified": "2023-12-14T13:34:36.000",
    "request_status": "Pending",
    "responsible_agency": "Department of Sanitation",
    "final_address": "3030 Ponce De Leon St",
    "address_councildis": "A",
    "status": "Assigned to Contractor",
    "contractor": "IV Waste",
    "rowid": "1055824",
    "final_x": "3676900.99976",
    "final_y": "540486.889035",
    "longitude": "-90.08228317801368",
    "latitude": "29.980290413186488",
    "geocoded_column": {
      "latitude": "29.980290413186488",
      "longitude": "-90.08228317801368"
    }
  },
  {
    "service_request": "2023-1055823",
    "request_type": "Trash/Recycling",
    "request_reason": "Repair Recycling Cart",
    "date_created": "2023-12-14T13:29:12.000",
    "date_modified": "2023-12-14T13:29:13.000",
    "request_status": "Pending",
    "responsible_agency": "Department of Sanitation",
    "final_address": "5818 Chamberlain Dr",
    "address_councildis": "D",
    "status": "Pending",
    "rowid": "1055823",
    "final_x": "3679253.11573",
    "final_y": "553984.510104",
    "longitude": "-90.07438580354349",
    "latitude": "30.01733326140651",
    "geocoded_column": {
      "latitude": "30.01733326140651",
      "longitude": "-90.07438580354349"
    }
  },
  {
    "service_request": "2023-1055822",
    "request_type": "Traffic Signals/Signs/Striping/Streetlights",
    "request_reason": "Street Light Outage/Malfunction",
    "date_created": "2023-12-14T13:10:01.000",
    "date_modified": "2023-12-14T13:12:16.000",
    "request_status": "Pending",
    "responsible_agency": "Department of Public Works",
    "final_address": "3023 Marigny St",
    "address_councildis": "D",
    "status": "Assigned to Contractor",
    "contractor": "Legacy Professional Services",
    "rowid": "1055822",
    "final_x": "3684851.72009",
    "final_y": "543910.53915",
    "longitude": "-90.05705102721632",
    "latitude": "29.9894631549012",
    "geocoded_column": {
      "latitude": "29.9894631549012",
      "longitude": "-90.05705102721632"
    }
  },
  {
    "service_request": "2023-1055821",
    "request_type": "Abandoned Vehicles",
    "request_reason": "Abandoned/Junk Vehicles",
    "date_created": "2023-12-14T13:07:05.000",
    "date_modified": "2023-12-14T13:07:05.000",
    "request_status": "Pending",
    "responsible_agency": "Department of Public Works",
    "final_address": "3802 Cambronne St",
    "address_councildis": "A",
    "status": "Pending",
    "rowid": "1055821",
    "final_x": "3667382.86426",
    "final_y": "536021.939783",
    "longitude": "-90.11249585071579",
    "latitude": "29.968295611116655",
    "geocoded_column": {
      "latitude": "29.968295611116655",
      "longitude": "-90.11249585071579"
    }
  },
  {
    "service_request": "2023-1055820",
    "request_type": "Traffic Signals/Signs/Striping/Streetlights",
    "request_reason": "Street Light Outage/Malfunction",
    "date_created": "2023-12-14T13:04:49.000",
    "date_modified": "2023-12-14T13:04:50.000",
    "request_status": "Pending",
    "responsible_agency": "Department of Public Works",
    "final_address": "AURORA DR & WARWICK CT",
    "address_councildis": "C",
    "status": "Assigned to Contractor",
    "contractor": "Legacy Professional Services",
    "rowid": "1055820",
    "final_x": "3706854.2",
    "final_y": "515889.38",
    "longitude": "-89.98859080176405",
    "latitude": "29.911722822599362",
    "geocoded_column": {
      "latitude": "29.911722822599362",
      "longitude": "-89.98859080176405"
    }
  },
  {
    "service_request": "2023-1055819",
    "request_type": "Trash/Recycling",
    "request_reason": "MIssed Recycling Pick-Up",
    "date_created": "2023-12-14T13:00:40.000",
    "date_modified": "2023-12-14T13:00:41.000",
    "request_status": "Pending",
    "responsible_agency": "Department of Sanitation",
    "final_address": "423 S Solomon St",
    "address_councildis": "A",
    "status": "Assigned to Contractor",
    "contractor": "Richards Disposal",
    "rowid": "1055819",
    "final_x": "3669684.00743",
    "final_y": "537605.832264",
    "longitude": "-90.10517510291825",
    "latitude": "29.972583168970633",
    "geocoded_column": {
      "latitude": "29.972583168970633",
      "longitude": "-90.10517510291825"
    }
  },
  {
    "service_request": "2023-1055818",
    "request_type": "Trash/Recycling",
    "request_reason": "Missed Trash Pick-Up",
    "date_created": "2023-12-14T13:00:20.000",
    "date_modified": "2023-12-14T13:00:21.000",
    "request_status": "Pending",
    "responsible_agency": "Department of Sanitation",
    "final_address": "4804 Dauphine St",
    "address_councildis": "E",
    "status": "Assigned to Contractor",
    "contractor": "Waste Pro",
    "rowid": "1055818",
    "final_x": "3694762.69264",
    "final_y": "533312.80442",
    "longitude": "-90.02612713187644",
    "latitude": "29.96001591435965",
    "geocoded_column": {
      "latitude": "29.96001591435965",
      "longitude": "-90.02612713187644"
    }
  },
  {
    "service_request": "2023-1055817",
    "request_type": "Parks & Parkways",
    "request_reason": "Request Tree Service (Right of Way/Public Property)",
    "date_created": "2023-12-14T12:48:54.000",
    "date_modified": "2023-12-14T12:48:54.000",
    "request_status": "Pending",
    "responsible_agency": "Department of Parks & Parkway",
    "final_address": "301 N Carrollton Ave",
    "address_councildis": "A",
    "status": "Pending",
    "rowid": "1055817",
    "final_x": "3671615.31969",
    "final_y": "539045.621834",
    "longitude": "-90.09902667417641",
    "latitude": "29.97648504225232",
    "geocoded_column": {
      "latitude": "29.97648504225232",
      "longitude": "-90.09902667417641"
    }
  },
  {
    "service_request": "2023-1055816",
    "request_type": "Parks & Parkways",
    "request_reason": "Request Tree Service (Right of Way/Public Property)",
    "date_created": "2023-12-14T12:48:12.000",
    "date_modified": "2023-12-14T12:48:12.000",
    "request_status": "Pending",
    "responsible_agency": "Department of Parks & Parkway",
    "final_address": "411 N Carrollton Ave",
    "address_councildis": "A",
    "status": "Pending",
    "rowid": "1055816",
    "final_x": "3671824.91086",
    "final_y": "539363.888906",
    "longitude": "-90.09835388622732",
    "latitude": "29.977353959008784",
    "geocoded_column": {
      "latitude": "29.977353959008784",
      "longitude": "-90.09835388622732"
    }
  },
  {
    "service_request": "2023-1055815",
    "request_type": "Parks & Parkways",
    "request_reason": "Request Tree Service (Right of Way/Public Property)",
    "date_created": "2023-12-14T12:46:39.000",
    "date_modified": "2023-12-14T12:46:40.000",
    "request_status": "Pending",
    "responsible_agency": "Department of Parks & Parkway",
    "final_address": "401 N Carrollton Ave",
    "address_councildis": "A",
    "status": "Pending",
    "rowid": "1055815",
    "final_x": "3671482.24667",
    "final_y": "539704.336458",
    "longitude": "-90.0994245569996",
    "latitude": "29.978300224786608",
    "geocoded_column": {
      "latitude": "29.978300224786608",
      "longitude": "-90.0994245569996"
    }
  },
  {
    "service_request": "2023-1055814",
    "request_type": "Roads/Drainage",
    "request_reason": "Street Subsidence (Sinking)",
    "date_created": "2023-12-14T12:38:54.000",
    "date_modified": "2023-12-14T12:38:54.000",
    "request_status": "Pending",
    "responsible_agency": "Department of Public Works",
    "final_address": "1433 Prytania St",
    "address_councildis": "B",
    "status": "Pending",
    "rowid": "1055814",
    "final_x": "3679639.78978",
    "final_y": "525317.248253",
    "longitude": "-90.07415942775383",
    "latitude": "29.93849653854956",
    "geocoded_column": {
      "latitude": "29.93849653854956",
      "longitude": "-90.07415942775383"
    }
  },
  {
    "service_request": "2023-1055813",
    "request_type": "Roads/Drainage",
    "request_reason": "Pothole",
    "date_created": "2023-12-14T12:37:07.000",
    "date_modified": "2023-12-14T12:37:07.000",
    "request_status": "Pending",
    "responsible_agency": "Department of Public Works",
    "final_address": "1427 General Pershing St",
    "address_councildis": "B",
    "status": "Pending",
    "rowid": "1055813",
    "final_x": "3671330.17102",
    "final_y": "520583.22316",
    "longitude": "-90.10055460321166",
    "latitude": "29.92572796471359",
    "geocoded_column": {
      "latitude": "29.92572796471359",
      "longitude": "-90.10055460321166"
    }
  },
  {
    "service_request": "2023-1055812",
    "request_type": "Trash/Recycling",
    "request_reason": "Missed Trash Pick-Up",
    "date_created": "2023-12-14T12:34:34.000",
    "date_modified": "2023-12-14T12:51:32.000",
    "case_close_date": "2023-12-14T06:51:32.000",
    "request_status": "Closed",
    "responsible_agency": "Department of Sanitation",
    "final_address": "2501 Pressburg St",
    "address_councildis": "D",
    "status": "Invalid Request",
    "contractor": "IV Waste",
    "contractor_action": "Invalid Request",
    "rowid": "1055812",
    "final_x": "3685785.23177",
    "final_y": "554816.1142",
    "longitude": "-90.05371764300008",
    "latitude": "30.019420909844662",
    "geocoded_column": {
      "latitude": "30.019420909844662",
      "longitude": "-90.05371764300008"
    }
  },
  {
    "service_request": "2023-1055811",
    "request_type": "Traffic Signals/Signs/Striping/Streetlights",
    "request_reason": "Street Light Outage/Malfunction",
    "date_created": "2023-12-14T12:30:07.000",
    "date_modified": "2023-12-14T12:30:08.000",
    "request_status": "Pending",
    "responsible_agency": "Department of Public Works",
    "final_address": "5001 N Rampart St",
    "address_councildis": "E",
    "status": "Assigned to Contractor",
    "contractor": "Legacy Professional Services",
    "rowid": "1055811",
    "final_x": "3695891.49654",
    "final_y": "533856.317061",
    "longitude": "-90.02254299895391",
    "latitude": "29.96147492452718",
    "geocoded_column": {
      "latitude": "29.96147492452718",
      "longitude": "-90.02254299895391"
    }
  },
  {
    "service_request": "2023-1055810",
    "request_type": "Parks & Parkways",
    "request_reason": "Request Tree Service (Right of Way/Public Property)",
    "date_created": "2023-12-14T12:27:44.000",
    "date_modified": "2023-12-14T12:35:05.000",
    "request_status": "Pending",
    "responsible_agency": "Department of Parks & Parkway",
    "final_address": "4511 Canal St",
    "address_councildis": "A",
    "status": "Pending",
    "rowid": "1055810",
    "final_x": "3669688.30311",
    "final_y": "539554.916106",
    "longitude": "-90.10509555423576",
    "latitude": "29.977942365935384",
    "geocoded_column": {
      "latitude": "29.977942365935384",
      "longitude": "-90.10509555423576"
    }
  },
  {
    "service_request": "2023-1055809",
    "request_type": "Trash/Recycling",
    "request_reason": "Return Recycling Cart",
    "date_created": "2023-12-14T12:24:33.000",
    "date_modified": "2023-12-14T12:24:34.000",
    "request_status": "Pending",
    "responsible_agency": "Department of Sanitation",
    "final_address": "2430 Dreux Ave",
    "address_councildis": "D",
    "status": "Pending",
    "rowid": "1055809",
    "final_x": "3685465.27849",
    "final_y": "552054.97903",
    "longitude": "-90.05482592949386",
    "latitude": "30.011838622207836",
    "geocoded_column": {
      "latitude": "30.011838622207836",
      "longitude": "-90.05482592949386"
    }
  },
  {
    "service_request": "2023-1055808",
    "request_type": "Trash/Recycling",
    "request_reason": "Request a Large Item Pick Up",
    "date_created": "2023-12-14T12:19:45.000",
    "date_modified": "2023-12-14T12:19:46.000",
    "request_status": "Pending",
    "responsible_agency": "Department of Sanitation",
    "final_address": "617 David St",
    "address_councildis": "A",
    "status": "Assigned to Contractor",
    "contractor": "Richards Disposal",
    "rowid": "1055808",
    "final_x": "3672047.77876",
    "final_y": "540096.798859",
    "longitude": "-90.09762503075697",
    "latitude": "29.97936260530238",
    "geocoded_column": {
      "latitude": "29.97936260530238",
      "longitude": "-90.09762503075697"
    }
  },
  {
    "service_request": "2023-1055807",
    "request_type": "Trash/Recycling",
    "request_reason": "MIssed Recycling Pick-Up",
    "date_created": "2023-12-14T12:18:47.000",
    "date_modified": "2023-12-14T12:18:49.000",
    "request_status": "Pending",
    "responsible_agency": "Department of Sanitation",
    "final_address": "4801 Crowder Blvd",
    "address_councildis": "E",
    "status": "Assigned to Contractor",
    "contractor": "Waste Pro",
    "rowid": "1055807",
    "final_x": "3706509.79947",
    "final_y": "555928.512921",
    "longitude": "-89.98819427074444",
    "latitude": "30.02182691424058",
    "geocoded_column": {
      "latitude": "30.02182691424058",
      "longitude": "-89.98819427074444"
    }
  },
  {
    "service_request": "2023-1055806",
    "request_type": "Trash/Recycling",
    "request_reason": "Repair Trash Cart",
    "date_created": "2023-12-14T12:15:32.000",
    "date_modified": "2023-12-14T12:15:33.000",
    "request_status": "Pending",
    "responsible_agency": "Department of Sanitation",
    "final_address": "3040 Hudson Pl",
    "address_councildis": "C",
    "status": "Assigned to Contractor",
    "contractor": "Richards Disposal",
    "rowid": "1055806",
    "final_x": "3703163.71255",
    "final_y": "519543.749751",
    "longitude": "-90.0001046324349",
    "latitude": "29.921889659470697",
    "geocoded_column": {
      "latitude": "29.921889659470697",
      "longitude": "-90.0001046324349"
    }
  },
  {
    "service_request": "2023-1055805",
    "request_type": "Abandoned Vehicles",
    "request_reason": "Abandoned/Junk Vehicles",
    "date_created": "2023-12-14T12:12:58.000",
    "date_modified": "2023-12-14T12:12:58.000",
    "request_status": "Pending",
    "responsible_agency": "Department of Public Works",
    "final_address": "8023 Green St",
    "address_councildis": "A",
    "status": "Pending",
    "rowid": "1055805",
    "final_x": "3663310.53069",
    "final_y": "529562.293953",
    "longitude": "-90.1255715470843",
    "latitude": "29.950652365406768",
    "geocoded_column": {
      "latitude": "29.950652365406768",
      "longitude": "-90.1255715470843"
    }
  },
  {
    "service_request": "2023-1055804",
    "request_type": "Traffic Signals/Signs/Striping/Streetlights",
    "request_reason": "Street Light Outage/Malfunction",
    "date_created": "2023-12-14T12:10:52.000",
    "date_modified": "2023-12-14T12:10:52.000",
    "request_status": "Pending",
    "responsible_agency": "Department of Public Works",
    "final_address": "10935 Chaucer St",
    "address_councildis": "E",
    "status": "Assigned to Contractor",
    "contractor": "Legacy Professional Services",
    "rowid": "1055804",
    "final_x": "3712809.33592",
    "final_y": "561972.979615",
    "longitude": "-89.96806202085207",
    "latitude": "30.03824195102887",
    "geocoded_column": {
      "latitude": "30.03824195102887",
      "longitude": "-89.96806202085207"
    }
  },
  {
    "service_request": "2023-1055803",
    "request_type": "Trash/Recycling",
    "request_reason": "MIssed Recycling Pick-Up",
    "date_created": "2023-12-14T12:10:38.000",
    "date_modified": "2023-12-14T12:10:39.000",
    "request_status": "Pending",
    "responsible_agency": "Department of Sanitation",
    "final_address": "7370 Northgate Dr",
    "address_councildis": "E",
    "status": "Assigned to Contractor",
    "contractor": "Waste Pro",
    "rowid": "1055803",
    "final_x": "3713041.72024",
    "final_y": "565802.563043",
    "longitude": "-89.96718334017139",
    "latitude": "30.04876414465267",
    "geocoded_column": {
      "latitude": "30.04876414465267",
      "longitude": "-89.96718334017139"
    }
  },
  {
    "service_request": "2023-1055802",
    "request_type": "Trash/Recycling",
    "request_reason": "Repair Trash Cart",
    "date_created": "2023-12-14T12:08:25.000",
    "date_modified": "2023-12-14T12:08:26.000",
    "request_status": "Pending",
    "responsible_agency": "Department of Sanitation",
    "final_address": "2101 Gallier St",
    "address_councildis": "D",
    "status": "Assigned to Contractor",
    "contractor": "IV Waste",
    "rowid": "1055802",
    "final_x": "3691452.01104",
    "final_y": "539427.632778",
    "longitude": "-90.0363629455637",
    "latitude": "29.97693297328838",
    "geocoded_column": {
      "latitude": "29.97693297328838",
      "longitude": "-90.0363629455637"
    }
  },
  {
    "service_request": "2023-1055801",
    "request_type": "Abandoned Vehicles",
    "request_reason": "Abandoned/Junk Vehicles",
    "date_created": "2023-12-14T12:07:46.000",
    "date_modified": "2023-12-14T12:07:46.000",
    "request_status": "Pending",
    "responsible_agency": "Department of Public Works",
    "final_address": "8023 Green St",
    "address_councildis": "A",
    "status": "Pending",
    "rowid": "1055801",
    "final_x": "3663310.53069",
    "final_y": "529562.293953",
    "longitude": "-90.1255715470843",
    "latitude": "29.950652365406768",
    "geocoded_column": {
      "latitude": "29.950652365406768",
      "longitude": "-90.1255715470843"
    }
  },
  {
    "service_request": "2023-1055800",
    "request_type": "Traffic Signals/Signs/Striping/Streetlights",
    "request_reason": "Street Light Outage/Malfunction",
    "date_created": "2023-12-14T12:06:49.000",
    "date_modified": "2023-12-14T12:06:50.000",
    "request_status": "Pending",
    "responsible_agency": "Department of Public Works",
    "final_address": "1406 Cabrini Ct",
    "address_councildis": "D",
    "status": "Assigned to Contractor",
    "contractor": "Legacy Professional Services",
    "rowid": "1055800",
    "final_x": "3677795.43278",
    "final_y": "553201.523927",
    "longitude": "-90.07901857849204",
    "latitude": "30.015224288846486",
    "geocoded_column": {
      "latitude": "30.015224288846486",
      "longitude": "-90.07901857849204"
    }
  },
  {
    "service_request": "2023-1055799",
    "request_type": "Trash/Recycling",
    "request_reason": "Replace Trash Cart",
    "date_created": "2023-12-14T12:05:11.000",
    "date_modified": "2023-12-14T12:05:12.000",
    "request_status": "Pending",
    "responsible_agency": "Department of Sanitation",
    "final_address": "743 S Genois St",
    "address_councildis": "B",
    "status": "Assigned to Contractor",
    "contractor": "Richards Disposal",
    "rowid": "1055799",
    "final_x": "3670914.32846",
    "final_y": "535058.771974",
    "longitude": "-90.10137600360173",
    "latitude": "29.965543290666492",
    "geocoded_column": {
      "latitude": "29.965543290666492",
      "longitude": "-90.10137600360173"
    }
  },
  {
    "service_request": "2023-1055798",
    "request_type": "Trash/Recycling",
    "request_reason": "Replace Trash Cart",
    "date_created": "2023-12-14T12:03:53.000",
    "date_modified": "2023-12-14T12:03:54.000",
    "request_status": "Pending",
    "responsible_agency": "Department of Sanitation",
    "final_address": "1001 Bienville St",
    "address_councildis": "C",
    "status": "Assigned to Contractor",
    "contractor": "Empire Services",
    "rowid": "1055798",
    "final_x": "3680778.36283",
    "final_y": "532010.867203",
    "longitude": "-90.07033190612033",
    "latitude": "29.95686729223023",
    "geocoded_column": {
      "latitude": "29.95686729223023",
      "longitude": "-90.07033190612033"
    }
  },
  {
    "service_request": "2023-1055797",
    "request_type": "Trash/Recycling",
    "request_reason": "Replace Trash Cart",
    "date_created": "2023-12-14T12:01:12.000",
    "date_modified": "2023-12-14T12:01:13.000",
    "request_status": "Pending",
    "responsible_agency": "Department of Sanitation",
    "final_address": "1001 Bienville St",
    "address_councildis": "C",
    "status": "Assigned to Contractor",
    "contractor": "Empire Services",
    "rowid": "1055797",
    "final_x": "3680778.36283",
    "final_y": "532010.867203",
    "longitude": "-90.07033190612033",
    "latitude": "29.95686729223023",
    "geocoded_column": {
      "latitude": "29.95686729223023",
      "longitude": "-90.07033190612033"
    }
  },
  {
    "service_request": "2023-1055796",
    "request_type": "Trash/Recycling",
    "request_reason": "Replace Trash Cart",
    "date_created": "2023-12-14T11:54:32.000",
    "date_modified": "2023-12-14T11:54:33.000",
    "request_status": "Pending",
    "responsible_agency": "Department of Sanitation",
    "final_address": "1001 Bienville St",
    "address_councildis": "C",
    "status": "Assigned to Contractor",
    "contractor": "Empire Services",
    "rowid": "1055796",
    "final_x": "3680778.36283",
    "final_y": "532010.867203",
    "longitude": "-90.07033190612033",
    "latitude": "29.95686729223023",
    "geocoded_column": {
      "latitude": "29.95686729223023",
      "longitude": "-90.07033190612033"
    }
  },
  {
    "service_request": "2023-1055795",
    "request_type": "Traffic Signals/Signs/Striping/Streetlights",
    "request_reason": "Traffic Sign Missing/Damaged",
    "date_created": "2023-12-14T11:45:42.000",
    "date_modified": "2023-12-14T11:45:43.000",
    "request_status": "Pending",
    "responsible_agency": "Department of Public Works",
    "final_address": "ST ANDREW ST & MAGNOLIA ST",
    "address_councildis": "B",
    "status": "Pending",
    "rowid": "1055795",
    "final_x": "3675633.4",
    "final_y": "527186.18",
    "longitude": "-90.08674383088689",
    "latitude": "29.943755936794375",
    "geocoded_column": {
      "latitude": "29.943755936794375",
      "longitude": "-90.08674383088689"
    }
  },
  {
    "service_request": "2023-1055794",
    "request_type": "Traffic Signals/Signs/Striping/Streetlights",
    "request_reason": "Traffic Sign Missing/Damaged",
    "date_created": "2023-12-14T11:39:45.000",
    "date_modified": "2023-12-14T11:39:45.000",
    "request_status": "Pending",
    "responsible_agency": "Department of Public Works",
    "final_address": "2800 BLK Higgins Blvd",
    "address_councildis": "D",
    "status": "Pending",
    "rowid": "1055794",
    "final_x": "3689868.29936",
    "final_y": "545073.299733",
    "longitude": "-90.04116371606673",
    "latitude": "29.992505732789507",
    "geocoded_column": {
      "latitude": "29.992505732789507",
      "longitude": "-90.04116371606673"
    }
  },
  {
    "service_request": "2023-1055793",
    "request_type": "Trash/Recycling",
    "request_reason": "Replace Trash Cart",
    "date_created": "2023-12-14T11:30:50.000",
    "date_modified": "2023-12-14T11:30:50.000",
    "request_status": "Pending",
    "responsible_agency": "Department of Sanitation",
    "final_address": "4736 Prytania St",
    "address_councildis": "B",
    "status": "Assigned to Contractor",
    "contractor": "Richards Disposal",
    "rowid": "1055793",
    "final_x": "3669486.18727",
    "final_y": "520138.186232",
    "longitude": "-90.10639056332487",
    "latitude": "29.92455867648414",
    "geocoded_column": {
      "latitude": "29.92455867648414",
      "longitude": "-90.10639056332487"
    }
  },
  {
    "service_request": "2023-1055792",
    "request_type": "Abandoned Vehicles",
    "request_reason": "Abandoned/Junk Vehicles",
    "date_created": "2023-12-14T11:27:17.000",
    "date_modified": "2023-12-14T11:27:18.000",
    "request_status": "Pending",
    "responsible_agency": "Department of Public Works",
    "final_address": "1821 Jena St",
    "address_councildis": "B",
    "status": "Pending",
    "rowid": "1055792",
    "final_x": "3670442.32705",
    "final_y": "521753.279034",
    "longitude": "-90.10331761761675",
    "latitude": "29.92897147976895",
    "geocoded_column": {
      "latitude": "29.92897147976895",
      "longitude": "-90.10331761761675"
    }
  },
  {
    "service_request": "2023-1055791",
    "request_type": "Roads/Drainage",
    "request_reason": "Catch Basin - Clogged",
    "date_created": "2023-12-14T11:20:48.000",
    "date_modified": "2023-12-14T11:20:48.000",
    "request_status": "Pending",
    "responsible_agency": "Department of Public Works",
    "final_address": "500 BLK Chartres St",
    "address_councildis": "C",
    "status": "Pending",
    "rowid": "1055791",
    "final_x": "3682494.3899",
    "final_y": "531796.684882",
    "longitude": "-90.06492072817167",
    "latitude": "29.956226242619564",
    "geocoded_column": {
      "latitude": "29.956226242619564",
      "longitude": "-90.06492072817167"
    }
  },
  {
    "service_request": "2023-1055790",
    "request_type": "Trash/Recycling",
    "request_reason": "Request a Large Item Pick Up",
    "date_created": "2023-12-14T11:19:19.000",
    "date_modified": "2023-12-14T11:19:20.000",
    "request_status": "Pending",
    "responsible_agency": "Department of Sanitation",
    "final_address": "5 Glen Abbey Way",
    "address_councildis": "C",
    "status": "Assigned to Contractor",
    "contractor": "Richards Disposal",
    "rowid": "1055790",
    "final_x": "3716677.25631",
    "final_y": "515365.66322",
    "longitude": "-89.95760693972234",
    "latitude": "29.909962144940433",
    "geocoded_column": {
      "latitude": "29.909962144940433",
      "longitude": "-89.95760693972234"
    }
  },
  {
    "service_request": "2023-1055789",
    "request_type": "Traffic Signals/Signs/Striping/Streetlights",
    "request_reason": "Street Light Outage/Malfunction",
    "date_created": "2023-12-14T11:16:52.000",
    "date_modified": "2023-12-14T11:16:53.000",
    "request_status": "Pending",
    "responsible_agency": "Department of Public Works",
    "final_address": "900 BLK Market St",
    "address_councildis": "B",
    "status": "Assigned to Contractor",
    "contractor": "Legacy Professional Services",
    "rowid": "1055789",
    "final_x": "3680555.44856",
    "final_y": "522610.465722",
    "longitude": "-90.07136271740347",
    "latitude": "29.931026081621066",
    "geocoded_column": {
      "latitude": "29.931026081621066",
      "longitude": "-90.07136271740347"
    }
  },
  {
    "service_request": "2023-1055788",
    "request_type": "Trash/Recycling",
    "request_reason": "Request a Large Item Pick Up",
    "date_created": "2023-12-14T11:12:55.000",
    "date_modified": "2023-12-14T11:12:56.000",
    "request_status": "Pending",
    "responsible_agency": "Department of Sanitation",
    "final_address": "4658 Lancelot Dr",
    "address_councildis": "E",
    "status": "Assigned to Contractor",
    "contractor": "Waste Pro",
    "rowid": "1055788",
    "final_x": "3707438.76555",
    "final_y": "554881.340632",
    "longitude": "-89.98529793185782",
    "latitude": "30.0189175783064",
    "geocoded_column": {
      "latitude": "30.0189175783064",
      "longitude": "-89.98529793185782"
    }
  },
  {
    "service_request": "2023-1055787",
    "request_type": "Trash/Recycling",
    "request_reason": "Missed Trash Pick-Up",
    "date_created": "2023-12-14T11:11:36.000",
    "date_modified": "2023-12-14T13:43:27.000",
    "case_close_date": "2023-12-14T07:43:27.000",
    "request_status": "Closed",
    "responsible_agency": "Department of Sanitation",
    "final_address": "7110 Cove Dr",
    "address_councildis": "E",
    "status": "Assigned to Contractor",
    "contractor": "Waste Pro",
    "contractor_action": "Invalid Request",
    "rowid": "1055787",
    "final_x": "3700172.81015",
    "final_y": "558591.886876",
    "longitude": "-90.00812004993217",
    "latitude": "30.02935319754831",
    "geocoded_column": {
      "latitude": "30.02935319754831",
      "longitude": "-90.00812004993217"
    }
  },
  {
    "service_request": "2023-1055786",
    "request_type": "Trash/Recycling",
    "request_reason": "Order Trash Cart",
    "date_created": "2023-12-14T11:06:52.000",
    "date_modified": "2023-12-14T11:06:53.000",
    "request_status": "Pending",
    "responsible_agency": "Department of Sanitation",
    "final_address": "4639 S Carrollton Ave",
    "address_councildis": "A",
    "status": "Assigned to Contractor",
    "contractor": "Richards Disposal",
    "rowid": "1055786",
    "final_x": "3670724.82651",
    "final_y": "538022.833929",
    "longitude": "-90.1018738461472",
    "latitude": "29.973699066966873",
    "geocoded_column": {
      "latitude": "29.973699066966873",
      "longitude": "-90.1018738461472"
    }
  },
  {
    "service_request": "2023-1055785",
    "request_type": "Abandoned Vehicles",
    "request_reason": "Abandoned/Junk Vehicles",
    "date_created": "2023-12-14T11:06:51.000",
    "date_modified": "2023-12-14T11:06:51.000",
    "request_status": "Pending",
    "responsible_agency": "Department of Public Works",
    "final_address": "8602 Palmetto St",
    "address_councildis": "A",
    "status": "Pending",
    "rowid": "1055785",
    "final_x": "3666726.0386",
    "final_y": "536322.785223",
    "longitude": "-90.11456003781349",
    "latitude": "29.969142062388475",
    "geocoded_column": {
      "latitude": "29.969142062388475",
      "longitude": "-90.11456003781349"
    }
  },
  {
    "service_request": "2023-1055784",
    "request_type": "Trash/Recycling",
    "request_reason": "Missed Trash Pick-Up",
    "date_created": "2023-12-14T11:04:53.000",
    "date_modified": "2023-12-14T11:05:29.000",
    "request_status": "Pending",
    "responsible_agency": "Department of Sanitation",
    "final_address": "4843 Schindler Dr",
    "address_councildis": "E",
    "status": "Assigned to Contractor",
    "contractor": "Waste Pro",
    "rowid": "1055784",
    "final_x": "3714356.13688",
    "final_y": "557176.342235",
    "longitude": "-89.96335501885451",
    "latitude": "30.02500234714515",
    "geocoded_column": {
      "latitude": "30.02500234714515",
      "longitude": "-89.96335501885451"
    }
  },
  {
    "service_request": "2023-1055783",
    "request_type": "Traffic Signals/Signs/Striping/Streetlights",
    "request_reason": "Request for Stop Sign",
    "date_created": "2023-12-14T11:04:26.000",
    "date_modified": "2023-12-14T11:04:26.000",
    "request_status": "Pending",
    "responsible_agency": "Department of Public Works",
    "final_address": "WALMSLEY AVE & OCTAVIA ST",
    "address_councildis": "B",
    "status": "Pending",
    "rowid": "1055783",
    "final_x": "3668977.7",
    "final_y": "530344.38",
    "longitude": "-90.10765106591467",
    "latitude": "29.952637380001402",
    "geocoded_column": {
      "latitude": "29.952637380001402",
      "longitude": "-90.10765106591467"
    }
  },
  {
    "service_request": "2023-1055782",
    "request_type": "Trash/Recycling",
    "request_reason": "Return Recycling Cart",
    "date_created": "2023-12-14T11:03:18.000",
    "date_modified": "2023-12-14T11:03:19.000",
    "request_status": "Pending",
    "responsible_agency": "Department of Sanitation",
    "final_address": "3535 Touro St",
    "address_councildis": "D",
    "status": "Pending",
    "rowid": "1055782",
    "final_x": "3683513.87708",
    "final_y": "545733.924624",
    "longitude": "-90.06121294351118",
    "latitude": "29.99451772288964",
    "geocoded_column": {
      "latitude": "29.99451772288964",
      "longitude": "-90.06121294351118"
    }
  },
  {
    "service_request": "2023-1055781",
    "request_type": "Trash/Recycling",
    "request_reason": "Missed Trash Pick-Up",
    "date_created": "2023-12-14T10:58:26.000",
    "date_modified": "2023-12-14T10:58:27.000",
    "request_status": "Pending",
    "responsible_agency": "Department of Sanitation",
    "final_address": "6040 Burgundy St",
    "address_councildis": "E",
    "status": "Assigned to Contractor",
    "contractor": "Waste Pro",
    "rowid": "1055781",
    "final_x": "3699133.00375",
    "final_y": "532536.7097",
    "longitude": "-90.01235497646901",
    "latitude": "29.95774411453584",
    "geocoded_column": {
      "latitude": "29.95774411453584",
      "longitude": "-90.01235497646901"
    }
  },
  {
    "service_request": "2023-1055780",
    "request_type": "Property Maintenance",
    "request_reason": "Property Maintenance",
    "date_created": "2023-12-14T10:58:21.000",
    "date_modified": "2023-12-14T10:58:22.000",
    "request_status": "Pending",
    "responsible_agency": "Department of Code Enforcement",
    "final_address": "1511 Maura Pl",
    "address_councildis": "C",
    "status": "Pending",
    "rowid": "1055780",
    "final_x": "3699200.47658",
    "final_y": "525591.457853",
    "longitude": "-90.01239474188907",
    "latitude": "29.93864497388045",
    "geocoded_column": {
      "latitude": "29.93864497388045",
      "longitude": "-90.01239474188907"
    }
  },
  {
    "service_request": "2023-1055779",
    "request_type": "Property Maintenance",
    "request_reason": "Property Maintenance",
    "date_created": "2023-12-14T10:53:09.000",
    "date_modified": "2023-12-14T10:53:09.000",
    "request_status": "Pending",
    "responsible_agency": "Department of Code Enforcement",
    "final_address": "4338 S Carrollton Ave",
    "address_councildis": "A",
    "status": "Pending",
    "rowid": "1055779",
    "final_x": "3670059.66458",
    "final_y": "537044.464392",
    "longitude": "-90.10400772727569",
    "latitude": "29.971028519245042",
    "geocoded_column": {
      "latitude": "29.971028519245042",
      "longitude": "-90.10400772727569"
    }
  },
  {
    "service_request": "2023-1055778",
    "request_type": "Property Maintenance",
    "request_reason": "Property Maintenance",
    "date_created": "2023-12-14T10:52:15.000",
    "date_modified": "2023-12-14T10:52:15.000",
    "request_status": "Pending",
    "responsible_agency": "Department of Code Enforcement",
    "final_address": "4338 S Carrollton Ave",
    "address_councildis": "A",
    "status": "Pending",
    "rowid": "1055778",
    "final_x": "3670059.66458",
    "final_y": "537044.464392",
    "longitude": "-90.10400772727569",
    "latitude": "29.971028519245042",
    "geocoded_column": {
      "latitude": "29.971028519245042",
      "longitude": "-90.10400772727569"
    }
  },
  {
    "service_request": "2023-1055777",
    "request_type": "Trash/Recycling",
    "request_reason": "Dead Animal Pick Up",
    "date_created": "2023-12-14T10:50:59.000",
    "date_modified": "2023-12-14T10:51:23.000",
    "case_close_date": "2023-12-14T04:51:23.000",
    "request_status": "Closed",
    "responsible_agency": "Department of Sanitation",
    "final_address": "840 Ursulines Ave",
    "address_councildis": "C",
    "status": "Assigned to Contractor",
    "contractor": "Empire Services",
    "contractor_action": "Completed",
    "rowid": "1055777",
    "final_x": "3682887.1972",
    "final_y": "534027.134085",
    "longitude": "-90.06360233140681",
    "latitude": "29.962347253677134",
    "geocoded_column": {
      "latitude": "29.962347253677134",
      "longitude": "-90.06360233140681"
    }
  },
  {
    "service_request": "2023-1055776",
    "request_type": "Trash/Recycling",
    "request_reason": "Dead Animal Pick Up",
    "date_created": "2023-12-14T10:48:32.000",
    "date_modified": "2023-12-14T10:49:23.000",
    "case_close_date": "2023-12-14T04:49:23.000",
    "request_status": "Closed",
    "responsible_agency": "Department of Sanitation",
    "final_address": "717 Ursulines Ave",
    "address_councildis": "C",
    "status": "Assigned to Contractor",
    "contractor": "Empire Services",
    "contractor_action": "Completed",
    "rowid": "1055776",
    "final_x": "3683331.14153",
    "final_y": "533739.955397",
    "longitude": "-90.06221048081238",
    "latitude": "29.961544076553984",
    "geocoded_column": {
      "latitude": "29.961544076553984",
      "longitude": "-90.06221048081238"
    }
  },
  {
    "service_request": "2023-1055775",
    "request_type": "Property Maintenance",
    "request_reason": "Property Maintenance",
    "date_created": "2023-12-14T10:47:30.000",
    "date_modified": "2023-12-14T10:47:30.000",
    "request_status": "Pending",
    "responsible_agency": "Department of Code Enforcement",
    "final_address": "4338 S Carrollton Ave",
    "address_councildis": "A",
    "status": "Pending",
    "rowid": "1055775",
    "final_x": "3670059.66458",
    "final_y": "537044.464392",
    "longitude": "-90.10400772727569",
    "latitude": "29.971028519245042",
    "geocoded_column": {
      "latitude": "29.971028519245042",
      "longitude": "-90.10400772727569"
    }
  },