[
  {
    "service_request": "2026-1277705",
    "request_type": "Street and Traffic Signs",
    "request_reason": "Street Name Sign Damaged or Missing",
    "date_created": "2026-04-29T23:26:03.000",
    "date_modified": "2026-04-29T23:26:07.000",
    "request_status": "Pending",
    "responsible_agency": "Department of Public Works",
    "final_address": "2701 Carver Rams Way",
    "address_councildis": "D",
    "status": "Pending",
    "rowid": "1277705",
    "final_x": "3689404.51068",
    "final_y": "545147.594511",
    "longitude": "-90.04262608890794",
    "latitude": "29.992724389590062",
    "geocoded_column": {
      "latitude": "29.992724389590062",
      "longitude": "-90.04262608890794"
    }
  },
  {
    "service_request": "2026-1277704",
    "request_type": "Property Maintenance",
    "request_reason": "Property Maintenance",
    "date_created": "2026-04-29T23:19:21.000",
    "date_modified": "2026-04-29T23:19:23.000",
    "request_status": "Pending",
    "responsible_agency": "Department of Code Enforcement",
    "final_address": "3500 Piety St",
    "address_councildis": "D",
    "status": "Pending",
    "rowid": "1277704",
    "final_x": "3692176.99696",
    "final_y": "545271.721551",
    "longitude": "-90.03386389681481",
    "latitude": "29.99297953095138",
    "geocoded_column": {
      "latitude": "29.99297953095138",
      "longitude": "-90.03386389681481"
    }
  },
  {
    "service_request": "2026-1277703",
    "request_type": "Trash/Recycling",
    "request_reason": "Illegal Dumping",
    "date_created": "2026-04-29T23:13:23.000",
    "date_modified": "2026-04-29T23:13:25.000",
    "request_status": "Pending",
    "responsible_agency": "Department of Sanitation",
    "final_address": "ALMONASTER AV OVERPASS & TURNAROUND",
    "address_councildis": "D",
    "status": "Pending",
    "rowid": "1277703",
    "final_x": "3689045.8",
    "final_y": "544392.38",
    "longitude": "-90.04378603508981",
    "latitude": "29.99065892686718",
    "geocoded_column": {
      "latitude": "29.99065892686718",
      "longitude": "-90.04378603508981"
    }
  },
  {
    "service_request": "2026-1277702",
    "request_type": "Trash/Recycling",
    "request_reason": "Damaged Caused By Contractor",
    "date_created": "2026-04-29T23:01:25.000",
    "date_modified": "2026-04-29T23:01:27.000",
    "request_status": "Pending",
    "responsible_agency": "Department of Sanitation",
    "final_address": "604 Valence St",
    "address_councildis": "B",
    "status": "Assigned to Contractor",
    "contractor": "IV Waste",
    "rowid": "1277702",
    "final_x": "3669995.53428",
    "final_y": "517700.377462",
    "longitude": "-90.10486522549918",
    "latitude": "29.917840468507542",
    "geocoded_column": {
      "latitude": "29.917840468507542",
      "longitude": "-90.10486522549918"
    }
  },
  {
    "service_request": "2026-1277701",
    "request_type": "Abandoned Vehicles",
    "request_reason": "Abandoned/Junk Vehicles",
    "date_created": "2026-04-29T22:57:17.000",
    "date_modified": "2026-04-29T22:57:18.000",
    "request_status": "Pending",
    "responsible_agency": "Department of Public Works",
    "final_address": "8131 Lomond Rd",
    "address_councildis": "E",
    "status": "Pending",
    "rowid": "1277701",
    "final_x": "3702682.10346",
    "final_y": "561652.792415",
    "longitude": "-90.00007825103853",
    "latitude": "30.037689459034826",
    "geocoded_column": {
      "latitude": "30.037689459034826",
      "longitude": "-90.00007825103853"
    }
  },
  {
    "service_request": "2026-1277700",
    "request_type": "Trash/Recycling",
    "request_reason": "Damaged Caused By Contractor",
    "date_created": "2026-04-29T22:52:58.000",
    "date_modified": "2026-04-29T22:53:00.000",
    "request_status": "Pending",
    "responsible_agency": "Department of Sanitation",
    "final_address": "604 Valence St",
    "address_councildis": "B",
    "status": "Assigned to Contractor",
    "contractor": "IV Waste",
    "rowid": "1277700",
    "final_x": "3669995.53428",
    "final_y": "517700.377462",
    "longitude": "-90.10486522549918",
    "latitude": "29.917840468507542",
    "geocoded_column": {
      "latitude": "29.917840468507542",
      "longitude": "-90.10486522549918"
    }
  },
  {
    "service_request": "2026-1277699",
    "request_type": "Healthy Homes",
    "request_reason": "Healthy Homes",
    "date_created": "2026-04-29T21:34:39.000",
    "date_modified": "2026-04-29T21:34:40.000",
    "request_status": "Pending",
    "responsible_agency": "Department of Code Enforcement",
    "final_address": "3349 Dumaine St",
    "address_councildis": "A",
    "status": "Pending",
    "rowid": "1277699",
    "final_x": "3674836.89691",
    "final_y": "539339.96545",
    "longitude": "-90.08884184339495",
    "latitude": "29.977198571846717",
    "geocoded_column": {
      "latitude": "29.977198571846717",
      "longitude": "-90.08884184339495"
    }
  },
  {
    "service_request": "2026-1277698",
    "request_type": "Trash/Recycling",
    "request_reason": "Replace Trash Cart",
    "date_created": "2026-04-29T21:31:46.000",
    "date_modified": "2026-04-29T21:31:47.000",
    "request_status": "Pending",
    "responsible_agency": "Department of Sanitation",
    "final_address": "3130 Bacchus Dr",
    "address_councildis": "C",
    "status": "Assigned to Contractor",
    "contractor": "Richards Disposal",
    "rowid": "1277698",
    "final_x": "3710243.05534",
    "final_y": "518432.157494",
    "longitude": "-89.97779986936614",
    "latitude": "29.918604780379443",
    "geocoded_column": {
      "latitude": "29.918604780379443",
      "longitude": "-89.97779986936614"
    }
  },
  {
    "service_request": "2026-1277697",
    "request_type": "Trash/Recycling",
    "request_reason": "Request a Large Item Pick Up",
    "date_created": "2026-04-29T21:31:03.000",
    "date_modified": "2026-04-29T21:31:08.000",
    "request_status": "Pending",
    "responsible_agency": "Department of Sanitation",
    "final_address": "6126 Burgundy St",
    "address_councildis": "E",
    "status": "Assigned to Contractor",
    "contractor": "Waste Pro",
    "rowid": "1277697",
    "final_x": "3699362.97712",
    "final_y": "532442.904259",
    "longitude": "-90.01163220827345",
    "latitude": "29.95747889088699",
    "geocoded_column": {
      "latitude": "29.95747889088699",
      "longitude": "-90.01163220827345"
    }
  },
  {
    "service_request": "2026-1277696",
    "request_type": "Trash/Recycling",
    "request_reason": "Request a Large Item Pick Up",
    "date_created": "2026-04-29T21:19:13.000",
    "date_modified": "2026-04-29T21:19:15.000",
    "request_status": "Pending",
    "responsible_agency": "Department of Sanitation",
    "final_address": "1021 Henry Clay Ave",
    "address_councildis": "A",
    "status": "Assigned to Contractor",
    "contractor": "IV Waste",
    "rowid": "1277696",
    "final_x": "3664156.70228",
    "final_y": "520320.188152",
    "longitude": "-90.12320795011891",
    "latitude": "29.92521496487658",
    "geocoded_column": {
      "latitude": "29.92521496487658",
      "longitude": "-90.12320795011891"
    }
  },
  {
    "service_request": "2026-1277695",
    "request_type": "Trash/Recycling",
    "request_reason": "Replace Trash Cart",
    "date_created": "2026-04-29T21:03:37.000",
    "date_modified": "2026-04-29T21:03:40.000",
    "request_status": "Pending",
    "responsible_agency": "Department of Sanitation",
    "final_address": "4040 Vendome Pl",
    "address_councildis": "B",
    "status": "Assigned to Contractor",
    "contractor": "IV Waste",
    "rowid": "1277695",
    "final_x": "3668696.02318",
    "final_y": "530268.034369",
    "longitude": "-90.10854305394817",
    "latitude": "29.952435736361668",
    "geocoded_column": {
      "latitude": "29.952435736361668",
      "longitude": "-90.10854305394817"
    }
  },
  {
    "service_request": "2026-1277694",
    "request_type": "Abandoned Vehicles",
    "request_reason": "Abandoned/Junk Vehicles",
    "date_created": "2026-04-29T20:58:01.000",
    "date_modified": "2026-04-29T20:58:03.000",
    "request_status": "Pending",
    "responsible_agency": "Department of Public Works",
    "final_address": "8340 Lomond Rd",
    "address_councildis": "E",
    "status": "Pending",
    "rowid": "1277694",
    "final_x": "3703326.50673",
    "final_y": "561797.310687",
    "longitude": "-89.99803647335058",
    "latitude": "30.038066195112552",
    "geocoded_column": {
      "latitude": "30.038066195112552",
      "longitude": "-89.99803647335058"
    }
  },
  {
    "service_request": "2026-1277693",
    "request_type": "Trash/Recycling",
    "request_reason": "Order Trash Cart",
    "date_created": "2026-04-29T20:42:35.000",
    "date_modified": "2026-04-29T20:42:37.000",
    "request_status": "Pending",
    "responsible_agency": "Department of Sanitation",
    "final_address": "7531 Canal Blvd",
    "address_councildis": "D",
    "status": "Assigned to Contractor",
    "contractor": "IV Waste",
    "rowid": "1277693",
    "final_x": "3669478.16519",
    "final_y": "556567.706586",
    "longitude": "-90.10518332347674",
    "latitude": "30.02472781641759",
    "geocoded_column": {
      "latitude": "30.02472781641759",
      "longitude": "-90.10518332347674"
    }
  },
  {
    "service_request": "2026-1277692",
    "request_type": "Streetlights",
    "request_reason": "Streetlight Outage/Malfunction",
    "date_created": "2026-04-29T20:30:25.000",
    "date_modified": "2026-04-29T20:30:28.000",
    "request_status": "Pending",
    "responsible_agency": "Department of Public Works",
    "final_address": "206 Finland Pl",
    "address_councildis": "C",
    "status": "Pending",
    "rowid": "1277692",
    "final_x": "3706374.22782",
    "final_y": "520806.366137",
    "longitude": "-89.98992375281266",
    "latitude": "29.925258308491145",
    "geocoded_column": {
      "latitude": "29.925258308491145",
      "longitude": "-89.98992375281266"
    }
  },
  {
    "service_request": "2026-1277691",
    "request_type": "Abandoned Vehicles",
    "request_reason": "Abandoned/Junk Vehicles",
    "date_created": "2026-04-29T19:57:42.000",
    "date_modified": "2026-04-29T19:57:49.000",
    "request_status": "Pending",
    "responsible_agency": "Department of Public Works",
    "final_address": "7220 Lincoln Beach Blvd",
    "address_councildis": "E",
    "status": "Pending",
    "rowid": "1277691",
    "final_x": "3699081.53405",
    "final_y": "561544.937055",
    "longitude": "-90.01146078634645",
    "latitude": "30.037507602055264",
    "geocoded_column": {
      "latitude": "30.037507602055264",
      "longitude": "-90.01146078634645"
    }
  },
  {
    "service_request": "2026-1277690",
    "request_type": "Trash/Recycling",
    "request_reason": "Request a Large Item Pick Up",
    "date_created": "2026-04-29T19:44:34.000",
    "date_modified": "2026-04-29T19:44:35.000",
    "request_status": "Pending",
    "responsible_agency": "Department of Sanitation",
    "final_address": "717 Eleonore St",
    "address_councildis": "A",
    "status": "Assigned to Contractor",
    "contractor": "IV Waste",
    "rowid": "1277690",
    "final_x": "3665222.32935",
    "final_y": "518874.013623",
    "longitude": "-90.11989243470472",
    "latitude": "29.92120745053136",
    "geocoded_column": {
      "latitude": "29.92120745053136",
      "longitude": "-90.11989243470472"
    }
  },
  {
    "service_request": "2026-1277689",
    "request_type": "General Services",
    "request_reason": "General Service Request",
    "date_created": "2026-04-29T19:44:25.000",
    "date_modified": "2026-04-29T19:44:27.000",
    "request_status": "Pending",
    "responsible_agency": "Orleans Parish Communication District",
    "final_address": "1440 France St",
    "address_councildis": "D",
    "status": "Pending",
    "rowid": "1277689",
    "final_x": "3692716.85763",
    "final_y": "536616.526151",
    "longitude": "-90.03246896929446",
    "latitude": "29.969164002653113",
    "geocoded_column": {
      "latitude": "29.969164002653113",
      "longitude": "-90.03246896929446"
    }
  },
  {
    "service_request": "2026-1277688",
    "request_type": "Street and Traffic Signs",
    "request_reason": "Street Name Sign Damaged or Missing",
    "date_created": "2026-04-29T19:24:53.000",
    "date_modified": "2026-04-29T19:24:55.000",
    "request_status": "Pending",
    "responsible_agency": "Department of Public Works",
    "final_address": "N ROCHEBLAVE ST & ALMONASTER AVE",
    "address_councildis": "D",
    "status": "Pending",
    "rowid": "1277688",
    "final_x": "3688365.5",
    "final_y": "541368.08",
    "longitude": "-90.04604225166462",
    "latitude": "29.98236421639465",
    "geocoded_column": {
      "latitude": "29.98236421639465",
      "longitude": "-90.04604225166462"
    }
  },
  {
    "service_request": "2026-1277687",
    "request_type": "Property Maintenance",
    "request_reason": "Property Maintenance",
    "date_created": "2026-04-29T19:23:31.000",
    "date_modified": "2026-04-29T19:23:32.000",
    "request_status": "Pending",
    "responsible_agency": "Department of Code Enforcement",
    "final_address": "2333 Port St",
    "address_councildis": "D",
    "status": "Pending",
    "rowid": "1277687",
    "final_x": "3688669.14454",
    "final_y": "541133.03086",
    "longitude": "-90.04509154274282",
    "latitude": "29.98170853150947",
    "geocoded_column": {
      "latitude": "29.98170853150947",
      "longitude": "-90.04509154274282"
    }
  },
  {
    "service_request": "2026-1277686",
    "request_type": "Trash/Recycling",
    "request_reason": "Request a Large Item Pick Up",
    "date_created": "2026-04-29T19:23:14.000",
    "date_modified": "2026-04-29T19:23:17.000",
    "request_status": "Pending",
    "responsible_agency": "Department of Sanitation",
    "final_address": "4732 St Claude Ave",
    "address_councildis": "E",
    "status": "Assigned to Contractor",
    "contractor": "Waste Pro",
    "rowid": "1277686",
    "final_x": "3694923.81027",
    "final_y": "534435.078213",
    "longitude": "-90.02557791317464",
    "latitude": "29.963096716249932",
    "geocoded_column": {
      "latitude": "29.963096716249932",
      "longitude": "-90.02557791317464"
    }
  },
  {
    "service_request": "2026-1277685",
    "request_type": "Trash/Recycling",
    "request_reason": "Illegal Dumping",
    "date_created": "2026-04-29T19:21:37.000",
    "date_modified": "2026-04-29T19:21:38.000",
    "request_status": "Pending",
    "responsible_agency": "Department of Sanitation",
    "final_address": "2333 Port St",
    "address_councildis": "D",
    "status": "Pending",
    "rowid": "1277685",
    "final_x": "3688669.14454",
    "final_y": "541133.03086",
    "longitude": "-90.04509154274282",
    "latitude": "29.98170853150947",
    "geocoded_column": {
      "latitude": "29.98170853150947",
      "longitude": "-90.04509154274282"
    }
  },
  {
    "service_request": "2026-1277684",
    "request_type": "Roads and Streets",
    "request_reason": "Debris in Driving Lanes",
    "date_created": "2026-04-29T19:15:13.000",
    "date_modified": "2026-04-29T19:15:15.000",
    "request_status": "Pending",
    "responsible_agency": "Department of Public Works",
    "final_address": "1317 N Rampart St",
    "address_councildis": "C",
    "status": "Pending",
    "rowid": "1277684",
    "final_x": "3682754.7414",
    "final_y": "535291.912518",
    "longitude": "-90.06397636217302",
    "latitude": "29.96582899517673",
    "geocoded_column": {
      "latitude": "29.96582899517673",
      "longitude": "-90.06397636217302"
    }
  },
  {
    "service_request": "2026-1277683",
    "request_type": "Tree Service",
    "request_reason": "Street or Sidewalk Blocked",
    "date_created": "2026-04-29T19:13:31.000",
    "date_modified": "2026-04-29T19:13:33.000",
    "request_status": "Pending",
    "responsible_agency": "Department of Parks & Parkways",
    "final_address": "6803 Louis Xiv St",
    "address_councildis": "A",
    "status": "Pending",
    "rowid": "1277683",
    "final_x": "3668672.77313",
    "final_y": "552759.890262",
    "longitude": "-90.10785691816447",
    "latitude": "30.014281383969088",
    "geocoded_column": {
      "latitude": "30.014281383969088",
      "longitude": "-90.10785691816447"
    }
  },
  {
    "service_request": "2026-1277682",
    "request_type": "Trash/Recycling",
    "request_reason": "Request a Large Item Pick Up",
    "date_created": "2026-04-29T19:12:47.000",
    "date_modified": "2026-04-29T19:12:48.000",
    "request_status": "Pending",
    "responsible_agency": "Department of Sanitation",
    "final_address": "3100 Behrman Hwy",
    "address_councildis": "C",
    "status": "Assigned to Contractor",
    "contractor": "Richards Disposal",
    "rowid": "1277682",
    "final_x": "3694623.90397",
    "final_y": "519141.873079",
    "longitude": "-90.02707552884621",
    "latitude": "29.921055090156532",
    "geocoded_column": {
      "latitude": "29.921055090156532",
      "longitude": "-90.02707552884621"
    }
  },
  {
    "service_request": "2026-1277681",
    "request_type": "Roads and Streets",
    "request_reason": "Debris in Driving Lanes",
    "date_created": "2026-04-29T19:09:37.000",
    "date_modified": "2026-04-29T19:09:38.000",
    "request_status": "Pending",
    "responsible_agency": "Department of Public Works",
    "final_address": "600 Poland Ave",
    "address_councildis": "C",
    "status": "Pending",
    "rowid": "1277681",
    "final_x": "3692531.99875",
    "final_y": "533213.522308",
    "longitude": "-90.03317470743119",
    "latitude": "29.959812709064835",
    "geocoded_column": {
      "latitude": "29.959812709064835",
      "longitude": "-90.03317470743119"
    }
  },
  {
    "service_request": "2026-1277680",
    "request_type": "Abandoned Vehicles",
    "request_reason": "Abandoned/Junk Vehicles",
    "date_created": "2026-04-29T19:04:59.000",
    "date_modified": "2026-04-29T19:05:01.000",
    "request_status": "Pending",
    "responsible_agency": "Department of Public Works",
    "final_address": "726 Charbonnet St",
    "address_councildis": "E",
    "status": "Pending",
    "rowid": "1277680",
    "final_x": "3698252.06435",
    "final_y": "532358.101187",
    "longitude": "-90.01514320037958",
    "latitude": "29.957280900162687",
    "geocoded_column": {
      "latitude": "29.957280900162687",
      "longitude": "-90.01514320037958"
    }
  },
  {
    "service_request": "2026-1277679",
    "request_type": "Trash/Recycling",
    "request_reason": "Illegal Dumping",
    "date_created": "2026-04-29T19:02:57.000",
    "date_modified": "2026-04-29T19:02:59.000",
    "request_status": "Pending",
    "responsible_agency": "Department of Sanitation",
    "final_address": "1244 France St",
    "address_councildis": "D",
    "status": "Pending",
    "rowid": "1277679",
    "final_x": "3692513.66614",
    "final_y": "535852.235015",
    "longitude": "-90.03313804839289",
    "latitude": "29.967068813464266",
    "geocoded_column": {
      "latitude": "29.967068813464266",
      "longitude": "-90.03313804839289"
    }
  },
  {
    "service_request": "2026-1277678",
    "request_type": "Street and Traffic Signs",
    "request_reason": "Traffic or Parking Sign Damaged or Missing",
    "date_created": "2026-04-29T18:53:51.000",
    "date_modified": "2026-04-29T18:53:53.000",
    "request_status": "Pending",
    "responsible_agency": "Department of Public Works",
    "final_address": "Joliet Street & Olive Street",
    "address_councildis": "A",
    "status": "Pending",
    "rowid": "1277678",
    "final_x": "3666189.85281",
    "final_y": "535129.261574",
    "longitude": "-90.11629339206235",
    "latitude": "29.965875938434458",
    "geocoded_column": {
      "latitude": "29.965875938434458",
      "longitude": "-90.11629339206235"
    }
  },
  {
    "service_request": "2026-1277677",
    "request_type": "Trash/Recycling",
    "request_reason": "Repair Trash Cart",
    "date_created": "2026-04-29T18:46:46.000",
    "date_modified": "2026-04-29T18:46:47.000",
    "request_status": "Pending",
    "responsible_agency": "Department of Sanitation",
    "final_address": "2331 Chartres St",
    "address_councildis": "C",
    "status": "Assigned to Contractor",
    "contractor": "IV Waste",
    "rowid": "1277677",
    "final_x": "3685820.08943",
    "final_y": "534602.016325",
    "longitude": "-90.05432043286444",
    "latitude": "29.963838291245484",
    "geocoded_column": {
      "latitude": "29.963838291245484",
      "longitude": "-90.05432043286444"
    }
  },
  {
    "service_request": "2026-1277676",
    "request_type": "Trash/Recycling",
    "request_reason": "Repair Trash Cart",
    "date_created": "2026-04-29T18:45:36.000",
    "date_modified": "2026-04-29T18:45:38.000",
    "request_status": "Pending",
    "responsible_agency": "Department of Sanitation",
    "final_address": "2325 Chartres St",
    "address_councildis": "C",
    "status": "Assigned to Contractor",
    "contractor": "IV Waste",
    "rowid": "1277676",
    "final_x": "3685776.48617",
    "final_y": "534590.959493",
    "longitude": "-90.05445851719537",
    "latitude": "29.963809226994282",
    "geocoded_column": {
      "latitude": "29.963809226994282",
      "longitude": "-90.05445851719537"
    }
  },
  {
    "service_request": "2026-1277675",
    "request_type": "Abandoned Vehicles",
    "request_reason": "Abandoned/Junk Vehicles",
    "date_created": "2026-04-29T18:39:33.000",
    "date_modified": "2026-04-29T18:39:35.000",
    "request_status": "Pending",
    "responsible_agency": "Department of Public Works",
    "final_address": "1302 Mandeville St",
    "address_councildis": "C",
    "status": "Pending",
    "rowid": "1277675",
    "final_x": "3685681.2591",
    "final_y": "537149.172232",
    "longitude": "-90.05466908407465",
    "latitude": "29.970846345906548",
    "geocoded_column": {
      "latitude": "29.970846345906548",
      "longitude": "-90.05466908407465"
    }
  },
  {
    "service_request": "2026-1277674",
    "request_type": "Mosquito, Termite & Rodent Control",
    "request_reason": "Mosquito Complaint",
    "date_created": "2026-04-29T18:38:47.000",
    "date_modified": "2026-04-29T18:38:49.000",
    "request_status": "Pending",
    "responsible_agency": "Mosquito, Termite & Rodent Control Board",
    "final_address": "4520 Canal St",
    "address_councildis": "A",
    "status": "Pending",
    "rowid": "1277674",
    "final_x": "3669451.16724",
    "final_y": "539441.261642",
    "longitude": "-90.10584835994653",
    "latitude": "29.977636841737827",
    "geocoded_column": {
      "latitude": "29.977636841737827",
      "longitude": "-90.10584835994653"
    }
  },
  {
    "service_request": "2026-1277673",
    "request_type": "Mosquito, Termite & Rodent Control",
    "request_reason": "Mosquito Complaint",
    "date_created": "2026-04-29T18:32:50.000",
    "date_modified": "2026-04-29T18:32:53.000",
    "request_status": "Pending",
    "responsible_agency": "Mosquito, Termite & Rodent Control Board",
    "final_address": "3133 Third St",
    "address_councildis": "B",
    "status": "Pending",
    "rowid": "1277673",
    "final_x": "3673346.33006",
    "final_y": "527661.131775",
    "longitude": "-90.09394851771424",
    "latitude": "29.945130116388505",
    "geocoded_column": {
      "latitude": "29.945130116388505",
      "longitude": "-90.09394851771424"
    }
  },
  {
    "service_request": "2026-1277672",
    "request_type": "Drainage",
    "request_reason": "Drainage Manhole Cover Missing or Damaged",
    "date_created": "2026-04-29T18:27:29.000",
    "date_modified": "2026-04-29T18:27:32.000",
    "request_status": "Pending",
    "responsible_agency": "Sewerage & Water Board",
    "final_address": "3133 Third St",
    "address_councildis": "B",
    "status": "Pending",
    "rowid": "1277672",
    "final_x": "3673346.33006",
    "final_y": "527661.131775",
    "longitude": "-90.09394851771424",
    "latitude": "29.945130116388505",
    "geocoded_column": {
      "latitude": "29.945130116388505",
      "longitude": "-90.09394851771424"
    }
  },
  {
    "service_request": "2026-1277671",
    "request_type": "Trash/Recycling",
    "request_reason": "Order Trash Cart",
    "date_created": "2026-04-29T18:24:28.000",
    "date_modified": "2026-04-29T18:24:29.000",
    "request_status": "Pending",
    "responsible_agency": "Department of Sanitation",
    "final_address": "1630 St Roch Ave Apt B",
    "address_councildis": "D",
    "status": "Assigned to Contractor",
    "contractor": "IV Waste",
    "rowid": "1277671",
    "final_x": "3686240.63887",
    "final_y": "538534.818185",
    "longitude": "-90.05285359388344",
    "latitude": "29.97463921176113",
    "geocoded_column": {
      "latitude": "29.97463921176113",
      "longitude": "-90.05285359388344"
    }
  },
  {
    "service_request": "2026-1277670",
    "request_type": "Roads and Streets",
    "request_reason": "Pothole",
    "date_created": "2026-04-29T18:21:50.000",
    "date_modified": "2026-04-29T18:21:53.000",
    "request_status": "Pending",
    "responsible_agency": "Department of Public Works",
    "final_address": "3133 Third St",
    "address_councildis": "B",
    "status": "Pending",
    "rowid": "1277670",
    "final_x": "3673346.33006",
    "final_y": "527661.131775",
    "longitude": "-90.09394851771424",
    "latitude": "29.945130116388505",
    "geocoded_column": {
      "latitude": "29.945130116388505",
      "longitude": "-90.09394851771424"
    }
  },
  {
    "service_request": "2026-1277669",
    "request_type": "Trash/Recycling",
    "request_reason": "Replace Trash Cart",
    "date_created": "2026-04-29T18:01:26.000",
    "date_modified": "2026-04-29T18:01:29.000",
    "request_status": "Pending",
    "responsible_agency": "Department of Sanitation",
    "final_address": "2851 Maurepas St",
    "address_councildis": "A",
    "status": "Assigned to Contractor",
    "contractor": "IV Waste",
    "rowid": "1277669",
    "final_x": "3677997.5364",
    "final_y": "540726.685195",
    "longitude": "-90.0788115562751",
    "latitude": "29.980916804696708",
    "geocoded_column": {
      "latitude": "29.980916804696708",
      "longitude": "-90.0788115562751"
    }
  },
  {
    "service_request": "2026-1277668",
    "request_type": "Trash/Recycling",
    "request_reason": "Order Trash Cart",
    "date_created": "2026-04-29T17:56:12.000",
    "date_modified": "2026-04-29T17:56:15.000",
    "request_status": "Pending",
    "responsible_agency": "Department of Sanitation",
    "final_address": "1515 Dumaine St",
    "address_councildis": "C",
    "status": "Assigned to Contractor",
    "contractor": "IV Waste",
    "rowid": "1277668",
    "final_x": "3680674.88603",
    "final_y": "534874.777926",
    "longitude": "-90.070558990941",
    "latitude": "29.964745207506184",
    "geocoded_column": {
      "latitude": "29.964745207506184",
      "longitude": "-90.070558990941"
    }
  },
  {
    "service_request": "2026-1277667",
    "request_type": "Trash/Recycling",
    "request_reason": "Replace Trash Cart",
    "date_created": "2026-04-29T17:52:17.000",
    "date_modified": "2026-04-29T17:52:19.000",
    "request_status": "Pending",
    "responsible_agency": "Department of Sanitation",
    "final_address": "379 Broadway St",
    "address_councildis": "A",
    "status": "Assigned to Contractor",
    "contractor": "IV Waste",
    "rowid": "1277667",
    "final_x": "3661969.83546",
    "final_y": "523108.048379",
    "longitude": "-90.13001881034904",
    "latitude": "29.932944031216223",
    "geocoded_column": {
      "latitude": "29.932944031216223",
      "longitude": "-90.13001881034904"
    }
  },
  {
    "service_request": "2026-1277666",
    "request_type": "Trash/Recycling",
    "request_reason": "Replace Recycling Cart",
    "date_created": "2026-04-29T17:50:17.000",
    "date_modified": "2026-04-29T17:50:18.000",
    "request_status": "Pending",
    "responsible_agency": "Department of Sanitation",
    "final_address": "5908 Garfield St",
    "address_councildis": "A",
    "status": "Pending",
    "rowid": "1277666",
    "final_x": "3665615.2944",
    "final_y": "521325.806521",
    "longitude": "-90.1185699662808",
    "latitude": "29.927937661039177",
    "geocoded_column": {
      "latitude": "29.927937661039177",
      "longitude": "-90.1185699662808"
    }
  },
  {
    "service_request": "2026-1277665",
    "request_type": "Parks & Grass Service",
    "request_reason": "Park Maintenance/Clean Up",
    "date_created": "2026-04-29T17:50:15.000",
    "date_modified": "2026-04-29T17:50:17.000",
    "request_status": "Pending",
    "responsible_agency": "Department of Parks & Parkways",
    "final_address": "5810 Pratt Dr",
    "address_councildis": "D",
    "status": "Pending",
    "rowid": "1277665",
    "final_x": "3680159.51439",
    "final_y": "554006.18204",
    "longitude": "-90.07152119517099",
    "latitude": "30.01736543739235",
    "geocoded_column": {
      "latitude": "30.01736543739235",
      "longitude": "-90.07152119517099"
    }
  },
  {
    "service_request": "2026-1277664",
    "request_type": "Abandoned Vehicles",
    "request_reason": "Abandoned/Junk Vehicles",
    "date_created": "2026-04-29T17:49:57.000",
    "date_modified": "2026-04-29T17:49:59.000",
    "request_status": "Pending",
    "responsible_agency": "Department of Public Works",
    "final_address": "1623 Forstall St",
    "address_councildis": "E",
    "status": "Pending",
    "rowid": "1277664",
    "final_x": "3696908.22557",
    "final_y": "536225.805063",
    "longitude": "-90.01924654918653",
    "latitude": "29.967958153284147",
    "geocoded_column": {
      "latitude": "29.967958153284147",
      "longitude": "-90.01924654918653"
    }
  },
  {
    "service_request": "2026-1277663",
    "request_type": "Trash/Recycling",
    "request_reason": "Order Recycling Cart",
    "date_created": "2026-04-29T17:43:43.000",
    "date_modified": "2026-04-29T17:43:45.000",
    "request_status": "Pending",
    "responsible_agency": "Department of Sanitation",
    "final_address": "1715 S Salcedo St",
    "address_councildis": "B",
    "status": "Pending",
    "rowid": "1277663",
    "final_x": "3670085.93409",
    "final_y": "530378.115266",
    "longitude": "-90.10415060972679",
    "latitude": "29.95269749829413",
    "geocoded_column": {
      "latitude": "29.95269749829413",
      "longitude": "-90.10415060972679"
    }
  },
  {
    "service_request": "2026-1277662",
    "request_type": "General Services",
    "request_reason": "General Service Request",
    "date_created": "2026-04-29T17:39:39.000",
    "date_modified": "2026-04-29T17:39:41.000",
    "request_status": "Pending",
    "responsible_agency": "Orleans Parish Communication District",
    "final_address": "856 Carondelet St",
    "address_councildis": "B",
    "status": "Pending",
    "rowid": "1277662",
    "final_x": "3679907.27554",
    "final_y": "527606.798719",
    "longitude": "-90.07323545690095",
    "latitude": "29.94478395585134",
    "geocoded_column": {
      "latitude": "29.94478395585134",
      "longitude": "-90.07323545690095"
    }
  },
  {
    "service_request": "2026-1277661",
    "request_type": "Trash/Recycling",
    "request_reason": "Request a Large Item Pick Up",
    "date_created": "2026-04-29T17:36:23.000",
    "date_modified": "2026-04-29T17:36:25.000",
    "request_status": "Pending",
    "responsible_agency": "Department of Sanitation",
    "final_address": "4228 Baudin St",
    "address_councildis": "A",
    "status": "Assigned to Contractor",
    "contractor": "IV Waste",
    "rowid": "1277661",
    "final_x": "3669406.98055",
    "final_y": "537565.866312",
    "longitude": "-90.1060513583263",
    "latitude": "29.972481437638073",
    "geocoded_column": {
      "latitude": "29.972481437638073",
      "longitude": "-90.1060513583263"
    }
  },
  {
    "service_request": "2026-1277660",
    "request_type": "Trash/Recycling",
    "request_reason": "Repair Trash Cart",
    "date_created": "2026-04-29T17:33:26.000",
    "date_modified": "2026-04-29T17:33:28.000",
    "request_status": "Pending",
    "responsible_agency": "Department of Sanitation",
    "final_address": "1113 N Dupre St",
    "address_councildis": "A",
    "status": "Assigned to Contractor",
    "contractor": "IV Waste",
    "rowid": "1277660",
    "final_x": "3676839.22945",
    "final_y": "538995.914762",
    "longitude": "-90.0825296800699",
    "latitude": "29.976192601313173",
    "geocoded_column": {
      "latitude": "29.976192601313173",
      "longitude": "-90.0825296800699"
    }
  },
  {
    "service_request": "2026-1277659",
    "request_type": "Trash/Recycling",
    "request_reason": "Repair Trash Cart",
    "date_created": "2026-04-29T17:27:48.000",
    "date_modified": "2026-04-29T17:27:51.000",
    "request_status": "Pending",
    "responsible_agency": "Department of Sanitation",
    "final_address": "1478 Granada Dr",
    "address_councildis": "D",
    "status": "Assigned to Contractor",
    "contractor": "IV Waste",
    "rowid": "1277659",
    "final_x": "3678371.05672",
    "final_y": "550524.23938",
    "longitude": "-90.07729260136318",
    "latitude": "30.007845379697333",
    "geocoded_column": {
      "latitude": "30.007845379697333",
      "longitude": "-90.07729260136318"
    }
  },
  {
    "service_request": "2026-1277658",
    "request_type": "Trash/Recycling",
    "request_reason": "Missed Trash Pick-Up",
    "date_created": "2026-04-29T17:17:54.000",
    "date_modified": "2026-04-29T17:17:56.000",
    "request_status": "Pending",
    "responsible_agency": "Department of Sanitation",
    "final_address": "7126 Chef Menteur Hwy",
    "address_councildis": "E",
    "status": "Assigned to Contractor",
    "contractor": "Waste Pro",
    "rowid": "1277658",
    "final_x": "3701262.59754",
    "final_y": "552063.26735",
    "longitude": "-90.00491554329656",
    "latitude": "30.01136729131207",
    "geocoded_column": {
      "latitude": "30.01136729131207",
      "longitude": "-90.00491554329656"
    }
  },
  {
    "service_request": "2026-1277657",
    "request_type": "Trash/Recycling",
    "request_reason": "Illegal Dumping",
    "date_created": "2026-04-29T17:14:38.000",
    "date_modified": "2026-04-29T17:14:40.000",
    "request_status": "Pending",
    "responsible_agency": "Department of Sanitation",
    "final_address": "1244 France St",
    "address_councildis": "D",
    "status": "Pending",
    "rowid": "1277657",
    "final_x": "3692513.66614",
    "final_y": "535852.235015",
    "longitude": "-90.03313804839289",
    "latitude": "29.967068813464266",
    "geocoded_column": {
      "latitude": "29.967068813464266",
      "longitude": "-90.03313804839289"
    }
  },
  {
    "service_request": "2026-1277656",
    "request_type": "Streetlights",
    "request_reason": "Streetlight Outage/Malfunction",
    "date_created": "2026-04-29T17:00:53.000",
    "date_modified": "2026-04-29T17:00:56.000",
    "request_status": "Pending",
    "responsible_agency": "Department of Public Works",
    "final_address": "5900 Canal Blvd",
    "address_councildis": "A",
    "status": "Pending",
    "rowid": "1277656",
    "final_x": "3668277.76941",
    "final_y": "546755.525649",
    "longitude": "-90.10930758965769",
    "latitude": "29.997783084791212",
    "geocoded_column": {
      "latitude": "29.997783084791212",
      "longitude": "-90.10930758965769"
    }
  },
  {
    "service_request": "2026-1277655",
    "request_type": "General Services",
    "request_reason": "General Service Request",
    "date_created": "2026-04-29T16:55:46.000",
    "date_modified": "2026-04-29T16:57:39.000",
    "case_close_date": "2026-04-29T11:57:38.000",
    "request_status": "Closed",
    "responsible_agency": "Orleans Parish Communication District",
    "final_address": "0 BLK Audubon Blvd",
    "address_councildis": "A",
    "status": "Duplicate Request",
    "rowid": "1277655",
    "final_x": "3665769.80622",
    "final_y": "527561.184495",
    "longitude": "-90.1178734101763",
    "latitude": "29.945078455935082",
    "geocoded_column": {
      "latitude": "29.945078455935082",
      "longitude": "-90.1178734101763"
    }
  },
  {
    "service_request": "2026-1277654",
    "request_type": "Trash/Recycling",
    "request_reason": "Replace Trash Cart",
    "date_created": "2026-04-29T16:55:44.000",
    "date_modified": "2026-04-29T16:56:53.000",
    "request_status": "Pending",
    "responsible_agency": "Department of Sanitation",
    "final_address": "3023 Cherry St",
    "address_councildis": "A",
    "status": "Pending",
    "contractor": "IV Waste",
    "rowid": "1277654",
    "final_x": "3663370.61997",
    "final_y": "536153.059527",
    "longitude": "-90.12516239202435",
    "latitude": "29.96877308120348",
    "geocoded_column": {
      "latitude": "29.96877308120348",
      "longitude": "-90.12516239202435"
    }
  },
  {
    "service_request": "2026-1277653",
    "request_type": "Trash/Recycling",
    "request_reason": "Request a Large Item Pick Up",
    "date_created": "2026-04-29T16:55:10.000",
    "date_modified": "2026-04-29T16:55:12.000",
    "request_status": "Pending",
    "responsible_agency": "Department of Sanitation",
    "final_address": "4952 Louisa Dr",
    "address_councildis": "D",
    "status": "Assigned to Contractor",
    "contractor": "IV Waste",
    "rowid": "1277653",
    "final_x": "3690654.76124",
    "final_y": "551921.233366",
    "longitude": "-90.03843498775615",
    "latitude": "30.011310637150117",
    "geocoded_column": {
      "latitude": "30.011310637150117",
      "longitude": "-90.03843498775615"
    }
  },
  {
    "service_request": "2026-1277652",
    "request_type": "Trash/Recycling",
    "request_reason": "Missed Trash Pick-Up",
    "date_created": "2026-04-29T16:49:42.000",
    "date_modified": "2026-04-29T17:16:46.000",
    "case_close_date": "2026-04-29T12:16:45.000",
    "request_status": "Closed",
    "responsible_agency": "Department of Sanitation",
    "final_address": "1238 Alvar St",
    "address_councildis": "D",
    "status": "Invalid Request",
    "contractor": "IV Waste",
    "contractor_action": "Invalid Request",
    "rowid": "1277652",
    "final_x": "3691625.012",
    "final_y": "536077.821383",
    "longitude": "-90.03593634660693",
    "latitude": "29.96771679310226",
    "geocoded_column": {
      "latitude": "29.96771679310226",
      "longitude": "-90.03593634660693"
    }
  },
  {
    "service_request": "2026-1277651",
    "request_type": "Trash/Recycling",
    "request_reason": "Request a Large Item Pick Up",
    "date_created": "2026-04-29T16:49:34.000",
    "date_modified": "2026-04-29T16:49:36.000",
    "request_status": "Pending",
    "responsible_agency": "Department of Sanitation",
    "final_address": "190 Oakmont Dr",
    "address_councildis": "E",
    "status": "Assigned to Contractor",
    "contractor": "Waste Pro",
    "rowid": "1277651",
    "final_x": "3720346.78969",
    "final_y": "563312.918304",
    "longitude": "-89.94419068066458",
    "latitude": "30.041677140628828",
    "geocoded_column": {
      "latitude": "30.041677140628828",
      "longitude": "-89.94419068066458"
    }
  },
  {
    "service_request": "2026-1277650",
    "request_type": "Trash/Recycling",
    "request_reason": "Replace Trash Cart",
    "date_created": "2026-04-29T16:44:40.000",
    "date_modified": "2026-04-29T16:44:42.000",
    "request_status": "Pending",
    "responsible_agency": "Department of Sanitation",
    "final_address": "5919 Perrier St",
    "address_councildis": "A",
    "status": "Assigned to Contractor",
    "contractor": "IV Waste",
    "rowid": "1277650",
    "final_x": "3665381.75117",
    "final_y": "520521.974072",
    "longitude": "-90.11933409571571",
    "latitude": "29.92573418108709",
    "geocoded_column": {
      "latitude": "29.92573418108709",
      "longitude": "-90.11933409571571"
    }
  },
  {
    "service_request": "2026-1277649",
    "request_type": "Trash/Recycling",
    "request_reason": "Missed Trash Pick-Up",
    "date_created": "2026-04-29T16:39:53.000",
    "date_modified": "2026-04-29T16:39:54.000",
    "request_status": "Pending",
    "responsible_agency": "Department of Sanitation",
    "final_address": "8614 Grant St",
    "address_councildis": "E",
    "status": "Assigned to Contractor",
    "contractor": "Waste Pro",
    "rowid": "1277649",
    "final_x": "3707222.73252",
    "final_y": "554303.67164",
    "longitude": "-89.98600197600724",
    "latitude": "30.0173361986526",
    "geocoded_column": {
      "latitude": "30.0173361986526",
      "longitude": "-89.98600197600724"
    }
  },
  {
    "service_request": "2026-1277648",
    "request_type": "Trash/Recycling",
    "request_reason": "Request a Large Item Pick Up",
    "date_created": "2026-04-29T16:37:52.000",
    "date_modified": "2026-04-29T16:37:55.000",
    "request_status": "Pending",
    "responsible_agency": "Department of Sanitation",
    "final_address": "729 S Salcedo St",
    "address_councildis": "B",
    "status": "Assigned to Contractor",
    "contractor": "IV Waste",
    "rowid": "1277648",
    "final_x": "3672376.92775",
    "final_y": "533894.188997",
    "longitude": "-90.09679685526667",
    "latitude": "29.962297757268804",
    "geocoded_column": {
      "latitude": "29.962297757268804",
      "longitude": "-90.09679685526667"
    }
  },
  {
    "service_request": "2026-1277647",
    "request_type": "Trash/Recycling",
    "request_reason": "Replace Trash Cart",
    "date_created": "2026-04-29T16:29:55.000",
    "date_modified": "2026-04-29T16:29:57.000",
    "request_status": "Pending",
    "responsible_agency": "Department of Sanitation",
    "final_address": "2810 Josephine St",
    "address_councildis": "B",
    "status": "Assigned to Contractor",
    "contractor": "IV Waste",
    "rowid": "1277647",
    "final_x": "3675251.57883",
    "final_y": "527346.190335",
    "longitude": "-90.08794385340363",
    "latitude": "29.944207328896237",
    "geocoded_column": {
      "latitude": "29.944207328896237",
      "longitude": "-90.08794385340363"
    }
  },
  {
    "service_request": "2026-1277646",
    "request_type": "Property Maintenance",
    "request_reason": "Property Maintenance",
    "date_created": "2026-04-29T16:29:38.000",
    "date_modified": "2026-04-29T16:30:24.000",
    "request_status": "Pending",
    "responsible_agency": "Department of Code Enforcement",
    "final_address": "2607 Coliseum St",
    "address_councildis": "B",
    "status": "Pending",
    "rowid": "1277646",
    "final_x": "3676910.50472",
    "final_y": "522022.929082",
    "longitude": "-90.08288956509179",
    "latitude": "29.929520425737618",
    "geocoded_column": {
      "latitude": "29.929520425737618",
      "longitude": "-90.08288956509179"
    }
  },
  {
    "service_request": "2026-1277645",
    "request_type": "Trash/Recycling",
    "request_reason": "Request a Large Item Pick Up",
    "date_created": "2026-04-29T16:24:09.000",
    "date_modified": "2026-04-29T16:24:57.000",
    "request_status": "Pending",
    "responsible_agency": "Department of Sanitation",
    "final_address": "5922 Pauline Dr",
    "address_councildis": "D",
    "status": "Pending",
    "rowid": "1277645",
    "final_x": "3691507.16348",
    "final_y": "555910.061977",
    "longitude": "-90.03559918350464",
    "latitude": "30.022251914985468",
    "geocoded_column": {
      "latitude": "30.022251914985468",
      "longitude": "-90.03559918350464"
    }
  },
  {
    "service_request": "2026-1277644",
    "request_type": "Trash/Recycling",
    "request_reason": "Request a Large Item Pick Up",
    "date_created": "2026-04-29T16:22:37.000",
    "date_modified": "2026-04-29T16:22:40.000",
    "request_status": "Pending",
    "responsible_agency": "Department of Sanitation",
    "final_address": "6970 Connaught Ct",
    "address_councildis": "E",
    "status": "Assigned to Contractor",
    "contractor": "Waste Pro",
    "rowid": "1277644",
    "final_x": "3712706.01682",
    "final_y": "563629.033121",
    "longitude": "-89.96832618694617",
    "latitude": "30.04279881713724",
    "geocoded_column": {
      "latitude": "30.04279881713724",
      "longitude": "-89.96832618694617"
    }
  },
  {
    "service_request": "2026-1277643",
    "request_type": "Trash/Recycling",
    "request_reason": "Order Second Trash Cart",
    "date_created": "2026-04-29T16:20:59.000",
    "date_modified": "2026-04-29T16:21:06.000",
    "request_status": "Pending",
    "responsible_agency": "Department of Sanitation",
    "final_address": "6557 West End Blvd",
    "address_councildis": "A",
    "status": "Assigned to Contractor",
    "contractor": "IV Waste",
    "rowid": "1277643",
    "final_x": "3666765.13133",
    "final_y": "551449.470485",
    "longitude": "-90.11392819772189",
    "latitude": "30.010734149359056",
    "geocoded_column": {
      "latitude": "30.010734149359056",
      "longitude": "-90.11392819772189"
    }
  },
  {
    "service_request": "2026-1277642",
    "request_type": "Trash/Recycling",
    "request_reason": "Request a Large Item Pick Up",
    "date_created": "2026-04-29T16:18:41.000",
    "date_modified": "2026-04-29T16:18:42.000",
    "request_status": "Pending",
    "responsible_agency": "Department of Sanitation",
    "final_address": "1231 Frenchmen St",
    "address_councildis": "C",
    "status": "Assigned to Contractor",
    "contractor": "IV Waste",
    "rowid": "1277642",
    "final_x": "3684573.69263",
    "final_y": "536899.145224",
    "longitude": "-90.05817569978443",
    "latitude": "29.970192796504566",
    "geocoded_column": {
      "latitude": "29.970192796504566",
      "longitude": "-90.05817569978443"
    }
  },
  {
    "service_request": "2026-1277641",
    "request_type": "Trash/Recycling",
    "request_reason": "Illegal Dumping",
    "date_created": "2026-04-29T16:18:29.000",
    "date_modified": "2026-04-29T16:19:20.000",
    "request_status": "Pending",
    "responsible_agency": "Department of Sanitation",
    "final_address": "823 Poland Ave",
    "address_councildis": "C",
    "status": "Pending",
    "rowid": "1277641",
    "final_x": "3692858.51459",
    "final_y": "534029.366277",
    "longitude": "-90.03211439177622",
    "latitude": "29.962045802525804",
    "geocoded_column": {
      "latitude": "29.962045802525804",
      "longitude": "-90.03211439177622"
    }
  },
  {
    "service_request": "2026-1277640",
    "request_type": "Trash/Recycling",
    "request_reason": "Illegal Dumping",
    "date_created": "2026-04-29T16:17:29.000",
    "date_modified": "2026-04-29T16:17:31.000",
    "request_status": "Pending",
    "responsible_agency": "Department of Sanitation",
    "final_address": "7900 BLK Wales St",
    "address_councildis": "E",
    "status": "Pending",
    "rowid": "1277640",
    "final_x": "3701583.95802",
    "final_y": "562009.250113",
    "longitude": "-90.00353555960444",
    "latitude": "30.038704666177793",
    "geocoded_column": {
      "latitude": "30.038704666177793",
      "longitude": "-90.00353555960444"
    }
  },
  {
    "service_request": "2026-1277639",
    "request_type": "Trash/Recycling",
    "request_reason": "Request a Large Item Pick Up",
    "date_created": "2026-04-29T16:16:11.000",
    "date_modified": "2026-04-29T16:16:13.000",
    "request_status": "Pending",
    "responsible_agency": "Department of Sanitation",
    "final_address": "6937 Barrington Ct",
    "address_councildis": "E",
    "status": "Assigned to Contractor",
    "contractor": "Waste Pro",
    "rowid": "1277639",
    "final_x": "3713997.44216",
    "final_y": "564954.924898",
    "longitude": "-89.964194735756",
    "latitude": "30.04640211826671",
    "geocoded_column": {
      "latitude": "30.04640211826671",
      "longitude": "-89.964194735756"
    }
  },
  {
    "service_request": "2026-1277638",
    "request_type": "Abandoned Vehicles",
    "request_reason": "Abandoned/Junk Vehicles",
    "date_created": "2026-04-29T16:16:10.000",
    "date_modified": "2026-04-29T16:16:12.000",
    "request_status": "Pending",
    "responsible_agency": "Department of Public Works",
    "final_address": "7110 E Laverne St",
    "address_councildis": "D",
    "status": "Pending",
    "rowid": "1277638",
    "final_x": "3697001.64528",
    "final_y": "557037.305434",
    "longitude": "-90.01819719019223",
    "latitude": "30.02517915614868",
    "geocoded_column": {
      "latitude": "30.02517915614868",
      "longitude": "-90.01819719019223"
    }
  },
  {
    "service_request": "2026-1277637",
    "request_type": "Tree Service",
    "request_reason": "Tree Trim",
    "date_created": "2026-04-29T16:14:08.000",
    "date_modified": "2026-04-29T16:14:11.000",
    "request_status": "Pending",
    "responsible_agency": "Department of Parks & Parkways",
    "final_address": "7110 E Laverne St",
    "address_councildis": "D",
    "status": "Pending",
    "rowid": "1277637",
    "final_x": "3697001.64528",
    "final_y": "557037.305434",
    "longitude": "-90.01819719019223",
    "latitude": "30.02517915614868",
    "geocoded_column": {
      "latitude": "30.02517915614868",
      "longitude": "-90.01819719019223"
    }
  },
  {
    "service_request": "2026-1277636",
    "request_type": "Property Maintenance",
    "request_reason": "Property Maintenance",
    "date_created": "2026-04-29T16:12:26.000",
    "date_modified": "2026-04-29T16:12:28.000",
    "request_status": "Pending",
    "responsible_agency": "Department of Code Enforcement",
    "final_address": "2602 S Miro St",
    "address_councildis": "B",
    "status": "Pending",
    "rowid": "1277636",
    "final_x": "3672524.38452",
    "final_y": "528700.286976",
    "longitude": "-90.09650824678985",
    "latitude": "29.94801187233365",
    "geocoded_column": {
      "latitude": "29.94801187233365",
      "longitude": "-90.09650824678985"
    }
  },
  {
    "service_request": "2026-1277635",
    "request_type": "Trash/Recycling",
    "request_reason": "Illegal Dumping",
    "date_created": "2026-04-29T16:09:15.000",
    "date_modified": "2026-04-29T16:09:16.000",
    "request_status": "Pending",
    "responsible_agency": "Department of Sanitation",
    "final_address": "2400 BLK Delery St",
    "address_councildis": "E",
    "status": "Pending",
    "rowid": "1277635",
    "final_x": "3702379.28943",
    "final_y": "537748.865891",
    "longitude": "-90.00191297800741",
    "latitude": "29.97197236013178",
    "geocoded_column": {
      "latitude": "29.97197236013178",
      "longitude": "-90.00191297800741"
    }
  },
  {
    "service_request": "2026-1277634",
    "request_type": "Drainage",
    "request_reason": "Catch Basin Frame and Cover Missing or Damaged",
    "date_created": "2026-04-29T16:08:44.000",
    "date_modified": "2026-04-29T16:08:45.000",
    "request_status": "Pending",
    "responsible_agency": "Sewerage & Water Board",
    "final_address": "2643 Prancer St",
    "address_councildis": "C",
    "status": "Pending",
    "rowid": "1277634",
    "final_x": "3699530.05188",
    "final_y": "521107.781625",
    "longitude": "-90.01151753768845",
    "latitude": "29.926305964039166",
    "geocoded_column": {
      "latitude": "29.926305964039166",
      "longitude": "-90.01151753768845"
    }
  },
  {
    "service_request": "2026-1277633",
    "request_type": "Trash/Recycling",
    "request_reason": "Request a Large Item Pick Up",
    "date_created": "2026-04-29T16:08:26.000",
    "date_modified": "2026-04-29T16:08:27.000",
    "request_status": "Pending",
    "responsible_agency": "Department of Sanitation",
    "final_address": "4725 Coliseum St",
    "address_councildis": "B",
    "status": "Assigned to Contractor",
    "contractor": "IV Waste",
    "rowid": "1277633",
    "final_x": "3669623.99655",
    "final_y": "519726.969848",
    "longitude": "-90.10596944911804",
    "latitude": "29.92342390381145",
    "geocoded_column": {
      "latitude": "29.92342390381145",
      "longitude": "-90.10596944911804"
    }
  },
  {
    "service_request": "2026-1277632",
    "request_type": "Trash/Recycling",
    "request_reason": "Request a Large Item Pick Up",
    "date_created": "2026-04-29T16:07:05.000",
    "date_modified": "2026-04-29T16:07:06.000",
    "request_status": "Pending",
    "responsible_agency": "Department of Sanitation",
    "final_address": "14650 Beekman Rd",
    "address_councildis": "E",
    "status": "Assigned to Contractor",
    "contractor": "Waste Pro",
    "rowid": "1277632",
    "final_x": "3721308.03026",
    "final_y": "573408.728106",
    "longitude": "-89.94076508086322",
    "latitude": "30.0694043332075",
    "geocoded_column": {
      "latitude": "30.0694043332075",
      "longitude": "-89.94076508086322"
    }
  },
  {
    "service_request": "2026-1277631",
    "request_type": "Trash/Recycling",
    "request_reason": "Replace Recycling Cart",
    "date_created": "2026-04-29T16:06:07.000",
    "date_modified": "2026-04-29T16:06:09.000",
    "request_status": "Pending",
    "responsible_agency": "Department of Sanitation",
    "final_address": "1421 Webster St",
    "address_councildis": "A",
    "status": "Pending",
    "rowid": "1277631",
    "final_x": "3664965.85722",
    "final_y": "521502.781561",
    "longitude": "-90.12061418479735",
    "latitude": "29.92844320216427",
    "geocoded_column": {
      "latitude": "29.92844320216427",
      "longitude": "-90.12061418479735"
    }
  },
  {
    "service_request": "2026-1277630",
    "request_type": "Trash/Recycling",
    "request_reason": "Order Recycling Cart",
    "date_created": "2026-04-29T16:05:46.000",
    "date_modified": "2026-04-29T16:05:47.000",
    "request_status": "Pending",
    "responsible_agency": "Department of Sanitation",
    "final_address": "8140 Forshey St",
    "address_councildis": "A",
    "status": "Pending",
    "rowid": "1277630",
    "final_x": "3666764.94311",
    "final_y": "534088.464773",
    "longitude": "-90.1145122298447",
    "latitude": "29.962997282992422",
    "geocoded_column": {
      "latitude": "29.962997282992422",
      "longitude": "-90.1145122298447"
    }
  },
  {
    "service_request": "2026-1277629",
    "request_type": "Property Maintenance",
    "request_reason": "Property Maintenance",
    "date_created": "2026-04-29T16:05:40.000",
    "date_modified": "2026-04-29T16:05:42.000",
    "request_status": "Pending",
    "responsible_agency": "Department of Code Enforcement",
    "final_address": "2643 Prancer St",
    "address_councildis": "C",
    "status": "Pending",
    "rowid": "1277629",
    "final_x": "3699530.05188",
    "final_y": "521107.781625",
    "longitude": "-90.01151753768845",
    "latitude": "29.926305964039166",
    "geocoded_column": {
      "latitude": "29.926305964039166",
      "longitude": "-90.01151753768845"
    }
  },
  {
    "service_request": "2026-1277628",
    "request_type": "Trash/Recycling",
    "request_reason": "Request a Large Item Pick Up",
    "date_created": "2026-04-29T16:04:46.000",
    "date_modified": "2026-04-29T16:04:48.000",
    "request_status": "Pending",
    "responsible_agency": "Department of Sanitation",
    "final_address": "3651 Rue Nichole",
    "address_councildis": "C",
    "status": "Assigned to Contractor",
    "contractor": "Richards Disposal",
    "rowid": "1277628",
    "final_x": "3703927.76004",
    "final_y": "517058.896181",
    "longitude": "-89.99778429853458",
    "latitude": "29.915032702174553",
    "geocoded_column": {
      "latitude": "29.915032702174553",
      "longitude": "-89.99778429853458"
    }
  },
  {
    "service_request": "2026-1277627",
    "request_type": "Trash/Recycling",
    "request_reason": "Request a Large Item Pick Up",
    "date_created": "2026-04-29T16:03:38.000",
    "date_modified": "2026-04-29T16:03:40.000",
    "request_status": "Pending",
    "responsible_agency": "Department of Sanitation",
    "final_address": "320 N Roman St",
    "address_councildis": "B",
    "status": "Assigned to Contractor",
    "contractor": "IV Waste",
    "rowid": "1277627",
    "final_x": "3678442.8795",
    "final_y": "534002.299141",
    "longitude": "-90.07763771257582",
    "latitude": "29.962413634128453",
    "geocoded_column": {
      "latitude": "29.962413634128453",
      "longitude": "-90.07763771257582"
    }
  },
  {
    "service_request": "2026-1277626",
    "request_type": "Roads and Streets",
    "request_reason": "Pothole",
    "date_created": "2026-04-29T16:02:57.000",
    "date_modified": "2026-04-29T16:03:00.000",
    "request_status": "Pending",
    "responsible_agency": "Department of Public Works",
    "final_address": "101 Country Club Dr",
    "address_councildis": "A",
    "status": "Pending",
    "rowid": "1277626",
    "final_x": "3665780.11034",
    "final_y": "544403.924367",
    "longitude": "-90.11727651146273",
    "latitude": "29.99139011159367",
    "geocoded_column": {
      "latitude": "29.99139011159367",
      "longitude": "-90.11727651146273"
    }
  },
  {
    "service_request": "2026-1277625",
    "request_type": "Trash/Recycling",
    "request_reason": "Order Recycling Cart",
    "date_created": "2026-04-29T16:01:15.000",
    "date_modified": "2026-04-29T16:01:18.000",
    "request_status": "Pending",
    "responsible_agency": "Department of Sanitation",
    "final_address": "1711 Jackson Ave",
    "address_councildis": "B",
    "status": "Pending",
    "rowid": "1277625",
    "final_x": "3677361.20814",
    "final_y": "524111.228284",
    "longitude": "-90.08139474755691",
    "latitude": "29.935249033756754",
    "geocoded_column": {
      "latitude": "29.935249033756754",
      "longitude": "-90.08139474755691"
    }
  },
  {
    "service_request": "2026-1277624",
    "request_type": "Streetlights",
    "request_reason": "Streetlight Outage/Malfunction",
    "date_created": "2026-04-29T16:01:04.000",
    "date_modified": "2026-04-29T16:01:05.000",
    "request_status": "Pending",
    "responsible_agency": "Department of Public Works",
    "final_address": "2643 Prancer St",
    "address_councildis": "C",
    "status": "Pending",
    "rowid": "1277624",
    "final_x": "3699530.05188",
    "final_y": "521107.781625",
    "longitude": "-90.01151753768845",
    "latitude": "29.926305964039166",
    "geocoded_column": {
      "latitude": "29.926305964039166",
      "longitude": "-90.01151753768845"
    }
  },
  {
    "service_request": "2026-1277623",
    "request_type": "Trash/Recycling",
    "request_reason": "Request a Large Item Pick Up",
    "date_created": "2026-04-29T15:55:51.000",
    "date_modified": "2026-04-29T15:58:13.000",
    "request_status": "Pending",
    "responsible_agency": "Department of Sanitation",
    "final_address": "2680 Hyman Pl",
    "address_councildis": "C",
    "status": "Assigned to Contractor",
    "contractor": "Richards Disposal",
    "rowid": "1277623",
    "final_x": "3701095.7873",
    "final_y": "521007.919225",
    "longitude": "-90.00657863843114",
    "latitude": "29.92598161961801",
    "geocoded_column": {
      "latitude": "29.92598161961801",
      "longitude": "-90.00657863843114"
    }
  },
  {
    "service_request": "2026-1277622",
    "request_type": "Trash/Recycling",
    "request_reason": "Request a Large Item Pick Up",
    "date_created": "2026-04-29T15:55:48.000",
    "date_modified": "2026-04-29T15:55:49.000",
    "request_status": "Pending",
    "responsible_agency": "Department of Sanitation",
    "final_address": "3371 State Street Dr",
    "address_councildis": "B",
    "status": "Assigned to Contractor",
    "contractor": "IV Waste",
    "rowid": "1277622",
    "final_x": "3667874.07674",
    "final_y": "528857.647488",
    "longitude": "-90.1111858933575",
    "latitude": "29.94858176461156",
    "geocoded_column": {
      "latitude": "29.94858176461156",
      "longitude": "-90.1111858933575"
    }
  },
  {
    "service_request": "2026-1277621",
    "request_type": "Trash/Recycling",
    "request_reason": "Request a Large Item Pick Up",
    "date_created": "2026-04-29T15:51:28.000",
    "date_modified": "2026-04-29T15:51:30.000",
    "request_status": "Pending",
    "responsible_agency": "Department of Sanitation",
    "final_address": "8432 Cohn St",
    "address_councildis": "A",
    "status": "Assigned to Contractor",
    "contractor": "IV Waste",
    "rowid": "1277621",
    "final_x": "3662588.99168",
    "final_y": "531080.433282",
    "longitude": "-90.12779937574317",
    "latitude": "29.954847651192797",
    "geocoded_column": {
      "latitude": "29.954847651192797",
      "longitude": "-90.12779937574317"
    }
  },
  {
    "service_request": "2026-1277620",
    "request_type": "New Orleans Recreation Development Commission (NORDC)",
    "request_reason": "Facilities and Parks Maintenance/Clean Up",
    "date_created": "2026-04-29T15:47:09.000",
    "date_modified": "2026-04-29T15:47:10.000",
    "request_status": "Pending",
    "responsible_agency": "New Orleans Recreation Development Commission",
    "final_address": "4877 Laurel St",
    "address_councildis": "B",
    "status": "Pending",
    "rowid": "1277620",
    "final_x": "3669019.95425",
    "final_y": "517892.334326",
    "longitude": "-90.10793812367308",
    "latitude": "29.91839701307734",
    "geocoded_column": {
      "latitude": "29.91839701307734",
      "longitude": "-90.10793812367308"
    }
  },
  {
    "service_request": "2026-1277619",
    "request_type": "Streetlights",
    "request_reason": "Streetlight Knocked Down/Leaning",
    "date_created": "2026-04-29T15:45:14.000",
    "date_modified": "2026-04-29T15:57:00.000",
    "request_status": "Pending",
    "responsible_agency": "Department of Public Works",
    "final_address": "5122 Chartres St",
    "address_councildis": "E",
    "status": "Pending",
    "rowid": "1277619",
    "final_x": "3695916.5055",
    "final_y": "532284.006851",
    "longitude": "-90.02252082458052",
    "latitude": "29.95715083953501",
    "geocoded_column": {
      "latitude": "29.95715083953501",
      "longitude": "-90.02252082458052"
    }
  },
  {
    "service_request": "2026-1277618",
    "request_type": "Tree Service",
    "request_reason": "Tree Trim",
    "date_created": "2026-04-29T15:45:04.000",
    "date_modified": "2026-04-29T15:45:30.000",
    "request_status": "Pending",
    "responsible_agency": "Department of Parks & Parkways",
    "final_address": "3833 Louisiana Avenue Prkwy",
    "address_councildis": "B",
    "status": "Pending",
    "rowid": "1277618",
    "final_x": "3671257.7778",
    "final_y": "528999.608896",
    "longitude": "-90.10049727597938",
    "latitude": "29.948872441600248",
    "geocoded_column": {
      "latitude": "29.948872441600248",
      "longitude": "-90.10049727597938"
    }
  },
  {
    "service_request": "2026-1277617",
    "request_type": "Trash/Recycling",
    "request_reason": "Request a Large Item Pick Up",
    "date_created": "2026-04-29T15:44:23.000",
    "date_modified": "2026-04-29T15:44:25.000",
    "request_status": "Pending",
    "responsible_agency": "Department of Sanitation",
    "final_address": "3833 Louisiana Avenue Prkwy",
    "address_councildis": "B",
    "status": "Assigned to Contractor",
    "contractor": "IV Waste",
    "rowid": "1277617",
    "final_x": "3671257.7778",
    "final_y": "528999.608896",
    "longitude": "-90.10049727597938",
    "latitude": "29.948872441600248",
    "geocoded_column": {
      "latitude": "29.948872441600248",
      "longitude": "-90.10049727597938"
    }
  },
  {
    "service_request": "2026-1277616",
    "request_type": "Trash/Recycling",
    "request_reason": "Request a Large Item Pick Up",
    "date_created": "2026-04-29T15:42:04.000",
    "date_modified": "2026-04-29T16:00:24.000",
    "request_status": "Pending",
    "responsible_agency": "Department of Sanitation",
    "final_address": "2408 Congress St",
    "address_councildis": "D",
    "status": "Assigned to Contractor",
    "contractor": "IV Waste",
    "rowid": "1277616",
    "final_x": "3691917.324",
    "final_y": "540565.027531",
    "longitude": "-90.03485263703024",
    "latitude": "29.980045912661318",
    "geocoded_column": {
      "latitude": "29.980045912661318",
      "longitude": "-90.03485263703024"
    }
  },
  {
    "service_request": "2026-1277615",
    "request_type": "Trash/Recycling",
    "request_reason": "Repair Trash Cart",
    "date_created": "2026-04-29T15:39:35.000",
    "date_modified": "2026-04-29T15:39:37.000",
    "request_status": "Pending",
    "responsible_agency": "Department of Sanitation",
    "final_address": "1305 Charbonnet St",
    "address_councildis": "E",
    "status": "Assigned to Contractor",
    "contractor": "Waste Pro",
    "rowid": "1277615",
    "final_x": "3698876.30071",
    "final_y": "534391.205701",
    "longitude": "-90.01309809339149",
    "latitude": "29.962851453541646",
    "geocoded_column": {
      "latitude": "29.962851453541646",
      "longitude": "-90.01309809339149"
    }
  },
  {
    "service_request": "2026-1277614",
    "request_type": "Trash/Recycling",
    "request_reason": "Request a Large Item Pick Up",
    "date_created": "2026-04-29T15:38:11.000",
    "date_modified": "2026-04-29T15:38:13.000",
    "request_status": "Pending",
    "responsible_agency": "Department of Sanitation",
    "final_address": "8531 Green St",
    "address_councildis": "A",
    "status": "Assigned to Contractor",
    "contractor": "IV Waste",
    "rowid": "1277614",
    "final_x": "3661953.64531",
    "final_y": "530814.41005",
    "longitude": "-90.12981439086101",
    "latitude": "29.95413453789156",
    "geocoded_column": {
      "latitude": "29.95413453789156",
      "longitude": "-90.12981439086101"
    }
  },
  {
    "service_request": "2026-1277613",
    "request_type": "Trash/Recycling",
    "request_reason": "Request a Large Item Pick Up",
    "date_created": "2026-04-29T15:37:42.000",
    "date_modified": "2026-04-29T15:37:43.000",
    "request_status": "Pending",
    "responsible_agency": "Department of Sanitation",
    "final_address": "13427 N Nemours St",
    "address_councildis": "E",
    "status": "Assigned to Contractor",
    "contractor": "Waste Pro",
    "rowid": "1277613",
    "final_x": "3725321.07033",
    "final_y": "562763.700576",
    "longitude": "-89.92849163052206",
    "latitude": "30.040000265431246",
    "geocoded_column": {
      "latitude": "30.040000265431246",
      "longitude": "-89.92849163052206"
    }
  },
  {
    "service_request": "2026-1277612",
    "request_type": "Trash/Recycling",
    "request_reason": "Request a Large Item Pick Up",
    "date_created": "2026-04-29T15:33:18.000",
    "date_modified": "2026-04-29T15:33:21.000",
    "request_status": "Pending",
    "responsible_agency": "Department of Sanitation",
    "final_address": "4635 S Claiborne Ave",
    "address_councildis": "B",
    "status": "Assigned to Contractor",
    "contractor": "IV Waste",
    "rowid": "1277612",
    "final_x": "3669282.65748",
    "final_y": "525867.532989",
    "longitude": "-90.10683945347941",
    "latitude": "29.940318535248657",
    "geocoded_column": {
      "latitude": "29.940318535248657",
      "longitude": "-90.10683945347941"
    }
  },
  {
    "service_request": "2026-1277611",
    "request_type": "Trash/Recycling",
    "request_reason": "Request a Large Item Pick Up",
    "date_created": "2026-04-29T15:32:04.000",
    "date_modified": "2026-04-29T15:32:07.000",
    "request_status": "Pending",
    "responsible_agency": "Department of Sanitation",
    "final_address": "2208 Bartholomew St",
    "address_councildis": "D",
    "status": "Assigned to Contractor",
    "contractor": "IV Waste",
    "rowid": "1277611",
    "final_x": "3692799.59209",
    "final_y": "539491.438602",
    "longitude": "-90.03210458495171",
    "latitude": "29.977066406745482",
    "geocoded_column": {
      "latitude": "29.977066406745482",
      "longitude": "-90.03210458495171"
    }
  },
  {
    "service_request": "2026-1277610",
    "request_type": "Streetlights",
    "request_reason": "Streetlight Outage/Malfunction",
    "date_created": "2026-04-29T15:31:52.000",
    "date_modified": "2026-04-29T15:35:05.000",
    "request_status": "Pending",
    "responsible_agency": "Department of Public Works",
    "final_address": "3421 Idaho St",
    "address_councildis": "C",
    "status": "Pending",
    "rowid": "1277610",
    "final_x": "3693225.19984",
    "final_y": "521114.727993",
    "longitude": "-90.03141983372954",
    "latitude": "29.92652354573213",
    "geocoded_column": {
      "latitude": "29.92652354573213",
      "longitude": "-90.03141983372954"
    }
  },
  {
    "service_request": "2026-1277609",
    "request_type": "Utility Poles",
    "request_reason": "Wires Sagging/Hanging Low",
    "date_created": "2026-04-29T15:28:49.000",
    "date_modified": "2026-04-29T15:29:27.000",
    "request_status": "Pending",
    "responsible_agency": "Utility Company Collective",
    "final_address": "1429 Fern St",
    "address_councildis": "A",
    "status": "Pending",
    "rowid": "1277609",
    "final_x": "3663166.97459",
    "final_y": "528488.43904",
    "longitude": "-90.12606055045144",
    "latitude": "29.94770376969489",
    "geocoded_column": {
      "latitude": "29.94770376969489",
      "longitude": "-90.12606055045144"
    }
  },
  {
    "service_request": "2026-1277608",
    "request_type": "Drainage",
    "request_reason": "Catch Basin Not Draining",
    "date_created": "2026-04-29T15:27:33.000",
    "date_modified": "2026-04-29T15:27:36.000",
    "request_status": "Pending",
    "responsible_agency": "Sewerage & Water Board",
    "final_address": "5837 Bellaire Dr",
    "address_councildis": "A",
    "status": "Pending",
    "rowid": "1277608",
    "final_x": "3664268.8537",
    "final_y": "546669.529873",
    "longitude": "-90.12197459632716",
    "latitude": "29.997663769299233",
    "geocoded_column": {
      "latitude": "29.997663769299233",
      "longitude": "-90.12197459632716"
    }
  },
  {
    "service_request": "2026-1277607",
    "request_type": "Trash/Recycling",
    "request_reason": "Request a Large Item Pick Up",
    "date_created": "2026-04-29T15:27:09.000",
    "date_modified": "2026-04-29T15:27:11.000",
    "request_status": "Pending",
    "responsible_agency": "Department of Sanitation",
    "final_address": "6519 E Hermes St",
    "address_councildis": "D",
    "status": "Assigned to Contractor",
    "contractor": "Waste Pro",
    "rowid": "1277607",
    "final_x": "3698031.80682",
    "final_y": "555458.326873",
    "longitude": "-90.0149994610959",
    "latitude": "30.02080501578286",
    "geocoded_column": {
      "latitude": "30.02080501578286",
      "longitude": "-90.0149994610959"
    }
  },
  {
    "service_request": "2026-1277606",
    "request_type": "Trash/Recycling",
    "request_reason": "Repair Trash Cart",
    "date_created": "2026-04-29T15:27:08.000",
    "date_modified": "2026-04-29T15:37:01.000",
    "request_status": "Pending",
    "responsible_agency": "Department of Sanitation",
    "final_address": "2455 Mexico St",
    "address_councildis": "D",
    "status": "Pending",
    "contractor": "IV Waste",
    "rowid": "1277606",
    "final_x": "3685402.19465",
    "final_y": "556396.303578",
    "longitude": "-90.05487220182115",
    "latitude": "30.023777602857372",
    "geocoded_column": {
      "latitude": "30.023777602857372",
      "longitude": "-90.05487220182115"
    }
  },
  {
    "service_request": "2026-1277605",
    "request_type": "Tree Service",
    "request_reason": "Street or Sidewalk Blocked",
    "date_created": "2026-04-29T15:24:21.000",
    "date_modified": "2026-04-29T15:37:09.000",
    "request_status": "Pending",
    "responsible_agency": "Department of Parks & Parkways",
    "final_address": "2801 S Prieur St",
    "address_councildis": "B",
    "status": "Pending",
    "rowid": "1277605",
    "final_x": "3672497.17012",
    "final_y": "527579.890559",
    "longitude": "-90.09663235437995",
    "latitude": "29.944931957608773",
    "geocoded_column": {
      "latitude": "29.944931957608773",
      "longitude": "-90.09663235437995"
    }
  },
  {
    "service_request": "2026-1277604",
    "request_type": "Property Maintenance",
    "request_reason": "Property Maintenance",
    "date_created": "2026-04-29T15:23:35.000",
    "date_modified": "2026-04-29T15:23:37.000",
    "request_status": "Pending",
    "responsible_agency": "Department of Code Enforcement",
    "final_address": "5732 Peoples Ave",
    "address_councildis": "D",
    "status": "Pending",
    "rowid": "1277604",
    "final_x": "3687837.42454",
    "final_y": "554469.34492",
    "longitude": "-90.0472457185782",
    "latitude": "30.018404247445375",
    "geocoded_column": {
      "latitude": "30.018404247445375",
      "longitude": "-90.0472457185782"
    }
  },
  {
    "service_request": "2026-1277603",
    "request_type": "Tree Service",
    "request_reason": "Blocking Stop Sign or Traffic Signal",
    "date_created": "2026-04-29T15:22:35.000",
    "date_modified": "2026-04-29T15:22:37.000",
    "request_status": "Pending",
    "responsible_agency": "Department of Parks & Parkways",
    "final_address": "4123 Woodland Dr",
    "address_councildis": "C",
    "status": "Pending",
    "rowid": "1277603",
    "final_x": "3705334.97265",
    "final_y": "515968.433332",
    "longitude": "-89.99338291450684",
    "latitude": "29.911989129786704",
    "geocoded_column": {
      "latitude": "29.911989129786704",
      "longitude": "-89.99338291450684"
    }
  },
  {
    "service_request": "2026-1277602",
    "request_type": "Trash/Recycling",
    "request_reason": "Request a Large Item Pick Up",
    "date_created": "2026-04-29T15:21:33.000",
    "date_modified": "2026-04-29T15:21:35.000",
    "request_status": "Pending",
    "responsible_agency": "Department of Sanitation",
    "final_address": "710 Mazant St",
    "address_councildis": "C",
    "status": "Assigned to Contractor",
    "contractor": "IV Waste",
    "rowid": "1277602",
    "final_x": "3691726.29955",
    "final_y": "533838.698501",
    "longitude": "-90.03569655870206",
    "latitude": "29.961556837937703",
    "geocoded_column": {
      "latitude": "29.961556837937703",
      "longitude": "-90.03569655870206"
    }
  },
  {
    "service_request": "2026-1277601",
    "request_type": "Trash/Recycling",
    "request_reason": "Request a Large Item Pick Up",
    "date_created": "2026-04-29T15:20:16.000",
    "date_modified": "2026-04-29T15:20:18.000",
    "request_status": "Pending",
    "responsible_agency": "Department of Sanitation",
    "final_address": "1758 Pressburg Dr",
    "address_councildis": "D",
    "status": "Assigned to Contractor",
    "contractor": "IV Waste",
    "rowid": "1277601",
    "final_x": "3680128.24111",
    "final_y": "554098.772504",
    "longitude": "-90.07161678482532",
    "latitude": "30.017620974425373",
    "geocoded_column": {
      "latitude": "30.017620974425373",
      "longitude": "-90.07161678482532"
    }
  },
  {
    "service_request": "2026-1277600",
    "request_type": "Trash/Recycling",
    "request_reason": "Request a Large Item Pick Up",
    "date_created": "2026-04-29T15:19:56.000",
    "date_modified": "2026-04-29T15:19:57.000",
    "request_status": "Pending",
    "responsible_agency": "Department of Sanitation",
    "final_address": "2527 N Claiborne Ave",
    "address_councildis": "D",
    "status": "Assigned to Contractor",
    "contractor": "IV Waste",
    "rowid": "1277600",
    "final_x": "3687317.62063",
    "final_y": "538383.356425",
    "longitude": "-90.0494575890472",
    "latitude": "29.974189608288608",
    "geocoded_column": {
      "latitude": "29.974189608288608",
      "longitude": "-90.0494575890472"
    }
  },
  {
    "service_request": "2026-1277599",
    "request_type": "Tree Service",
    "request_reason": "Tree Trim",
    "date_created": "2026-04-29T15:18:39.000",
    "date_modified": "2026-04-29T15:18:41.000",
    "request_status": "Pending",
    "responsible_agency": "Department of Parks & Parkways",
    "final_address": "3001 Perdido St",
    "address_councildis": "B",
    "status": "Pending",
    "rowid": "1277599",
    "final_x": "3672552.2491",
    "final_y": "533571.052741",
    "longitude": "-90.09625423143362",
    "latitude": "29.96140403705103",
    "geocoded_column": {
      "latitude": "29.96140403705103",
      "longitude": "-90.09625423143362"
    }
  },
  {
    "service_request": "2026-1277598",
    "request_type": "Trash/Recycling",
    "request_reason": "Order Recycling Cart",
    "date_created": "2026-04-29T15:18:38.000",
    "date_modified": "2026-04-29T15:18:39.000",
    "request_status": "Pending",
    "responsible_agency": "Department of Sanitation",
    "final_address": "910 St Ferdinand St",
    "address_councildis": "C",
    "status": "Pending",
    "rowid": "1277598",
    "final_x": "3687518.74191",
    "final_y": "535639.799366",
    "longitude": "-90.0489195297416",
    "latitude": "29.966639588669782",
    "geocoded_column": {
      "latitude": "29.966639588669782",
      "longitude": "-90.0489195297416"
    }
  },
  {
    "service_request": "2026-1277597",
    "request_type": "Roads and Streets",
    "request_reason": "Pothole",
    "date_created": "2026-04-29T15:17:50.000",
    "date_modified": "2026-04-29T15:17:51.000",
    "request_status": "Pending",
    "responsible_agency": "Department of Public Works",
    "final_address": "1505 Patterson St",
    "address_councildis": "C",
    "status": "Pending",
    "rowid": "1277597",
    "final_x": "3690315.08508",
    "final_y": "530998.808002",
    "longitude": "-90.04025412379448",
    "latitude": "29.953791994247027",
    "geocoded_column": {
      "latitude": "29.953791994247027",
      "longitude": "-90.04025412379448"
    }
  },
  {
    "service_request": "2026-1277596",
    "request_type": "Street and Traffic Signs",
    "request_reason": "Street Name Sign Damaged or Missing",
    "date_created": "2026-04-29T15:16:43.000",
    "date_modified": "2026-04-29T15:16:44.000",
    "request_status": "Pending",
    "responsible_agency": "Department of Public Works",
    "final_address": "DESIRE DR & STEPHEN GIRARD AVE",
    "address_councildis": "D",
    "status": "Pending",
    "rowid": "1277596",
    "final_x": "3692063.6",
    "final_y": "550845.58",
    "longitude": "-90.0340224463615",
    "latitude": "30.008309136030565",
    "geocoded_column": {
      "latitude": "30.008309136030565",
      "longitude": "-90.0340224463615"
    }
  },
  {
    "service_request": "2026-1277595",
    "request_type": "Street and Traffic Signs",
    "request_reason": "Street Name Sign Damaged or Missing",
    "date_created": "2026-04-29T15:15:28.000",
    "date_modified": "2026-04-29T15:15:30.000",
    "request_status": "Pending",
    "responsible_agency": "Department of Public Works",
    "final_address": "LOUISA DR & GAINES ST",
    "address_councildis": "D",
    "status": "Pending",
    "rowid": "1277595",
    "final_x": "3690847.4",
    "final_y": "551243.68",
    "longitude": "-90.03785056796403",
    "latitude": "30.00944162829333",
    "geocoded_column": {
      "latitude": "30.00944162829333",
      "longitude": "-90.03785056796403"
    }
  },
  {
    "service_request": "2026-1277594",
    "request_type": "Roads and Streets",
    "request_reason": "Pothole",
    "date_created": "2026-04-29T15:14:18.000",
    "date_modified": "2026-04-29T15:14:19.000",
    "request_status": "Pending",
    "responsible_agency": "Department of Public Works",
    "final_address": "3700 BLK S Carrollton Ave",
    "address_councildis": "B",
    "status": "Pending",
    "rowid": "1277594",
    "final_x": "3668101.4551",
    "final_y": "534950.865253",
    "longitude": "-90.11026260588852",
    "latitude": "29.965329440606144",
    "geocoded_column": {
      "latitude": "29.965329440606144",
      "longitude": "-90.11026260588852"
    }
  },
  {
    "service_request": "2026-1277593",
    "request_type": "Trash/Recycling",
    "request_reason": "Request a Large Item Pick Up",
    "date_created": "2026-04-29T15:14:17.000",
    "date_modified": "2026-04-29T15:14:19.000",
    "request_status": "Pending",
    "responsible_agency": "Department of Sanitation",
    "final_address": "2830 Burgundy St",
    "address_councildis": "C",
    "status": "Assigned to Contractor",
    "contractor": "IV Waste",
    "rowid": "1277593",
    "final_x": "3687768.35676",
    "final_y": "535443.856966",
    "longitude": "-90.04813819036315",
    "latitude": "29.96609311941086",
    "geocoded_column": {
      "latitude": "29.96609311941086",
      "longitude": "-90.04813819036315"
    }
  },
  {
    "service_request": "2026-1277592",
    "request_type": "Trash/Recycling",
    "request_reason": "Order Second Trash Cart",
    "date_created": "2026-04-29T15:13:14.000",
    "date_modified": "2026-04-29T15:13:16.000",
    "request_status": "Pending",
    "responsible_agency": "Department of Sanitation",
    "final_address": "4882 Charmes Ct",
    "address_councildis": "E",
    "status": "Assigned to Contractor",
    "contractor": "Waste Pro",
    "rowid": "1277592",
    "final_x": "3726170.18521",
    "final_y": "561785.134239",
    "longitude": "-89.92584618695938",
    "latitude": "30.03728096045264",
    "geocoded_column": {
      "latitude": "30.03728096045264",
      "longitude": "-89.92584618695938"
    }
  },
  {
    "service_request": "2026-1277591",
    "request_type": "Street and Traffic Signs",
    "request_reason": "Street Name Sign Damaged or Missing",
    "date_created": "2026-04-29T15:13:05.000",
    "date_modified": "2026-04-29T15:13:06.000",
    "request_status": "Pending",
    "responsible_agency": "Department of Public Works",
    "final_address": "GAINES ST & MARK TWAIN DR",
    "address_councildis": "D",
    "status": "Pending",
    "rowid": "1277591",
    "final_x": "3691323.1",
    "final_y": "551402.48",
    "longitude": "-90.03634199299573",
    "latitude": "30.009863472828087",
    "geocoded_column": {
      "latitude": "30.009863472828087",
      "longitude": "-90.03634199299573"
    }
  },
  {
    "service_request": "2026-1277590",
    "request_type": "Street and Traffic Signs",
    "request_reason": "Street Name Sign Damaged or Missing",
    "date_created": "2026-04-29T15:12:05.000",
    "date_modified": "2026-04-29T15:12:07.000",
    "request_status": "Pending",
    "responsible_agency": "Department of Public Works",
    "final_address": "GAINES ST & GENERAL EARLY DR",
    "address_councildis": "D",
    "status": "Pending",
    "rowid": "1277590",
    "final_x": "3691088.0",
    "final_y": "551318.08",
    "longitude": "-90.0370877725849",
    "latitude": "30.009638719030626",
    "geocoded_column": {
      "latitude": "30.009638719030626",
      "longitude": "-90.0370877725849"
    }
  },
  {
    "service_request": "2026-1277589",
    "request_type": "Trash/Recycling",
    "request_reason": "Request a Large Item Pick Up",
    "date_created": "2026-04-29T15:10:51.000",
    "date_modified": "2026-04-29T15:10:53.000",
    "request_status": "Pending",
    "responsible_agency": "Department of Sanitation",
    "final_address": "4967 Redwood St",
    "address_councildis": "E",
    "status": "Assigned to Contractor",
    "contractor": "Waste Pro",
    "rowid": "1277589",
    "final_x": "3712420.0437",
    "final_y": "557588.482523",
    "longitude": "-89.96945719977252",
    "latitude": "30.026199076699175",
    "geocoded_column": {
      "latitude": "30.026199076699175",
      "longitude": "-89.96945719977252"
    }
  },
  {
    "service_request": "2026-1277588",
    "request_type": "Trash/Recycling",
    "request_reason": "Illegal Dumping",
    "date_created": "2026-04-29T15:06:12.000",
    "date_modified": "2026-04-29T15:06:14.000",
    "request_status": "Pending",
    "responsible_agency": "Department of Sanitation",
    "final_address": "5437 N Roman St",
    "address_councildis": "E",
    "status": "Pending",
    "rowid": "1277588",
    "final_x": "3698205.38243",
    "final_y": "536545.383623",
    "longitude": "-90.0151384970309",
    "latitude": "29.96879591162483",
    "geocoded_column": {
      "latitude": "29.96879591162483",
      "longitude": "-90.0151384970309"
    }
  },
  {
    "service_request": "2026-1277587",
    "request_type": "Trash/Recycling",
    "request_reason": "Order Recycling Cart",
    "date_created": "2026-04-29T15:05:47.000",
    "date_modified": "2026-04-29T15:05:48.000",
    "request_status": "Pending",
    "responsible_agency": "Department of Sanitation",
    "final_address": "4320 Prytania St",
    "address_councildis": "B",
    "status": "Pending",
    "rowid": "1277587",
    "final_x": "3671125.541",
    "final_y": "520295.7486",
    "longitude": "-90.10121031805423",
    "latitude": "29.924943553464438",
    "geocoded_column": {
      "latitude": "29.924943553464438",
      "longitude": "-90.10121031805423"
    }
  },
  {
    "service_request": "2026-1277586",
    "request_type": "Trash/Recycling",
    "request_reason": "Order Trash Cart",
    "date_created": "2026-04-29T15:03:20.000",
    "date_modified": "2026-04-29T15:03:22.000",
    "request_status": "Pending",
    "responsible_agency": "Department of Sanitation",
    "final_address": "736 Toledano St",
    "address_councildis": "B",
    "status": "Assigned to Contractor",
    "contractor": "IV Waste",
    "rowid": "1277586",
    "final_x": "3675873.25339",
    "final_y": "518611.022775",
    "longitude": "-90.08628120381886",
    "latitude": "29.920169869607697",
    "geocoded_column": {
      "latitude": "29.920169869607697",
      "longitude": "-90.08628120381886"
    }
  },
  {
    "service_request": "2026-1277585",
    "request_type": "Trash/Recycling",
    "request_reason": "Request a Large Item Pick Up",
    "date_created": "2026-04-29T15:02:59.000",
    "date_modified": "2026-04-29T15:03:01.000",
    "request_status": "Pending",
    "responsible_agency": "Department of Sanitation",
    "final_address": "7540 Wave Dr",
    "address_councildis": "E",
    "status": "Assigned to Contractor",
    "contractor": "Waste Pro",
    "rowid": "1277585",
    "final_x": "3715185.31909",
    "final_y": "568350.128933",
    "longitude": "-89.96031189037596",
    "latitude": "30.055698460209445",
    "geocoded_column": {
      "latitude": "30.055698460209445",
      "longitude": "-89.96031189037596"
    }
  },
  {
    "service_request": "2026-1277584",
    "request_type": "Street and Traffic Signs",
    "request_reason": "Street Name Sign Damaged or Missing",
    "date_created": "2026-04-29T15:02:37.000",
    "date_modified": "2026-04-29T15:02:38.000",
    "request_status": "Pending",
    "responsible_agency": "Department of Public Works",
    "final_address": "DESIRE DR & MIRABEAU AVE",
    "address_councildis": "D",
    "status": "Pending",
    "rowid": "1277584",
    "final_x": "3691718.0",
    "final_y": "551882.58",
    "longitude": "-90.03507718042333",
    "latitude": "30.01117127355997",
    "geocoded_column": {
      "latitude": "30.01117127355997",
      "longitude": "-90.03507718042333"
    }
  },
  {
    "service_request": "2026-1277583",
    "request_type": "Trash/Recycling",
    "request_reason": "Order Trash Cart",
    "date_created": "2026-04-29T15:01:43.000",
    "date_modified": "2026-04-29T15:01:52.000",
    "request_status": "Pending",
    "responsible_agency": "Department of Sanitation",
    "final_address": "4320 Prytania St",
    "address_councildis": "B",
    "status": "Assigned to Contractor",
    "contractor": "IV Waste",
    "rowid": "1277583",
    "final_x": "3671125.541",
    "final_y": "520295.7486",
    "longitude": "-90.10121031805423",
    "latitude": "29.924943553464438",
    "geocoded_column": {
      "latitude": "29.924943553464438",
      "longitude": "-90.10121031805423"
    }
  },
  {
    "service_request": "2026-1277582",
    "request_type": "Street and Traffic Signs",
    "request_reason": "Street Name Sign Damaged or Missing",
    "date_created": "2026-04-29T14:59:30.000",
    "date_modified": "2026-04-29T14:59:32.000",
    "request_status": "Pending",
    "responsible_agency": "Department of Public Works",
    "final_address": "DREUX AVE & METROPOLITAN DR",
    "address_councildis": "D",
    "status": "Pending",
    "rowid": "1277582",
    "final_x": "3690270.0",
    "final_y": "552884.28",
    "longitude": "-90.03961624772514",
    "latitude": "30.01397060944873",
    "geocoded_column": {
      "latitude": "30.01397060944873",
      "longitude": "-90.03961624772514"
    }
  },
  {
    "service_request": "2026-1277581",
    "request_type": "Trash/Recycling",
    "request_reason": "Order Recycling Cart",
    "date_created": "2026-04-29T14:57:23.000",
    "date_modified": "2026-04-29T14:57:24.000",
    "request_status": "Pending",
    "responsible_agency": "Department of Sanitation",
    "final_address": "2806 Castiglione St",
    "address_councildis": "D",
    "status": "Pending",
    "rowid": "1277581",
    "final_x": "3679547.97858",
    "final_y": "542094.715468",
    "longitude": "-90.07386707810126",
    "latitude": "29.984631645146163",
    "geocoded_column": {
      "latitude": "29.984631645146163",
      "longitude": "-90.07386707810126"
    }
  },
  {
    "service_request": "2026-1277580",
    "request_type": "Street and Traffic Signs",
    "request_reason": "Street Name Sign Damaged or Missing",
    "date_created": "2026-04-29T14:55:29.000",
    "date_modified": "2026-04-29T14:55:30.000",
    "request_status": "Pending",
    "responsible_agency": "Department of Public Works",
    "final_address": "DREUX AVE & DESIRE DR",
    "address_councildis": "D",
    "status": "Pending",
    "rowid": "1277580",
    "final_x": "3691357.3",
    "final_y": "553177.48",
    "longitude": "-90.03617045878686",
    "latitude": "30.01474300059799",
    "geocoded_column": {
      "latitude": "30.01474300059799",
      "longitude": "-90.03617045878686"
    }
  },
  {
    "service_request": "2026-1277579",
    "request_type": "Street and Traffic Signs",
    "request_reason": "Street Name Sign Damaged or Missing",
    "date_created": "2026-04-29T14:54:28.000",
    "date_modified": "2026-04-29T14:54:29.000",
    "request_status": "Pending",
    "responsible_agency": "Department of Public Works",
    "final_address": "DREUX AVE & CONGRESS DR",
    "address_councildis": "D",
    "status": "Pending",
    "rowid": "1277579",
    "final_x": "3691851.6",
    "final_y": "553313.08",
    "longitude": "-90.03460386031796",
    "latitude": "30.015100454509856",
    "geocoded_column": {
      "latitude": "30.015100454509856",
      "longitude": "-90.03460386031796"
    }
  },
  {
    "service_request": "2026-1277578",
    "request_type": "Trash/Recycling",
    "request_reason": "Repair Recycling Cart",
    "date_created": "2026-04-29T14:54:04.000",
    "date_modified": "2026-04-29T14:54:06.000",
    "request_status": "Pending",
    "responsible_agency": "Department of Sanitation",
    "final_address": "4001 S Pin Oak Ave",
    "address_councildis": "C",
    "status": "Pending",
    "rowid": "1277578",
    "final_x": "3704943.69751",
    "final_y": "513364.41701",
    "longitude": "-89.99471388935105",
    "latitude": "29.904841551419526",
    "geocoded_column": {
      "latitude": "29.904841551419526",
      "longitude": "-89.99471388935105"
    }
  },
  {
    "service_request": "2026-1277577",
    "request_type": "Trash/Recycling",
    "request_reason": "Request a Large Item Pick Up",
    "date_created": "2026-04-29T14:51:52.000",
    "date_modified": "2026-04-29T14:51:53.000",
    "request_status": "Pending",
    "responsible_agency": "Department of Sanitation",
    "final_address": "3230 Derby Pl",
    "address_councildis": "A",
    "status": "Assigned to Contractor",
    "contractor": "IV Waste",
    "rowid": "1277577",
    "final_x": "3677758.84846",
    "final_y": "542866.413581",
    "longitude": "-90.07949148709169",
    "latitude": "29.98680749832688",
    "geocoded_column": {
      "latitude": "29.98680749832688",
      "longitude": "-90.07949148709169"
    }
  },
  {
    "service_request": "2026-1277576",
    "request_type": "Trash/Recycling",
    "request_reason": "Return Recycling Cart",
    "date_created": "2026-04-29T14:51:45.000",
    "date_modified": "2026-04-29T14:51:47.000",
    "request_status": "Pending",
    "responsible_agency": "Department of Sanitation",
    "final_address": "29 Honeysuckle Ln",
    "address_councildis": "E",
    "status": "Pending",
    "rowid": "1277576",
    "final_x": "3713081.17816",
    "final_y": "568505.198245",
    "longitude": "-89.96695677171455",
    "latitude": "30.056193995910597",
    "geocoded_column": {
      "latitude": "30.056193995910597",
      "longitude": "-89.96695677171455"
    }
  },
  {
    "service_request": "2026-1277575",
    "request_type": "Drainage",
    "request_reason": "Catch Basin Frame and Cover Missing or Damaged",
    "date_created": "2026-04-29T14:51:35.000",
    "date_modified": "2026-04-29T14:51:38.000",
    "request_status": "Pending",
    "responsible_agency": "Sewerage & Water Board",
    "final_address": "5272 Basinview Dr",
    "address_councildis": "E",
    "status": "Pending",
    "rowid": "1277575",
    "final_x": "3699097.61866",
    "final_y": "556994.584986",
    "longitude": "-90.01157583448281",
    "latitude": "30.024995378289216",
    "geocoded_column": {
      "latitude": "30.024995378289216",
      "longitude": "-90.01157583448281"
    }
  },
  {
    "service_request": "2026-1277574",
    "request_type": "Trash/Recycling",
    "request_reason": "Request a Large Item Pick Up",
    "date_created": "2026-04-29T14:50:34.000",
    "date_modified": "2026-04-29T14:50:36.000",
    "request_status": "Pending",
    "responsible_agency": "Department of Sanitation",
    "final_address": "5413 St Roch Ave",
    "address_councildis": "D",
    "status": "Assigned to Contractor",
    "contractor": "IV Waste",
    "rowid": "1277574",
    "final_x": "3685257.02549",
    "final_y": "552906.208087",
    "longitude": "-90.05545389474247",
    "latitude": "30.014185578385025",
    "geocoded_column": {
      "latitude": "30.014185578385025",
      "longitude": "-90.05545389474247"
    }
  },
  {
    "service_request": "2026-1277573",
    "request_type": "Property Maintenance",
    "request_reason": "Property Maintenance",
    "date_created": "2026-04-29T14:50:10.000",
    "date_modified": "2026-04-29T15:46:44.000",
    "case_close_date": "2026-04-29T10:46:43.000",
    "request_status": "Closed",
    "responsible_agency": "Department of Code Enforcement",
    "final_address": "7200 S Claiborne Ave",
    "address_councildis": "A",
    "status": "Resolved",
    "rowid": "1277573",
    "final_x": "3666222.51636",
    "final_y": "529785.527745",
    "longitude": "-90.11636946954523",
    "latitude": "29.951181467636022",
    "geocoded_column": {
      "latitude": "29.951181467636022",
      "longitude": "-90.11636946954523"
    }
  },
  {
    "service_request": "2026-1277572",
    "request_type": "Streetlights",
    "request_reason": "Streetlight Outage/Malfunction",
    "date_created": "2026-04-29T14:49:53.000",
    "date_modified": "2026-04-29T14:49:54.000",
    "request_status": "Pending",
    "responsible_agency": "Department of Public Works",
    "final_address": "7316 Dogwood Dr",
    "address_councildis": "E",
    "status": "Pending",
    "rowid": "1277572",
    "final_x": "3701528.73021",
    "final_y": "560093.834333",
    "longitude": "-90.00378033085926",
    "latitude": "30.033439781841015",
    "geocoded_column": {
      "latitude": "30.033439781841015",
      "longitude": "-90.00378033085926"
    }
  },
  {
    "service_request": "2026-1277571",
    "request_type": "Tree Service",
    "request_reason": "Street or Sidewalk Blocked",
    "date_created": "2026-04-29T14:47:32.000",
    "date_modified": "2026-04-29T14:55:36.000",
    "request_status": "Pending",
    "responsible_agency": "Department of Parks & Parkways",
    "final_address": "2941 Kent Dr",
    "address_councildis": "C",
    "status": "Pending",
    "rowid": "1277571",
    "final_x": "3708843.37803",
    "final_y": "518915.717047",
    "longitude": "-89.98219987400282",
    "latitude": "29.91997985563207",
    "geocoded_column": {
      "latitude": "29.91997985563207",
      "longitude": "-89.98219987400282"
    }
  },
  {
    "service_request": "2026-1277570",
    "request_type": "Street and Traffic Signs",
    "request_reason": "Street Name Sign Damaged or Missing",
    "date_created": "2026-04-29T14:47:25.000",
    "date_modified": "2026-04-29T14:47:27.000",
    "request_status": "Pending",
    "responsible_agency": "Department of Public Works",
    "final_address": "DREUX AVE & GALLIER DR",
    "address_councildis": "D",
    "status": "Pending",
    "rowid": "1277570",
    "final_x": "3691589.1",
    "final_y": "553240.88",
    "longitude": "-90.03543581689104",
    "latitude": "30.01491010961071",
    "geocoded_column": {
      "latitude": "30.01491010961071",
      "longitude": "-90.03543581689104"
    }
  },
  {
    "service_request": "2026-1277569",
    "request_type": "Trash/Recycling",
    "request_reason": "Replace Trash Cart",
    "date_created": "2026-04-29T14:47:01.000",
    "date_modified": "2026-04-29T14:47:02.000",
    "request_status": "Pending",
    "responsible_agency": "Department of Sanitation",
    "final_address": "2030 Burgundy St",
    "address_councildis": "C",
    "status": "Assigned to Contractor",
    "contractor": "IV Waste",
    "rowid": "1277569",
    "final_x": "3684554.94524",
    "final_y": "535514.623814",
    "longitude": "-90.05828356108412",
    "latitude": "29.966386416183127",
    "geocoded_column": {
      "latitude": "29.966386416183127",
      "longitude": "-90.05828356108412"
    }
  },
  {
    "service_request": "2026-1277568",
    "request_type": "Trash/Recycling",
    "request_reason": "Order Recycling Cart",
    "date_created": "2026-04-29T14:45:08.000",
    "date_modified": "2026-04-29T15:03:30.000",
    "request_status": "Pending",
    "responsible_agency": "Department of Sanitation",
    "final_address": "6427 St Roch Ave",
    "address_councildis": "D",
    "status": "Pending",
    "rowid": "1277568",
    "final_x": "3684940.35497",
    "final_y": "556899.664602",
    "longitude": "-90.05631379509076",
    "latitude": "30.02517581981201",
    "geocoded_column": {
      "latitude": "30.02517581981201",
      "longitude": "-90.05631379509076"
    }
  },
  {
    "service_request": "2026-1277566",
    "request_type": "Street and Traffic Signs",
    "request_reason": "Street Name Sign Damaged or Missing",
    "date_created": "2026-04-29T14:44:25.000",
    "date_modified": "2026-04-29T14:44:26.000",
    "request_status": "Pending",
    "responsible_agency": "Department of Public Works",
    "final_address": "CONGRESS DR & DEBORE CIR",
    "address_councildis": "D",
    "status": "Pending",
    "rowid": "1277566",
    "final_x": "3692127.2",
    "final_y": "552350.58",
    "longitude": "-90.03376758838908",
    "latitude": "30.01244534542712",
    "geocoded_column": {
      "latitude": "30.01244534542712",
      "longitude": "-90.03376758838908"
    }
  },