[
  {
    "service_request": "2023-999918",
    "request_type": "Traffic Signals/Signs/Striping/Streetlights",
    "request_reason": "Street Light Outage/Malfunction",
    "date_created": "2023-05-15T23:59:36.000",
    "date_modified": "2023-05-15T23:59:36.000",
    "request_status": "Pending",
    "responsible_agency": "Department of Public Works",
    "final_address": "2808 St Claude Ave",
    "address_councildis": "C",
    "status": "Assigned to Contractor",
    "contractor": "Legacy Professional Services",
    "rowid": "999918",
    "final_x": "3687794.43516",
    "final_y": "536265.975559",
    "longitude": "-90.048026713356",
    "latitude": "29.96835285436863",
    "geocoded_column": {
      "latitude": "29.96835285436863",
      "longitude": "-90.048026713356"
    }
  },
  {
    "service_request": "2023-999917",
    "request_type": "Trash/Recycling",
    "request_reason": "Request a Large Item Pick Up",
    "date_created": "2023-05-15T23:41:07.000",
    "date_modified": "2023-05-15T23:41:08.000",
    "request_status": "Pending",
    "responsible_agency": "Department of Sanitation",
    "final_address": "2820 Eagle St",
    "address_councildis": "A",
    "status": "Assigned to Contractor",
    "contractor": "Richards Disposal",
    "rowid": "999917",
    "final_x": "3664087.22208",
    "final_y": "534442.685253",
    "longitude": "-90.12295636631288",
    "latitude": "29.964049319313503",
    "geocoded_column": {
      "latitude": "29.964049319313503",
      "longitude": "-90.12295636631288"
    }
  },
  {
    "service_request": "2023-999916",
    "request_type": "Traffic Signals/Signs/Striping/Streetlights",
    "request_reason": "Street Light Outage/Malfunction",
    "date_created": "2023-05-15T23:02:29.000",
    "date_modified": "2023-05-15T23:02:30.000",
    "request_status": "Pending",
    "responsible_agency": "Department of Public Works",
    "final_address": "900 BLK Harrison Ave",
    "address_councildis": "A",
    "status": "Assigned to Contractor",
    "contractor": "Legacy Professional Services",
    "rowid": "999916",
    "final_x": "3670976.43787",
    "final_y": "549110.17683",
    "longitude": "-90.10070251602279",
    "latitude": "30.004178011375085",
    "geocoded_column": {
      "latitude": "30.004178011375085",
      "longitude": "-90.10070251602279"
    }
  },
  {
    "service_request": "2023-999915",
    "request_type": "Traffic Signals/Signs/Striping/Streetlights",
    "request_reason": "Street Light Outage/Malfunction",
    "date_created": "2023-05-15T23:01:07.000",
    "date_modified": "2023-05-15T23:01:07.000",
    "request_status": "Pending",
    "responsible_agency": "Department of Public Works",
    "final_address": "800 BLK Harrison Ave",
    "address_councildis": "A",
    "status": "Assigned to Contractor",
    "contractor": "Legacy Professional Services",
    "rowid": "999915",
    "final_x": "3669927.0689",
    "final_y": "549207.661215",
    "longitude": "-90.1040143676853",
    "latitude": "30.00447705708263",
    "geocoded_column": {
      "latitude": "30.00447705708263",
      "longitude": "-90.1040143676853"
    }
  },
  {
    "service_request": "2023-999914",
    "request_type": "Traffic Signals/Signs/Striping/Streetlights",
    "request_reason": "Street Light Outage/Malfunction",
    "date_created": "2023-05-15T22:54:02.000",
    "date_modified": "2023-05-15T22:54:03.000",
    "request_status": "Pending",
    "responsible_agency": "Department of Public Works",
    "final_address": "875 Harrison Ave",
    "address_councildis": "A",
    "status": "Assigned to Contractor",
    "contractor": "Legacy Professional Services",
    "rowid": "999914",
    "final_x": "3669950.89473",
    "final_y": "549304.567827",
    "longitude": "-90.10393581242522",
    "latitude": "30.00474281353229",
    "geocoded_column": {
      "latitude": "30.00474281353229",
      "longitude": "-90.10393581242522"
    }
  },
  {
    "service_request": "2023-999913",
    "request_type": "Roads/Drainage",
    "request_reason": "Pothole",
    "date_created": "2023-05-15T22:20:26.000",
    "date_modified": "2023-05-15T22:20:26.000",
    "request_status": "Pending",
    "responsible_agency": "Department of Public Works",
    "final_address": "ABBEY DR & CHELSEA DR",
    "address_councildis": "C",
    "status": "Pending",
    "rowid": "999913",
    "final_x": "3704222.8",
    "final_y": "521254.38",
    "longitude": "-89.99669857921536",
    "latitude": "29.92655937267095",
    "geocoded_column": {
      "latitude": "29.92655937267095",
      "longitude": "-89.99669857921536"
    }
  },
  {
    "service_request": "2023-999912",
    "request_type": "Roads/Drainage",
    "request_reason": "Pothole",
    "date_created": "2023-05-15T22:17:26.000",
    "date_modified": "2023-05-15T22:17:26.000",
    "request_status": "Pending",
    "responsible_agency": "Department of Public Works",
    "final_address": "BERTRAND ST & POYDRAS ST",
    "address_councildis": "B",
    "status": "Pending",
    "rowid": "999912",
    "final_x": "3676193.4",
    "final_y": "531004.1",
    "longitude": "-90.08484441835103",
    "latitude": "29.954237184569934",
    "geocoded_column": {
      "latitude": "29.954237184569934",
      "longitude": "-90.08484441835103"
    }
  },
  {
    "service_request": "2023-999911",
    "request_type": "Trash/Recycling",
    "request_reason": "Request a Large Item Pick Up",
    "date_created": "2023-05-15T22:14:08.000",
    "date_modified": "2023-05-15T22:14:09.000",
    "request_status": "Pending",
    "responsible_agency": "Department of Sanitation",
    "final_address": "2709 Dante St",
    "address_councildis": "A",
    "status": "Assigned to Contractor",
    "contractor": "Richards Disposal",
    "rowid": "999911",
    "final_x": "3665146.54861",
    "final_y": "532893.549188",
    "longitude": "-90.11966291019277",
    "latitude": "29.959758892483418",
    "geocoded_column": {
      "latitude": "29.959758892483418",
      "longitude": "-90.11966291019277"
    }
  },
  {
    "service_request": "2023-999910",
    "request_type": "Trash/Recycling",
    "request_reason": "Replace Recycling Cart",
    "date_created": "2023-05-15T22:06:44.000",
    "date_modified": "2023-05-15T22:06:44.000",
    "request_status": "Pending",
    "responsible_agency": "Department of Sanitation",
    "final_address": "1629 Toledano St",
    "address_councildis": "B",
    "status": "Pending",
    "rowid": "999910",
    "final_x": "3674514.39444",
    "final_y": "521996.579066",
    "longitude": "-90.09045456264599",
    "latitude": "29.929519654095575",
    "geocoded_column": {
      "latitude": "29.929519654095575",
      "longitude": "-90.09045456264599"
    }
  },
  {
    "service_request": "2023-999909",
    "request_type": "Trash/Recycling",
    "request_reason": "Repair Trash Cart",
    "date_created": "2023-05-15T22:02:16.000",
    "date_modified": "2023-05-15T22:02:17.000",
    "request_status": "Pending",
    "responsible_agency": "Department of Sanitation",
    "final_address": "835 Olga St",
    "address_councildis": "A",
    "status": "Assigned to Contractor",
    "contractor": "Richards Disposal",
    "rowid": "999909",
    "final_x": "3673300.89588",
    "final_y": "540089.353163",
    "longitude": "-90.09366743898387",
    "latitude": "29.97930491387052",
    "geocoded_column": {
      "latitude": "29.97930491387052",
      "longitude": "-90.09366743898387"
    }
  },
  {
    "service_request": "2023-999908",
    "request_type": "Trash/Recycling",
    "request_reason": "Order Recycling Cart",
    "date_created": "2023-05-15T21:54:55.000",
    "date_modified": "2023-05-15T21:54:55.000",
    "request_status": "Pending",
    "responsible_agency": "Department of Sanitation",
    "final_address": "2525 Nashville Ave",
    "address_councildis": "A",
    "status": "Pending",
    "rowid": "999908",
    "final_x": "3667281.0937",
    "final_y": "525387.052925",
    "longitude": "-90.11317488597342",
    "latitude": "29.939056128095903",
    "geocoded_column": {
      "latitude": "29.939056128095903",
      "longitude": "-90.11317488597342"
    }
  },
  {
    "service_request": "2023-999907",
    "request_type": "Traffic Signals/Signs/Striping/Streetlights",
    "request_reason": "Street Light Outage/Malfunction",
    "date_created": "2023-05-15T21:16:52.000",
    "date_modified": "2023-05-15T21:16:53.000",
    "request_status": "Pending",
    "responsible_agency": "Department of Public Works",
    "final_address": "1911 Valence St",
    "address_councildis": "B",
    "status": "Assigned to Contractor",
    "contractor": "Legacy Professional Services",
    "rowid": "999907",
    "final_x": "3669670.41735",
    "final_y": "521965.07257",
    "longitude": "-90.10574722688332",
    "latitude": "29.929576605971313",
    "geocoded_column": {
      "latitude": "29.929576605971313",
      "longitude": "-90.10574722688332"
    }
  },
  {
    "service_request": "2023-999906",
    "request_type": "Trash/Recycling",
    "request_reason": "Request a Large Item Pick Up",
    "date_created": "2023-05-15T21:13:36.000",
    "date_modified": "2023-05-15T21:13:37.000",
    "request_status": "Pending",
    "responsible_agency": "Department of Sanitation",
    "final_address": "4119 Walmsley Ave",
    "address_councildis": "B",
    "status": "Assigned to Contractor",
    "contractor": "Richards Disposal",
    "rowid": "999906",
    "final_x": "3670284.97959",
    "final_y": "529679.956417",
    "longitude": "-90.1035457714537",
    "latitude": "29.9507719180585",
    "geocoded_column": {
      "latitude": "29.9507719180585",
      "longitude": "-90.1035457714537"
    }
  },
  {
    "service_request": "2023-999905",
    "request_type": "Traffic Signals/Signs/Striping/Streetlights",
    "request_reason": "Street Light Outage/Malfunction",
    "date_created": "2023-05-15T20:29:16.000",
    "date_modified": "2023-05-15T20:29:17.000",
    "request_status": "Pending",
    "responsible_agency": "Department of Public Works",
    "final_address": "1738 Washington Ave",
    "address_councildis": "B",
    "status": "Assigned to Contractor",
    "contractor": "Legacy Professional Services",
    "rowid": "999905",
    "final_x": "3675496.46638",
    "final_y": "523093.750843",
    "longitude": "-90.08731667282359",
    "latitude": "29.932507192758187",
    "geocoded_column": {
      "latitude": "29.932507192758187",
      "longitude": "-90.08731667282359"
    }
  },
  {
    "service_request": "2023-999904",
    "request_type": "Trash/Recycling",
    "request_reason": "Request a Large Item Pick Up",
    "date_created": "2023-05-15T20:02:46.000",
    "date_modified": "2023-05-15T20:02:46.000",
    "request_status": "Pending",
    "responsible_agency": "Department of Sanitation",
    "final_address": "7400 Canal Blvd",
    "address_councildis": "D",
    "status": "Assigned to Contractor",
    "contractor": "IV Waste",
    "rowid": "999904",
    "final_x": "3669127.13985",
    "final_y": "556060.144857",
    "longitude": "-90.10630968235094",
    "latitude": "30.02334254350494",
    "geocoded_column": {
      "latitude": "30.02334254350494",
      "longitude": "-90.10630968235094"
    }
  },
  {
    "service_request": "2023-999903",
    "request_type": "Abandoned Vehicles",
    "request_reason": "Abandoned/Junk Vehicles",
    "date_created": "2023-05-15T19:45:32.000",
    "date_modified": "2023-05-15T19:45:32.000",
    "request_status": "Pending",
    "responsible_agency": "Department of Public Works",
    "final_address": "2009 Josephine St",
    "address_councildis": "B",
    "status": "Pending",
    "rowid": "999903",
    "final_x": "3676912.33256",
    "final_y": "525300.132605",
    "longitude": "-90.0827708844359",
    "latitude": "29.938531608162933",
    "geocoded_column": {
      "latitude": "29.938531608162933",
      "longitude": "-90.0827708844359"
    }
  },
  {
    "service_request": "2023-999902",
    "request_type": "Trash/Recycling",
    "request_reason": "Request a Large Item Pick Up",
    "date_created": "2023-05-15T19:32:39.000",
    "date_modified": "2023-05-15T19:32:40.000",
    "request_status": "Pending",
    "responsible_agency": "Department of Sanitation",
    "final_address": "6409 Ivory St",
    "address_councildis": "C",
    "status": "Assigned to Contractor",
    "contractor": "Richards Disposal",
    "rowid": "999902",
    "final_x": "3707908.96433",
    "final_y": "518901.113207",
    "longitude": "-89.9851498821586",
    "latitude": "29.919969963667942",
    "geocoded_column": {
      "latitude": "29.919969963667942",
      "longitude": "-89.9851498821586"
    }
  },
  {
    "service_request": "2023-999901",
    "request_type": "Trash/Recycling",
    "request_reason": "Report a Missed Trash/Recycling Pick Up",
    "date_created": "2023-05-15T19:09:42.000",
    "date_modified": "2023-05-15T19:09:42.000",
    "request_status": "Pending",
    "responsible_agency": "Department of Sanitation",
    "final_address": "2432 Onzaga St",
    "address_councildis": "D",
    "contractor": "IV Waste",
    "rowid": "999901",
    "final_x": "3679921.50984",
    "final_y": "539929.300554",
    "longitude": "-90.07276250098178",
    "latitude": "29.978666213267473",
    "geocoded_column": {
      "latitude": "29.978666213267473",
      "longitude": "-90.07276250098178"
    }
  },
  {
    "service_request": "2023-999900",
    "request_type": "Trash/Recycling",
    "request_reason": "Replace Trash Cart",
    "date_created": "2023-05-15T19:02:27.000",
    "date_modified": "2023-05-15T19:02:28.000",
    "request_status": "Pending",
    "responsible_agency": "Department of Sanitation",
    "final_address": "4006 DHemecourt St",
    "address_councildis": "A",
    "status": "Assigned to Contractor",
    "contractor": "Richards Disposal",
    "rowid": "999900",
    "final_x": "3670145.84679",
    "final_y": "536532.667975",
    "longitude": "-90.10375289624308",
    "latitude": "29.96961870814481",
    "geocoded_column": {
      "latitude": "29.96961870814481",
      "longitude": "-90.10375289624308"
    }
  },
  {
    "service_request": "2023-999899",
    "request_type": "Trash/Recycling",
    "request_reason": "Order Recycling Cart",
    "date_created": "2023-05-15T18:52:17.000",
    "date_modified": "2023-05-15T18:52:17.000",
    "request_status": "Pending",
    "responsible_agency": "Department of Sanitation",
    "final_address": "336 Elmira Ave",
    "address_councildis": "C",
    "status": "Pending",
    "rowid": "999899",
    "final_x": "3688273.51228",
    "final_y": "530449.455874",
    "longitude": "-90.0467200249357",
    "latitude": "29.952344656652205",
    "geocoded_column": {
      "latitude": "29.952344656652205",
      "longitude": "-90.0467200249357"
    }
  },
  {
    "service_request": "2023-999898",
    "request_type": "Trash/Recycling",
    "request_reason": "Replace Trash Cart",
    "date_created": "2023-05-15T18:45:29.000",
    "date_modified": "2023-05-15T18:45:30.000",
    "request_status": "Pending",
    "responsible_agency": "Department of Sanitation",
    "final_address": "2224 Pine St",
    "address_councildis": "A",
    "status": "Assigned to Contractor",
    "contractor": "Richards Disposal",
    "rowid": "999898",
    "final_x": "3665976.46202",
    "final_y": "529795.747137",
    "longitude": "-90.11714604753006",
    "latitude": "29.951216750981523",
    "geocoded_column": {
      "latitude": "29.951216750981523",
      "longitude": "-90.11714604753006"
    }
  },
  {
    "service_request": "2023-999897",
    "request_type": "Trash/Recycling",
    "request_reason": "MIssed Recycling Pick-Up",
    "date_created": "2023-05-15T18:14:46.000",
    "date_modified": "2023-05-15T18:14:46.000",
    "request_status": "Pending",
    "responsible_agency": "Department of Sanitation",
    "final_address": "503 Adams St",
    "address_councildis": "A",
    "status": "Assigned to Contractor",
    "contractor": "Richards Disposal",
    "rowid": "999897",
    "final_x": "3661475.0439",
    "final_y": "525580.799677",
    "longitude": "-90.13149896132471",
    "latitude": "29.93975759526717",
    "geocoded_column": {
      "latitude": "29.93975759526717",
      "longitude": "-90.13149896132471"
    }
  },
  {
    "service_request": "2023-999896",
    "request_type": "Trash/Recycling",
    "request_reason": "Repair Trash Cart",
    "date_created": "2023-05-15T18:13:01.000",
    "date_modified": "2023-05-15T18:13:01.000",
    "request_status": "Pending",
    "responsible_agency": "Department of Sanitation",
    "final_address": "1305 Seventh St",
    "address_councildis": "B",
    "status": "Assigned to Contractor",
    "contractor": "Richards Disposal",
    "rowid": "999896",
    "final_x": "3675977.65883",
    "final_y": "521036.500601",
    "longitude": "-90.08586829442459",
    "latitude": "29.9268360262078",
    "geocoded_column": {
      "latitude": "29.9268360262078",
      "longitude": "-90.08586829442459"
    }
  },
  {
    "service_request": "2023-999895",
    "request_type": "Trash/Recycling",
    "request_reason": "Request a Large Item Pick Up",
    "date_created": "2023-05-15T17:57:13.000",
    "date_modified": "2023-05-15T17:57:14.000",
    "request_status": "Pending",
    "responsible_agency": "Department of Sanitation",
    "final_address": "7041 Roy St",
    "address_councildis": "A",
    "status": "Assigned to Contractor",
    "contractor": "IV Waste",
    "rowid": "999895",
    "final_x": "3665248.19085",
    "final_y": "554580.417304",
    "longitude": "-90.11861595719427",
    "latitude": "30.01938745815265",
    "geocoded_column": {
      "latitude": "30.01938745815265",
      "longitude": "-90.11861595719427"
    }
  },
  {
    "service_request": "2023-999894",
    "request_type": "Trash/Recycling",
    "request_reason": "Request a Large Item Pick Up",
    "date_created": "2023-05-15T17:56:27.000",
    "date_modified": "2023-05-15T17:56:28.000",
    "request_status": "Pending",
    "responsible_agency": "Department of Sanitation",
    "final_address": "6736 Canal Blvd",
    "address_councildis": "A",
    "status": "Assigned to Contractor",
    "contractor": "IV Waste",
    "rowid": "999894",
    "final_x": "3668803.92993",
    "final_y": "552329.097494",
    "longitude": "-90.10745708845313",
    "latitude": "30.01309299800711",
    "geocoded_column": {
      "latitude": "30.01309299800711",
      "longitude": "-90.10745708845313"
    }
  },
  {
    "service_request": "2023-999893",
    "request_type": "Property Maintenance",
    "request_reason": "Property Maintenance",
    "date_created": "2023-05-15T17:48:25.000",
    "date_modified": "2023-05-15T17:48:25.000",
    "request_status": "Pending",
    "responsible_agency": "Department of Code Enforcement",
    "final_address": "1715 Annette St",
    "address_councildis": "D",
    "status": "Pending",
    "rowid": "999893",
    "final_x": "3682991.60642",
    "final_y": "538512.856713",
    "longitude": "-90.06311559386236",
    "latitude": "29.9746782598321",
    "geocoded_column": {
      "latitude": "29.9746782598321",
      "longitude": "-90.06311559386236"
    }
  },
  {
    "service_request": "2023-999892",
    "request_type": "Roads/Drainage",
    "request_reason": "Street Subsidence (Sinking)",
    "date_created": "2023-05-15T17:40:45.000",
    "date_modified": "2023-05-15T17:40:45.000",
    "request_status": "Pending",
    "responsible_agency": "Department of Public Works",
    "final_address": "340 S Broad St",
    "address_councildis": "B",
    "status": "Pending",
    "rowid": "999892",
    "final_x": "3674781.94472",
    "final_y": "534122.372997",
    "longitude": "-90.08919432607013",
    "latitude": "29.962853603224207",
    "geocoded_column": {
      "latitude": "29.962853603224207",
      "longitude": "-90.08919432607013"
    }
  },
  {
    "service_request": "2023-999891",
    "request_type": "Trash/Recycling",
    "request_reason": "Request a Large Item Pick Up",
    "date_created": "2023-05-15T17:25:13.000",
    "date_modified": "2023-05-15T17:25:14.000",
    "request_status": "Pending",
    "responsible_agency": "Department of Sanitation",
    "final_address": "5621 Laurel St",
    "address_councildis": "A",
    "status": "Assigned to Contractor",
    "contractor": "Richards Disposal",
    "rowid": "999891",
    "final_x": "3665718.13581",
    "final_y": "517947.415862",
    "longitude": "-90.11835840121674",
    "latitude": "29.918645150053717",
    "geocoded_column": {
      "latitude": "29.918645150053717",
      "longitude": "-90.11835840121674"
    }
  },
  {
    "service_request": "2023-999889",
    "request_type": "Parks & Parkways",
    "request_reason": "Request Tree Service (Right of Way/Public Property)",
    "date_created": "2023-05-15T17:19:40.000",
    "date_modified": "2023-05-15T17:19:40.000",
    "request_status": "Pending",
    "responsible_agency": "Department of Parks & Parkway",
    "final_address": "10100 Flossmoor Dr",
    "address_councildis": "E",
    "status": "Pending",
    "rowid": "999889",
    "final_x": "3709501.43902",
    "final_y": "563413.76944",
    "longitude": "-89.9784618974459",
    "latitude": "30.042311505955645",
    "geocoded_column": {
      "latitude": "30.042311505955645",
      "longitude": "-89.9784618974459"
    }
  },
  {
    "service_request": "2023-999888",
    "request_type": "Trash/Recycling",
    "request_reason": "Request a Large Item Pick Up",
    "date_created": "2023-05-15T17:09:42.000",
    "date_modified": "2023-05-15T17:09:43.000",
    "request_status": "Pending",
    "responsible_agency": "Department of Sanitation",
    "final_address": "5560 Bullard Ave",
    "address_councildis": "E",
    "status": "Assigned to Contractor",
    "contractor": "Waste Pro",
    "rowid": "999888",
    "final_x": "3717234.16146",
    "final_y": "561683.195103",
    "longitude": "-89.95408961262913",
    "latitude": "30.0372994534601",
    "geocoded_column": {
      "latitude": "30.0372994534601",
      "longitude": "-89.95408961262913"
    }
  },
  {
    "service_request": "2023-999887",
    "request_type": "Trash/Recycling",
    "request_reason": "Request a Large Item Pick Up",
    "date_created": "2023-05-15T17:08:24.000",
    "date_modified": "2023-05-15T17:08:25.000",
    "request_status": "Pending",
    "responsible_agency": "Department of Sanitation",
    "final_address": "6157 Louisville St",
    "address_councildis": "A",
    "status": "Assigned to Contractor",
    "contractor": "IV Waste",
    "rowid": "999887",
    "final_x": "3667936.25927",
    "final_y": "548425.84053",
    "longitude": "-90.11033009824266",
    "latitude": "30.002385899699107",
    "geocoded_column": {
      "latitude": "30.002385899699107",
      "longitude": "-90.11033009824266"
    }
  },
  {
    "service_request": "2023-999886",
    "request_type": "Trash/Recycling",
    "request_reason": "Repair Trash Cart",
    "date_created": "2023-05-15T17:07:04.000",
    "date_modified": "2023-05-15T17:07:05.000",
    "request_status": "Pending",
    "responsible_agency": "Department of Sanitation",
    "final_address": "1318 Governor Nicholls St",
    "address_councildis": "C",
    "status": "Assigned to Contractor",
    "contractor": "Richards Disposal",
    "rowid": "999886",
    "final_x": "3681782.68911",
    "final_y": "535366.45895",
    "longitude": "-90.06704346710364",
    "latitude": "29.96606354575018",
    "geocoded_column": {
      "latitude": "29.96606354575018",
      "longitude": "-90.06704346710364"
    }
  },
  {
    "service_request": "2023-999885",
    "request_type": "Trash/Recycling",
    "request_reason": "Repair Trash Cart",
    "date_created": "2023-05-15T17:06:49.000",
    "date_modified": "2023-05-15T17:06:50.000",
    "request_status": "Pending",
    "responsible_agency": "Department of Sanitation",
    "final_address": "1316 Governor Nicholls St",
    "address_councildis": "C",
    "status": "Assigned to Contractor",
    "contractor": "Richards Disposal",
    "rowid": "999885",
    "final_x": "3681796.02248",
    "final_y": "535358.542278",
    "longitude": "-90.06700163699267",
    "latitude": "29.966041372453233",
    "geocoded_column": {
      "latitude": "29.966041372453233",
      "longitude": "-90.06700163699267"
    }
  },
  {
    "service_request": "2023-999884",
    "request_type": "Trash/Recycling",
    "request_reason": "Request a Large Item Pick Up",
    "date_created": "2023-05-15T16:51:35.000",
    "date_modified": "2023-05-15T16:51:36.000",
    "request_status": "Pending",
    "responsible_agency": "Department of Sanitation",
    "final_address": "7454 General Haig St",
    "address_councildis": "D",
    "status": "Assigned to Contractor",
    "contractor": "IV Waste",
    "rowid": "999884",
    "final_x": "3671188.74452",
    "final_y": "555927.173529",
    "longitude": "-90.09979995590288",
    "latitude": "30.022916055947743",
    "geocoded_column": {
      "latitude": "30.022916055947743",
      "longitude": "-90.09979995590288"
    }
  },
  {
    "service_request": "2023-999883",
    "request_type": "Trash/Recycling",
    "request_reason": "MIssed Recycling Pick-Up",
    "date_created": "2023-05-15T16:51:30.000",
    "date_modified": "2023-05-15T16:51:31.000",
    "request_status": "Pending",
    "responsible_agency": "Department of Sanitation",
    "final_address": "708 Thayer St",
    "address_councildis": "C",
    "status": "Assigned to Contractor",
    "contractor": "Richards Disposal",
    "rowid": "999883",
    "final_x": "3689534.17615",
    "final_y": "528912.367808",
    "longitude": "-90.04279410376016",
    "latitude": "29.94807921014022",
    "geocoded_column": {
      "latitude": "29.94807921014022",
      "longitude": "-90.04279410376016"
    }
  },
  {
    "service_request": "2023-999882",
    "request_type": "Roads/Drainage",
    "request_reason": "Street Subsidence (Sinking)",
    "date_created": "2023-05-15T16:46:53.000",
    "date_modified": "2023-05-15T16:46:53.000",
    "request_status": "Pending",
    "responsible_agency": "Department of Public Works",
    "final_address": "PAUGER ST & SERE ST",
    "address_councildis": "D",
    "status": "Pending",
    "rowid": "999882",
    "final_x": "3683090.6",
    "final_y": "545786.88",
    "longitude": "-90.06254816615547",
    "latitude": "29.994676245810982",
    "geocoded_column": {
      "latitude": "29.994676245810982",
      "longitude": "-90.06254816615547"
    }
  },
  {
    "service_request": "2023-999881",
    "request_type": "Trash/Recycling",
    "request_reason": "Request a Large Item Pick Up",
    "date_created": "2023-05-15T16:46:44.000",
    "date_modified": "2023-05-15T16:46:44.000",
    "request_status": "Pending",
    "responsible_agency": "Department of Sanitation",
    "final_address": "925 Washington Ave",
    "address_councildis": "B",
    "status": "Assigned to Contractor",
    "contractor": "Richards Disposal",
    "rowid": "999881",
    "final_x": "3677367.10568",
    "final_y": "520428.266104",
    "longitude": "-90.08150315515392",
    "latitude": "29.925121912022405",
    "geocoded_column": {
      "latitude": "29.925121912022405",
      "longitude": "-90.08150315515392"
    }
  },
  {
    "service_request": "2023-999880",
    "request_type": "Roads/Drainage",
    "request_reason": "Pothole",
    "date_created": "2023-05-15T16:46:01.000",
    "date_modified": "2023-05-15T16:46:01.000",
    "request_status": "Pending",
    "responsible_agency": "Department of Public Works",
    "final_address": "HAMILTON ST & APPLE ST",
    "address_councildis": "A",
    "status": "Pending",
    "rowid": "999880",
    "final_x": "3662743.2",
    "final_y": "534478.88",
    "longitude": "-90.1271994854118",
    "latitude": "29.964187812128873",
    "geocoded_column": {
      "latitude": "29.964187812128873",
      "longitude": "-90.1271994854118"
    }
  },
  {
    "service_request": "2023-999879",
    "request_type": "Roads/Drainage",
    "request_reason": "Accessibility Ramps, Curbs and Sidewalk Repair",
    "date_created": "2023-05-15T16:43:28.000",
    "date_modified": "2023-05-15T16:43:28.000",
    "request_status": "Pending",
    "responsible_agency": "Department of Public Works",
    "final_address": " & BALDWIN ST",
    "address_councildis": "D",
    "status": "Pending",
    "rowid": "999879",
    "final_x": "3687880.8",
    "final_y": "560035.64",
    "longitude": "-90.04691121641319",
    "latitude": "30.03370814054373",
    "geocoded_column": {
      "latitude": "30.03370814054373",
      "longitude": "-90.04691121641319"
    }
  },
  {
    "service_request": "2023-999878",
    "request_type": "Trash/Recycling",
    "request_reason": "Repair Trash Cart",
    "date_created": "2023-05-15T16:40:34.000",
    "date_modified": "2023-05-15T16:40:35.000",
    "request_status": "Pending",
    "responsible_agency": "Department of Sanitation",
    "final_address": "1441 Cabrini Ct",
    "address_councildis": "D",
    "status": "Assigned to Contractor",
    "contractor": "IV Waste",
    "rowid": "999878",
    "final_x": "3678144.17998",
    "final_y": "553099.483223",
    "longitude": "-90.0779202328844",
    "latitude": "30.014933212010156",
    "geocoded_column": {
      "latitude": "30.014933212010156",
      "longitude": "-90.0779202328844"
    }
  },
  {
    "service_request": "2023-999877",
    "request_type": "Trash/Recycling",
    "request_reason": "Replace Trash Cart",
    "date_created": "2023-05-15T16:39:46.000",
    "date_modified": "2023-05-15T16:39:47.000",
    "request_status": "Pending",
    "responsible_agency": "Department of Sanitation",
    "final_address": "1524 Euterpe St",
    "address_councildis": "B",
    "status": "Assigned to Contractor",
    "contractor": "Richards Disposal",
    "rowid": "999877",
    "final_x": "3679110.07138",
    "final_y": "524831.1879",
    "longitude": "-90.075848643482",
    "latitude": "29.937176028726743",
    "geocoded_column": {
      "latitude": "29.937176028726743",
      "longitude": "-90.075848643482"
    }
  },
  {
    "service_request": "2023-999876",
    "request_type": "Abandoned Vehicles",
    "request_reason": "Abandoned/Junk Vehicles",
    "date_created": "2023-05-15T16:34:44.000",
    "date_modified": "2023-05-15T16:39:23.000",
    "request_status": "Pending",
    "responsible_agency": "Department of Public Works",
    "final_address": "MELPOMENE ST & ANNUNCIATION ST",
    "address_councildis": "B",
    "status": "Pending",
    "rowid": "999876",
    "final_x": "3681272.5",
    "final_y": "524691.68",
    "longitude": "-90.06902658979406",
    "latitude": "29.936726998127217",
    "geocoded_column": {
      "latitude": "29.936726998127217",
      "longitude": "-90.06902658979406"
    }
  },
  {
    "service_request": "2023-999874",
    "request_type": "Traffic Signals/Signs/Striping/Streetlights",
    "request_reason": "Street Light Outage/Malfunction",
    "date_created": "2023-05-15T16:28:30.000",
    "date_modified": "2023-05-15T16:28:31.000",
    "request_status": "Pending",
    "responsible_agency": "Department of Public Works",
    "final_address": "712 N Tonti St",
    "address_councildis": "D",
    "status": "Assigned to Contractor",
    "contractor": "Legacy Professional Services",
    "rowid": "999874",
    "final_x": "3677839.75118",
    "final_y": "536101.025927",
    "longitude": "-90.07946978458753",
    "latitude": "29.968202579717573",
    "geocoded_column": {
      "latitude": "29.968202579717573",
      "longitude": "-90.07946978458753"
    }
  },
  {
    "service_request": "2023-999873",
    "request_type": "Trash/Recycling",
    "request_reason": "Missed Trash Pick-Up",
    "date_created": "2023-05-15T16:28:18.000",
    "date_modified": "2023-05-15T16:28:18.000",
    "request_status": "Pending",
    "responsible_agency": "Department of Sanitation",
    "final_address": " & FOREST ISLE DR",
    "address_councildis": "C",
    "status": "Assigned to Contractor",
    "contractor": "Richards Disposal",
    "rowid": "999873",
    "final_x": "3705876.93",
    "final_y": "512778.89",
    "longitude": "-89.99179023228741",
    "latitude": "29.903201541007117",
    "geocoded_column": {
      "latitude": "29.903201541007117",
      "longitude": "-89.99179023228741"
    }
  },
  {
    "service_request": "2023-999872",
    "request_type": "Trash/Recycling",
    "request_reason": "Request a Large Item Pick Up",
    "date_created": "2023-05-15T16:25:37.000",
    "date_modified": "2023-05-15T16:25:38.000",
    "request_status": "Pending",
    "responsible_agency": "Department of Sanitation",
    "final_address": "4219 Elba St",
    "address_councildis": "B",
    "status": "Assigned to Contractor",
    "contractor": "Richards Disposal",
    "rowid": "999872",
    "final_x": "3670220.33601",
    "final_y": "530157.713473",
    "longitude": "-90.10373369564029",
    "latitude": "29.952087500698163",
    "geocoded_column": {
      "latitude": "29.952087500698163",
      "longitude": "-90.10373369564029"
    }
  },
  {
    "service_request": "2023-999871",
    "request_type": "Trash/Recycling",
    "request_reason": "Request a Large Item Pick Up",
    "date_created": "2023-05-15T16:25:19.000",
    "date_modified": "2023-05-15T16:25:20.000",
    "request_status": "Pending",
    "responsible_agency": "Department of Sanitation",
    "final_address": "7416 Dogwood Dr",
    "address_councildis": "E",
    "status": "Assigned to Contractor",
    "contractor": "Waste Pro",
    "rowid": "999871",
    "final_x": "3701438.51095",
    "final_y": "560431.303326",
    "longitude": "-90.00405305985794",
    "latitude": "30.03437056845955",
    "geocoded_column": {
      "latitude": "30.03437056845955",
      "longitude": "-90.00405305985794"
    }
  },
  {
    "service_request": "2023-999870",
    "request_type": "Roads/Drainage",
    "request_reason": "Catch Basin - Clogged",
    "date_created": "2023-05-15T16:21:08.000",
    "date_modified": "2023-05-15T16:21:08.000",
    "request_status": "Pending",
    "responsible_agency": "Department of Public Works",
    "final_address": "MILNE BLVD & POLK ST",
    "address_councildis": "A",
    "status": "Pending",
    "rowid": "999870",
    "final_x": "3667046.6",
    "final_y": "547410.78",
    "longitude": "-90.11317479952955",
    "latitude": "29.999620913791784",
    "geocoded_column": {
      "latitude": "29.999620913791784",
      "longitude": "-90.11317479952955"
    }
  },
  {
    "service_request": "2023-999869",
    "request_type": "Trash/Recycling",
    "request_reason": "Request a Large Item Pick Up",
    "date_created": "2023-05-15T16:19:50.000",
    "date_modified": "2023-05-15T16:19:50.000",
    "request_status": "Pending",
    "responsible_agency": "Department of Sanitation",
    "final_address": "728 Marigny St",
    "address_councildis": "C",
    "status": "Assigned to Contractor",
    "contractor": "IV Waste",
    "rowid": "999869",
    "final_x": "3685482.19292",
    "final_y": "535135.428742",
    "longitude": "-90.05536868856711",
    "latitude": "29.965315357354065",
    "geocoded_column": {
      "latitude": "29.965315357354065",
      "longitude": "-90.05536868856711"
    }
  },
  {
    "service_request": "2023-999868",
    "request_type": "Roads/Drainage",
    "request_reason": "Catch Basin - Clogged",
    "date_created": "2023-05-15T16:18:40.000",
    "date_modified": "2023-05-15T16:18:40.000",
    "request_status": "Pending",
    "responsible_agency": "Department of Public Works",
    "final_address": "MILNE BLVD & POLK AVE",
    "address_councildis": "A",
    "status": "Pending",
    "rowid": "999868",
    "final_x": "3667056.4",
    "final_y": "547550.28",
    "longitude": "-90.11313914803439",
    "latitude": "30.000004203715985",
    "geocoded_column": {
      "latitude": "30.000004203715985",
      "longitude": "-90.11313914803439"
    }
  },
  {
    "service_request": "2023-999867",
    "request_type": "Abandoned Vehicles",
    "request_reason": "Abandoned/Junk Vehicles",
    "date_created": "2023-05-15T16:18:15.000",
    "date_modified": "2023-05-15T16:18:15.000",
    "request_status": "Pending",
    "responsible_agency": "Department of Public Works",
    "final_address": "877 Navarre St",
    "address_councildis": "A",
    "status": "Pending",
    "rowid": "999867",
    "final_x": "3669336.04634",
    "final_y": "543821.625998",
    "longitude": "-90.10606377344558",
    "latitude": "29.989684744054895",
    "geocoded_column": {
      "latitude": "29.989684744054895",
      "longitude": "-90.10606377344558"
    }
  },
  {
    "service_request": "2023-999866",
    "request_type": "Trash/Recycling",
    "request_reason": "Repair Trash Cart",
    "date_created": "2023-05-15T16:16:32.000",
    "date_modified": "2023-05-15T16:16:33.000",
    "request_status": "Pending",
    "responsible_agency": "Department of Sanitation",
    "final_address": "4842 Constance St",
    "address_councildis": "B",
    "status": "Assigned to Contractor",
    "contractor": "Richards Disposal",
    "rowid": "999866",
    "final_x": "3669241.16673",
    "final_y": "518194.04159",
    "longitude": "-90.1072296814342",
    "latitude": "29.919220106067993",
    "geocoded_column": {
      "latitude": "29.919220106067993",
      "longitude": "-90.1072296814342"
    }
  },
  {
    "service_request": "2023-999865",
    "request_type": "Trash/Recycling",
    "request_reason": "Request a Large Item Pick Up",
    "date_created": "2023-05-15T16:16:14.000",
    "date_modified": "2023-05-15T16:16:14.000",
    "request_status": "Pending",
    "responsible_agency": "Department of Sanitation",
    "final_address": "4214 Loyola Ave",
    "address_councildis": "B",
    "status": "Assigned to Contractor",
    "contractor": "Richards Disposal",
    "rowid": "999865",
    "final_x": "3671262.69697",
    "final_y": "523023.309691",
    "longitude": "-90.1006847372496",
    "latitude": "29.93243941580251",
    "geocoded_column": {
      "latitude": "29.93243941580251",
      "longitude": "-90.1006847372496"
    }
  },
  {
    "service_request": "2023-999864",
    "request_type": "Trash/Recycling",
    "request_reason": "Request a Large Item Pick Up",
    "date_created": "2023-05-15T16:13:11.000",
    "date_modified": "2023-05-15T16:13:11.000",
    "request_status": "Pending",
    "responsible_agency": "Department of Sanitation",
    "final_address": "4323 Vixen St",
    "address_councildis": "C",
    "status": "Assigned to Contractor",
    "contractor": "Richards Disposal",
    "rowid": "999864",
    "final_x": "3699517.86109",
    "final_y": "520650.359673",
    "longitude": "-90.01157267668405",
    "latitude": "29.925048597446466",
    "geocoded_column": {
      "latitude": "29.925048597446466",
      "longitude": "-90.01157267668405"
    }
  },
  {
    "service_request": "2023-999863",
    "request_type": "Roads/Drainage",
    "request_reason": "Street Subsidence (Sinking)",
    "date_created": "2023-05-15T16:12:06.000",
    "date_modified": "2023-05-15T16:12:07.000",
    "request_status": "Pending",
    "responsible_agency": "Department of Public Works",
    "final_address": "CROWDER BLVD & DWYER RD",
    "address_councildis": "E",
    "status": "Pending",
    "rowid": "999863",
    "final_x": "3706337.9",
    "final_y": "556796.57",
    "longitude": "-89.98870523707355",
    "latitude": "30.024219281691163",
    "geocoded_column": {
      "latitude": "30.024219281691163",
      "longitude": "-89.98870523707355"
    }
  },
  {
    "service_request": "2023-999861",
    "request_type": "Trash/Recycling",
    "request_reason": "Repair Trash Cart",
    "date_created": "2023-05-15T16:08:00.000",
    "date_modified": "2023-05-15T16:08:08.000",
    "request_status": "Pending",
    "responsible_agency": "Department of Sanitation",
    "final_address": "4401 Lancelot Dr",
    "address_councildis": "E",
    "status": "Assigned to Contractor",
    "contractor": "Waste Pro",
    "rowid": "999861",
    "final_x": "3707712.73028",
    "final_y": "553584.121687",
    "longitude": "-89.98448055681503",
    "latitude": "30.015341863070322",
    "geocoded_column": {
      "latitude": "30.015341863070322",
      "longitude": "-89.98448055681503"
    }
  },
  {
    "service_request": "2023-999860",
    "request_type": "Trash/Recycling",
    "request_reason": "Change Size of Trash Cart",
    "date_created": "2023-05-15T16:07:50.000",
    "date_modified": "2023-05-15T16:08:10.000",
    "request_status": "Pending",
    "responsible_agency": "Department of Sanitation",
    "final_address": "529 Webster St",
    "address_councildis": "A",
    "status": "Assigned to Contractor",
    "contractor": "Richards Disposal",
    "rowid": "999860",
    "final_x": "3663867.72263",
    "final_y": "518637.648439",
    "longitude": "-90.12417621854532",
    "latitude": "29.920596895303127",
    "geocoded_column": {
      "latitude": "29.920596895303127",
      "longitude": "-90.12417621854532"
    }
  },
  {
    "service_request": "2023-999859",
    "request_type": "Trash/Recycling",
    "request_reason": "Change Size of Trash Cart",
    "date_created": "2023-05-15T16:07:26.000",
    "date_modified": "2023-05-15T16:08:01.000",
    "request_status": "Pending",
    "responsible_agency": "Department of Sanitation",
    "final_address": "531 Webster St",
    "address_councildis": "A",
    "status": "Assigned to Contractor",
    "contractor": "Richards Disposal",
    "rowid": "999859",
    "final_x": "3663875.01427",
    "final_y": "518653.273463",
    "longitude": "-90.12415268164203",
    "latitude": "29.92063964766928",
    "geocoded_column": {
      "latitude": "29.92063964766928",
      "longitude": "-90.12415268164203"
    }
  },
  {
    "service_request": "2023-999858",
    "request_type": "Trash/Recycling",
    "request_reason": "Request a Large Item Pick Up",
    "date_created": "2023-05-15T16:06:30.000",
    "date_modified": "2023-05-15T16:06:49.000",
    "request_status": "Pending",
    "responsible_agency": "Department of Sanitation",
    "final_address": "7028 Lake Willow Dr",
    "address_councildis": "E",
    "status": "Assigned to Contractor",
    "contractor": "Waste Pro",
    "rowid": "999858",
    "final_x": "3702337.71069",
    "final_y": "558895.66166",
    "longitude": "-90.00126790066801",
    "latitude": "30.030119437590105",
    "geocoded_column": {
      "latitude": "30.030119437590105",
      "longitude": "-90.00126790066801"
    }
  },
  {
    "service_request": "2023-999857",
    "request_type": "Trash/Recycling",
    "request_reason": "Repair Trash Cart",
    "date_created": "2023-05-15T16:04:49.000",
    "date_modified": "2023-05-15T16:06:25.000",
    "request_status": "Pending",
    "responsible_agency": "Department of Sanitation",
    "final_address": "1125 Fourth St",
    "address_councildis": "B",
    "status": "Assigned to Contractor",
    "contractor": "Richards Disposal",
    "rowid": "999857",
    "final_x": "3677247.06658",
    "final_y": "521205.116985",
    "longitude": "-90.08185529680398",
    "latitude": "29.927261605171573",
    "geocoded_column": {
      "latitude": "29.927261605171573",
      "longitude": "-90.08185529680398"
    }
  },
  {
    "service_request": "2023-999856",
    "request_type": "Trash/Recycling",
    "request_reason": "Request a Large Item Pick Up",
    "date_created": "2023-05-15T16:02:51.000",
    "date_modified": "2023-05-15T16:02:52.000",
    "request_status": "Pending",
    "responsible_agency": "Department of Sanitation",
    "final_address": "3131 N Claiborne Ave",
    "address_councildis": "D",
    "status": "Assigned to Contractor",
    "contractor": "IV Waste",
    "rowid": "999856",
    "final_x": "3689722.52201",
    "final_y": "537846.341001",
    "longitude": "-90.04188149365038",
    "latitude": "29.97263869383489",
    "geocoded_column": {
      "latitude": "29.97263869383489",
      "longitude": "-90.04188149365038"
    }
  },
  {
    "service_request": "2023-999855",
    "request_type": "Trash/Recycling",
    "request_reason": "Order Recycling Cart",
    "date_created": "2023-05-15T15:59:59.000",
    "date_modified": "2023-05-15T16:00:53.000",
    "request_status": "Pending",
    "responsible_agency": "Department of Sanitation",
    "final_address": "6050 Chestnut St",
    "address_councildis": "A",
    "status": "Pending",
    "rowid": "999855",
    "final_x": "3664529.75725",
    "final_y": "519895.110968",
    "longitude": "-90.1220445138364",
    "latitude": "29.924035297418104",
    "geocoded_column": {
      "latitude": "29.924035297418104",
      "longitude": "-90.1220445138364"
    }
  },
  {
    "service_request": "2023-999853",
    "request_type": "Trash/Recycling",
    "request_reason": "Order Trash Cart",
    "date_created": "2023-05-15T15:58:09.000",
    "date_modified": "2023-05-15T15:59:14.000",
    "request_status": "Pending",
    "responsible_agency": "Department of Sanitation",
    "final_address": "6050 Chestnut St",
    "address_councildis": "A",
    "status": "Assigned to Contractor",
    "contractor": "Richards Disposal",
    "rowid": "999853",
    "final_x": "3664529.75725",
    "final_y": "519895.110968",
    "longitude": "-90.1220445138364",
    "latitude": "29.924035297418104",
    "geocoded_column": {
      "latitude": "29.924035297418104",
      "longitude": "-90.1220445138364"
    }
  },
  {
    "service_request": "2023-999852",
    "request_type": "Abandoned Vehicles",
    "request_reason": "Abandoned/Junk Vehicles",
    "date_created": "2023-05-15T15:55:22.000",
    "date_modified": "2023-05-15T16:11:36.000",
    "request_status": "Pending",
    "responsible_agency": "Department of Public Works",
    "final_address": "500 BLK Spain St",
    "address_councildis": "C",
    "status": "Pending",
    "rowid": "999852",
    "final_x": "3686292.79798",
    "final_y": "534423.87615",
    "longitude": "-90.05283395452146",
    "latitude": "29.963333950465632",
    "geocoded_column": {
      "latitude": "29.963333950465632",
      "longitude": "-90.05283395452146"
    }
  },
  {
    "service_request": "2023-999851",
    "request_type": "Abandoned Vehicles",
    "request_reason": "Abandoned/Junk Vehicles",
    "date_created": "2023-05-15T15:51:21.000",
    "date_modified": "2023-05-15T15:51:21.000",
    "request_status": "Pending",
    "responsible_agency": "Department of Public Works",
    "final_address": "3200 BLK Dahlia Walk",
    "address_councildis": "D",
    "status": "Pending",
    "rowid": "999851",
    "final_x": "3687738.81281",
    "final_y": "544972.132284",
    "longitude": "-90.04789392986832",
    "latitude": "29.992293417625632",
    "geocoded_column": {
      "latitude": "29.992293417625632",
      "longitude": "-90.04789392986832"
    }
  },
  {
    "service_request": "2023-999850",
    "request_type": "Traffic Signals/Signs/Striping/Streetlights",
    "request_reason": "Street Light Outage/Malfunction",
    "date_created": "2023-05-15T15:46:13.000",
    "date_modified": "2023-05-15T15:49:08.000",
    "request_status": "Pending",
    "responsible_agency": "Department of Public Works",
    "final_address": "108 Pinewood Ct",
    "address_councildis": "C",
    "status": "Assigned to Contractor",
    "contractor": "Legacy Professional Services",
    "rowid": "999850",
    "final_x": "3695927.58243",
    "final_y": "523265.867899",
    "longitude": "-90.02281153846187",
    "latitude": "29.932353741176705",
    "geocoded_column": {
      "latitude": "29.932353741176705",
      "longitude": "-90.02281153846187"
    }
  },
  {
    "service_request": "2023-999849",
    "request_type": "Traffic Signals/Signs/Striping/Streetlights",
    "request_reason": "Street Light Outage/Malfunction",
    "date_created": "2023-05-15T15:45:18.000",
    "date_modified": "2023-05-15T15:46:29.000",
    "request_status": "Pending",
    "responsible_agency": "Department of Public Works",
    "final_address": "138 Pinewood Ct",
    "address_councildis": "C",
    "status": "Assigned to Contractor",
    "contractor": "Legacy Professional Services",
    "rowid": "999849",
    "final_x": "3695932.24202",
    "final_y": "523375.663035",
    "longitude": "-90.02279286430503",
    "latitude": "29.932655493627006",
    "geocoded_column": {
      "latitude": "29.932655493627006",
      "longitude": "-90.02279286430503"
    }
  },
  {
    "service_request": "2023-999848",
    "request_type": "Trash/Recycling",
    "request_reason": "Missed Trash Pick-Up",
    "date_created": "2023-05-15T15:44:33.000",
    "date_modified": "2023-05-15T16:01:15.000",
    "request_status": "Pending",
    "responsible_agency": "Department of Sanitation",
    "final_address": "5760 Hayne Blvd 70126",
    "address_councildis": "D",
    "status": "Assigned to Contractor",
    "contractor": "Waste Pro",
    "rowid": "999848",
    "final_x": "3694034.87459",
    "final_y": "559568.475293",
    "longitude": "-90.02748053664283",
    "latitude": "30.032232205285236",
    "geocoded_column": {
      "latitude": "30.032232205285236",
      "longitude": "-90.02748053664283"
    }
  },
  {
    "service_request": "2023-999847",
    "request_type": "Traffic Signals/Signs/Striping/Streetlights",
    "request_reason": "Street Light Outage/Malfunction",
    "date_created": "2023-05-15T15:42:59.000",
    "date_modified": "2023-05-15T15:43:13.000",
    "request_status": "Pending",
    "responsible_agency": "Department of Public Works",
    "final_address": "162 Pinewood Ct",
    "address_councildis": "C",
    "status": "Assigned to Contractor",
    "contractor": "Legacy Professional Services",
    "rowid": "999847",
    "final_x": "3695934.58582",
    "final_y": "523529.575483",
    "longitude": "-90.02277990782272",
    "latitude": "29.933078626369817",
    "geocoded_column": {
      "latitude": "29.933078626369817",
      "longitude": "-90.02277990782272"
    }
  },
  {
    "service_request": "2023-999846",
    "request_type": "Property Maintenance",
    "request_reason": "Property Maintenance",
    "date_created": "2023-05-15T15:41:15.000",
    "date_modified": "2023-05-15T15:41:16.000",
    "request_status": "Pending",
    "responsible_agency": "Department of Code Enforcement",
    "final_address": "1122 Tennessee St",
    "address_councildis": "E",
    "status": "Pending",
    "rowid": "999846",
    "final_x": "3695695.8703",
    "final_y": "534602.617286",
    "longitude": "-90.02313380277154",
    "latitude": "29.96353313798622",
    "geocoded_column": {
      "latitude": "29.96353313798622",
      "longitude": "-90.02313380277154"
    }
  },
  {
    "service_request": "2023-999845",
    "request_type": "Abandoned Vehicles",
    "request_reason": "Abandoned/Junk Vehicles",
    "date_created": "2023-05-15T15:39:42.000",
    "date_modified": "2023-05-15T15:39:42.000",
    "request_status": "Pending",
    "responsible_agency": "Department of Public Works",
    "final_address": "4504 Perlita St",
    "address_councildis": "D",
    "status": "Pending",
    "rowid": "999845",
    "final_x": "3678672.47221",
    "final_y": "549106.830355",
    "longitude": "-90.07638946225627",
    "latitude": "30.00393892267183",
    "geocoded_column": {
      "latitude": "30.00393892267183",
      "longitude": "-90.07638946225627"
    }
  },
  {
    "service_request": "2023-999844",
    "request_type": "Trash/Recycling",
    "request_reason": "Request a Large Item Pick Up",
    "date_created": "2023-05-15T15:37:35.000",
    "date_modified": "2023-05-15T15:37:36.000",
    "request_status": "Pending",
    "responsible_agency": "Department of Sanitation",
    "final_address": "310 N Rampart St",
    "address_councildis": "C",
    "status": "Assigned to Contractor",
    "contractor": "Empire Services",
    "rowid": "999844",
    "final_x": "3680606.5245",
    "final_y": "532235.294339",
    "longitude": "-90.07086670891782",
    "latitude": "29.95748959775532",
    "geocoded_column": {
      "latitude": "29.95748959775532",
      "longitude": "-90.07086670891782"
    }
  },
  {
    "service_request": "2023-999843",
    "request_type": "Trash/Recycling",
    "request_reason": "Request a Large Item Pick Up",
    "date_created": "2023-05-15T15:34:34.000",
    "date_modified": "2023-05-15T15:34:35.000",
    "request_status": "Pending",
    "responsible_agency": "Department of Sanitation",
    "final_address": "1215 St Mary St",
    "address_councildis": "B",
    "status": "Assigned to Contractor",
    "contractor": "Richards Disposal",
    "rowid": "999843",
    "final_x": "3679401.58779",
    "final_y": "523243.857595",
    "longitude": "-90.07498334217397",
    "latitude": "29.932802593682357",
    "geocoded_column": {
      "latitude": "29.932802593682357",
      "longitude": "-90.07498334217397"
    }
  },
  {
    "service_request": "2023-999842",
    "request_type": "Trash/Recycling",
    "request_reason": "Order Recycling Cart",
    "date_created": "2023-05-15T15:34:02.000",
    "date_modified": "2023-05-15T15:34:02.000",
    "request_status": "Pending",
    "responsible_agency": "Department of Sanitation",
    "final_address": "2711 Bristol Pl",
    "address_councildis": "C",
    "status": "Pending",
    "rowid": "999842",
    "final_x": "3702542.6865",
    "final_y": "521049.733049",
    "longitude": "-90.00200970215556",
    "latitude": "29.926050447399188",
    "geocoded_column": {
      "latitude": "29.926050447399188",
      "longitude": "-90.00200970215556"
    }
  },
  {
    "service_request": "2023-999841",
    "request_type": "Property Maintenance",
    "request_reason": "Property Maintenance",
    "date_created": "2023-05-15T15:31:56.000",
    "date_modified": "2023-05-15T15:31:56.000",
    "request_status": "Pending",
    "responsible_agency": "Department of Code Enforcement",
    "final_address": "1114 Cadiz St",
    "address_councildis": "B",
    "status": "Pending",
    "rowid": "999841",
    "final_x": "3670122.20302",
    "final_y": "519574.929528",
    "longitude": "-90.10440194100181",
    "latitude": "29.922991158122514",
    "geocoded_column": {
      "latitude": "29.922991158122514",
      "longitude": "-90.10440194100181"
    }
  },
  {
    "service_request": "2023-999840",
    "request_type": "Trash/Recycling",
    "request_reason": "Request a Large Item Pick Up",
    "date_created": "2023-05-15T15:31:21.000",
    "date_modified": "2023-05-15T15:31:22.000",
    "request_status": "Pending",
    "responsible_agency": "Department of Sanitation",
    "final_address": "7644 Lehigh St Apt A",
    "address_councildis": "E",
    "status": "Assigned to Contractor",
    "contractor": "Waste Pro",
    "rowid": "999840",
    "final_x": "3710424.90705",
    "final_y": "565802.690915",
    "longitude": "-89.97545393759191",
    "latitude": "30.048850023028635",
    "geocoded_column": {
      "latitude": "30.048850023028635",
      "longitude": "-89.97545393759191"
    }
  },
  {
    "service_request": "2023-999839",
    "request_type": "Trash/Recycling",
    "request_reason": "Repair Recycling Cart",
    "date_created": "2023-05-15T15:29:18.000",
    "date_modified": "2023-05-15T15:29:19.000",
    "request_status": "Pending",
    "responsible_agency": "Department of Sanitation",
    "final_address": "3425 Hyman Pl",
    "address_councildis": "C",
    "status": "Pending",
    "rowid": "999839",
    "final_x": "3700893.11671",
    "final_y": "518537.562039",
    "longitude": "-90.0073086500879",
    "latitude": "29.919195437101397",
    "geocoded_column": {
      "latitude": "29.919195437101397",
      "longitude": "-90.0073086500879"
    }
  },
  {
    "service_request": "2023-999838",
    "request_type": "Trash/Recycling",
    "request_reason": "Request a Large Item Pick Up",
    "date_created": "2023-05-15T15:29:04.000",
    "date_modified": "2023-05-15T15:29:04.000",
    "request_status": "Pending",
    "responsible_agency": "Department of Sanitation",
    "final_address": "2550 Mexico St",
    "address_councildis": "D",
    "status": "Assigned to Contractor",
    "contractor": "IV Waste",
    "rowid": "999838",
    "final_x": "3686045.95727",
    "final_y": "556300.127194",
    "longitude": "-90.05284143981991",
    "latitude": "30.023493387915625",
    "geocoded_column": {
      "latitude": "30.023493387915625",
      "longitude": "-90.05284143981991"
    }
  },
  {
    "service_request": "2023-999837",
    "request_type": "Trash/Recycling",
    "request_reason": "Missed Trash Pick-Up",
    "date_created": "2023-05-15T15:28:56.000",
    "date_modified": "2023-05-15T15:28:57.000",
    "request_status": "Pending",
    "responsible_agency": "Department of Sanitation",
    "final_address": "2711 Third St",
    "address_councildis": "B",
    "status": "Assigned to Contractor",
    "contractor": "Richards Disposal",
    "rowid": "999837",
    "final_x": "3674229.16782",
    "final_y": "526274.744702",
    "longitude": "-90.09120857008621",
    "latitude": "29.941291720822615",
    "geocoded_column": {
      "latitude": "29.941291720822615",
      "longitude": "-90.09120857008621"
    }
  },
  {
    "service_request": "2023-999836",
    "request_type": "Trash/Recycling",
    "request_reason": "Request a Large Item Pick Up",
    "date_created": "2023-05-15T15:28:18.000",
    "date_modified": "2023-05-15T15:28:19.000",
    "request_status": "Pending",
    "responsible_agency": "Department of Sanitation",
    "final_address": "4719 Miles Dr",
    "address_councildis": "D",
    "status": "Assigned to Contractor",
    "contractor": "IV Waste",
    "rowid": "999836",
    "final_x": "3679670.06248",
    "final_y": "548910.907603",
    "longitude": "-90.07324470868257",
    "latitude": "30.003370077451834",
    "geocoded_column": {
      "latitude": "30.003370077451834",
      "longitude": "-90.07324470868257"
    }
  },
  {
    "service_request": "2023-999835",
    "request_type": "Trash/Recycling",
    "request_reason": "Return Recycling Cart",
    "date_created": "2023-05-15T15:25:53.000",
    "date_modified": "2023-05-15T15:25:53.000",
    "request_status": "Pending",
    "responsible_agency": "Department of Sanitation",
    "final_address": "4658 De Montluzin St",
    "address_councildis": "D",
    "status": "Pending",
    "rowid": "999835",
    "final_x": "3687111.53999",
    "final_y": "550268.500884",
    "longitude": "-90.04968793492462",
    "latitude": "30.006875850609593",
    "geocoded_column": {
      "latitude": "30.006875850609593",
      "longitude": "-90.04968793492462"
    }
  },
  {
    "service_request": "2023-999834",
    "request_type": "Trash/Recycling",
    "request_reason": "Request a Large Item Pick Up",
    "date_created": "2023-05-15T15:17:02.000",
    "date_modified": "2023-05-15T15:17:03.000",
    "request_status": "Pending",
    "responsible_agency": "Department of Sanitation",
    "final_address": "4018 Cleveland Ave",
    "address_councildis": "A",
    "status": "Assigned to Contractor",
    "contractor": "Richards Disposal",
    "rowid": "999834",
    "final_x": "3671068.31335",
    "final_y": "537777.80692",
    "longitude": "-90.10079736186472",
    "latitude": "29.973015170465818",
    "geocoded_column": {
      "latitude": "29.973015170465818",
      "longitude": "-90.10079736186472"
    }
  },
  {
    "service_request": "2023-999833",
    "request_type": "Trash/Recycling",
    "request_reason": "Request a Large Item Pick Up",
    "date_created": "2023-05-15T15:12:11.000",
    "date_modified": "2023-05-15T15:12:12.000",
    "request_status": "Pending",
    "responsible_agency": "Department of Sanitation",
    "final_address": "6858 Mayo Rd",
    "address_councildis": "E",
    "status": "Assigned to Contractor",
    "contractor": "Waste Pro",
    "rowid": "999833",
    "final_x": "3701824.35543",
    "final_y": "557532.396699",
    "longitude": "-90.00294011090502",
    "latitude": "30.026387385486693",
    "geocoded_column": {
      "latitude": "30.026387385486693",
      "longitude": "-90.00294011090502"
    }
  },
  {
    "service_request": "2023-999832",
    "request_type": "Property Maintenance",
    "request_reason": "Property Maintenance",
    "date_created": "2023-05-15T15:08:37.000",
    "date_modified": "2023-05-15T15:08:38.000",
    "request_status": "Pending",
    "responsible_agency": "Department of Code Enforcement",
    "final_address": "7362 Beaconfield Dr",
    "address_councildis": "E",
    "status": "Pending",
    "rowid": "999832",
    "final_x": "3713356.0835",
    "final_y": "565957.306083",
    "longitude": "-89.96618394093557",
    "latitude": "30.049179315680547",
    "geocoded_column": {
      "latitude": "30.049179315680547",
      "longitude": "-89.96618394093557"
    }
  },
  {
    "service_request": "2023-999831",
    "request_type": "Trash/Recycling",
    "request_reason": "Report a Missed Trash/Recycling Pick Up",
    "date_created": "2023-05-15T15:06:29.000",
    "date_modified": "2023-05-15T15:06:29.000",
    "request_status": "Pending",
    "responsible_agency": "Department of Sanitation",
    "final_address": "4011 DHemecourt St",
    "address_councildis": "A",
    "contractor": "Richards Disposal",
    "rowid": "999831",
    "final_x": "3670180.48948",
    "final_y": "536661.804807",
    "longitude": "-90.1036391146166",
    "latitude": "29.969972768916328",
    "geocoded_column": {
      "latitude": "29.969972768916328",
      "longitude": "-90.1036391146166"
    }
  },
  {
    "service_request": "2023-999830",
    "request_type": "Trash/Recycling",
    "request_reason": "Repair Trash Cart",
    "date_created": "2023-05-15T15:03:45.000",
    "date_modified": "2023-05-15T15:03:46.000",
    "request_status": "Pending",
    "responsible_agency": "Department of Sanitation",
    "final_address": "2228 Napoleon Ave",
    "address_councildis": "B",
    "status": "Assigned to Contractor",
    "contractor": "Richards Disposal",
    "rowid": "999830",
    "final_x": "3670529.01172",
    "final_y": "523214.011131",
    "longitude": "-90.1029944577261",
    "latitude": "29.932985465373612",
    "geocoded_column": {
      "latitude": "29.932985465373612",
      "longitude": "-90.1029944577261"
    }
  },
  {
    "service_request": "2023-999829",
    "request_type": "Mosquito, Termite & Rodent Control",
    "request_reason": "Rodent Complaint (Rats)",
    "date_created": "2023-05-15T15:03:09.000",
    "date_modified": "2023-05-15T15:03:09.000",
    "request_status": "Pending",
    "responsible_agency": "Mosquito, Termite & Rodent Control Board",
    "final_address": "5749 Warrington Dr",
    "address_councildis": "D",
    "status": "Pending",
    "rowid": "999829",
    "final_x": "3680847.92226",
    "final_y": "554235.858456",
    "longitude": "-90.06933809845822",
    "latitude": "30.017976101457393",
    "geocoded_column": {
      "latitude": "30.017976101457393",
      "longitude": "-90.06933809845822"
    }
  },
  {
    "service_request": "2023-999828",
    "request_type": "Trash/Recycling",
    "request_reason": "Missed Trash Pick-Up",
    "date_created": "2023-05-15T15:00:22.000",
    "date_modified": "2023-05-15T15:00:23.000",
    "request_status": "Pending",
    "responsible_agency": "Department of Sanitation",
    "final_address": "7910 Dorsett Dr",
    "address_councildis": "E",
    "status": "Assigned to Contractor",
    "contractor": "Waste Pro",
    "rowid": "999828",
    "final_x": "3712241.97816",
    "final_y": "568174.780261",
    "longitude": "-89.96962174176603",
    "latitude": "30.055312970572025",
    "geocoded_column": {
      "latitude": "30.055312970572025",
      "longitude": "-89.96962174176603"
    }
  },
  {
    "service_request": "2023-999827",
    "request_type": "Trash/Recycling",
    "request_reason": "Repair Trash Cart",
    "date_created": "2023-05-15T15:00:16.000",
    "date_modified": "2023-05-15T15:00:17.000",
    "request_status": "Pending",
    "responsible_agency": "Department of Sanitation",
    "final_address": "3824 Bruxelles St",
    "address_councildis": "D",
    "status": "Assigned to Contractor",
    "contractor": "IV Waste",
    "rowid": "999827",
    "final_x": "3679965.82331",
    "final_y": "546517.877649",
    "longitude": "-90.07239354794002",
    "latitude": "29.996781149789303",
    "geocoded_column": {
      "latitude": "29.996781149789303",
      "longitude": "-90.07239354794002"
    }
  },
  {
    "service_request": "2023-999826",
    "request_type": "Mosquito, Termite & Rodent Control",
    "request_reason": "Non-Rodent Complaint (Mice, Possums, Snakes)",
    "date_created": "2023-05-15T14:57:22.000",
    "date_modified": "2023-05-15T14:57:23.000",
    "request_status": "Pending",
    "responsible_agency": "Mosquito, Termite & Rodent Control Board",
    "final_address": "5749 Warrington Dr",
    "address_councildis": "D",
    "status": "Pending",
    "rowid": "999826",
    "final_x": "3680847.92226",
    "final_y": "554235.858456",
    "longitude": "-90.06933809845822",
    "latitude": "30.017976101457393",
    "geocoded_column": {
      "latitude": "30.017976101457393",
      "longitude": "-90.06933809845822"
    }
  },
  {
    "service_request": "2023-999825",
    "request_type": "Trash/Recycling",
    "request_reason": "Return Recycling Cart",
    "date_created": "2023-05-15T14:56:35.000",
    "date_modified": "2023-05-15T14:56:36.000",
    "request_status": "Pending",
    "responsible_agency": "Department of Sanitation",
    "final_address": "4513 Jeanne Marie Pl",
    "address_councildis": "D",
    "status": "Pending",
    "rowid": "999825",
    "final_x": "3678564.47086",
    "final_y": "549178.063827",
    "longitude": "-90.07672818939278",
    "latitude": "30.00413804649904",
    "geocoded_column": {
      "latitude": "30.00413804649904",
      "longitude": "-90.07672818939278"
    }
  },
  {
    "service_request": "2023-999824",
    "request_type": "Trash/Recycling",
    "request_reason": "Illegal Dumping",
    "date_created": "2023-05-15T14:54:57.000",
    "date_modified": "2023-05-15T14:54:57.000",
    "request_status": "Pending",
    "responsible_agency": "Department of Sanitation",
    "final_address": "7500 Freret St",
    "address_councildis": "A",
    "status": "Pending",
    "rowid": "999824",
    "final_x": "3663017.19962",
    "final_y": "526421.73715",
    "longitude": "-90.12660217287376",
    "latitude": "29.94202533900423",
    "geocoded_column": {
      "latitude": "29.94202533900423",
      "longitude": "-90.12660217287376"
    }
  },
  {
    "service_request": "2023-999823",
    "request_type": "Trash/Recycling",
    "request_reason": "Request a Large Item Pick Up",
    "date_created": "2023-05-15T14:54:53.000",
    "date_modified": "2023-05-15T14:54:54.000",
    "request_status": "Pending",
    "responsible_agency": "Department of Sanitation",
    "final_address": "7000 Beauvoir Ct",
    "address_councildis": "E",
    "status": "Assigned to Contractor",
    "contractor": "Waste Pro",
    "rowid": "999823",
    "final_x": "3716773.0053",
    "final_y": "567068.267492",
    "longitude": "-89.95534229594888",
    "latitude": "30.052121462938644",
    "geocoded_column": {
      "latitude": "30.052121462938644",
      "longitude": "-89.95534229594888"
    }
  },
  {
    "service_request": "2023-999822",
    "request_type": "Property Maintenance",
    "request_reason": "Property Maintenance",
    "date_created": "2023-05-15T14:53:50.000",
    "date_modified": "2023-05-15T14:53:50.000",
    "request_status": "Pending",
    "responsible_agency": "Department of Code Enforcement",
    "final_address": "5745 Warrington Dr",
    "address_councildis": "D",
    "status": "Pending",
    "rowid": "999822",
    "final_x": "3680851.58242",
    "final_y": "554190.18428",
    "longitude": "-90.06932812570821",
    "latitude": "30.01785040308396",
    "geocoded_column": {
      "latitude": "30.01785040308396",
      "longitude": "-90.06932812570821"
    }
  },
  {
    "service_request": "2023-999821",
    "request_type": "Trash/Recycling",
    "request_reason": "Illegal Dumping",
    "date_created": "2023-05-15T14:53:45.000",
    "date_modified": "2023-05-15T14:53:45.000",
    "request_status": "Pending",
    "responsible_agency": "Department of Sanitation",
    "final_address": "3200 BLK Deers St",
    "address_councildis": "D",
    "status": "Pending",
    "rowid": "999821",
    "final_x": "3687973.89665",
    "final_y": "544825.754296",
    "longitude": "-90.04715653802066",
    "latitude": "29.99188367714762",
    "geocoded_column": {
      "latitude": "29.99188367714762",
      "longitude": "-90.04715653802066"
    }
  },
  {
    "service_request": "2023-999820",
    "request_type": "Trash/Recycling",
    "request_reason": "Request a Large Item Pick Up",
    "date_created": "2023-05-15T14:51:44.000",
    "date_modified": "2023-05-15T14:51:45.000",
    "request_status": "Pending",
    "responsible_agency": "Department of Sanitation",
    "final_address": "5300 Mandeville St Apt B",
    "address_councildis": "D",
    "status": "Assigned to Contractor",
    "contractor": "IV Waste",
    "rowid": "999820",
    "final_x": "3684427.69877",
    "final_y": "552540.249366",
    "longitude": "-90.05808701496164",
    "latitude": "30.013204730703954",
    "geocoded_column": {
      "latitude": "30.013204730703954",
      "longitude": "-90.05808701496164"
    }
  },
  {
    "service_request": "2023-999819",
    "request_type": "Traffic Signals/Signs/Striping/Streetlights",
    "request_reason": "Street Name Sign Damaged or Missing",
    "date_created": "2023-05-15T14:51:37.000",
    "date_modified": "2023-05-15T14:51:37.000",
    "request_status": "Pending",
    "responsible_agency": "Department of Public Works",
    "final_address": "ST BERNARD AVE & AVIATORS ST",
    "address_councildis": "D",
    "status": "Pending",
    "rowid": "999819",
    "final_x": "3676780.3",
    "final_y": "554934.38",
    "longitude": "-90.08216614140726",
    "latitude": "30.020019534032688",
    "geocoded_column": {
      "latitude": "30.020019534032688",
      "longitude": "-90.08216614140726"
    }
  },
  {
    "service_request": "2023-999818",
    "request_type": "Trash/Recycling",
    "request_reason": "Order Trash Cart",
    "date_created": "2023-05-15T14:51:28.000",
    "date_modified": "2023-05-15T14:51:29.000",
    "request_status": "Pending",
    "responsible_agency": "Department of Sanitation",
    "final_address": "1422 Deslonde St",
    "address_councildis": "E",
    "status": "Assigned to Contractor",
    "contractor": "Waste Pro",
    "rowid": "999818",
    "final_x": "3695674.83235",
    "final_y": "535762.496007",
    "longitude": "-90.02315835729279",
    "latitude": "29.966723054274627",
    "geocoded_column": {
      "latitude": "29.966723054274627",
      "longitude": "-90.02315835729279"
    }
  },
  {
    "service_request": "2023-999817",
    "request_type": "Property Maintenance",
    "request_reason": "Property Maintenance",
    "date_created": "2023-05-15T14:51:23.000",
    "date_modified": "2023-05-15T14:51:23.000",
    "request_status": "Pending",
    "responsible_agency": "Department of Code Enforcement",
    "final_address": "5757 Warrington Dr",
    "address_councildis": "D",
    "status": "Pending",
    "rowid": "999817",
    "final_x": "3680840.64821",
    "final_y": "554327.354712",
    "longitude": "-90.0693578926828",
    "latitude": "30.018227903473214",
    "geocoded_column": {
      "latitude": "30.018227903473214",
      "longitude": "-90.0693578926828"
    }
  },
  {
    "service_request": "2023-999816",
    "request_type": "Trash/Recycling",
    "request_reason": "Repair Recycling Cart",
    "date_created": "2023-05-15T14:51:21.000",
    "date_modified": "2023-05-15T14:51:22.000",
    "request_status": "Pending",
    "responsible_agency": "Department of Sanitation",
    "final_address": "7708 Dogwood Dr",
    "address_councildis": "E",
    "status": "Pending",
    "rowid": "999816",
    "final_x": "3701114.98065",
    "final_y": "561259.732574",
    "longitude": "-90.00504510524021",
    "latitude": "30.036658742448562",
    "geocoded_column": {
      "latitude": "30.036658742448562",
      "longitude": "-90.00504510524021"
    }
  },
  {
    "service_request": "2023-999815",
    "request_type": "Trash/Recycling",
    "request_reason": "Illegal Dumping",
    "date_created": "2023-05-15T14:47:16.000",
    "date_modified": "2023-05-15T14:47:16.000",
    "request_status": "Pending",
    "responsible_agency": "Department of Sanitation",
    "final_address": "5700 BLK Urquhart St",
    "address_councildis": "E",
    "status": "Pending",
    "rowid": "999815",
    "final_x": "3698683.83127",
    "final_y": "534370.170221",
    "longitude": "-90.01370664872486",
    "latitude": "29.96279970978358",
    "geocoded_column": {
      "latitude": "29.96279970978358",
      "longitude": "-90.01370664872486"
    }
  },
  {
    "service_request": "2023-999814",
    "request_type": "Traffic Signals/Signs/Striping/Streetlights",
    "request_reason": "Street Light Outage/Malfunction",
    "date_created": "2023-05-15T14:46:52.000",
    "date_modified": "2023-05-15T14:46:52.000",
    "request_status": "Pending",
    "responsible_agency": "Department of Public Works",
    "final_address": "1 Tern St",
    "address_councildis": "D",
    "status": "Assigned to Contractor",
    "contractor": "Legacy Professional Services",
    "rowid": "999814",
    "final_x": "3674597.33499",
    "final_y": "557042.052378",
    "longitude": "-90.08899130734765",
    "latitude": "30.02588023232257",
    "geocoded_column": {
      "latitude": "30.02588023232257",
      "longitude": "-90.08899130734765"
    }
  },
  {
    "service_request": "2023-999813",
    "request_type": "Abandoned Vehicles",
    "request_reason": "Abandoned/Junk Vehicles",
    "date_created": "2023-05-15T14:46:28.000",
    "date_modified": "2023-05-15T14:46:28.000",
    "request_status": "Pending",
    "responsible_agency": "Department of Public Works",
    "final_address": "3200 BLK Deers St",
    "address_councildis": "D",
    "status": "Pending",
    "rowid": "999813",
    "final_x": "3687973.89665",
    "final_y": "544825.754296",
    "longitude": "-90.04715653802066",
    "latitude": "29.99188367714762",
    "geocoded_column": {
      "latitude": "29.99188367714762",
      "longitude": "-90.04715653802066"
    }
  },
  {
    "service_request": "2023-999812",
    "request_type": "Trash/Recycling",
    "request_reason": "Order Recycling Cart",
    "date_created": "2023-05-15T14:45:19.000",
    "date_modified": "2023-05-15T14:45:20.000",
    "request_status": "Pending",
    "responsible_agency": "Department of Sanitation",
    "final_address": "5749 Warrington Dr",
    "address_councildis": "D",
    "status": "Pending",
    "rowid": "999812",
    "final_x": "3680847.92226",
    "final_y": "554235.858456",
    "longitude": "-90.06933809845822",
    "latitude": "30.017976101457393",
    "geocoded_column": {
      "latitude": "30.017976101457393",
      "longitude": "-90.06933809845822"
    }
  },
  {
    "service_request": "2023-999811",
    "request_type": "Trash/Recycling",
    "request_reason": "Request a Large Item Pick Up",
    "date_created": "2023-05-15T14:43:39.000",
    "date_modified": "2023-05-15T14:43:40.000",
    "request_status": "Pending",
    "responsible_agency": "Department of Sanitation",
    "final_address": "7512 Pearl St",
    "address_councildis": "A",
    "status": "Assigned to Contractor",
    "contractor": "Richards Disposal",
    "rowid": "999811",
    "final_x": "3661792.38374",
    "final_y": "525157.442173",
    "longitude": "-90.13051109992382",
    "latitude": "29.938584340245036",
    "geocoded_column": {
      "latitude": "29.938584340245036",
      "longitude": "-90.13051109992382"
    }
  },
  {
    "service_request": "2023-999810",
    "request_type": "Trash/Recycling",
    "request_reason": "Request a Large Item Pick Up",
    "date_created": "2023-05-15T14:41:50.000",
    "date_modified": "2023-05-15T14:41:50.000",
    "request_status": "Pending",
    "responsible_agency": "Department of Sanitation",
    "final_address": "7202 Yorktown Dr",
    "address_councildis": "E",
    "status": "Assigned to Contractor",
    "contractor": "Waste Pro",
    "rowid": "999810",
    "final_x": "3705791.21259",
    "final_y": "561229.176542",
    "longitude": "-89.99026848468745",
    "latitude": "30.036424844457965",
    "geocoded_column": {
      "latitude": "30.036424844457965",
      "longitude": "-89.99026848468745"
    }
  },
  {
    "service_request": "2023-999809",
    "request_type": "Parks & Parkways",
    "request_reason": "Request Tree Service (Right of Way/Public Property)",
    "date_created": "2023-05-15T14:38:59.000",
    "date_modified": "2023-05-15T14:38:59.000",
    "request_status": "Pending",
    "responsible_agency": "Department of Parks & Parkway",
    "final_address": "N CLAIBORNE AVE & POLAND AVE",
    "address_councildis": "D",
    "status": "Pending",
    "rowid": "999809",
    "final_x": "3693481.9",
    "final_y": "536875.08",
    "longitude": "-90.0300436334021",
    "latitude": "29.96985102981372",
    "geocoded_column": {
      "latitude": "29.96985102981372",
      "longitude": "-90.0300436334021"
    }
  },
  {
    "service_request": "2023-999808",
    "request_type": "Abandoned Vehicles",
    "request_reason": "Abandoned/Junk Vehicles",
    "date_created": "2023-05-15T14:35:14.000",
    "date_modified": "2023-05-15T14:40:04.000",
    "request_status": "Pending",
    "responsible_agency": "Department of Public Works",
    "final_address": "4935 N Rampart St",
    "address_councildis": "E",
    "status": "Pending",
    "rowid": "999808",
    "final_x": "3695538.73891",
    "final_y": "533955.626245",
    "longitude": "-90.0236533572294",
    "latitude": "29.961759080905694",
    "geocoded_column": {
      "latitude": "29.961759080905694",
      "longitude": "-90.0236533572294"
    }
  },
  {
    "service_request": "2023-999807",
    "request_type": "Trash/Recycling",
    "request_reason": "Request a Large Item Pick Up",
    "date_created": "2023-05-15T14:28:48.000",
    "date_modified": "2023-05-15T14:28:49.000",
    "request_status": "Pending",
    "responsible_agency": "Department of Sanitation",
    "final_address": "3620 Annunciation St",
    "address_councildis": "B",
    "status": "Assigned to Contractor",
    "contractor": "Richards Disposal",
    "rowid": "999807",
    "final_x": "3674347.06964",
    "final_y": "518172.687862",
    "longitude": "-90.09111364422056",
    "latitude": "29.919010172508006",
    "geocoded_column": {
      "latitude": "29.919010172508006",
      "longitude": "-90.09111364422056"
    }
  },
  {
    "service_request": "2023-999806",
    "request_type": "Abandoned Vehicles",
    "request_reason": "Abandoned/Junk Vehicles",
    "date_created": "2023-05-15T14:26:52.000",
    "date_modified": "2023-05-15T14:26:52.000",
    "request_status": "Pending",
    "responsible_agency": "Department of Public Works",
    "final_address": "2600 BLK Benefit St",
    "address_councildis": "D",
    "status": "Pending",
    "rowid": "999806",
    "final_x": "3687806.86057",
    "final_y": "544677.397638",
    "longitude": "-90.04768942685553",
    "latitude": "29.991480903929077",
    "geocoded_column": {
      "latitude": "29.991480903929077",
      "longitude": "-90.04768942685553"
    }
  },
  {
    "service_request": "2023-999805",
    "request_type": "Parks & Parkways",
    "request_reason": "Request Grass Cutting Service (City Owned Property)",
    "date_created": "2023-05-15T14:25:34.000",
    "date_modified": "2023-05-15T15:57:15.000",
    "case_close_date": "2023-05-15T10:57:15.000",
    "request_status": "Closed",
    "responsible_agency": "Department of Parks & Parkway",
    "final_address": "4900 BLK Mexico St",
    "address_councildis": "D",
    "status": "Invalid Request",
    "rowid": "999805",
    "final_x": "3690716.35836",
    "final_y": "556537.718077",
    "longitude": "-90.03807550545754",
    "latitude": "30.024002337009883",
    "geocoded_column": {
      "latitude": "30.024002337009883",
      "longitude": "-90.03807550545754"
    }
  },
  {
    "service_request": "2023-999804",
    "request_type": "Traffic Signals/Signs/Striping/Streetlights",
    "request_reason": "Disabled Parking Sign ",
    "date_created": "2023-05-15T14:23:23.000",
    "date_modified": "2023-05-15T14:23:23.000",
    "request_status": "Pending",
    "responsible_agency": "Department of Public Works",
    "final_address": "2506 S Prieur St",
    "address_councildis": "B",
    "status": "Pending",
    "rowid": "999804",
    "final_x": "3673314.29512",
    "final_y": "528040.208895",
    "longitude": "-90.09403671735994",
    "latitude": "29.946173406641705",
    "geocoded_column": {
      "latitude": "29.946173406641705",
      "longitude": "-90.09403671735994"
    }
  },
  {
    "service_request": "2023-999803",
    "request_type": "Traffic Signals/Signs/Striping/Streetlights",
    "request_reason": "Street Light Outage/Malfunction",
    "date_created": "2023-05-15T14:23:16.000",
    "date_modified": "2023-05-15T14:23:17.000",
    "request_status": "Pending",
    "responsible_agency": "Department of Public Works",
    "final_address": "88 Tern St",
    "address_councildis": "D",
    "status": "Assigned to Contractor",
    "contractor": "Legacy Professional Services",
    "rowid": "999803",
    "final_x": "3674696.74401",
    "final_y": "556855.808474",
    "longitude": "-90.08868358003934",
    "latitude": "30.025365160342368",
    "geocoded_column": {
      "latitude": "30.025365160342368",
      "longitude": "-90.08868358003934"
    }
  },
  {
    "service_request": "2023-999802",
    "request_type": "Property Maintenance",
    "request_reason": "Property Maintenance",
    "date_created": "2023-05-15T14:23:14.000",
    "date_modified": "2023-05-15T14:23:15.000",
    "request_status": "Pending",
    "responsible_agency": "Department of Code Enforcement",
    "final_address": "4431 Arthur Dr",
    "address_councildis": "E",
    "status": "Pending",
    "rowid": "999802",
    "final_x": "3707932.79793",
    "final_y": "553798.929751",
    "longitude": "-89.98377725817956",
    "latitude": "30.015925377251275",
    "geocoded_column": {
      "latitude": "30.015925377251275",
      "longitude": "-89.98377725817956"
    }
  },
  {
    "service_request": "2023-999801",
    "request_type": "Traffic Signals/Signs/Striping/Streetlights",
    "request_reason": "Street Light Outage/Malfunction",
    "date_created": "2023-05-15T14:22:43.000",
    "date_modified": "2023-05-15T14:22:43.000",
    "request_status": "Pending",
    "responsible_agency": "Department of Public Works",
    "final_address": "4127 Orleans Ave",
    "address_councildis": "A",
    "status": "Assigned to Contractor",
    "contractor": "Legacy Professional Services",
    "rowid": "999801",
    "final_x": "3672476.12916",
    "final_y": "540436.942859",
    "longitude": "-90.09626052968329",
    "latitude": "29.980285176381592",
    "geocoded_column": {
      "latitude": "29.980285176381592",
      "longitude": "-90.09626052968329"
    }
  },
  {
    "service_request": "2023-999798",
    "request_type": "Roads/Drainage",
    "request_reason": "Debris in Roadway",
    "date_created": "2023-05-15T14:21:36.000",
    "date_modified": "2023-05-15T14:21:37.000",
    "request_status": "Pending",
    "responsible_agency": "Department of Public Works",
    "final_address": "APPLE ST & MONROE ST",
    "address_councildis": "A",
    "status": "Pending",
    "rowid": "999798",
    "final_x": "3663782.6",
    "final_y": "533529.18",
    "longitude": "-90.12394878751638",
    "latitude": "29.961546323281286",
    "geocoded_column": {
      "latitude": "29.961546323281286",
      "longitude": "-90.12394878751638"
    }
  },
  {
    "service_request": "2023-999797",
    "request_type": "Trash/Recycling",
    "request_reason": "Illegal Dumping",
    "date_created": "2023-05-15T14:18:44.000",
    "date_modified": "2023-05-15T14:18:44.000",
    "request_status": "Pending",
    "responsible_agency": "Department of Sanitation",
    "final_address": "7230 Chadbourne Dr",
    "address_councildis": "E",
    "status": "Pending",
    "rowid": "999797",
    "final_x": "3701018.97853",
    "final_y": "557388.063835",
    "longitude": "-90.00549027684762",
    "latitude": "30.02601621268004",
    "geocoded_column": {
      "latitude": "30.02601621268004",
      "longitude": "-90.00549027684762"
    }
  },
  {
    "service_request": "2023-999796",
    "request_type": "Trash/Recycling",
    "request_reason": "Start Trash Service",
    "date_created": "2023-05-15T14:18:38.000",
    "date_modified": "2023-05-15T14:18:38.000",
    "request_status": "Pending",
    "responsible_agency": "Department of Sanitation",
    "final_address": "1662 N Tonti St",
    "address_councildis": "D",
    "status": "Assigned to Contractor",
    "contractor": "IV Waste",
    "rowid": "999796",
    "final_x": "3680568.88047",
    "final_y": "539702.89409",
    "longitude": "-90.07072574322812",
    "latitude": "29.978024075468255",
    "geocoded_column": {
      "latitude": "29.978024075468255",
      "longitude": "-90.07072574322812"
    }
  },
  {
    "service_request": "2023-999795",
    "request_type": "Traffic Signals/Signs/Striping/Streetlights",
    "request_reason": "Street Light Outage/Malfunction",
    "date_created": "2023-05-15T14:18:06.000",
    "date_modified": "2023-05-15T14:18:08.000",
    "request_status": "Pending",
    "responsible_agency": "Department of Public Works",
    "final_address": "62 Tern St",
    "address_councildis": "D",
    "status": "Assigned to Contractor",
    "contractor": "Legacy Professional Services",
    "rowid": "999795",
    "final_x": "3674595.4651",
    "final_y": "557382.141083",
    "longitude": "-90.08898554574169",
    "latitude": "30.026815408776073",
    "geocoded_column": {
      "latitude": "30.026815408776073",
      "longitude": "-90.08898554574169"
    }
  },
  {
    "service_request": "2023-999794",
    "request_type": "Trash/Recycling",
    "request_reason": "Repair Trash Cart",
    "date_created": "2023-05-15T14:15:55.000",
    "date_modified": "2023-05-15T14:17:12.000",
    "request_status": "Pending",
    "responsible_agency": "Department of Sanitation",
    "final_address": "5149 Elysian Fields Ave",
    "address_councildis": "D",
    "status": "Assigned to Contractor",
    "contractor": "IV Waste",
    "rowid": "999794",
    "final_x": "3683886.31343",
    "final_y": "551852.676502",
    "longitude": "-90.059821645718",
    "latitude": "30.011330711941614",
    "geocoded_column": {
      "latitude": "30.011330711941614",
      "longitude": "-90.059821645718"
    }
  },
  {
    "service_request": "2023-999793",
    "request_type": "Trash/Recycling",
    "request_reason": "Request a Large Item Pick Up",
    "date_created": "2023-05-15T14:12:06.000",
    "date_modified": "2023-05-15T14:12:07.000",
    "request_status": "Pending",
    "responsible_agency": "Department of Sanitation",
    "final_address": "133 N Carrollton Ave",
    "address_councildis": "A",
    "status": "Assigned to Contractor",
    "contractor": "Richards Disposal",
    "rowid": "999793",
    "final_x": "3671244.97844",
    "final_y": "538650.114505",
    "longitude": "-90.10020977012964",
    "latitude": "29.97540849514243",
    "geocoded_column": {
      "latitude": "29.97540849514243",
      "longitude": "-90.10020977012964"
    }
  },
  {
    "service_request": "2023-999792",
    "request_type": "Trash/Recycling",
    "request_reason": "Missed Trash Pick-Up",
    "date_created": "2023-05-15T14:11:50.000",
    "date_modified": "2023-05-15T14:11:50.000",
    "request_status": "Pending",
    "responsible_agency": "Department of Sanitation",
    "final_address": "1113 Ninth St",
    "address_councildis": "B",
    "status": "Assigned to Contractor",
    "contractor": "Richards Disposal",
    "rowid": "999792",
    "final_x": "3675807.77032",
    "final_y": "520179.467384",
    "longitude": "-90.0864340280447",
    "latitude": "29.924484546528937",
    "geocoded_column": {
      "latitude": "29.924484546528937",
      "longitude": "-90.0864340280447"
    }
  },
  {
    "service_request": "2023-999790",
    "request_type": "Traffic Signals/Signs/Striping/Streetlights",
    "request_reason": "Street Light Outage/Malfunction",
    "date_created": "2023-05-15T14:06:41.000",
    "date_modified": "2023-05-15T14:06:41.000",
    "request_status": "Pending",
    "responsible_agency": "Department of Public Works",
    "final_address": "5200 BLK Prytania St",
    "address_councildis": "B",
    "status": "Assigned to Contractor",
    "contractor": "Legacy Professional Services",
    "rowid": "999790",
    "final_x": "3667892.06444",
    "final_y": "520168.939437",
    "longitude": "-90.11142165095673",
    "latitude": "29.924690077550515",
    "geocoded_column": {
      "latitude": "29.924690077550515",
      "longitude": "-90.11142165095673"
    }
  },
  {
    "service_request": "2023-999789",
    "request_type": "Trash/Recycling",
    "request_reason": "Missed Trash Pick-Up",
    "date_created": "2023-05-15T14:05:43.000",
    "date_modified": "2023-05-15T14:05:43.000",
    "request_status": "Pending",
    "responsible_agency": "Department of Sanitation",
    "final_address": "729 S Salcedo St",
    "address_councildis": "B",
    "status": "Assigned to Contractor",
    "contractor": "Richards Disposal",
    "rowid": "999789",
    "final_x": "3672346.32219",
    "final_y": "533912.451333",
    "longitude": "-90.0968928810933",
    "latitude": "29.962348880715187",
    "geocoded_column": {
      "latitude": "29.962348880715187",
      "longitude": "-90.0968928810933"
    }
  },
  {
    "service_request": "2023-999788",
    "request_type": "Trash/Recycling",
    "request_reason": "Request a Large Item Pick Up",
    "date_created": "2023-05-15T14:00:27.000",
    "date_modified": "2023-05-15T14:00:28.000",
    "request_status": "Pending",
    "responsible_agency": "Department of Sanitation",
    "final_address": "4727 Cardenas Dr",
    "address_councildis": "E",
    "status": "Assigned to Contractor",
    "contractor": "Waste Pro",
    "rowid": "999788",
    "final_x": "3713762.81951",
    "final_y": "556269.902938",
    "longitude": "-89.96526398362741",
    "latitude": "30.022529489257057",
    "geocoded_column": {
      "latitude": "30.022529489257057",
      "longitude": "-89.96526398362741"
    }
  },
  {
    "service_request": "2023-999787",
    "request_type": "Trash/Recycling",
    "request_reason": "Report a Missed Trash/Recycling Pick Up",
    "date_created": "2023-05-15T13:51:38.000",
    "date_modified": "2023-05-15T13:51:38.000",
    "request_status": "Pending",
    "responsible_agency": "Department of Sanitation",
    "final_address": "56 Yosemite Dr",
    "address_councildis": "C",
    "contractor": "Richards Disposal",
    "rowid": "999787",
    "final_x": "3699829.66903",
    "final_y": "516590.687221",
    "longitude": "-90.01073632493409",
    "latitude": "29.91387599089563",
    "geocoded_column": {
      "latitude": "29.91387599089563",
      "longitude": "-90.01073632493409"
    }
  },
  {
    "service_request": "2023-999786",
    "request_type": "Mosquito, Termite & Rodent Control",
    "request_reason": "Rodent Complaint (Rats)",
    "date_created": "2023-05-15T13:51:24.000",
    "date_modified": "2023-05-15T13:51:24.000",
    "request_status": "Pending",
    "responsible_agency": "Mosquito, Termite & Rodent Control Board",
    "final_address": "11831 W Barrington Dr",
    "address_councildis": "E",
    "status": "Pending",
    "rowid": "999786",
    "final_x": "3714163.44306",
    "final_y": "565729.112418",
    "longitude": "-89.96364084418914",
    "latitude": "30.048525364404682",
    "geocoded_column": {
      "latitude": "30.048525364404682",
      "longitude": "-89.96364084418914"
    }
  },
  {
    "service_request": "2023-999784",
    "request_type": "Abandoned Vehicles",
    "request_reason": "Abandoned/Junk Vehicles",
    "date_created": "2023-05-15T13:49:39.000",
    "date_modified": "2023-05-15T16:36:33.000",
    "request_status": "Pending",
    "responsible_agency": "Department of Public Works",
    "final_address": "2100 BLK Pelopidas St",
    "address_councildis": "D",
    "status": "Pending",
    "rowid": "999784",
    "final_x": "3683462.71768",
    "final_y": "548043.013938",
    "longitude": "-90.06129357471926",
    "latitude": "30.000868454284976",
    "geocoded_column": {
      "latitude": "30.000868454284976",
      "longitude": "-90.06129357471926"
    }
  },
  {
    "service_request": "2023-999783",
    "request_type": "Roads/Drainage",
    "request_reason": "Pothole",
    "date_created": "2023-05-15T13:49:14.000",
    "date_modified": "2023-05-15T15:52:33.000",
    "case_close_date": "2023-05-15T10:52:33.000",
    "request_status": "Closed",
    "responsible_agency": "Department of Public Works",
    "final_address": "5552 Grand Bayou Dr",
    "address_councildis": "E",
    "status": "Resolved",
    "rowid": "999783",
    "final_x": "3725027.55827",
    "final_y": "564170.235681",
    "longitude": "-89.92936474341609",
    "latitude": "30.043877546304834",
    "geocoded_column": {
      "latitude": "30.043877546304834",
      "longitude": "-89.92936474341609"
    }
  },
  {
    "service_request": "2023-999782",
    "request_type": "Roads/Drainage",
    "request_reason": "Accessibility Ramps, Curbs and Sidewalk Repair",
    "date_created": "2023-05-15T13:43:08.000",
    "date_modified": "2023-05-15T15:44:47.000",
    "request_status": "Pending",
    "responsible_agency": "Department of Public Works",
    "final_address": "15 Petit Bayou Ln",
    "address_councildis": "E",
    "status": "Inspected",
    "rowid": "999782",
    "final_x": "3724929.0455",
    "final_y": "564026.405217",
    "longitude": "-89.92968165085618",
    "latitude": "30.043485390706312",
    "geocoded_column": {
      "latitude": "30.043485390706312",
      "longitude": "-89.92968165085618"
    }
  },
  {
    "service_request": "2023-999781",
    "request_type": "Trash/Recycling",
    "request_reason": "Order Recycling Cart",
    "date_created": "2023-05-15T13:41:10.000",
    "date_modified": "2023-05-15T13:41:11.000",
    "request_status": "Pending",
    "responsible_agency": "Department of Sanitation",
    "final_address": "56 Yosemite Dr",
    "address_councildis": "C",
    "status": "Pending",
    "rowid": "999781",
    "final_x": "3699829.66903",
    "final_y": "516590.687221",
    "longitude": "-90.01073632493409",
    "latitude": "29.91387599089563",
    "geocoded_column": {
      "latitude": "29.91387599089563",
      "longitude": "-90.01073632493409"
    }
  },
  {
    "service_request": "2023-999780",
    "request_type": "Abandoned Vehicles",
    "request_reason": "Abandoned/Junk Vehicles",
    "date_created": "2023-05-15T13:40:40.000",
    "date_modified": "2023-05-15T13:40:40.000",
    "request_status": "Pending",
    "responsible_agency": "Department of Public Works",
    "final_address": "2000 BLK Brainard St",
    "address_councildis": "B",
    "status": "Pending",
    "rowid": "999780",
    "final_x": "3677629.60927",
    "final_y": "524572.249856",
    "longitude": "-90.08053149187506",
    "latitude": "29.93650862539835",
    "geocoded_column": {
      "latitude": "29.93650862539835",
      "longitude": "-90.08053149187506"
    }
  },
  {
    "service_request": "2023-999779",
    "request_type": "Trash/Recycling",
    "request_reason": "Request a Large Item Pick Up",
    "date_created": "2023-05-15T13:39:25.000",
    "date_modified": "2023-05-15T13:39:25.000",
    "request_status": "Pending",
    "responsible_agency": "Department of Sanitation",
    "final_address": "2617 Carondelet St",
    "address_councildis": "B",
    "status": "Assigned to Contractor",
    "contractor": "Richards Disposal",
    "rowid": "999779",
    "final_x": "3676083.60801",
    "final_y": "523144.789115",
    "longitude": "-90.08546136151234",
    "latitude": "29.93262996239256",
    "geocoded_column": {
      "latitude": "29.93262996239256",
      "longitude": "-90.08546136151234"
    }
  },
  {
    "service_request": "2023-999778",
    "request_type": "Trash/Recycling",
    "request_reason": "Illegal Dumping",
    "date_created": "2023-05-15T13:38:15.000",
    "date_modified": "2023-05-15T13:38:15.000",
    "request_status": "Pending",
    "responsible_agency": "Department of Sanitation",
    "final_address": "3217 Banks St",
    "address_councildis": "B",
    "status": "Pending",
    "rowid": "999778",
    "final_x": "3673058.28443",
    "final_y": "535418.57095",
    "longitude": "-90.09459318500666",
    "latitude": "29.96646906065243",
    "geocoded_column": {
      "latitude": "29.96646906065243",
      "longitude": "-90.09459318500666"
    }
  },
  {
    "service_request": "2023-999777",
    "request_type": "Trash/Recycling",
    "request_reason": "Damaged Caused By Contractor",
    "date_created": "2023-05-15T13:38:12.000",
    "date_modified": "2023-05-15T13:38:13.000",
    "request_status": "Pending",
    "responsible_agency": "Department of Sanitation",
    "final_address": "3671 Tasha Pl",
    "address_councildis": "C",
    "status": "Assigned to Contractor",
    "contractor": "Richards Disposal",
    "rowid": "999777",
    "final_x": "3709986.77182",
    "final_y": "516616.064885",
    "longitude": "-89.97867658456171",
    "latitude": "29.913619494153945",
    "geocoded_column": {
      "latitude": "29.913619494153945",
      "longitude": "-89.97867658456171"
    }
  },
  {
    "service_request": "2023-999776",
    "request_type": "Trash/Recycling",
    "request_reason": "MIssed Recycling Pick-Up",
    "date_created": "2023-05-15T13:35:30.000",
    "date_modified": "2023-05-15T13:35:31.000",
    "request_status": "Pending",
    "responsible_agency": "Department of Sanitation",
    "final_address": "56 Yosemite Dr",
    "address_councildis": "C",
    "status": "Assigned to Contractor",
    "contractor": "Richards Disposal",
    "rowid": "999776",
    "final_x": "3699829.66903",
    "final_y": "516590.687221",
    "longitude": "-90.01073632493409",
    "latitude": "29.91387599089563",
    "geocoded_column": {
      "latitude": "29.91387599089563",
      "longitude": "-90.01073632493409"
    }
  },
  {
    "service_request": "2023-999775",
    "request_type": "Trash/Recycling",
    "request_reason": "Request a Large Item Pick Up",
    "date_created": "2023-05-15T13:35:07.000",
    "date_modified": "2023-05-15T13:35:08.000",
    "request_status": "Pending",
    "responsible_agency": "Department of Sanitation",
    "final_address": "2643 Athis St",
    "address_councildis": "D",
    "status": "Assigned to Contractor",
    "contractor": "IV Waste",
    "rowid": "999775",
    "final_x": "3686984.5453",
    "final_y": "554549.581976",
    "longitude": "-90.04993765687894",
    "latitude": "30.018651163521614",
    "geocoded_column": {
      "latitude": "30.018651163521614",
      "longitude": "-90.04993765687894"
    }
  },
  {
    "service_request": "2023-999774",
    "request_type": "Abandoned Vehicles",
    "request_reason": "Abandoned/Junk Vehicles",
    "date_created": "2023-05-15T13:34:39.000",
    "date_modified": "2023-05-15T13:34:39.000",
    "request_status": "Pending",
    "responsible_agency": "Department of Public Works",
    "final_address": "2000 BLK Brainard St",
    "address_councildis": "B",
    "status": "Pending",
    "rowid": "999774",
    "final_x": "3677629.60927",
    "final_y": "524572.249856",
    "longitude": "-90.08053149187506",
    "latitude": "29.93650862539835",
    "geocoded_column": {
      "latitude": "29.93650862539835",
      "longitude": "-90.08053149187506"
    }
  },