[
  {
    "service_request": "2024-1080641",
    "request_type": "Health Related Request",
    "request_reason": "Noise Ordinance Complaint",
    "date_created": "2024-04-01T23:25:42.000",
    "date_modified": "2024-04-01T23:25:42.000",
    "request_status": "Pending",
    "responsible_agency": "Health Department",
    "final_address": "1015 N Claiborne Ave, New Orleans, Louisiana, 70116",
    "address_councildis": "D",
    "status": "Pending",
    "rowid": "1080641",
    "final_x": "3680383.01128",
    "final_y": "535722.163847",
    "longitude": "-90.07145124149515",
    "latitude": "29.967084070169896",
    "geocoded_column": {
      "latitude": "29.967084070169896",
      "longitude": "-90.07145124149515"
    }
  },
  {
    "service_request": "2024-1080640",
    "request_type": "Roads/Drainage",
    "request_reason": "Pothole",
    "date_created": "2024-04-01T22:55:05.000",
    "date_modified": "2024-04-01T22:55:05.000",
    "request_status": "Pending",
    "responsible_agency": "Department of Public Works",
    "final_address": "100 BLK Maumus Ave",
    "address_councildis": "C",
    "status": "Pending",
    "rowid": "1080640",
    "final_x": "3705684.88912",
    "final_y": "516779.862882",
    "longitude": "-89.99224852020879",
    "latitude": "29.914209025459854",
    "geocoded_column": {
      "latitude": "29.914209025459854",
      "longitude": "-89.99224852020879"
    }
  },
  {
    "service_request": "2024-1080639",
    "request_type": "Roads/Drainage",
    "request_reason": "Pothole",
    "date_created": "2024-04-01T22:53:07.000",
    "date_modified": "2024-04-01T22:53:07.000",
    "request_status": "Pending",
    "responsible_agency": "Department of Public Works",
    "final_address": "100 BLK Maumus Ave",
    "address_councildis": "C",
    "status": "Pending",
    "rowid": "1080639",
    "final_x": "3705684.88912",
    "final_y": "516779.862882",
    "longitude": "-89.99224852020879",
    "latitude": "29.914209025459854",
    "geocoded_column": {
      "latitude": "29.914209025459854",
      "longitude": "-89.99224852020879"
    }
  },
  {
    "service_request": "2024-1080638",
    "request_type": "Health Related Request",
    "request_reason": "Noise Ordinance Complaint",
    "date_created": "2024-04-01T22:44:09.000",
    "date_modified": "2024-04-01T22:44:09.000",
    "request_status": "Pending",
    "responsible_agency": "Health Department",
    "final_address": "1015 N Claiborne Ave, New Orleans, Louisiana, 70116",
    "address_councildis": "D",
    "status": "Pending",
    "rowid": "1080638",
    "final_x": "3680383.01128",
    "final_y": "535722.163847",
    "longitude": "-90.07145124149515",
    "latitude": "29.967084070169896",
    "geocoded_column": {
      "latitude": "29.967084070169896",
      "longitude": "-90.07145124149515"
    }
  },
  {
    "service_request": "2024-1080637",
    "request_type": "Roads/Drainage",
    "request_reason": "Pothole",
    "date_created": "2024-04-01T22:41:41.000",
    "date_modified": "2024-04-01T22:41:41.000",
    "request_status": "Pending",
    "responsible_agency": "Department of Public Works",
    "final_address": "1200 BLK Amelia St",
    "address_councildis": "B",
    "status": "Pending",
    "rowid": "1080637",
    "final_x": "3673521.46558",
    "final_y": "519660.816109",
    "longitude": "-90.09366883741032",
    "latitude": "29.923126634409968",
    "geocoded_column": {
      "latitude": "29.923126634409968",
      "longitude": "-90.09366883741032"
    }
  },
  {
    "service_request": "2024-1080636",
    "request_type": "Health Related Request",
    "request_reason": "Noise Ordinance Complaint",
    "date_created": "2024-04-01T22:19:05.000",
    "date_modified": "2024-04-01T22:19:05.000",
    "request_status": "Pending",
    "responsible_agency": "Health Department",
    "final_address": "1015 N Claiborne Ave, New Orleans, Louisiana, 70116",
    "address_councildis": "D",
    "status": "Pending",
    "rowid": "1080636",
    "final_x": "3680383.01128",
    "final_y": "535722.163847",
    "longitude": "-90.07145124149515",
    "latitude": "29.967084070169896",
    "geocoded_column": {
      "latitude": "29.967084070169896",
      "longitude": "-90.07145124149515"
    }
  },
  {
    "service_request": "2024-1080635",
    "request_type": "Health Related Request",
    "request_reason": "Noise Ordinance Complaint",
    "date_created": "2024-04-01T22:10:24.000",
    "date_modified": "2024-04-01T22:10:24.000",
    "request_status": "Pending",
    "responsible_agency": "Health Department",
    "final_address": "1015 N Claiborne Ave, New Orleans, Louisiana, 70116",
    "address_councildis": "D",
    "status": "Pending",
    "rowid": "1080635",
    "final_x": "3680383.01128",
    "final_y": "535722.163847",
    "longitude": "-90.07145124149515",
    "latitude": "29.967084070169896",
    "geocoded_column": {
      "latitude": "29.967084070169896",
      "longitude": "-90.07145124149515"
    }
  },
  {
    "service_request": "2024-1080634",
    "request_type": "Abandoned Vehicles",
    "request_reason": "Abandoned/Junk Vehicles",
    "date_created": "2024-04-01T22:05:27.000",
    "date_modified": "2024-04-01T22:05:27.000",
    "request_status": "Pending",
    "responsible_agency": "Department of Public Works",
    "final_address": "2332 Iberville St",
    "address_councildis": "B",
    "status": "Pending",
    "rowid": "1080634",
    "final_x": "3676731.4491",
    "final_y": "534558.061829",
    "longitude": "-90.083023021852",
    "latitude": "29.963993252806713",
    "geocoded_column": {
      "latitude": "29.963993252806713",
      "longitude": "-90.083023021852"
    }
  },
  {
    "service_request": "2024-1080633",
    "request_type": "Traffic Signals/Signs/Striping/Streetlights",
    "request_reason": "Street Light Outage/Malfunction",
    "date_created": "2024-04-01T21:39:17.000",
    "date_modified": "2024-04-01T21:39:18.000",
    "request_status": "Pending",
    "responsible_agency": "Department of Public Works",
    "final_address": "2831 Chickasaw St",
    "address_councildis": "D",
    "status": "Assigned to Contractor",
    "contractor": "Legacy Professional Services",
    "rowid": "1080633",
    "final_x": "3688899.4543",
    "final_y": "547289.724817",
    "longitude": "-90.04414533437415",
    "latitude": "29.99863010706137",
    "geocoded_column": {
      "latitude": "29.99863010706137",
      "longitude": "-90.04414533437415"
    }
  },
  {
    "service_request": "2024-1080632",
    "request_type": "Trash/Recycling",
    "request_reason": "Order Trash Cart",
    "date_created": "2024-04-01T21:34:30.000",
    "date_modified": "2024-04-01T21:34:31.000",
    "request_status": "Pending",
    "responsible_agency": "Department of Sanitation",
    "final_address": "8002 Cohn St",
    "address_councildis": "A",
    "status": "Assigned to Contractor",
    "contractor": "IV Waste",
    "rowid": "1080632",
    "final_x": "3663883.72839",
    "final_y": "529887.555329",
    "longitude": "-90.12375083334992",
    "latitude": "29.951530103922668",
    "geocoded_column": {
      "latitude": "29.951530103922668",
      "longitude": "-90.12375083334992"
    }
  },
  {
    "service_request": "2024-1080631",
    "request_type": "Parks & Parkways",
    "request_reason": "Request Tree Service (Right of Way/Public Property)",
    "date_created": "2024-04-01T21:27:45.000",
    "date_modified": "2024-04-01T21:27:45.000",
    "request_status": "Pending",
    "responsible_agency": "Department of Parks & Parkway",
    "final_address": "4771 Lennox Blvd",
    "address_councildis": "C",
    "status": "Pending",
    "rowid": "1080631",
    "final_x": "3700640.05009",
    "final_y": "512981.089777",
    "longitude": "-90.00831026343923",
    "latitude": "29.90392507482159",
    "geocoded_column": {
      "latitude": "29.90392507482159",
      "longitude": "-90.00831026343923"
    }
  },
  {
    "service_request": "2024-1080630",
    "request_type": "Roads/Drainage",
    "request_reason": "Street Subsidence (Sinking)",
    "date_created": "2024-04-01T21:24:30.000",
    "date_modified": "2024-04-01T21:24:30.000",
    "request_status": "Pending",
    "responsible_agency": "Department of Public Works",
    "final_address": "7001 Bundy Rd",
    "address_councildis": "E",
    "status": "Pending",
    "rowid": "1080630",
    "final_x": "3707172.18622",
    "final_y": "561290.770526",
    "longitude": "-89.985902077464",
    "latitude": "30.036549623983145",
    "geocoded_column": {
      "latitude": "30.036549623983145",
      "longitude": "-89.985902077464"
    }
  },
  {
    "service_request": "2024-1080629",
    "request_type": "Trash/Recycling",
    "request_reason": "Request a Large Item Pick Up",
    "date_created": "2024-04-01T21:20:53.000",
    "date_modified": "2024-04-01T21:20:54.000",
    "request_status": "Pending",
    "responsible_agency": "Department of Sanitation",
    "final_address": "7940 Windward Ct",
    "address_councildis": "E",
    "status": "Assigned to Contractor",
    "rowid": "1080629",
    "final_x": "3715033.05528",
    "final_y": "570421.242023",
    "longitude": "-89.96071474244071",
    "latitude": "30.06139818305431",
    "geocoded_column": {
      "latitude": "30.06139818305431",
      "longitude": "-89.96071474244071"
    }
  },
  {
    "service_request": "2024-1080628",
    "request_type": "Property Maintenance",
    "request_reason": "Property Maintenance",
    "date_created": "2024-04-01T21:10:53.000",
    "date_modified": "2024-04-01T21:10:53.000",
    "request_status": "Pending",
    "responsible_agency": "Department of Code Enforcement",
    "final_address": "6940 Whitmore Pl",
    "address_councildis": "E",
    "status": "Pending",
    "rowid": "1080628",
    "final_x": "3719309.85298",
    "final_y": "568791.898853",
    "longitude": "-89.94725828287375",
    "latitude": "30.056776605338015",
    "geocoded_column": {
      "latitude": "30.056776605338015",
      "longitude": "-89.94725828287375"
    }
  },
  {
    "service_request": "2024-1080627",
    "request_type": "Trash/Recycling",
    "request_reason": "Request a Large Item Pick Up",
    "date_created": "2024-04-01T20:59:19.000",
    "date_modified": "2024-04-01T20:59:19.000",
    "request_status": "Pending",
    "responsible_agency": "Department of Sanitation",
    "final_address": "11 Sullivan Pl",
    "address_councildis": "C",
    "status": "Assigned to Contractor",
    "contractor": "Richards Disposal",
    "rowid": "1080627",
    "final_x": "3702048.09597",
    "final_y": "522071.865146",
    "longitude": "-90.00353352343106",
    "latitude": "29.928876748469275",
    "geocoded_column": {
      "latitude": "29.928876748469275",
      "longitude": "-90.00353352343106"
    }
  },
  {
    "service_request": "2024-1080625",
    "request_type": "Trash/Recycling",
    "request_reason": "Request a Large Item Pick Up",
    "date_created": "2024-04-01T20:54:47.000",
    "date_modified": "2024-04-01T20:54:47.000",
    "request_status": "Pending",
    "responsible_agency": "Department of Sanitation",
    "final_address": "7715 Nelson St",
    "address_councildis": "A",
    "status": "Assigned to Contractor",
    "contractor": "IV Waste",
    "rowid": "1080625",
    "final_x": "3666121.0242",
    "final_y": "530980.916034",
    "longitude": "-90.1166498545585",
    "latitude": "29.954471359930626",
    "geocoded_column": {
      "latitude": "29.954471359930626",
      "longitude": "-90.1166498545585"
    }
  },
  {
    "service_request": "2024-1080624",
    "request_type": "Healthy Homes",
    "request_reason": "Healthy Homes",
    "date_created": "2024-04-01T20:34:19.000",
    "date_modified": "2024-04-01T20:34:19.000",
    "request_status": "Pending",
    "responsible_agency": "Department of Code Enforcement",
    "final_address": "2521 Elder St Apt 1A",
    "address_councildis": "D",
    "status": "Pending",
    "rowid": "1080624",
    "final_x": "3686749.79529",
    "final_y": "545802.53",
    "longitude": "-90.0509886803202",
    "latitude": "29.99460718404991",
    "geocoded_column": {
      "latitude": "29.99460718404991",
      "longitude": "-90.0509886803202"
    }
  },
  {
    "service_request": "2024-1080623",
    "request_type": "Healthy Homes",
    "request_reason": "Healthy Homes",
    "date_created": "2024-04-01T20:33:39.000",
    "date_modified": "2024-04-01T20:33:39.000",
    "request_status": "Pending",
    "responsible_agency": "Department of Code Enforcement",
    "final_address": "2521 Elder St Apt 1A",
    "address_councildis": "D",
    "status": "Pending",
    "rowid": "1080623",
    "final_x": "3686749.79529",
    "final_y": "545802.53",
    "longitude": "-90.0509886803202",
    "latitude": "29.99460718404991",
    "geocoded_column": {
      "latitude": "29.99460718404991",
      "longitude": "-90.0509886803202"
    }
  },
  {
    "service_request": "2024-1080622",
    "request_type": "Healthy Homes",
    "request_reason": "Healthy Homes",
    "date_created": "2024-04-01T20:33:33.000",
    "date_modified": "2024-04-01T20:33:33.000",
    "request_status": "Pending",
    "responsible_agency": "Department of Code Enforcement",
    "final_address": "2521 Elder St Apt 1A",
    "address_councildis": "D",
    "status": "Pending",
    "rowid": "1080622",
    "final_x": "3686749.79529",
    "final_y": "545802.53",
    "longitude": "-90.0509886803202",
    "latitude": "29.99460718404991",
    "geocoded_column": {
      "latitude": "29.99460718404991",
      "longitude": "-90.0509886803202"
    }
  },
  {
    "service_request": "2024-1080621",
    "request_type": "Trash/Recycling",
    "request_reason": "Replace Trash Cart",
    "date_created": "2024-04-01T20:33:08.000",
    "date_modified": "2024-04-01T20:33:08.000",
    "request_status": "Pending",
    "responsible_agency": "Department of Sanitation",
    "final_address": "6329 Milne Blvd",
    "address_councildis": "A",
    "status": "Assigned to Contractor",
    "contractor": "IV Waste",
    "rowid": "1080621",
    "final_x": "3667370.67271",
    "final_y": "549707.9053",
    "longitude": "-90.11207369485611",
    "latitude": "30.005927719587945",
    "geocoded_column": {
      "latitude": "30.005927719587945",
      "longitude": "-90.11207369485611"
    }
  },
  {
    "service_request": "2024-1080620",
    "request_type": "Healthy Homes",
    "request_reason": "Healthy Homes",
    "date_created": "2024-04-01T20:32:55.000",
    "date_modified": "2024-04-01T20:32:55.000",
    "request_status": "Pending",
    "responsible_agency": "Department of Code Enforcement",
    "final_address": "2521 Elder St Apt 1A",
    "address_councildis": "D",
    "status": "Pending",
    "rowid": "1080620",
    "final_x": "3686749.79529",
    "final_y": "545802.53",
    "longitude": "-90.0509886803202",
    "latitude": "29.99460718404991",
    "geocoded_column": {
      "latitude": "29.99460718404991",
      "longitude": "-90.0509886803202"
    }
  },
  {
    "service_request": "2024-1080618",
    "request_type": "Trash/Recycling",
    "request_reason": "Request a Large Item Pick Up",
    "date_created": "2024-04-01T20:12:25.000",
    "date_modified": "2024-04-01T20:12:26.000",
    "request_status": "Pending",
    "responsible_agency": "Department of Sanitation",
    "final_address": "720 Belleville St",
    "address_councildis": "C",
    "status": "Assigned to Contractor",
    "contractor": "Richards Disposal",
    "rowid": "1080618",
    "final_x": "3687855.88233",
    "final_y": "528912.802112",
    "longitude": "-90.04809312808595",
    "latitude": "29.94813227262319",
    "geocoded_column": {
      "latitude": "29.94813227262319",
      "longitude": "-90.04809312808595"
    }
  },
  {
    "service_request": "2024-1080617",
    "request_type": "Trash/Recycling",
    "request_reason": "Replace Trash Cart",
    "date_created": "2024-04-01T20:07:17.000",
    "date_modified": "2024-04-01T20:07:18.000",
    "request_status": "Pending",
    "responsible_agency": "Department of Sanitation",
    "final_address": "6225 Berkley Dr",
    "address_councildis": "C",
    "status": "Assigned to Contractor",
    "contractor": "Richards Disposal",
    "rowid": "1080617",
    "final_x": "3707124.80248",
    "final_y": "517941.25279",
    "longitude": "-89.98766066212673",
    "latitude": "29.91735602736362",
    "geocoded_column": {
      "latitude": "29.91735602736362",
      "longitude": "-89.98766066212673"
    }
  },
  {
    "service_request": "2024-1080616",
    "request_type": "Property Maintenance",
    "request_reason": "Property Maintenance",
    "date_created": "2024-04-01T20:07:11.000",
    "date_modified": "2024-04-01T20:07:11.000",
    "request_status": "Pending",
    "responsible_agency": "Department of Code Enforcement",
    "final_address": "3670 Gentilly Blvd",
    "address_councildis": "D",
    "status": "Pending",
    "rowid": "1080616",
    "final_x": "3686874.17289",
    "final_y": "548700.399955",
    "longitude": "-90.050493302721",
    "latitude": "30.002571452607057",
    "geocoded_column": {
      "latitude": "30.002571452607057",
      "longitude": "-90.050493302721"
    }
  },
  {
    "service_request": "2024-1080615",
    "request_type": "Property Maintenance",
    "request_reason": "Property Maintenance",
    "date_created": "2024-04-01T20:01:26.000",
    "date_modified": "2024-04-01T20:01:26.000",
    "request_status": "Pending",
    "responsible_agency": "Department of Code Enforcement",
    "final_address": "4216 Franklin Ave",
    "address_councildis": "D",
    "status": "Pending",
    "rowid": "1080615",
    "final_x": "3686896.4127",
    "final_y": "548540.92277",
    "longitude": "-90.05042868517074",
    "latitude": "30.002132263512657",
    "geocoded_column": {
      "latitude": "30.002132263512657",
      "longitude": "-90.05042868517074"
    }
  },
  {
    "service_request": "2024-1080614",
    "request_type": "Property Maintenance",
    "request_reason": "Property Maintenance",
    "date_created": "2024-04-01T19:49:38.000",
    "date_modified": "2024-04-01T19:49:38.000",
    "request_status": "Pending",
    "responsible_agency": "Department of Code Enforcement",
    "final_address": "5529 Music St",
    "address_councildis": "D",
    "status": "Pending",
    "rowid": "1080614",
    "final_x": "3685531.11836",
    "final_y": "553448.018903",
    "longitude": "-90.0545687962029",
    "latitude": "30.015666951556966",
    "geocoded_column": {
      "latitude": "30.015666951556966",
      "longitude": "-90.0545687962029"
    }
  },
  {
    "service_request": "2024-1080612",
    "request_type": "Trash/Recycling",
    "request_reason": "Request a Large Item Pick Up",
    "date_created": "2024-04-01T19:44:37.000",
    "date_modified": "2024-04-01T19:44:37.000",
    "request_status": "Pending",
    "responsible_agency": "Department of Sanitation",
    "final_address": "7852 Arcadia Ln",
    "address_councildis": "E",
    "status": "Assigned to Contractor",
    "rowid": "1080612",
    "final_x": "3711880.27192",
    "final_y": "567759.980452",
    "longitude": "-89.97078060219611",
    "latitude": "30.05418427181588",
    "geocoded_column": {
      "latitude": "30.05418427181588",
      "longitude": "-89.97078060219611"
    }
  },
  {
    "service_request": "2024-1080611",
    "request_type": "Trash/Recycling",
    "request_reason": "Order Recycling Cart",
    "date_created": "2024-04-01T19:28:29.000",
    "date_modified": "2024-04-01T19:28:29.000",
    "request_status": "Pending",
    "responsible_agency": "Department of Sanitation",
    "final_address": "1823 Pine St",
    "address_councildis": "A",
    "status": "Pending",
    "rowid": "1080611",
    "final_x": "3665287.81108",
    "final_y": "528554.009344",
    "longitude": "-90.11936201424724",
    "latitude": "29.947822453945083",
    "geocoded_column": {
      "latitude": "29.947822453945083",
      "longitude": "-90.11936201424724"
    }
  },
  {
    "service_request": "2024-1080610",
    "request_type": "Trash/Recycling",
    "request_reason": "Order Recycling Cart",
    "date_created": "2024-04-01T19:23:34.000",
    "date_modified": "2024-04-01T19:23:34.000",
    "request_status": "Pending",
    "responsible_agency": "Department of Sanitation",
    "final_address": "622 Philip St",
    "address_councildis": "B",
    "status": "Pending",
    "rowid": "1080610",
    "final_x": "3679500.84981",
    "final_y": "520537.4494",
    "longitude": "-90.07476382453527",
    "latitude": "29.925357859976067",
    "geocoded_column": {
      "latitude": "29.925357859976067",
      "longitude": "-90.07476382453527"
    }
  },
  {
    "service_request": "2024-1080609",
    "request_type": "Trash/Recycling",
    "request_reason": "Replace Trash Cart",
    "date_created": "2024-04-01T19:14:17.000",
    "date_modified": "2024-04-01T19:14:18.000",
    "request_status": "Pending",
    "responsible_agency": "Department of Sanitation",
    "final_address": "312 Eliza St",
    "address_councildis": "C",
    "status": "Assigned to Contractor",
    "contractor": "Richards Disposal",
    "rowid": "1080609",
    "final_x": "3686426.2493",
    "final_y": "529547.186113",
    "longitude": "-90.05258466300924",
    "latitude": "29.94992062746649",
    "geocoded_column": {
      "latitude": "29.94992062746649",
      "longitude": "-90.05258466300924"
    }
  },
  {
    "service_request": "2024-1080608",
    "request_type": "Trash/Recycling",
    "request_reason": "Replace Trash Cart",
    "date_created": "2024-04-01T19:05:32.000",
    "date_modified": "2024-04-01T19:05:32.000",
    "request_status": "Pending",
    "responsible_agency": "Department of Sanitation",
    "final_address": "314 Eliza St",
    "address_councildis": "C",
    "status": "Assigned to Contractor",
    "contractor": "Richards Disposal",
    "rowid": "1080608",
    "final_x": "3686451.12175",
    "final_y": "529563.766593",
    "longitude": "-90.05250554413321",
    "latitude": "29.949965453676796",
    "geocoded_column": {
      "latitude": "29.949965453676796",
      "longitude": "-90.05250554413321"
    }
  },
  {
    "service_request": "2024-1080607",
    "request_type": "Trash/Recycling",
    "request_reason": "Order Trash Cart",
    "date_created": "2024-04-01T19:05:32.000",
    "date_modified": "2024-04-01T19:05:32.000",
    "request_status": "Pending",
    "responsible_agency": "Department of Sanitation",
    "final_address": "622 Philip St",
    "address_councildis": "B",
    "status": "Assigned to Contractor",
    "contractor": "IV Waste",
    "rowid": "1080607",
    "final_x": "3679500.84981",
    "final_y": "520537.4494",
    "longitude": "-90.07476382453527",
    "latitude": "29.925357859976067",
    "geocoded_column": {
      "latitude": "29.925357859976067",
      "longitude": "-90.07476382453527"
    }
  },
  {
    "service_request": "2024-1080606",
    "request_type": "Trash/Recycling",
    "request_reason": "Replace Trash Cart",
    "date_created": "2024-04-01T19:03:18.000",
    "date_modified": "2024-04-01T19:03:18.000",
    "request_status": "Pending",
    "responsible_agency": "Department of Sanitation",
    "final_address": "509 Elmira Ave",
    "address_councildis": "C",
    "status": "Assigned to Contractor",
    "contractor": "Richards Disposal",
    "rowid": "1080606",
    "final_x": "3688158.98575",
    "final_y": "529805.890049",
    "longitude": "-90.04710445660841",
    "latitude": "29.95057860695841",
    "geocoded_column": {
      "latitude": "29.95057860695841",
      "longitude": "-90.04710445660841"
    }
  },
  {
    "service_request": "2024-1080605",
    "request_type": "Trash/Recycling",
    "request_reason": "Order Trash Cart",
    "date_created": "2024-04-01T19:02:30.000",
    "date_modified": "2024-04-01T19:02:31.000",
    "request_status": "Pending",
    "responsible_agency": "Department of Sanitation",
    "final_address": "620 Philip St",
    "address_councildis": "B",
    "status": "Assigned to Contractor",
    "contractor": "IV Waste",
    "rowid": "1080605",
    "final_x": "3679510.37365",
    "final_y": "520523.865464",
    "longitude": "-90.07473423175934",
    "latitude": "29.925320220942282",
    "geocoded_column": {
      "latitude": "29.925320220942282",
      "longitude": "-90.07473423175934"
    }
  },
  {
    "service_request": "2024-1080604",
    "request_type": "Trash/Recycling",
    "request_reason": "Order Trash Cart",
    "date_created": "2024-04-01T19:00:00.000",
    "date_modified": "2024-04-01T19:00:01.000",
    "request_status": "Pending",
    "responsible_agency": "Department of Sanitation",
    "final_address": "1602 Lesseps St",
    "address_councildis": "D",
    "status": "Assigned to Contractor",
    "contractor": "IV Waste",
    "rowid": "1080604",
    "final_x": "3693141.64278",
    "final_y": "536993.636488",
    "longitude": "-90.03111393803793",
    "latitude": "29.97018765520721",
    "geocoded_column": {
      "latitude": "29.97018765520721",
      "longitude": "-90.03111393803793"
    }
  },
  {
    "service_request": "2024-1080603",
    "request_type": "Trash/Recycling",
    "request_reason": "Replace Recycling Cart",
    "date_created": "2024-04-01T18:46:02.000",
    "date_modified": "2024-04-01T18:46:02.000",
    "request_status": "Pending",
    "responsible_agency": "Department of Sanitation",
    "final_address": "5415 Bellaire Dr",
    "address_councildis": "A",
    "status": "Pending",
    "rowid": "1080603",
    "final_x": "3664075.03303",
    "final_y": "543747.530894",
    "longitude": "-90.12268439979964",
    "latitude": "29.98963489841442",
    "geocoded_column": {
      "latitude": "29.98963489841442",
      "longitude": "-90.12268439979964"
    }
  },
  {
    "service_request": "2024-1080602",
    "request_type": "Trash/Recycling",
    "request_reason": "Repair Trash Cart",
    "date_created": "2024-04-01T18:23:28.000",
    "date_modified": "2024-04-01T18:23:29.000",
    "request_status": "Pending",
    "responsible_agency": "Department of Sanitation",
    "final_address": "1565 De Battista Pl",
    "address_councildis": "C",
    "status": "Assigned to Contractor",
    "contractor": "Richards Disposal",
    "rowid": "1080602",
    "final_x": "3699701.48727",
    "final_y": "525242.143037",
    "longitude": "-90.01082573624375",
    "latitude": "29.937668588974045",
    "geocoded_column": {
      "latitude": "29.937668588974045",
      "longitude": "-90.01082573624375"
    }
  },
  {
    "service_request": "2024-1080601",
    "request_type": "Trash/Recycling",
    "request_reason": "Repair Recycling Cart",
    "date_created": "2024-04-01T18:21:01.000",
    "date_modified": "2024-04-01T18:21:01.000",
    "request_status": "Pending",
    "responsible_agency": "Department of Sanitation",
    "final_address": "1565 De Battista Pl",
    "address_councildis": "C",
    "status": "Pending",
    "rowid": "1080601",
    "final_x": "3699701.48727",
    "final_y": "525242.143037",
    "longitude": "-90.01082573624375",
    "latitude": "29.937668588974045",
    "geocoded_column": {
      "latitude": "29.937668588974045",
      "longitude": "-90.01082573624375"
    }
  },
  {
    "service_request": "2024-1080600",
    "request_type": "Trash/Recycling",
    "request_reason": "Order Trash Cart",
    "date_created": "2024-04-01T18:18:53.000",
    "date_modified": "2024-04-01T18:18:54.000",
    "request_status": "Pending",
    "responsible_agency": "Department of Sanitation",
    "final_address": "824 Weiblen Pl",
    "address_councildis": "A",
    "status": "Assigned to Contractor",
    "contractor": "IV Waste",
    "rowid": "1080600",
    "final_x": "3668601.90606",
    "final_y": "542505.920653",
    "longitude": "-90.10842715312032",
    "latitude": "29.986088603842294",
    "geocoded_column": {
      "latitude": "29.986088603842294",
      "longitude": "-90.10842715312032"
    }
  },
  {
    "service_request": "2024-1080599",
    "request_type": "Trash/Recycling",
    "request_reason": "Request a Large Item Pick Up",
    "date_created": "2024-04-01T18:14:27.000",
    "date_modified": "2024-04-01T18:14:27.000",
    "request_status": "Pending",
    "responsible_agency": "Department of Sanitation",
    "final_address": "1433 Toledano St",
    "address_councildis": "B",
    "status": "Assigned to Contractor",
    "contractor": "IV Waste",
    "rowid": "1080599",
    "final_x": "3674899.49089",
    "final_y": "521012.759673",
    "longitude": "-90.08927260119415",
    "latitude": "29.92680297771542",
    "geocoded_column": {
      "latitude": "29.92680297771542",
      "longitude": "-90.08927260119415"
    }
  },
  {
    "service_request": "2024-1080598",
    "request_type": "Trash/Recycling",
    "request_reason": "Replace Trash Cart",
    "date_created": "2024-04-01T18:13:50.000",
    "date_modified": "2024-04-01T18:13:51.000",
    "request_status": "Pending",
    "responsible_agency": "Department of Sanitation",
    "final_address": "1513 Arabella St",
    "address_councildis": "A",
    "status": "Assigned to Contractor",
    "contractor": "IV Waste",
    "rowid": "1080598",
    "final_x": "3666489.58074",
    "final_y": "521684.911929",
    "longitude": "-90.11579799110649",
    "latitude": "29.928899572165953",
    "geocoded_column": {
      "latitude": "29.928899572165953",
      "longitude": "-90.11579799110649"
    }
  },
  {
    "service_request": "2024-1080597",
    "request_type": "Trash/Recycling",
    "request_reason": "Illegal Dumping",
    "date_created": "2024-04-01T18:01:52.000",
    "date_modified": "2024-04-01T18:01:52.000",
    "request_status": "Pending",
    "responsible_agency": "Department of Sanitation",
    "final_address": "1022 Piety St",
    "address_councildis": "C",
    "status": "Pending",
    "rowid": "1080597",
    "final_x": "3689750.56604",
    "final_y": "535553.750534",
    "longitude": "-90.04187453131154",
    "latitude": "29.966334006769355",
    "geocoded_column": {
      "latitude": "29.966334006769355",
      "longitude": "-90.04187453131154"
    }
  },
  {
    "service_request": "2024-1080596",
    "request_type": "Property Maintenance",
    "request_reason": "Property Maintenance",
    "date_created": "2024-04-01T17:47:27.000",
    "date_modified": "2024-04-01T17:47:27.000",
    "request_status": "Pending",
    "responsible_agency": "Department of Code Enforcement",
    "final_address": "5018 Constance St",
    "address_councildis": "B",
    "status": "Pending",
    "rowid": "1080596",
    "final_x": "3668479.48814",
    "final_y": "518157.039926",
    "longitude": "-90.10963516921593",
    "latitude": "29.919140751944695",
    "geocoded_column": {
      "latitude": "29.919140751944695",
      "longitude": "-90.10963516921593"
    }
  },
  {
    "service_request": "2024-1080595",
    "request_type": "Traffic Signals/Signs/Striping/Streetlights",
    "request_reason": "Additional signage",
    "date_created": "2024-04-01T17:44:07.000",
    "date_modified": "2024-04-01T17:44:07.000",
    "request_status": "Pending",
    "responsible_agency": "Department of Public Works",
    "final_address": "3930 General Taylor St",
    "address_councildis": "B",
    "status": "Pending",
    "rowid": "1080595",
    "final_x": "3670688.3707",
    "final_y": "529133.707584",
    "longitude": "-90.10229059490663",
    "latitude": "29.94925800227631",
    "geocoded_column": {
      "latitude": "29.94925800227631",
      "longitude": "-90.10229059490663"
    }
  },
  {
    "service_request": "2024-1080594",
    "request_type": "Trash/Recycling",
    "request_reason": "Replace Trash Cart",
    "date_created": "2024-04-01T17:42:03.000",
    "date_modified": "2024-04-01T17:42:04.000",
    "request_status": "Pending",
    "responsible_agency": "Department of Sanitation",
    "final_address": "911 Elysian Fields Ave",
    "address_councildis": "C",
    "status": "Assigned to Contractor",
    "contractor": "IV Waste",
    "rowid": "1080594",
    "final_x": "3685139.33577",
    "final_y": "535680.239367",
    "longitude": "-90.05643223984076",
    "latitude": "29.966823907929854",
    "geocoded_column": {
      "latitude": "29.966823907929854",
      "longitude": "-90.05643223984076"
    }
  },
  {
    "service_request": "2024-1080593",
    "request_type": "Trash/Recycling",
    "request_reason": "Order Recycling Cart",
    "date_created": "2024-04-01T17:41:21.000",
    "date_modified": "2024-04-01T17:41:21.000",
    "request_status": "Pending",
    "responsible_agency": "Department of Sanitation",
    "final_address": "3930 General Taylor St",
    "address_councildis": "B",
    "status": "Pending",
    "rowid": "1080593",
    "final_x": "3670688.3707",
    "final_y": "529133.707584",
    "longitude": "-90.10229059490663",
    "latitude": "29.94925800227631",
    "geocoded_column": {
      "latitude": "29.94925800227631",
      "longitude": "-90.10229059490663"
    }
  },
  {
    "service_request": "2024-1080592",
    "request_type": "Traffic Signals/Signs/Striping/Streetlights",
    "request_reason": "Street Light Outage/Malfunction",
    "date_created": "2024-04-01T17:40:40.000",
    "date_modified": "2024-04-01T17:40:40.000",
    "request_status": "Pending",
    "responsible_agency": "Department of Public Works",
    "final_address": "100 BLK Neil Ave",
    "address_councildis": "C",
    "status": "Assigned to Contractor",
    "contractor": "Legacy Professional Services",
    "rowid": "1080592",
    "final_x": "3705769.6419",
    "final_y": "518765.051496",
    "longitude": "-89.99190765997389",
    "latitude": "29.919664879811847",
    "geocoded_column": {
      "latitude": "29.919664879811847",
      "longitude": "-89.99190765997389"
    }
  },
  {
    "service_request": "2024-1080591",
    "request_type": "Trash/Recycling",
    "request_reason": "Order Recycling Cart",
    "date_created": "2024-04-01T17:39:33.000",
    "date_modified": "2024-04-01T17:39:33.000",
    "request_status": "Pending",
    "responsible_agency": "Department of Sanitation",
    "final_address": "217 Alix St",
    "address_councildis": "C",
    "status": "Pending",
    "rowid": "1080591",
    "final_x": "3686276.9997",
    "final_y": "529807.186817",
    "longitude": "-90.05304673949132",
    "latitude": "29.950640126906887",
    "geocoded_column": {
      "latitude": "29.950640126906887",
      "longitude": "-90.05304673949132"
    }
  },
  {
    "service_request": "2024-1080590",
    "request_type": "Roads/Drainage",
    "request_reason": "Pothole",
    "date_created": "2024-04-01T17:38:46.000",
    "date_modified": "2024-04-01T17:38:46.000",
    "request_status": "Pending",
    "responsible_agency": "Department of Public Works",
    "final_address": "4216 Chestnut St",
    "address_councildis": "B",
    "status": "Pending",
    "rowid": "1080590",
    "final_x": "3671574.31393",
    "final_y": "519539.203703",
    "longitude": "-90.09981939416457",
    "latitude": "29.922850019854593",
    "geocoded_column": {
      "latitude": "29.922850019854593",
      "longitude": "-90.09981939416457"
    }
  },
  {
    "service_request": "2024-1080589",
    "request_type": "Traffic Signals/Signs/Striping/Streetlights",
    "request_reason": "Disabled Parking Sign ",
    "date_created": "2024-04-01T17:38:37.000",
    "date_modified": "2024-04-01T17:38:37.000",
    "request_status": "Pending",
    "responsible_agency": "Department of Public Works",
    "final_address": "3930 General Taylor St",
    "address_councildis": "B",
    "status": "Pending",
    "rowid": "1080589",
    "final_x": "3670688.3707",
    "final_y": "529133.707584",
    "longitude": "-90.10229059490663",
    "latitude": "29.94925800227631",
    "geocoded_column": {
      "latitude": "29.94925800227631",
      "longitude": "-90.10229059490663"
    }
  },
  {
    "service_request": "2024-1080587",
    "request_type": "Trash/Recycling",
    "request_reason": "Order Recycling Cart",
    "date_created": "2024-04-01T17:30:56.000",
    "date_modified": "2024-04-01T17:30:56.000",
    "request_status": "Pending",
    "responsible_agency": "Department of Sanitation",
    "final_address": "620 Philip St",
    "address_councildis": "B",
    "status": "Pending",
    "rowid": "1080587",
    "final_x": "3679510.37365",
    "final_y": "520523.865464",
    "longitude": "-90.07473423175934",
    "latitude": "29.925320220942282",
    "geocoded_column": {
      "latitude": "29.925320220942282",
      "longitude": "-90.07473423175934"
    }
  },
  {
    "service_request": "2024-1080586",
    "request_type": "Trash/Recycling",
    "request_reason": "Request a Large Item Pick Up",
    "date_created": "2024-04-01T17:28:34.000",
    "date_modified": "2024-04-01T17:28:35.000",
    "request_status": "Pending",
    "responsible_agency": "Department of Sanitation",
    "final_address": "13237 St Helena Pl",
    "address_councildis": "E",
    "status": "Assigned to Contractor",
    "rowid": "1080586",
    "final_x": "3726934.04313",
    "final_y": "564221.260065",
    "longitude": "-89.92333752255193",
    "latitude": "30.04395347426982",
    "geocoded_column": {
      "latitude": "30.04395347426982",
      "longitude": "-89.92333752255193"
    }
  },
  {
    "service_request": "2024-1080585",
    "request_type": "Health Related Request",
    "request_reason": "Noise Ordinance Complaint",
    "date_created": "2024-04-01T17:16:22.000",
    "date_modified": "2024-04-01T19:04:53.000",
    "request_status": "Pending",
    "responsible_agency": "Health Department",
    "final_address": "New Orleans,LA",
    "address_councildis": "C",
    "status": "Pending",
    "rowid": "1080585",
    "final_x": "3682321.9",
    "final_y": "532161.48",
    "longitude": "-90.06545264678084",
    "latitude": "29.95723455418921",
    "geocoded_column": {
      "latitude": "29.95723455418921",
      "longitude": "-90.06545264678084"
    }
  },
  {
    "service_request": "2024-1080584",
    "request_type": "Trash/Recycling",
    "request_reason": "Request a Large Item Pick Up",
    "date_created": "2024-04-01T17:12:39.000",
    "date_modified": "2024-04-01T17:12:39.000",
    "request_status": "Pending",
    "responsible_agency": "Department of Sanitation",
    "final_address": "2510 Cambronne St",
    "address_councildis": "A",
    "status": "Assigned to Contractor",
    "contractor": "IV Waste",
    "rowid": "1080584",
    "final_x": "3664368.40058",
    "final_y": "532674.200836",
    "longitude": "-90.12212745892796",
    "latitude": "29.95917839627396",
    "geocoded_column": {
      "latitude": "29.95917839627396",
      "longitude": "-90.12212745892796"
    }
  },
  {
    "service_request": "2024-1080583",
    "request_type": "Trash/Recycling",
    "request_reason": "Order Trash Cart",
    "date_created": "2024-04-01T17:10:06.000",
    "date_modified": "2024-04-01T17:10:07.000",
    "request_status": "Pending",
    "responsible_agency": "Department of Sanitation",
    "final_address": "7040 Lake Willow Dr",
    "address_councildis": "E",
    "status": "Assigned to Contractor",
    "rowid": "1080583",
    "final_x": "3702276.59453",
    "final_y": "559012.046364",
    "longitude": "-90.0014567516561",
    "latitude": "30.030441403811114",
    "geocoded_column": {
      "latitude": "30.030441403811114",
      "longitude": "-90.0014567516561"
    }
  },
  {
    "service_request": "2024-1080582",
    "request_type": "Trash/Recycling",
    "request_reason": "Request a Large Item Pick Up",
    "date_created": "2024-04-01T16:57:24.000",
    "date_modified": "2024-04-01T16:57:25.000",
    "request_status": "Pending",
    "responsible_agency": "Department of Sanitation",
    "final_address": "5301 Zeno Pl",
    "address_councildis": "E",
    "status": "Assigned to Contractor",
    "rowid": "1080582",
    "final_x": "3718479.46239",
    "final_y": "561412.100254",
    "longitude": "-89.95016456555308",
    "latitude": "30.036512777975023",
    "geocoded_column": {
      "latitude": "30.036512777975023",
      "longitude": "-89.95016456555308"
    }
  },
  {
    "service_request": "2024-1080581",
    "request_type": "Trash/Recycling",
    "request_reason": "Request a Large Item Pick Up",
    "date_created": "2024-04-01T16:53:30.000",
    "date_modified": "2024-04-01T16:53:30.000",
    "request_status": "Pending",
    "responsible_agency": "Department of Sanitation",
    "final_address": "4811 Desire Dr",
    "address_councildis": "D",
    "status": "Assigned to Contractor",
    "contractor": "IV Waste",
    "rowid": "1080581",
    "final_x": "3691946.18582",
    "final_y": "551512.809429",
    "longitude": "-90.03436949610229",
    "latitude": "30.01014743060241",
    "geocoded_column": {
      "latitude": "30.01014743060241",
      "longitude": "-90.03436949610229"
    }
  },
  {
    "service_request": "2024-1080580",
    "request_type": "Trash/Recycling",
    "request_reason": "Order Trash Cart",
    "date_created": "2024-04-01T16:53:04.000",
    "date_modified": "2024-04-01T16:53:04.000",
    "request_status": "Pending",
    "responsible_agency": "Department of Sanitation",
    "final_address": "3710 Rue Delphine",
    "address_councildis": "C",
    "status": "Assigned to Contractor",
    "contractor": "Richards Disposal",
    "rowid": "1080580",
    "final_x": "3703076.0241",
    "final_y": "516874.191413",
    "longitude": "-90.00047944535595",
    "latitude": "29.914552097291445",
    "geocoded_column": {
      "latitude": "29.914552097291445",
      "longitude": "-90.00047944535595"
    }
  },
  {
    "service_request": "2024-1080579",
    "request_type": "Roads/Drainage",
    "request_reason": "Pothole",
    "date_created": "2024-04-01T16:47:07.000",
    "date_modified": "2024-04-01T16:47:07.000",
    "request_status": "Pending",
    "responsible_agency": "Department of Public Works",
    "final_address": "1301 Constantinople St",
    "address_councildis": "B",
    "status": "Pending",
    "rowid": "1080579",
    "final_x": "3672430.66305",
    "final_y": "520250.7726",
    "longitude": "-90.09709199725775",
    "latitude": "29.924781230435865",
    "geocoded_column": {
      "latitude": "29.924781230435865",
      "longitude": "-90.09709199725775"
    }
  },
  {
    "service_request": "2024-1080578",
    "request_type": "Roads/Drainage",
    "request_reason": "Pothole",
    "date_created": "2024-04-01T16:42:01.000",
    "date_modified": "2024-04-01T16:42:01.000",
    "request_status": "Pending",
    "responsible_agency": "Department of Public Works",
    "final_address": "1312 Milan St",
    "address_councildis": "B",
    "status": "Pending",
    "rowid": "1080578",
    "final_x": "3671625.82823",
    "final_y": "520286.919608",
    "longitude": "-90.09963137110304",
    "latitude": "29.92490447494246",
    "geocoded_column": {
      "latitude": "29.92490447494246",
      "longitude": "-90.09963137110304"
    }
  },
  {
    "service_request": "2024-1080577",
    "request_type": "Trash/Recycling",
    "request_reason": "Request a Large Item Pick Up",
    "date_created": "2024-04-01T16:41:32.000",
    "date_modified": "2024-04-01T16:58:01.000",
    "request_status": "Pending",
    "responsible_agency": "Department of Sanitation",
    "final_address": "4945 Perelli Dr",
    "address_councildis": "E",
    "status": "Assigned to Contractor",
    "contractor": "Waste Pro",
    "rowid": "1080577",
    "final_x": "3711659.77541",
    "final_y": "557426.634139",
    "longitude": "-89.97186560731012",
    "latitude": "30.02577891789293",
    "geocoded_column": {
      "latitude": "30.02577891789293",
      "longitude": "-89.97186560731012"
    }
  },
  {
    "service_request": "2024-1080576",
    "request_type": "Trash/Recycling",
    "request_reason": "Request a Large Item Pick Up",
    "date_created": "2024-04-01T16:41:07.000",
    "date_modified": "2024-04-01T16:41:16.000",
    "request_status": "Pending",
    "responsible_agency": "Department of Sanitation",
    "final_address": "6020 Orleans Ave",
    "address_councildis": "A",
    "status": "Assigned to Contractor",
    "contractor": "IV Waste",
    "rowid": "1080576",
    "final_x": "3670805.40705",
    "final_y": "547262.530449",
    "longitude": "-90.10130559573899",
    "latitude": "29.999102686171103",
    "geocoded_column": {
      "latitude": "29.999102686171103",
      "longitude": "-90.10130559573899"
    }
  },
  {
    "service_request": "2024-1080574",
    "request_type": "Roads/Drainage",
    "request_reason": "Street Flooding / Drainage",
    "date_created": "2024-04-01T16:39:26.000",
    "date_modified": "2024-04-01T16:39:26.000",
    "request_status": "Pending",
    "responsible_agency": "Department of Public Works",
    "final_address": "0 BLK Curtis Dr",
    "address_councildis": "E",
    "status": "Pending",
    "rowid": "1080574",
    "final_x": "3697711.23577",
    "final_y": "560783.127893",
    "longitude": "-90.01581891075541",
    "latitude": "30.03545631669873",
    "geocoded_column": {
      "latitude": "30.03545631669873",
      "longitude": "-90.01581891075541"
    }
  },
  {
    "service_request": "2024-1080575",
    "request_type": "Trash/Recycling",
    "request_reason": "Order Recycling Cart",
    "date_created": "2024-04-01T16:39:26.000",
    "date_modified": "2024-04-01T16:39:26.000",
    "request_status": "Pending",
    "responsible_agency": "Department of Sanitation",
    "final_address": "1614 S Liberty St",
    "address_councildis": "B",
    "status": "Pending",
    "rowid": "1080575",
    "final_x": "3676762.54529",
    "final_y": "526556.04051",
    "longitude": "-90.08320051943737",
    "latitude": "29.94198943542559",
    "geocoded_column": {
      "latitude": "29.94198943542559",
      "longitude": "-90.08320051943737"
    }
  },
  {
    "service_request": "2024-1080573",
    "request_type": "Trash/Recycling",
    "request_reason": "MIssed Recycling Pick-Up",
    "date_created": "2024-04-01T16:39:01.000",
    "date_modified": "2024-04-01T16:39:01.000",
    "request_status": "Pending",
    "responsible_agency": "Department of Sanitation",
    "final_address": "1524 Euterpe St Unit A",
    "address_councildis": "B",
    "status": "Assigned to Contractor",
    "contractor": "IV Waste",
    "rowid": "1080573",
    "final_x": "3679103.26178",
    "final_y": "524819.218108",
    "longitude": "-90.075870556507",
    "latitude": "29.937143321234633",
    "geocoded_column": {
      "latitude": "29.937143321234633",
      "longitude": "-90.075870556507"
    }
  },
  {
    "service_request": "2024-1080572",
    "request_type": "Trash/Recycling",
    "request_reason": "Missed Trash Pick-Up",
    "date_created": "2024-04-01T16:38:42.000",
    "date_modified": "2024-04-01T16:38:43.000",
    "request_status": "Pending",
    "responsible_agency": "Department of Sanitation",
    "final_address": "1524 Euterpe St Unit A",
    "address_councildis": "B",
    "status": "Assigned to Contractor",
    "contractor": "IV Waste",
    "rowid": "1080572",
    "final_x": "3679103.26178",
    "final_y": "524819.218108",
    "longitude": "-90.075870556507",
    "latitude": "29.937143321234633",
    "geocoded_column": {
      "latitude": "29.937143321234633",
      "longitude": "-90.075870556507"
    }
  },
  {
    "service_request": "2024-1080570",
    "request_type": "Trash/Recycling",
    "request_reason": "Request a Large Item Pick Up",
    "date_created": "2024-04-01T16:32:13.000",
    "date_modified": "2024-04-01T16:32:14.000",
    "request_status": "Pending",
    "responsible_agency": "Department of Sanitation",
    "final_address": "1230 Filmore Ave",
    "address_councildis": "D",
    "status": "Assigned to Contractor",
    "contractor": "IV Waste",
    "rowid": "1080570",
    "final_x": "3677063.31656",
    "final_y": "551598.973525",
    "longitude": "-90.08138704559273",
    "latitude": "30.01083986624184",
    "geocoded_column": {
      "latitude": "30.01083986624184",
      "longitude": "-90.08138704559273"
    }
  },
  {
    "service_request": "2024-1080569",
    "request_type": "Trash/Recycling",
    "request_reason": "Order Recycling Cart",
    "date_created": "2024-04-01T16:31:05.000",
    "date_modified": "2024-04-01T16:31:05.000",
    "request_status": "Pending",
    "responsible_agency": "Department of Sanitation",
    "final_address": "1817 Urquhart St",
    "address_councildis": "C",
    "status": "Pending",
    "rowid": "1080569",
    "final_x": "3683622.78133",
    "final_y": "536967.412872",
    "longitude": "-90.06117637984612",
    "latitude": "29.970409572268508",
    "geocoded_column": {
      "latitude": "29.970409572268508",
      "longitude": "-90.06117637984612"
    }
  },
  {
    "service_request": "2024-1080568",
    "request_type": "Trash/Recycling",
    "request_reason": "Replace Recycling Cart",
    "date_created": "2024-04-01T16:30:21.000",
    "date_modified": "2024-04-01T16:30:21.000",
    "request_status": "Pending",
    "responsible_agency": "Department of Sanitation",
    "final_address": "1904 Milan St, New Orleans, Louisiana, 70115",
    "address_councildis": "B",
    "status": "Pending",
    "rowid": "1080568",
    "final_x": "3671439.90388",
    "final_y": "522084.324538",
    "longitude": "-90.100157211905",
    "latitude": "29.929852265746902",
    "geocoded_column": {
      "latitude": "29.929852265746902",
      "longitude": "-90.100157211905"
    }
  },
  {
    "service_request": "2024-1080567",
    "request_type": "Trash/Recycling",
    "request_reason": "Request a Large Item Pick Up",
    "date_created": "2024-04-01T16:28:26.000",
    "date_modified": "2024-04-01T16:28:27.000",
    "request_status": "Pending",
    "responsible_agency": "Department of Sanitation",
    "final_address": "1836 Milan St, New Orleans, Louisiana, 70115",
    "address_councildis": "B",
    "status": "Assigned to Contractor",
    "contractor": "IV Waste",
    "rowid": "1080567",
    "final_x": "3671441.31169",
    "final_y": "521959.758714",
    "longitude": "-90.10015699973437",
    "latitude": "29.929509708075912",
    "geocoded_column": {
      "latitude": "29.929509708075912",
      "longitude": "-90.10015699973437"
    }
  },
  {
    "service_request": "2024-1080566",
    "request_type": "Trash/Recycling",
    "request_reason": "Order Trash Cart",
    "date_created": "2024-04-01T16:27:19.000",
    "date_modified": "2024-04-01T16:33:49.000",
    "request_status": "Pending",
    "responsible_agency": "Department of Sanitation",
    "final_address": "2709 N Roman St",
    "address_councildis": "D",
    "contractor": "IV Waste",
    "rowid": "1080566",
    "final_x": "3688182.98959",
    "final_y": "539020.193738",
    "longitude": "-90.04670197698529",
    "latitude": "29.975913997017855",
    "geocoded_column": {
      "latitude": "29.975913997017855",
      "longitude": "-90.04670197698529"
    }
  },
  {
    "service_request": "2024-1080565",
    "request_type": "Trash/Recycling",
    "request_reason": "Request a Large Item Pick Up",
    "date_created": "2024-04-01T16:25:42.000",
    "date_modified": "2024-04-01T16:25:43.000",
    "request_status": "Pending",
    "responsible_agency": "Department of Sanitation",
    "final_address": "1213 Southlawn Blvd",
    "address_councildis": "C",
    "status": "Assigned to Contractor",
    "contractor": "Richards Disposal",
    "rowid": "1080565",
    "final_x": "3695143.19837",
    "final_y": "527270.220095",
    "longitude": "-90.0251434299288",
    "latitude": "29.943388976336188",
    "geocoded_column": {
      "latitude": "29.943388976336188",
      "longitude": "-90.0251434299288"
    }
  },
  {
    "service_request": "2024-1080564",
    "request_type": "Traffic Signals/Signs/Striping/Streetlights",
    "request_reason": "Street Light Outage/Malfunction",
    "date_created": "2024-04-01T16:23:50.000",
    "date_modified": "2024-04-01T16:36:15.000",
    "request_status": "Pending",
    "responsible_agency": "Department of Public Works",
    "final_address": "5601 Read Blvd",
    "address_councildis": "E",
    "status": "Assigned to Contractor",
    "contractor": "Legacy Professional Services",
    "rowid": "1080564",
    "final_x": "3711987.02949",
    "final_y": "559650.501085",
    "longitude": "-89.97074797591881",
    "latitude": "30.03188297577755",
    "geocoded_column": {
      "latitude": "30.03188297577755",
      "longitude": "-89.97074797591881"
    }
  },
  {
    "service_request": "2024-1080563",
    "request_type": "Abandoned Vehicles",
    "request_reason": "Abandoned/Junk Vehicles",
    "date_created": "2024-04-01T16:18:17.000",
    "date_modified": "2024-04-01T16:18:17.000",
    "request_status": "Pending",
    "responsible_agency": "Department of Public Works",
    "final_address": "1311 Annette St",
    "address_councildis": "C",
    "status": "Pending",
    "rowid": "1080563",
    "final_x": "3683142.32911",
    "final_y": "536633.017543",
    "longitude": "-90.06270541055812",
    "latitude": "29.969504759226712",
    "geocoded_column": {
      "latitude": "29.969504759226712",
      "longitude": "-90.06270541055812"
    }
  },
  {
    "service_request": "2024-1080562",
    "request_type": "Trash/Recycling",
    "request_reason": "Repair Trash Cart",
    "date_created": "2024-04-01T16:17:44.000",
    "date_modified": "2024-04-01T16:36:31.000",
    "request_status": "Pending",
    "responsible_agency": "Department of Sanitation",
    "final_address": "11251 S Parkwood Ct",
    "address_councildis": "E",
    "status": "Assigned to Contractor",
    "contractor": "Waste Pro",
    "rowid": "1080562",
    "final_x": "3716809.82904",
    "final_y": "559174.723612",
    "longitude": "-89.95552590628999",
    "latitude": "30.03041620408868",
    "geocoded_column": {
      "latitude": "30.03041620408868",
      "longitude": "-89.95552590628999"
    }
  },
  {
    "service_request": "2024-1080561",
    "request_type": "Property Maintenance",
    "request_reason": "Property Maintenance",
    "date_created": "2024-04-01T16:16:47.000",
    "date_modified": "2024-04-01T16:16:48.000",
    "request_status": "Pending",
    "responsible_agency": "Department of Code Enforcement",
    "final_address": "2930 Danbury Dr",
    "address_councildis": "C",
    "status": "Pending",
    "rowid": "1080561",
    "final_x": "3703831.59262",
    "final_y": "520042.10956",
    "longitude": "-89.99797810091228",
    "latitude": "29.923238591791282",
    "geocoded_column": {
      "latitude": "29.923238591791282",
      "longitude": "-89.99797810091228"
    }
  },
  {
    "service_request": "2024-1080560",
    "request_type": "Abandoned Vehicles",
    "request_reason": "Abandoned/Junk Vehicles",
    "date_created": "2024-04-01T16:16:00.000",
    "date_modified": "2024-04-01T16:16:00.000",
    "request_status": "Pending",
    "responsible_agency": "Department of Public Works",
    "final_address": "1309 Annette St",
    "address_councildis": "C",
    "status": "Pending",
    "rowid": "1080560",
    "final_x": "3683145.4541",
    "final_y": "536618.434247",
    "longitude": "-90.062696052304",
    "latitude": "29.9694645649225",
    "geocoded_column": {
      "latitude": "29.9694645649225",
      "longitude": "-90.062696052304"
    }
  },
  {
    "service_request": "2024-1080559",
    "request_type": "Trash/Recycling",
    "request_reason": "Request a Large Item Pick Up",
    "date_created": "2024-04-01T16:15:49.000",
    "date_modified": "2024-04-01T16:15:50.000",
    "request_status": "Pending",
    "responsible_agency": "Department of Sanitation",
    "final_address": "5944 Carlisle Ct",
    "address_councildis": "C",
    "status": "Assigned to Contractor",
    "contractor": "Richards Disposal",
    "rowid": "1080559",
    "final_x": "3705854.74679",
    "final_y": "516537.718581",
    "longitude": "-89.99172134579389",
    "latitude": "29.913537744685012",
    "geocoded_column": {
      "latitude": "29.913537744685012",
      "longitude": "-89.99172134579389"
    }
  },
  {
    "service_request": "2024-1080558",
    "request_type": "Utility Poles",
    "request_reason": "Utility Pole Leaning",
    "date_created": "2024-04-01T16:15:00.000",
    "date_modified": "2024-04-01T16:15:38.000",
    "request_status": "Pending",
    "responsible_agency": "Utility Company Collective",
    "final_address": "2808 Palmer Ave",
    "address_councildis": "A",
    "status": "Pending",
    "rowid": "1080558",
    "final_x": "3666820.10804",
    "final_y": "526914.559166",
    "longitude": "-90.11457898429398",
    "latitude": "29.943269768648463",
    "geocoded_column": {
      "latitude": "29.943269768648463",
      "longitude": "-90.11457898429398"
    }
  },
  {
    "service_request": "2024-1080557",
    "request_type": "Abandoned Vehicles",
    "request_reason": "Abandoned/Junk Vehicles",
    "date_created": "2024-04-01T16:13:40.000",
    "date_modified": "2024-04-01T16:13:40.000",
    "request_status": "Pending",
    "responsible_agency": "Department of Public Works",
    "final_address": "1326 Annette St",
    "address_councildis": "C",
    "status": "Pending",
    "rowid": "1080557",
    "final_x": "3683073.3206",
    "final_y": "536743.281031",
    "longitude": "-90.06291948412948",
    "latitude": "29.969810049639964",
    "geocoded_column": {
      "latitude": "29.969810049639964",
      "longitude": "-90.06291948412948"
    }
  },
  {
    "service_request": "2024-1080556",
    "request_type": "Trash/Recycling",
    "request_reason": "Request a Large Item Pick Up",
    "date_created": "2024-04-01T16:13:35.000",
    "date_modified": "2024-04-01T16:13:36.000",
    "request_status": "Pending",
    "responsible_agency": "Department of Sanitation",
    "final_address": "1400 BLK Mandolin St",
    "address_councildis": "D",
    "status": "Assigned to Contractor",
    "contractor": "IV Waste",
    "rowid": "1080556",
    "final_x": "3678519.66294",
    "final_y": "548013.261701",
    "longitude": "-90.07691009521369",
    "latitude": "30.00093660588423",
    "geocoded_column": {
      "latitude": "30.00093660588423",
      "longitude": "-90.07691009521369"
    }
  },
  {
    "service_request": "2024-1080555",
    "request_type": "Trash/Recycling",
    "request_reason": "Illegal Dumping",
    "date_created": "2024-04-01T16:12:48.000",
    "date_modified": "2024-04-01T16:12:48.000",
    "request_status": "Pending",
    "responsible_agency": "Department of Sanitation",
    "final_address": "4018 Pitt St",
    "address_councildis": "B",
    "status": "Pending",
    "rowid": "1080555",
    "final_x": "3672168.80244",
    "final_y": "520640.202169",
    "longitude": "-90.09790535196613",
    "latitude": "29.92585980284861",
    "geocoded_column": {
      "latitude": "29.92585980284861",
      "longitude": "-90.09790535196613"
    }
  },
  {
    "service_request": "2024-1080554",
    "request_type": "Trash/Recycling",
    "request_reason": "Request a Large Item Pick Up",
    "date_created": "2024-04-01T16:10:21.000",
    "date_modified": "2024-04-01T16:10:22.000",
    "request_status": "Pending",
    "responsible_agency": "Department of Sanitation",
    "final_address": "1538 N Dorgenois St",
    "address_councildis": "D",
    "status": "Assigned to Contractor",
    "contractor": "IV Waste",
    "rowid": "1080554",
    "final_x": "3679330.02677",
    "final_y": "539455.383306",
    "longitude": "-90.07464706737545",
    "latitude": "29.97738098379635",
    "geocoded_column": {
      "latitude": "29.97738098379635",
      "longitude": "-90.07464706737545"
    }
  },
  {
    "service_request": "2024-1080553",
    "request_type": "Traffic Signals/Signs/Striping/Streetlights",
    "request_reason": "Traffic Sign Missing/Damaged",
    "date_created": "2024-04-01T16:10:19.000",
    "date_modified": "2024-04-01T16:10:19.000",
    "request_status": "Pending",
    "responsible_agency": "Department of Public Works",
    "final_address": "1400 BLK N Lopez St",
    "address_councildis": "A",
    "status": "Pending",
    "rowid": "1080553",
    "final_x": "3676584.55427",
    "final_y": "540266.316565",
    "longitude": "-90.08329024819524",
    "latitude": "29.979693411200913",
    "geocoded_column": {
      "latitude": "29.979693411200913",
      "longitude": "-90.08329024819524"
    }
  },
  {
    "service_request": "2024-1080552",
    "request_type": "Trash/Recycling",
    "request_reason": "Request a Large Item Pick Up",
    "date_created": "2024-04-01T16:08:04.000",
    "date_modified": "2024-04-01T16:08:04.000",
    "request_status": "Pending",
    "responsible_agency": "Department of Sanitation",
    "final_address": "8923 Hickory St",
    "address_councildis": "A",
    "status": "Assigned to Contractor",
    "contractor": "IV Waste",
    "rowid": "1080552",
    "final_x": "3661212.01747",
    "final_y": "531962.054147",
    "longitude": "-90.13211817573081",
    "latitude": "29.957311586857298",
    "geocoded_column": {
      "latitude": "29.957311586857298",
      "longitude": "-90.13211817573081"
    }
  },
  {
    "service_request": "2024-1080551",
    "request_type": "Trash/Recycling",
    "request_reason": "Illegal Dumping",
    "date_created": "2024-04-01T16:06:58.000",
    "date_modified": "2024-04-01T16:06:59.000",
    "request_status": "Pending",
    "responsible_agency": "Department of Sanitation",
    "final_address": "1347 Moss St",
    "address_councildis": "A",
    "status": "Pending",
    "rowid": "1080551",
    "final_x": "3674775.9876",
    "final_y": "540519.565323",
    "longitude": "-90.08899375693768",
    "latitude": "29.98044388613289",
    "geocoded_column": {
      "latitude": "29.98044388613289",
      "longitude": "-90.08899375693768"
    }
  },
  {
    "service_request": "2024-1080550",
    "request_type": "Trash/Recycling",
    "request_reason": "Repair Trash Cart",
    "date_created": "2024-04-01T16:05:31.000",
    "date_modified": "2024-04-01T16:05:31.000",
    "request_status": "Pending",
    "responsible_agency": "Department of Sanitation",
    "final_address": "1241 S Genois St",
    "address_councildis": "B",
    "status": "Assigned to Contractor",
    "contractor": "IV Waste",
    "rowid": "1080550",
    "final_x": "3669273.96775",
    "final_y": "532542.437636",
    "longitude": "-90.10664128097486",
    "latitude": "29.95867259785298",
    "geocoded_column": {
      "latitude": "29.95867259785298",
      "longitude": "-90.10664128097486"
    }
  },
  {
    "service_request": "2024-1080549",
    "request_type": "Trash/Recycling",
    "request_reason": "Repair Trash Cart",
    "date_created": "2024-04-01T16:05:07.000",
    "date_modified": "2024-04-01T16:05:08.000",
    "request_status": "Pending",
    "responsible_agency": "Department of Sanitation",
    "final_address": "1241 S Genois St",
    "address_councildis": "B",
    "status": "Assigned to Contractor",
    "contractor": "IV Waste",
    "rowid": "1080549",
    "final_x": "3669273.96775",
    "final_y": "532542.437636",
    "longitude": "-90.10664128097486",
    "latitude": "29.95867259785298",
    "geocoded_column": {
      "latitude": "29.95867259785298",
      "longitude": "-90.10664128097486"
    }
  },
  {
    "service_request": "2024-1080548",
    "request_type": "Trash/Recycling",
    "request_reason": "Order Trash Cart",
    "date_created": "2024-04-01T16:02:05.000",
    "date_modified": "2024-04-01T16:02:05.000",
    "request_status": "Pending",
    "responsible_agency": "Department of Sanitation",
    "final_address": "1901 Leonidas St",
    "address_councildis": "A",
    "status": "Assigned to Contractor",
    "contractor": "IV Waste",
    "rowid": "1080548",
    "final_x": "3662398.58989",
    "final_y": "531434.838147",
    "longitude": "-90.12838882710969",
    "latitude": "29.95582765673627",
    "geocoded_column": {
      "latitude": "29.95582765673627",
      "longitude": "-90.12838882710969"
    }
  },
  {
    "service_request": "2024-1080547",
    "request_type": "Trash/Recycling",
    "request_reason": "Order Trash Cart",
    "date_created": "2024-04-01T16:01:54.000",
    "date_modified": "2024-04-01T16:01:54.000",
    "request_status": "Pending",
    "responsible_agency": "Department of Sanitation",
    "final_address": "1901 Leonidas St",
    "address_councildis": "A",
    "status": "Assigned to Contractor",
    "contractor": "IV Waste",
    "rowid": "1080547",
    "final_x": "3662398.58989",
    "final_y": "531434.838147",
    "longitude": "-90.12838882710969",
    "latitude": "29.95582765673627",
    "geocoded_column": {
      "latitude": "29.95582765673627",
      "longitude": "-90.12838882710969"
    }
  },
  {
    "service_request": "2024-1080546",
    "request_type": "Trash/Recycling",
    "request_reason": "Order Trash Cart",
    "date_created": "2024-04-01T16:01:44.000",
    "date_modified": "2024-04-01T16:01:45.000",
    "request_status": "Pending",
    "responsible_agency": "Department of Sanitation",
    "final_address": "1901 Leonidas St",
    "address_councildis": "A",
    "status": "Assigned to Contractor",
    "contractor": "IV Waste",
    "rowid": "1080546",
    "final_x": "3662398.58989",
    "final_y": "531434.838147",
    "longitude": "-90.12838882710969",
    "latitude": "29.95582765673627",
    "geocoded_column": {
      "latitude": "29.95582765673627",
      "longitude": "-90.12838882710969"
    }
  },
  {
    "service_request": "2024-1080545",
    "request_type": "Trash/Recycling",
    "request_reason": "Request a Large Item Pick Up",
    "date_created": "2024-04-01T16:01:31.000",
    "date_modified": "2024-04-01T16:01:31.000",
    "request_status": "Pending",
    "responsible_agency": "Department of Sanitation",
    "final_address": "428 Stafford Pl",
    "address_councildis": "A",
    "status": "Assigned to Contractor",
    "contractor": "IV Waste",
    "rowid": "1080545",
    "final_x": "3664811.17242",
    "final_y": "553886.599383",
    "longitude": "-90.12002000722883",
    "latitude": "30.017492434035677",
    "geocoded_column": {
      "latitude": "30.017492434035677",
      "longitude": "-90.12002000722883"
    }
  },
  {
    "service_request": "2024-1080544",
    "request_type": "Abandoned Vehicles",
    "request_reason": "Abandoned/Junk Vehicles",
    "date_created": "2024-04-01T15:58:50.000",
    "date_modified": "2024-04-01T15:58:50.000",
    "request_status": "Pending",
    "responsible_agency": "Department of Public Works",
    "final_address": "5610 Clements Dr",
    "address_councildis": "E",
    "status": "Pending",
    "rowid": "1080544",
    "final_x": "3702389.11786",
    "final_y": "556309.50281",
    "longitude": "-90.00120046410092",
    "latitude": "30.023006856725793",
    "geocoded_column": {
      "latitude": "30.023006856725793",
      "longitude": "-90.00120046410092"
    }
  },
  {
    "service_request": "2024-1080543",
    "request_type": "Trash/Recycling",
    "request_reason": "Request a Large Item Pick Up",
    "date_created": "2024-04-01T15:58:23.000",
    "date_modified": "2024-04-01T16:36:52.000",
    "request_status": "Pending",
    "responsible_agency": "Department of Sanitation",
    "final_address": "7649 Shorewood Blvd",
    "address_councildis": "E",
    "status": "Assigned to Contractor",
    "contractor": "Waste Pro",
    "rowid": "1080543",
    "final_x": "3719705.24159",
    "final_y": "572884.529321",
    "longitude": "-89.94585189412176",
    "latitude": "30.06801646976862",
    "geocoded_column": {
      "latitude": "30.06801646976862",
      "longitude": "-89.94585189412176"
    }
  },
  {
    "service_request": "2024-1080542",
    "request_type": "Property Maintenance",
    "request_reason": "Property Maintenance",
    "date_created": "2024-04-01T15:57:17.000",
    "date_modified": "2024-04-01T15:57:17.000",
    "request_status": "Pending",
    "responsible_agency": "Department of Code Enforcement",
    "final_address": "7023 Yorktown Dr",
    "address_councildis": "E",
    "status": "Pending",
    "rowid": "1080542",
    "final_x": "3706220.24452",
    "final_y": "560539.206686",
    "longitude": "-89.98893825101841",
    "latitude": "30.034513864833208",
    "geocoded_column": {
      "latitude": "30.034513864833208",
      "longitude": "-89.98893825101841"
    }
  },
  {
    "service_request": "2024-1080540",
    "request_type": "Traffic Signals/Signs/Striping/Streetlights",
    "request_reason": "Traffic Sign Missing/Damaged",
    "date_created": "2024-04-01T15:55:02.000",
    "date_modified": "2024-04-01T15:55:02.000",
    "request_status": "Pending",
    "responsible_agency": "Department of Public Works",
    "final_address": "3100 BLK Grand Route St John St",
    "address_councildis": "A",
    "status": "Pending",
    "rowid": "1080540",
    "final_x": "3676521.21713",
    "final_y": "540314.607807",
    "longitude": "-90.08348862906884",
    "latitude": "29.979828095257563",
    "geocoded_column": {
      "latitude": "29.979828095257563",
      "longitude": "-90.08348862906884"
    }
  },
  {
    "service_request": "2024-1080539",
    "request_type": "Property Maintenance",
    "request_reason": "Property Maintenance",
    "date_created": "2024-04-01T15:54:31.000",
    "date_modified": "2024-04-01T15:54:31.000",
    "request_status": "Pending",
    "responsible_agency": "Department of Code Enforcement",
    "final_address": "5410 Peoples Ave",
    "address_councildis": "D",
    "status": "Pending",
    "rowid": "1080539",
    "final_x": "3687951.43017",
    "final_y": "553122.985751",
    "longitude": "-90.04693326205012",
    "latitude": "30.01469873829396",
    "geocoded_column": {
      "latitude": "30.01469873829396",
      "longitude": "-90.04693326205012"
    }
  },
  {
    "service_request": "2024-1080538",
    "request_type": "Trash/Recycling",
    "request_reason": "Request a Large Item Pick Up",
    "date_created": "2024-04-01T15:53:23.000",
    "date_modified": "2024-04-01T15:53:24.000",
    "request_status": "Pending",
    "responsible_agency": "Department of Sanitation",
    "final_address": "133 38Th St",
    "address_councildis": "A",
    "status": "Assigned to Contractor",
    "contractor": "IV Waste",
    "rowid": "1080538",
    "final_x": "3665997.0768",
    "final_y": "552690.276118",
    "longitude": "-90.11631315289726",
    "latitude": "30.014168383393713",
    "geocoded_column": {
      "latitude": "30.014168383393713",
      "longitude": "-90.11631315289726"
    }
  },
  {
    "service_request": "2024-1080536",
    "request_type": "Trash/Recycling",
    "request_reason": "Request a Large Item Pick Up",
    "date_created": "2024-04-01T15:51:31.000",
    "date_modified": "2024-04-01T15:51:31.000",
    "request_status": "Pending",
    "responsible_agency": "Department of Sanitation",
    "final_address": "133 38Th St",
    "address_councildis": "A",
    "status": "Assigned to Contractor",
    "contractor": "IV Waste",
    "rowid": "1080536",
    "final_x": "3665997.0768",
    "final_y": "552690.276118",
    "longitude": "-90.11631315289726",
    "latitude": "30.014168383393713",
    "geocoded_column": {
      "latitude": "30.014168383393713",
      "longitude": "-90.11631315289726"
    }
  },
  {
    "service_request": "2024-1080535",
    "request_type": "Trash/Recycling",
    "request_reason": "Request a Large Item Pick Up",
    "date_created": "2024-04-01T15:49:08.000",
    "date_modified": "2024-04-01T16:50:56.000",
    "case_close_date": "2024-04-01T11:50:56.000",
    "request_status": "Closed",
    "responsible_agency": "Department of Sanitation",
    "final_address": "7816 Devine Ave",
    "address_councildis": "E",
    "status": "Assigned to Contractor",
    "contractor": "Waste Pro",
    "contractor_action": "Completed",
    "rowid": "1080535",
    "final_x": "3705315.265",
    "final_y": "563528.947232",
    "longitude": "-89.99168746666332",
    "latitude": "30.0427636364847",
    "geocoded_column": {
      "latitude": "30.0427636364847",
      "longitude": "-89.99168746666332"
    }
  },
  {
    "service_request": "2024-1080534",
    "request_type": "Traffic Signals/Signs/Striping/Streetlights",
    "request_reason": "Street Light Outage/Malfunction",
    "date_created": "2024-04-01T15:47:50.000",
    "date_modified": "2024-04-01T15:47:51.000",
    "request_status": "Pending",
    "responsible_agency": "Department of Public Works",
    "final_address": "607 Julia St",
    "address_councildis": "B",
    "status": "Assigned to Contractor",
    "contractor": "Legacy Professional Services",
    "rowid": "1080534",
    "final_x": "3680682.202",
    "final_y": "527998.446143",
    "longitude": "-90.07077515684628",
    "latitude": "29.945837399890017",
    "geocoded_column": {
      "latitude": "29.945837399890017",
      "longitude": "-90.07077515684628"
    }
  },
  {
    "service_request": "2024-1080533",
    "request_type": "Traffic Signals/Signs/Striping/Streetlights",
    "request_reason": "Street Light Outage/Malfunction",
    "date_created": "2024-04-01T15:47:07.000",
    "date_modified": "2024-04-01T15:47:08.000",
    "request_status": "Pending",
    "responsible_agency": "Department of Public Works",
    "final_address": "8700 BLK Earhart Blvd",
    "address_councildis": "A",
    "status": "Assigned to Contractor",
    "contractor": "Legacy Professional Services",
    "rowid": "1080533",
    "final_x": "3664553.86869",
    "final_y": "534641.543694",
    "longitude": "-90.12147609005123",
    "latitude": "29.96458255253191",
    "geocoded_column": {
      "latitude": "29.96458255253191",
      "longitude": "-90.12147609005123"
    }
  },
  {
    "service_request": "2024-1080532",
    "request_type": "Trash/Recycling",
    "request_reason": "Request a Large Item Pick Up",
    "date_created": "2024-04-01T15:45:21.000",
    "date_modified": "2024-04-01T15:45:21.000",
    "request_status": "Pending",
    "responsible_agency": "Department of Sanitation",
    "final_address": "819 Patterson St",
    "address_councildis": "C",
    "status": "Assigned to Contractor",
    "contractor": "Richards Disposal",
    "rowid": "1080532",
    "final_x": "3688146.05084",
    "final_y": "531385.713923",
    "longitude": "-90.04708930334385",
    "latitude": "29.954922978956912",
    "geocoded_column": {
      "latitude": "29.954922978956912",
      "longitude": "-90.04708930334385"
    }
  },
  {
    "service_request": "2024-1080531",
    "request_type": "Trash/Recycling",
    "request_reason": "Request a Large Item Pick Up",
    "date_created": "2024-04-01T15:41:47.000",
    "date_modified": "2024-04-01T16:54:13.000",
    "case_close_date": "2024-04-01T11:54:13.000",
    "request_status": "Closed",
    "responsible_agency": "Department of Sanitation",
    "final_address": "7347 Read Blvd",
    "address_councildis": "E",
    "status": "Assigned to Contractor",
    "contractor": "Waste Pro",
    "contractor_action": "Completed",
    "rowid": "1080531",
    "final_x": "3709278.85413",
    "final_y": "563308.174176",
    "longitude": "-89.97916928963214",
    "latitude": "30.042028396015056",
    "geocoded_column": {
      "latitude": "30.042028396015056",
      "longitude": "-89.97916928963214"
    }
  },
  {
    "service_request": "2024-1080530",
    "request_type": "Trash/Recycling",
    "request_reason": "Request a Large Item Pick Up",
    "date_created": "2024-04-01T15:36:41.000",
    "date_modified": "2024-04-01T16:39:58.000",
    "request_status": "Pending",
    "responsible_agency": "Department of Sanitation",
    "final_address": "5701 New England Dr",
    "address_councildis": "E",
    "status": "Assigned to Contractor",
    "contractor": "Waste Pro",
    "rowid": "1080530",
    "final_x": "3723691.74687",
    "final_y": "564621.465505",
    "longitude": "-89.9335690125783",
    "latitude": "30.045163177823436",
    "geocoded_column": {
      "latitude": "30.045163177823436",
      "longitude": "-89.9335690125783"
    }
  },
  {
    "service_request": "2024-1080528",
    "request_type": "Roads/Drainage",
    "request_reason": "Catch Basin - Clogged",
    "date_created": "2024-04-01T15:36:20.000",
    "date_modified": "2024-04-01T15:36:21.000",
    "request_status": "Pending",
    "responsible_agency": "Department of Public Works",
    "final_address": "2343 Broadway St",
    "address_councildis": "A",
    "status": "Pending",
    "rowid": "1080528",
    "final_x": "3666612.98842",
    "final_y": "530045.880961",
    "longitude": "-90.11512780822115",
    "latitude": "29.95188594537842",
    "geocoded_column": {
      "latitude": "29.95188594537842",
      "longitude": "-90.11512780822115"
    }
  },
  {
    "service_request": "2024-1080527",
    "request_type": "Trash/Recycling",
    "request_reason": "Illegal Dumping",
    "date_created": "2024-04-01T15:35:24.000",
    "date_modified": "2024-04-01T15:35:26.000",
    "request_status": "Pending",
    "responsible_agency": "Department of Sanitation",
    "final_address": "2343 Broadway St",
    "address_councildis": "A",
    "status": "Pending",
    "rowid": "1080527",
    "final_x": "3666612.98842",
    "final_y": "530045.880961",
    "longitude": "-90.11512780822115",
    "latitude": "29.95188594537842",
    "geocoded_column": {
      "latitude": "29.95188594537842",
      "longitude": "-90.11512780822115"
    }
  },
  {
    "service_request": "2024-1080526",
    "request_type": "Trash/Recycling",
    "request_reason": "Order Trash Cart",
    "date_created": "2024-04-01T15:30:53.000",
    "date_modified": "2024-04-01T15:30:54.000",
    "request_status": "Pending",
    "responsible_agency": "Department of Sanitation",
    "final_address": "741 Washington Ave",
    "address_councildis": "B",
    "status": "Assigned to Contractor",
    "contractor": "IV Waste",
    "rowid": "1080526",
    "final_x": "3677731.74574",
    "final_y": "519877.686904",
    "longitude": "-90.08037110780596",
    "latitude": "29.923597038951026",
    "geocoded_column": {
      "latitude": "29.923597038951026",
      "longitude": "-90.08037110780596"
    }
  },
  {
    "service_request": "2024-1080525",
    "request_type": "Property Maintenance",
    "request_reason": "Property Maintenance",
    "date_created": "2024-04-01T15:29:50.000",
    "date_modified": "2024-04-01T15:29:50.000",
    "request_status": "Pending",
    "responsible_agency": "Department of Code Enforcement",
    "final_address": "3111 Wall Blvd",
    "address_councildis": "C",
    "status": "Pending",
    "rowid": "1080525",
    "final_x": "3695456.2353",
    "final_y": "523466.317883",
    "longitude": "-90.0242923011453",
    "latitude": "29.932919724747105",
    "geocoded_column": {
      "latitude": "29.932919724747105",
      "longitude": "-90.0242923011453"
    }
  },
  {
    "service_request": "2024-1080524",
    "request_type": "Trash/Recycling",
    "request_reason": "Request a Large Item Pick Up",
    "date_created": "2024-04-01T15:29:48.000",
    "date_modified": "2024-04-01T15:29:48.000",
    "request_status": "Pending",
    "responsible_agency": "Department of Sanitation",
    "final_address": "7419 Garfield St",
    "address_councildis": "A",
    "status": "Assigned to Contractor",
    "contractor": "IV Waste",
    "rowid": "1080524",
    "final_x": "3661445.98835",
    "final_y": "523792.262523",
    "longitude": "-90.13164991298837",
    "latitude": "29.934840521022576",
    "geocoded_column": {
      "latitude": "29.934840521022576",
      "longitude": "-90.13164991298837"
    }
  },
  {
    "service_request": "2024-1080523",
    "request_type": "Trash/Recycling",
    "request_reason": "Repair Recycling Cart",
    "date_created": "2024-04-01T15:18:27.000",
    "date_modified": "2024-04-01T15:18:27.000",
    "request_status": "Pending",
    "responsible_agency": "Department of Sanitation",
    "final_address": "14 Clubhouse Dr",
    "address_councildis": "C",
    "status": "Pending",
    "rowid": "1080523",
    "final_x": "3718404.28165",
    "final_y": "512694.563569",
    "longitude": "-89.95225778259146",
    "latitude": "29.902560437465123",
    "geocoded_column": {
      "latitude": "29.902560437465123",
      "longitude": "-89.95225778259146"
    }
  },
  {
    "service_request": "2024-1080522",
    "request_type": "Trash/Recycling",
    "request_reason": "Repair Recycling Cart",
    "date_created": "2024-04-01T15:11:41.000",
    "date_modified": "2024-04-01T15:11:41.000",
    "request_status": "Pending",
    "responsible_agency": "Department of Sanitation",
    "final_address": "4312 Perlita St",
    "address_councildis": "D",
    "status": "Pending",
    "rowid": "1080522",
    "final_x": "3678743.97262",
    "final_y": "548217.204946",
    "longitude": "-90.07619441473241",
    "latitude": "30.00149061251055",
    "geocoded_column": {
      "latitude": "30.00149061251055",
      "longitude": "-90.07619441473241"
    }
  },
  {
    "service_request": "2024-1080521",
    "request_type": "Trash/Recycling",
    "request_reason": "Missed Trash Pick-Up",
    "date_created": "2024-04-01T15:11:31.000",
    "date_modified": "2024-04-01T16:06:34.000",
    "case_close_date": "2024-04-01T11:06:34.000",
    "request_status": "Closed",
    "responsible_agency": "Department of Sanitation",
    "final_address": "1736 Congress St",
    "address_councildis": "D",
    "status": "Invalid Request",
    "contractor": "IV Waste",
    "contractor_action": "Invalid",
    "rowid": "1080521",
    "final_x": "3691305.05161",
    "final_y": "538114.291209",
    "longitude": "-90.03687402036758",
    "latitude": "29.973326323333282",
    "geocoded_column": {
      "latitude": "29.973326323333282",
      "longitude": "-90.03687402036758"
    }
  },
  {
    "service_request": "2024-1080520",
    "request_type": "Roads/Drainage",
    "request_reason": "Pothole",
    "date_created": "2024-04-01T15:10:16.000",
    "date_modified": "2024-04-01T15:10:16.000",
    "request_status": "Pending",
    "responsible_agency": "Department of Public Works",
    "final_address": "6521 Pauline Dr",
    "address_councildis": "D",
    "status": "Pending",
    "rowid": "1080520",
    "final_x": "3691065.00156",
    "final_y": "557758.603611",
    "longitude": "-90.03693021687161",
    "latitude": "30.0273484719055",
    "geocoded_column": {
      "latitude": "30.0273484719055",
      "longitude": "-90.03693021687161"
    }
  },
  {
    "service_request": "2024-1080519",
    "request_type": "Trash/Recycling",
    "request_reason": "Replace Trash Cart",
    "date_created": "2024-04-01T15:10:07.000",
    "date_modified": "2024-04-01T16:40:44.000",
    "request_status": "Pending",
    "responsible_agency": "Department of Sanitation",
    "final_address": "464 Flood St",
    "address_councildis": "E",
    "status": "Assigned to Contractor",
    "contractor": "Waste Pro",
    "rowid": "1080519",
    "final_x": "3697063.3249",
    "final_y": "531622.795907",
    "longitude": "-90.0189234923804",
    "latitude": "29.95529661912823",
    "geocoded_column": {
      "latitude": "29.95529661912823",
      "longitude": "-90.0189234923804"
    }
  },
  {
    "service_request": "2024-1080518",
    "request_type": "Abandoned Vehicles",
    "request_reason": "Abandoned/Junk Vehicles",
    "date_created": "2024-04-01T15:07:19.000",
    "date_modified": "2024-04-01T15:07:19.000",
    "request_status": "Pending",
    "responsible_agency": "Department of Public Works",
    "final_address": "0 BLK Virginia Ct",
    "address_councildis": "A",
    "status": "Pending",
    "rowid": "1080518",
    "final_x": "3668885.61232",
    "final_y": "542293.802667",
    "longitude": "-90.10753820093429",
    "latitude": "29.985497009372203",
    "geocoded_column": {
      "latitude": "29.985497009372203",
      "longitude": "-90.10753820093429"
    }
  },
  {
    "service_request": "2024-1080517",
    "request_type": "Trash/Recycling",
    "request_reason": "Request a Large Item Pick Up",
    "date_created": "2024-04-01T15:03:08.000",
    "date_modified": "2024-04-01T15:13:08.000",
    "request_status": "Pending",
    "responsible_agency": "Department of Sanitation",
    "final_address": "6340 General Diaz St",
    "address_councildis": "A",
    "status": "Assigned to Contractor",
    "contractor": "IV Waste",
    "rowid": "1080517",
    "final_x": "3669654.13358",
    "final_y": "549531.144915",
    "longitude": "-90.10486566840842",
    "latitude": "30.005374572949783",
    "geocoded_column": {
      "latitude": "30.005374572949783",
      "longitude": "-90.10486566840842"
    }
  },
  {
    "service_request": "2024-1080516",
    "request_type": "Trash/Recycling",
    "request_reason": "Replace Trash Cart",
    "date_created": "2024-04-01T15:02:31.000",
    "date_modified": "2024-04-01T15:02:32.000",
    "request_status": "Pending",
    "responsible_agency": "Department of Sanitation",
    "final_address": "2118 Josephine St",
    "address_councildis": "B",
    "status": "Assigned to Contractor",
    "contractor": "IV Waste",
    "rowid": "1080516",
    "final_x": "3676633.04513",
    "final_y": "525556.766077",
    "longitude": "-90.08364378786888",
    "latitude": "29.939245644212583",
    "geocoded_column": {
      "latitude": "29.939245644212583",
      "longitude": "-90.08364378786888"
    }
  },
  {
    "service_request": "2024-1080515",
    "request_type": "Parks & Parkways",
    "request_reason": "Request Tree Service (Right of Way/Public Property)",
    "date_created": "2024-04-01T15:00:39.000",
    "date_modified": "2024-04-01T15:00:40.000",
    "request_status": "Pending",
    "responsible_agency": "Department of Parks & Parkway",
    "final_address": "3600 Dante St",
    "address_councildis": "A",
    "status": "Pending",
    "rowid": "1080515",
    "final_x": "3667307.72173",
    "final_y": "535387.23143",
    "longitude": "-90.11275450685687",
    "latitude": "29.9665525750823",
    "geocoded_column": {
      "latitude": "29.9665525750823",
      "longitude": "-90.11275450685687"
    }
  },
  {
    "service_request": "2024-1080514",
    "request_type": "Trash/Recycling",
    "request_reason": "Request a Large Item Pick Up",
    "date_created": "2024-04-01T14:59:03.000",
    "date_modified": "2024-04-01T14:59:04.000",
    "request_status": "Pending",
    "responsible_agency": "Department of Sanitation",
    "final_address": "2916 Laurel St",
    "address_councildis": "B",
    "status": "Assigned to Contractor",
    "contractor": "IV Waste",
    "rowid": "1080514",
    "final_x": "3676924.29333",
    "final_y": "519820.149688",
    "longitude": "-90.08292192079136",
    "latitude": "29.923463083481074",
    "geocoded_column": {
      "latitude": "29.923463083481074",
      "longitude": "-90.08292192079136"
    }
  },
  {
    "service_request": "2024-1080513",
    "request_type": "Trash/Recycling",
    "request_reason": "Illegal Dumping",
    "date_created": "2024-04-01T14:55:02.000",
    "date_modified": "2024-04-01T14:55:02.000",
    "request_status": "Pending",
    "responsible_agency": "Department of Sanitation",
    "final_address": "2233 Delery St",
    "address_councildis": "E",
    "status": "Pending",
    "rowid": "1080513",
    "final_x": "3702143.36349",
    "final_y": "537054.310664",
    "longitude": "-90.00268353784313",
    "latitude": "29.970070120965428",
    "geocoded_column": {
      "latitude": "29.970070120965428",
      "longitude": "-90.00268353784313"
    }
  },
  {
    "service_request": "2024-1080512",
    "request_type": "Trash/Recycling",
    "request_reason": "Request a Large Item Pick Up",
    "date_created": "2024-04-01T14:53:41.000",
    "date_modified": "2024-04-01T14:53:41.000",
    "request_status": "Pending",
    "responsible_agency": "Department of Sanitation",
    "final_address": "8426 Jeannette St",
    "address_councildis": "A",
    "status": "Assigned to Contractor",
    "contractor": "IV Waste",
    "rowid": "1080512",
    "final_x": "3661713.48461",
    "final_y": "529970.174529",
    "longitude": "-90.13060070663147",
    "latitude": "29.9518200958751",
    "geocoded_column": {
      "latitude": "29.9518200958751",
      "longitude": "-90.13060070663147"
    }
  },
  {
    "service_request": "2024-1080511",
    "request_type": "Trash/Recycling",
    "request_reason": "Repair Recycling Cart",
    "date_created": "2024-04-01T14:51:48.000",
    "date_modified": "2024-04-01T14:51:49.000",
    "request_status": "Pending",
    "responsible_agency": "Department of Sanitation",
    "final_address": "4665 Laine Ave",
    "address_councildis": "E",
    "status": "Pending",
    "rowid": "1080511",
    "final_x": "3705840.94353",
    "final_y": "554966.109592",
    "longitude": "-89.99034330555838",
    "latitude": "30.019202250226833",
    "geocoded_column": {
      "latitude": "30.019202250226833",
      "longitude": "-89.99034330555838"
    }
  },
  {
    "service_request": "2024-1080510",
    "request_type": "Trash/Recycling",
    "request_reason": "Replace Trash Cart",
    "date_created": "2024-04-01T14:51:00.000",
    "date_modified": "2024-04-01T14:51:01.000",
    "request_status": "Pending",
    "responsible_agency": "Department of Sanitation",
    "final_address": "1119 Music St",
    "address_councildis": "C",
    "status": "Assigned to Contractor",
    "contractor": "IV Waste",
    "rowid": "1080510",
    "final_x": "3686859.18818",
    "final_y": "536727.119431",
    "longitude": "-90.0509639617974",
    "latitude": "29.969649652107247",
    "geocoded_column": {
      "latitude": "29.969649652107247",
      "longitude": "-90.0509639617974"
    }
  },
  {
    "service_request": "2024-1080509",
    "request_type": "Abandoned Vehicles",
    "request_reason": "Abandoned/Junk Vehicles",
    "date_created": "2024-04-01T14:47:03.000",
    "date_modified": "2024-04-01T14:47:04.000",
    "request_status": "Pending",
    "responsible_agency": "Department of Public Works",
    "final_address": "8614 Apricot St",
    "address_councildis": "A",
    "status": "Pending",
    "rowid": "1080509",
    "final_x": "3664401.49146",
    "final_y": "533877.864389",
    "longitude": "-90.12198278366772",
    "latitude": "29.962487115448823",
    "geocoded_column": {
      "latitude": "29.962487115448823",
      "longitude": "-90.12198278366772"
    }
  },
  {
    "service_request": "2024-1080508",
    "request_type": "Abandoned Vehicles",
    "request_reason": "Abandoned/Junk Vehicles",
    "date_created": "2024-04-01T14:46:38.000",
    "date_modified": "2024-04-01T14:46:38.000",
    "request_status": "Pending",
    "responsible_agency": "Department of Public Works",
    "final_address": "3200 BLK Elysian Fields Ave",
    "address_councildis": "D",
    "status": "Inspected",
    "rowid": "1080508",
    "final_x": "3684303.97617",
    "final_y": "544592.740327",
    "longitude": "-90.05875722168673",
    "latitude": "29.99135572992601",
    "geocoded_column": {
      "latitude": "29.99135572992601",
      "longitude": "-90.05875722168673"
    }
  },
  {
    "service_request": "2024-1080507",
    "request_type": "Trash/Recycling",
    "request_reason": "Order Recycling Cart",
    "date_created": "2024-04-01T14:45:51.000",
    "date_modified": "2024-04-01T14:45:51.000",
    "request_status": "Pending",
    "responsible_agency": "Department of Sanitation",
    "final_address": "2413 Ursulines Ave",
    "address_councildis": "D",
    "status": "Pending",
    "rowid": "1080507",
    "final_x": "3678656.83445",
    "final_y": "537420.82004",
    "longitude": "-90.07684369638507",
    "latitude": "29.971806951340337",
    "geocoded_column": {
      "latitude": "29.971806951340337",
      "longitude": "-90.07684369638507"
    }
  },
  {
    "service_request": "2024-1080506",
    "request_type": "Trash/Recycling",
    "request_reason": "Order Trash Cart",
    "date_created": "2024-04-01T14:45:32.000",
    "date_modified": "2024-04-01T14:45:33.000",
    "request_status": "Pending",
    "responsible_agency": "Department of Sanitation",
    "final_address": "4418 Hamilton St",
    "address_councildis": "A",
    "status": "Assigned to Contractor",
    "contractor": "IV Waste",
    "rowid": "1080506",
    "final_x": "3667045.79597",
    "final_y": "539288.760266",
    "longitude": "-90.11345049705518",
    "latitude": "29.97728814700933",
    "geocoded_column": {
      "latitude": "29.97728814700933",
      "longitude": "-90.11345049705518"
    }
  },
  {
    "service_request": "2024-1080505",
    "request_type": "Roads/Drainage",
    "request_reason": "Catch Basin - Broken/Damage",
    "date_created": "2024-04-01T14:43:16.000",
    "date_modified": "2024-04-01T14:45:35.000",
    "request_status": "Pending",
    "responsible_agency": "Department of Public Works",
    "final_address": "9301 Lake Forest Blvd",
    "address_councildis": "E",
    "status": "Pending",
    "rowid": "1080505",
    "final_x": "3708380.86315",
    "final_y": "558701.173596",
    "longitude": "-89.98217894354795",
    "latitude": "30.0293901178376",
    "geocoded_column": {
      "latitude": "30.0293901178376",
      "longitude": "-89.98217894354795"
    }
  },
  {
    "service_request": "2024-1080504",
    "request_type": "Trash/Recycling",
    "request_reason": "Replace Recycling Cart",
    "date_created": "2024-04-01T14:42:15.000",
    "date_modified": "2024-04-01T14:42:15.000",
    "request_status": "Pending",
    "responsible_agency": "Department of Sanitation",
    "final_address": "975 Topaz St, New Orleans, Louisiana, 70124",
    "address_councildis": "D",
    "status": "Pending",
    "rowid": "1080504",
    "final_x": "3671239.52731",
    "final_y": "557187.031579",
    "longitude": "-90.09959663095643",
    "latitude": "30.026378709855283",
    "geocoded_column": {
      "latitude": "30.026378709855283",
      "longitude": "-90.09959663095643"
    }
  },
  {
    "service_request": "2024-1080503",
    "request_type": "Traffic Signals/Signs/Striping/Streetlights",
    "request_reason": "Street Light Outage/Malfunction",
    "date_created": "2024-04-01T14:37:51.000",
    "date_modified": "2024-04-01T14:37:51.000",
    "request_status": "Pending",
    "responsible_agency": "Department of Public Works",
    "final_address": "7900 BLK Hammond St",
    "address_councildis": "E",
    "status": "Assigned to Contractor",
    "contractor": "Legacy Professional Services",
    "rowid": "1080503",
    "final_x": "3704311.45715",
    "final_y": "555577.36009",
    "longitude": "-89.99515336460459",
    "latitude": "30.02093215601627",
    "geocoded_column": {
      "latitude": "30.02093215601627",
      "longitude": "-89.99515336460459"
    }
  },
  {
    "service_request": "2024-1080502",
    "request_type": "Trash/Recycling",
    "request_reason": "Repair Trash Cart",
    "date_created": "2024-04-01T14:37:50.000",
    "date_modified": "2024-04-01T14:37:51.000",
    "request_status": "Pending",
    "responsible_agency": "Department of Sanitation",
    "final_address": "3760 Plymouth Pl",
    "address_councildis": "C",
    "status": "Assigned to Contractor",
    "contractor": "Richards Disposal",
    "rowid": "1080502",
    "final_x": "3702781.34583",
    "final_y": "516542.757941",
    "longitude": "-90.00142170472436",
    "latitude": "29.91365019050051",
    "geocoded_column": {
      "latitude": "29.91365019050051",
      "longitude": "-90.00142170472436"
    }
  },
  {
    "service_request": "2024-1080501",
    "request_type": "Mosquito, Termite & Rodent Control",
    "request_reason": "Mosquito Complaint",
    "date_created": "2024-04-01T14:37:35.000",
    "date_modified": "2024-04-01T14:37:35.000",
    "request_status": "Pending",
    "responsible_agency": "Mosquito, Termite & Rodent Control Board",
    "final_address": "5400 BLK Bullard Ave",
    "address_councildis": "E",
    "status": "Pending",
    "rowid": "1080501",
    "final_x": "3717384.23153",
    "final_y": "561686.896099",
    "longitude": "-89.95361522154984",
    "latitude": "30.03730466197204",
    "geocoded_column": {
      "latitude": "30.03730466197204",
      "longitude": "-89.95361522154984"
    }
  },
  {
    "service_request": "2024-1080500",
    "request_type": "Roads/Drainage",
    "request_reason": "Pothole",
    "date_created": "2024-04-01T14:37:15.000",
    "date_modified": "2024-04-01T14:37:15.000",
    "request_status": "Pending",
    "responsible_agency": "Department of Public Works",
    "final_address": "5823 Perrier St",
    "address_councildis": "A",
    "status": "Pending",
    "rowid": "1080500",
    "final_x": "3665601.07367",
    "final_y": "520421.208184",
    "longitude": "-90.11864512991228",
    "latitude": "29.92545071542357",
    "geocoded_column": {
      "latitude": "29.92545071542357",
      "longitude": "-90.11864512991228"
    }
  },
  {
    "service_request": "2024-1080499",
    "request_type": "Mosquito, Termite & Rodent Control",
    "request_reason": "Non-Rodent Complaint (Mice, Possums, Snakes)",
    "date_created": "2024-04-01T14:35:59.000",
    "date_modified": "2024-04-01T14:35:59.000",
    "request_status": "Pending",
    "responsible_agency": "Mosquito, Termite & Rodent Control Board",
    "final_address": "7836 Nelson St",
    "address_councildis": "A",
    "status": "Pending",
    "rowid": "1080499",
    "final_x": "3665705.8786",
    "final_y": "531260.180546",
    "longitude": "-90.1179513734152",
    "latitude": "29.95525136067576",
    "geocoded_column": {
      "latitude": "29.95525136067576",
      "longitude": "-90.1179513734152"
    }
  },
  {
    "service_request": "2024-1080498",
    "request_type": "Trash/Recycling",
    "request_reason": "Request a Large Item Pick Up",
    "date_created": "2024-04-01T14:35:21.000",
    "date_modified": "2024-04-01T16:42:09.000",
    "case_close_date": "2024-03-31T19:00:00.000",
    "request_status": "Closed",
    "responsible_agency": "Department of Sanitation",
    "final_address": "9890 E Wheaton Cir",
    "address_councildis": "E",
    "status": "Assigned to Contractor",
    "contractor": "Waste Pro",
    "contractor_action": "Completed",
    "rowid": "1080498",
    "final_x": "3709156.23441",
    "final_y": "562736.221024",
    "longitude": "-89.97957816665937",
    "latitude": "30.04045973705314",
    "geocoded_column": {
      "latitude": "30.04045973705314",
      "longitude": "-89.97957816665937"
    }
  },
  {
    "service_request": "2024-1080497",
    "request_type": "Trash/Recycling",
    "request_reason": "Replace Trash Cart",
    "date_created": "2024-04-01T14:35:15.000",
    "date_modified": "2024-04-01T14:35:15.000",
    "request_status": "Pending",
    "responsible_agency": "Department of Sanitation",
    "final_address": "3920 Old Gentilly Rd",
    "address_councildis": "D",
    "status": "Assigned to Contractor",
    "contractor": "IV Waste",
    "rowid": "1080497",
    "final_x": "3688678.77436",
    "final_y": "548606.099731",
    "longitude": "-90.04479569843652",
    "latitude": "30.00225648510939",
    "geocoded_column": {
      "latitude": "30.00225648510939",
      "longitude": "-90.04479569843652"
    }
  },
  {
    "service_request": "2024-1080496",
    "request_type": "Roads/Drainage",
    "request_reason": "Pothole",
    "date_created": "2024-04-01T14:34:44.000",
    "date_modified": "2024-04-01T14:34:45.000",
    "request_status": "Pending",
    "responsible_agency": "Department of Public Works",
    "final_address": "5732 Wingate Dr",
    "address_councildis": "D",
    "status": "Pending",
    "rowid": "1080496",
    "final_x": "3681248.34152",
    "final_y": "554081.599512",
    "longitude": "-90.06807830924086",
    "latitude": "30.017539794095683",
    "geocoded_column": {
      "latitude": "30.017539794095683",
      "longitude": "-90.06807830924086"
    }
  },