[
  {
    "service_request": "2026-1300517",
    "request_type": "Parks & Grass Service",
    "request_reason": "Request Grass Cutting Service (City Owned Property)",
    "date_created": "2026-07-15T23:44:29.000",
    "date_modified": "2026-07-15T23:44:32.000",
    "request_status": "Pending",
    "responsible_agency": "Department of Parks & Parkways",
    "final_address": "1701 W Homestead Dr",
    "address_councildis": "C",
    "status": "Pending",
    "rowid": "1300517",
    "final_x": "3696880.42992",
    "final_y": "525703.059133",
    "longitude": "-90.01971529771978",
    "latitude": "29.939025176787833",
    "geocoded_column": {
      "latitude": "29.939025176787833",
      "longitude": "-90.01971529771978"
    }
  },
  {
    "service_request": "2026-1300516",
    "request_type": "Property Maintenance",
    "request_reason": "Property Maintenance",
    "date_created": "2026-07-15T23:26:48.000",
    "date_modified": "2026-07-15T23:26:50.000",
    "request_status": "Pending",
    "responsible_agency": "Department of Code Enforcement",
    "final_address": "2300 Jefferson Ave",
    "address_councildis": "A",
    "status": "Pending",
    "rowid": "1300516",
    "final_x": "3667868.54445",
    "final_y": "524062.473084",
    "longitude": "-90.11136482427918",
    "latitude": "29.9353967450289",
    "geocoded_column": {
      "latitude": "29.9353967450289",
      "longitude": "-90.11136482427918"
    }
  },
  {
    "service_request": "2026-1300515",
    "request_type": "Health Related Request",
    "request_reason": "Noise Ordinance Complaint",
    "date_created": "2026-07-15T23:15:55.000",
    "date_modified": "2026-07-15T23:15:58.000",
    "request_status": "Pending",
    "responsible_agency": "Health Department",
    "final_address": "803 Constantinople St, New Orleans, Louisiana, 70115",
    "address_councildis": "B",
    "status": "Pending",
    "rowid": "1300515",
    "final_x": "3672587.71195",
    "final_y": "518613.221367",
    "longitude": "-90.09665203515789",
    "latitude": "29.920273827833952",
    "geocoded_column": {
      "latitude": "29.920273827833952",
      "longitude": "-90.09665203515789"
    }
  },
  {
    "service_request": "2026-1300514",
    "request_type": "Streetlights",
    "request_reason": "Streetlight Outage/Malfunction",
    "date_created": "2026-07-15T22:58:57.000",
    "date_modified": "2026-07-15T22:59:01.000",
    "request_status": "Pending",
    "responsible_agency": "Department of Public Works",
    "final_address": "4421 Eastern St",
    "address_councildis": "D",
    "status": "Pending",
    "rowid": "1300514",
    "final_x": "3688165.21846",
    "final_y": "549364.634131",
    "longitude": "-90.04639116492343",
    "latitude": "30.004358048103864",
    "geocoded_column": {
      "latitude": "30.004358048103864",
      "longitude": "-90.04639116492343"
    }
  },
  {
    "service_request": "2026-1300513",
    "request_type": "Health Related Request",
    "request_reason": "Noise Ordinance Complaint",
    "date_created": "2026-07-15T22:39:07.000",
    "date_modified": "2026-07-15T22:39:08.000",
    "request_status": "Pending",
    "responsible_agency": "Health Department",
    "final_address": "640 Bourbon St, New Orleans, Louisiana, 70130",
    "address_councildis": "C",
    "status": "Pending",
    "rowid": "1300513",
    "final_x": "3682249.59644",
    "final_y": "532605.091844",
    "longitude": "-90.06566546190882",
    "latitude": "29.958456535312603",
    "geocoded_column": {
      "latitude": "29.958456535312603",
      "longitude": "-90.06566546190882"
    }
  },
  {
    "service_request": "2026-1300512",
    "request_type": "Health Related Request",
    "request_reason": "Noise Ordinance Complaint",
    "date_created": "2026-07-15T22:38:16.000",
    "date_modified": "2026-07-15T22:38:19.000",
    "request_status": "Pending",
    "responsible_agency": "Health Department",
    "final_address": "733 Saint Peter St, New Orleans, Louisiana, 70116",
    "address_councildis": "C",
    "status": "Pending",
    "rowid": "1300512",
    "final_x": "3682344.91317",
    "final_y": "532622.317764",
    "longitude": "-90.06536387543098",
    "latitude": "29.958501000832207",
    "geocoded_column": {
      "latitude": "29.958501000832207",
      "longitude": "-90.06536387543098"
    }
  },
  {
    "service_request": "2026-1300511",
    "request_type": "Health Related Request",
    "request_reason": "Noise Ordinance Complaint",
    "date_created": "2026-07-15T22:37:43.000",
    "date_modified": "2026-07-15T22:37:45.000",
    "request_status": "Pending",
    "responsible_agency": "Health Department",
    "final_address": "711 Bourbon St, New Orleans, Louisiana, 70116",
    "address_councildis": "C",
    "status": "Pending",
    "rowid": "1300511",
    "final_x": "3682299.38447",
    "final_y": "532765.705988",
    "longitude": "-90.06550263299877",
    "latitude": "29.95889665479323",
    "geocoded_column": {
      "latitude": "29.95889665479323",
      "longitude": "-90.06550263299877"
    }
  },
  {
    "service_request": "2026-1300510",
    "request_type": "Health Related Request",
    "request_reason": "Noise Ordinance Complaint",
    "date_created": "2026-07-15T22:36:22.000",
    "date_modified": "2026-07-15T22:36:25.000",
    "request_status": "Pending",
    "responsible_agency": "Health Department",
    "final_address": "711 Bourbon St, New Orleans, Louisiana, 70116",
    "address_councildis": "C",
    "status": "Pending",
    "rowid": "1300510",
    "final_x": "3682299.38447",
    "final_y": "532765.705988",
    "longitude": "-90.06550263299877",
    "latitude": "29.95889665479323",
    "geocoded_column": {
      "latitude": "29.95889665479323",
      "longitude": "-90.06550263299877"
    }
  },
  {
    "service_request": "2026-1300509",
    "request_type": "Trash/Recycling",
    "request_reason": "Illegal Dumping",
    "date_created": "2026-07-15T22:35:43.000",
    "date_modified": "2026-07-15T22:35:45.000",
    "request_status": "Pending",
    "responsible_agency": "Department of Code Enforcement",
    "final_address": "801 Bourbon St, New Orleans, Louisiana, 70116",
    "address_councildis": "C",
    "status": "Pending",
    "rowid": "1300509",
    "final_x": "3682490.98735",
    "final_y": "533018.672772",
    "longitude": "-90.06488875731978",
    "latitude": "29.959586396383013",
    "geocoded_column": {
      "latitude": "29.959586396383013",
      "longitude": "-90.06488875731978"
    }
  },
  {
    "service_request": "2026-1300508",
    "request_type": "Health Related Request",
    "request_reason": "Noise Ordinance Complaint",
    "date_created": "2026-07-15T22:34:37.000",
    "date_modified": "2026-07-15T22:34:39.000",
    "request_status": "Pending",
    "responsible_agency": "Health Department",
    "final_address": "801 Bourbon St, New Orleans, Louisiana, 70116",
    "address_councildis": "C",
    "status": "Pending",
    "rowid": "1300508",
    "final_x": "3682490.98735",
    "final_y": "533018.672772",
    "longitude": "-90.06488875731978",
    "latitude": "29.959586396383013",
    "geocoded_column": {
      "latitude": "29.959586396383013",
      "longitude": "-90.06488875731978"
    }
  },
  {
    "service_request": "2026-1300507",
    "request_type": "Health Related Request",
    "request_reason": "Noise Ordinance Complaint",
    "date_created": "2026-07-15T22:34:13.000",
    "date_modified": "2026-07-15T22:34:16.000",
    "request_status": "Pending",
    "responsible_agency": "Health Department",
    "final_address": "801 Bourbon St, New Orleans, Louisiana, 70116",
    "address_councildis": "C",
    "status": "Pending",
    "rowid": "1300507",
    "final_x": "3682490.98735",
    "final_y": "533018.672772",
    "longitude": "-90.06488875731978",
    "latitude": "29.959586396383013",
    "geocoded_column": {
      "latitude": "29.959586396383013",
      "longitude": "-90.06488875731978"
    }
  },
  {
    "service_request": "2026-1300506",
    "request_type": "Health Related Request",
    "request_reason": "Noise Ordinance Complaint",
    "date_created": "2026-07-15T22:33:47.000",
    "date_modified": "2026-07-15T22:33:49.000",
    "request_status": "Pending",
    "responsible_agency": "Health Department",
    "final_address": "801 Bourbon St, New Orleans, Louisiana, 70116",
    "address_councildis": "C",
    "status": "Pending",
    "rowid": "1300506",
    "final_x": "3682490.98735",
    "final_y": "533018.672772",
    "longitude": "-90.06488875731978",
    "latitude": "29.959586396383013",
    "geocoded_column": {
      "latitude": "29.959586396383013",
      "longitude": "-90.06488875731978"
    }
  },
  {
    "service_request": "2026-1300505",
    "request_type": "Health Related Request",
    "request_reason": "Noise Ordinance Complaint",
    "date_created": "2026-07-15T22:33:25.000",
    "date_modified": "2026-07-15T22:33:27.000",
    "request_status": "Pending",
    "responsible_agency": "Health Department",
    "final_address": "800 Bourbon St, New Orleans, Louisiana, 70116",
    "address_councildis": "C",
    "status": "Pending",
    "rowid": "1300505",
    "final_x": "3682553.51528",
    "final_y": "533013.631428",
    "longitude": "-90.06469148499534",
    "latitude": "29.95957063099051",
    "geocoded_column": {
      "latitude": "29.95957063099051",
      "longitude": "-90.06469148499534"
    }
  },
  {
    "service_request": "2026-1300504",
    "request_type": "Health Related Request",
    "request_reason": "Noise Ordinance Complaint",
    "date_created": "2026-07-15T22:33:00.000",
    "date_modified": "2026-07-15T22:33:02.000",
    "request_status": "Pending",
    "responsible_agency": "Health Department",
    "final_address": "801 Bourbon St, New Orleans, Louisiana, 70116",
    "address_councildis": "C",
    "status": "Pending",
    "rowid": "1300504",
    "final_x": "3682490.98735",
    "final_y": "533018.672772",
    "longitude": "-90.06488875731978",
    "latitude": "29.959586396383013",
    "geocoded_column": {
      "latitude": "29.959586396383013",
      "longitude": "-90.06488875731978"
    }
  },
  {
    "service_request": "2026-1300503",
    "request_type": "Health Related Request",
    "request_reason": "Noise Ordinance Complaint",
    "date_created": "2026-07-15T22:32:36.000",
    "date_modified": "2026-07-15T22:32:37.000",
    "request_status": "Pending",
    "responsible_agency": "Health Department",
    "final_address": "800 Bourbon St, New Orleans, Louisiana, 70116",
    "address_councildis": "C",
    "status": "Pending",
    "rowid": "1300503",
    "final_x": "3682553.51528",
    "final_y": "533013.631428",
    "longitude": "-90.06469148499534",
    "latitude": "29.95957063099051",
    "geocoded_column": {
      "latitude": "29.95957063099051",
      "longitude": "-90.06469148499534"
    }
  },
  {
    "service_request": "2026-1300502",
    "request_type": "Health Related Request",
    "request_reason": "Noise Ordinance Complaint",
    "date_created": "2026-07-15T22:32:17.000",
    "date_modified": "2026-07-15T22:32:19.000",
    "request_status": "Pending",
    "responsible_agency": "Health Department",
    "final_address": "800 Bourbon St, New Orleans, Louisiana, 70116",
    "address_councildis": "C",
    "status": "Pending",
    "rowid": "1300502",
    "final_x": "3682553.51528",
    "final_y": "533013.631428",
    "longitude": "-90.06469148499534",
    "latitude": "29.95957063099051",
    "geocoded_column": {
      "latitude": "29.95957063099051",
      "longitude": "-90.06469148499534"
    }
  },
  {
    "service_request": "2026-1300501",
    "request_type": "Health Related Request",
    "request_reason": "Noise Ordinance Complaint",
    "date_created": "2026-07-15T22:31:57.000",
    "date_modified": "2026-07-15T22:32:06.000",
    "request_status": "Pending",
    "responsible_agency": "Health Department",
    "final_address": "800 Bourbon St, New Orleans, Louisiana, 70116",
    "address_councildis": "C",
    "status": "Pending",
    "rowid": "1300501",
    "final_x": "3682553.51528",
    "final_y": "533013.631428",
    "longitude": "-90.06469148499534",
    "latitude": "29.95957063099051",
    "geocoded_column": {
      "latitude": "29.95957063099051",
      "longitude": "-90.06469148499534"
    }
  },
  {
    "service_request": "2026-1300500",
    "request_type": "Trash/Recycling",
    "request_reason": "Repair Trash Cart",
    "date_created": "2026-07-15T22:19:51.000",
    "date_modified": "2026-07-15T22:19:53.000",
    "request_status": "Pending",
    "responsible_agency": "Department of Sanitation",
    "final_address": "920 Forstall St",
    "address_councildis": "E",
    "status": "Assigned to Contractor",
    "contractor": "Waste Pro",
    "rowid": "1300500",
    "final_x": "3696033.00016",
    "final_y": "533600.064709",
    "longitude": "-90.02210541700154",
    "latitude": "29.96076586944666",
    "geocoded_column": {
      "latitude": "29.96076586944666",
      "longitude": "-90.02210541700154"
    }
  },
  {
    "service_request": "2026-1300499",
    "request_type": "Utility Poles",
    "request_reason": "Wires Sagging/Hanging Low",
    "date_created": "2026-07-15T22:18:23.000",
    "date_modified": "2026-07-15T22:18:26.000",
    "request_status": "Pending",
    "responsible_agency": "Utility Company Collective",
    "final_address": "3803 Paris Ave",
    "address_councildis": "D",
    "status": "Pending",
    "rowid": "1300499",
    "final_x": "3679688.92783",
    "final_y": "546309.395728",
    "longitude": "-90.07327548820153",
    "latitude": "29.99621627383579",
    "geocoded_column": {
      "latitude": "29.99621627383579",
      "longitude": "-90.07327548820153"
    }
  },
  {
    "service_request": "2026-1300498",
    "request_type": "Streetlights",
    "request_reason": "Streetlight Outage/Malfunction",
    "date_created": "2026-07-15T22:09:54.000",
    "date_modified": "2026-07-15T22:09:59.000",
    "request_status": "Pending",
    "responsible_agency": "Department of Public Works",
    "final_address": "4429 Laine Ave",
    "address_councildis": "E",
    "status": "Pending",
    "rowid": "1300498",
    "final_x": "3705981.39147",
    "final_y": "553565.840087",
    "longitude": "-89.98995141309852",
    "latitude": "30.015347521899457",
    "geocoded_column": {
      "latitude": "30.015347521899457",
      "longitude": "-89.98995141309852"
    }
  },
  {
    "service_request": "2026-1300497",
    "request_type": "Trash/Recycling",
    "request_reason": "Order Trash Cart",
    "date_created": "2026-07-15T21:54:42.000",
    "date_modified": "2026-07-15T21:54:44.000",
    "request_status": "Pending",
    "responsible_agency": "Department of Sanitation",
    "final_address": "6244 Vermillion Blvd",
    "address_councildis": "D",
    "status": "Assigned to Contractor",
    "contractor": "IV Waste",
    "rowid": "1300497",
    "final_x": "3682932.00316",
    "final_y": "556309.649434",
    "longitude": "-90.06268054510535",
    "latitude": "30.0236148870263",
    "geocoded_column": {
      "latitude": "30.0236148870263",
      "longitude": "-90.06268054510535"
    }
  },
  {
    "service_request": "2026-1300496",
    "request_type": "Trash/Recycling",
    "request_reason": "Order Trash Cart",
    "date_created": "2026-07-15T21:52:45.000",
    "date_modified": "2026-07-15T21:52:47.000",
    "request_status": "Pending",
    "responsible_agency": "Department of Sanitation",
    "final_address": "6242 Vermillion Blvd",
    "address_councildis": "D",
    "status": "Assigned to Contractor",
    "contractor": "IV Waste",
    "rowid": "1300496",
    "final_x": "3682935.38856",
    "final_y": "556285.170266",
    "longitude": "-90.06267070569362",
    "latitude": "30.02354747510464",
    "geocoded_column": {
      "latitude": "30.02354747510464",
      "longitude": "-90.06267070569362"
    }
  },
  {
    "service_request": "2026-1300495",
    "request_type": "Trash/Recycling",
    "request_reason": "Request a Large Item Pick Up",
    "date_created": "2026-07-15T21:43:10.000",
    "date_modified": "2026-07-15T21:43:12.000",
    "request_status": "Pending",
    "responsible_agency": "Department of Sanitation",
    "final_address": "4921 Dodt Ave",
    "address_councildis": "E",
    "status": "Assigned to Contractor",
    "contractor": "Waste Pro",
    "rowid": "1300495",
    "final_x": "3705417.6307",
    "final_y": "556291.953818",
    "longitude": "-89.99163176518996",
    "latitude": "30.02286144461547",
    "geocoded_column": {
      "latitude": "30.02286144461547",
      "longitude": "-89.99163176518996"
    }
  },
  {
    "service_request": "2026-1300494",
    "request_type": "General Services",
    "request_reason": "General Service Request",
    "date_created": "2026-07-15T21:32:04.000",
    "date_modified": "2026-07-15T21:32:07.000",
    "request_status": "Pending",
    "responsible_agency": "Orleans Parish Communication District",
    "final_address": "4734 Sherwood Dr",
    "address_councildis": "E",
    "status": "Pending",
    "rowid": "1300494",
    "final_x": "3717942.77625",
    "final_y": "556841.78377",
    "longitude": "-89.95203469300175",
    "latitude": "30.023964047333756",
    "geocoded_column": {
      "latitude": "30.023964047333756",
      "longitude": "-89.95203469300175"
    }
  },
  {
    "service_request": "2026-1300493",
    "request_type": "Roads and Streets",
    "request_reason": "Pothole",
    "date_created": "2026-07-15T21:27:06.000",
    "date_modified": "2026-07-15T21:27:09.000",
    "request_status": "Pending",
    "responsible_agency": "Department of Public Works",
    "final_address": "2838 Touro St",
    "address_councildis": "D",
    "status": "Pending",
    "rowid": "1300493",
    "final_x": "3683615.11317",
    "final_y": "543112.425869",
    "longitude": "-90.0609851043216",
    "latitude": "29.987306441039046",
    "geocoded_column": {
      "latitude": "29.987306441039046",
      "longitude": "-90.0609851043216"
    }
  },
  {
    "service_request": "2026-1300492",
    "request_type": "Parks & Grass Service",
    "request_reason": "Park Maintenance/Clean Up",
    "date_created": "2026-07-15T20:56:29.000",
    "date_modified": "2026-07-15T20:56:31.000",
    "request_status": "Pending",
    "responsible_agency": "Department of Parks & Parkways",
    "final_address": "131 S Norman C Francis Prkwy",
    "address_councildis": "B",
    "status": "Pending",
    "rowid": "1300492",
    "final_x": "3672859.87163",
    "final_y": "536541.953735",
    "longitude": "-90.0951814369148",
    "latitude": "29.96956388147168",
    "geocoded_column": {
      "latitude": "29.96956388147168",
      "longitude": "-90.0951814369148"
    }
  },
  {
    "service_request": "2026-1300491",
    "request_type": "Streetlights",
    "request_reason": "Streetlight Outage/Malfunction",
    "date_created": "2026-07-15T20:53:35.000",
    "date_modified": "2026-07-15T20:53:37.000",
    "request_status": "Pending",
    "responsible_agency": "Department of Public Works",
    "final_address": "5417 Hewes St",
    "address_councildis": "B",
    "status": "Pending",
    "rowid": "1300491",
    "final_x": "3668979.02382",
    "final_y": "529349.471361",
    "longitude": "-90.10768048880314",
    "latitude": "29.949901667798162",
    "geocoded_column": {
      "latitude": "29.949901667798162",
      "longitude": "-90.10768048880314"
    }
  },
  {
    "service_request": "2026-1300490",
    "request_type": "Abandoned Vehicles",
    "request_reason": "Abandoned/Junk Vehicles",
    "date_created": "2026-07-15T20:48:03.000",
    "date_modified": "2026-07-15T20:48:04.000",
    "request_status": "Pending",
    "responsible_agency": "Department of Public Works",
    "final_address": "1229 Desire St",
    "address_councildis": "C",
    "status": "Pending",
    "rowid": "1300490",
    "final_x": "3690366.02371",
    "final_y": "536306.137223",
    "longitude": "-90.03990411256612",
    "latitude": "29.968383717974188",
    "geocoded_column": {
      "latitude": "29.968383717974188",
      "longitude": "-90.03990411256612"
    }
  },
  {
    "service_request": "2026-1300489",
    "request_type": "Streetlights",
    "request_reason": "Streetlight Outage/Malfunction",
    "date_created": "2026-07-15T20:45:49.000",
    "date_modified": "2026-07-15T20:45:52.000",
    "request_status": "Pending",
    "responsible_agency": "Department of Public Works",
    "final_address": "6325 Dover Pl",
    "address_councildis": "C",
    "status": "Pending",
    "rowid": "1300489",
    "final_x": "3707501.51192",
    "final_y": "519003.043831",
    "longitude": "-89.98643221889625",
    "latitude": "29.92026341309252",
    "geocoded_column": {
      "latitude": "29.92026341309252",
      "longitude": "-89.98643221889625"
    }
  },
  {
    "service_request": "2026-1300488",
    "request_type": "Streetlights",
    "request_reason": "Streetlight Outage/Malfunction",
    "date_created": "2026-07-15T20:23:28.000",
    "date_modified": "2026-07-15T20:23:32.000",
    "request_status": "Pending",
    "responsible_agency": "Department of Public Works",
    "final_address": "200 S Murat St",
    "address_councildis": "A",
    "status": "Pending",
    "rowid": "1300488",
    "final_x": "3669453.39367",
    "final_y": "539006.379402",
    "longitude": "-90.10585604175023",
    "latitude": "29.976440996812592",
    "geocoded_column": {
      "latitude": "29.976440996812592",
      "longitude": "-90.10585604175023"
    }
  },
  {
    "service_request": "2026-1300487",
    "request_type": "Trash/Recycling",
    "request_reason": "Request a Large Item Pick Up",
    "date_created": "2026-07-15T20:20:09.000",
    "date_modified": "2026-07-15T20:20:12.000",
    "request_status": "Pending",
    "responsible_agency": "Department of Sanitation",
    "final_address": "144 Portland St",
    "address_councildis": "A",
    "status": "Assigned to Contractor",
    "contractor": "IV Waste",
    "rowid": "1300487",
    "final_x": "3665818.94656",
    "final_y": "551632.924117",
    "longitude": "-90.11691142204815",
    "latitude": "30.01126623595008",
    "geocoded_column": {
      "latitude": "30.01126623595008",
      "longitude": "-90.11691142204815"
    }
  },
  {
    "service_request": "2026-1300486",
    "request_type": "Trash/Recycling",
    "request_reason": "Order Recycling Cart",
    "date_created": "2026-07-15T20:11:41.000",
    "date_modified": "2026-07-15T20:11:43.000",
    "request_status": "Pending",
    "responsible_agency": "Department of Sanitation",
    "final_address": "1713 Desire St",
    "address_councildis": "D",
    "status": "Pending",
    "rowid": "1300486",
    "final_x": "3690800.1935",
    "final_y": "538057.822217",
    "longitude": "-90.03847047503073",
    "latitude": "29.973186750520828",
    "geocoded_column": {
      "latitude": "29.973186750520828",
      "longitude": "-90.03847047503073"
    }
  },
  {
    "service_request": "2026-1300485",
    "request_type": "Trash/Recycling",
    "request_reason": "Return Trash Cart",
    "date_created": "2026-07-15T20:11:07.000",
    "date_modified": "2026-07-15T20:11:10.000",
    "request_status": "Pending",
    "responsible_agency": "Department of Sanitation",
    "final_address": "1511 Polymnia St",
    "address_councildis": "B",
    "status": "Assigned to Contractor",
    "contractor": "IV Waste",
    "rowid": "1300485",
    "final_x": "3679084.74255",
    "final_y": "524570.230012",
    "longitude": "-90.07593764881047",
    "latitude": "29.936459244959337",
    "geocoded_column": {
      "latitude": "29.936459244959337",
      "longitude": "-90.07593764881047"
    }
  },
  {
    "service_request": "2026-1300484",
    "request_type": "Drainage",
    "request_reason": "Catch Basin Not Draining",
    "date_created": "2026-07-15T20:10:16.000",
    "date_modified": "2026-07-15T20:10:18.000",
    "request_status": "Pending",
    "responsible_agency": "Sewerage & Water Board",
    "final_address": "3854 Virgil Blvd",
    "address_councildis": "D",
    "status": "Pending",
    "rowid": "1300484",
    "final_x": "3680333.56501",
    "final_y": "546703.210129",
    "longitude": "-90.07122542327458",
    "latitude": "29.997279615935465",
    "geocoded_column": {
      "latitude": "29.997279615935465",
      "longitude": "-90.07122542327458"
    }
  },
  {
    "service_request": "2026-1300483",
    "request_type": "Trash/Recycling",
    "request_reason": "Replace Trash Cart",
    "date_created": "2026-07-15T20:03:47.000",
    "date_modified": "2026-07-15T20:03:49.000",
    "request_status": "Pending",
    "responsible_agency": "Department of Sanitation",
    "final_address": "216 N Bernadotte St",
    "address_councildis": "A",
    "status": "Assigned to Contractor",
    "contractor": "IV Waste",
    "rowid": "1300483",
    "final_x": "3669237.87246",
    "final_y": "540497.048523",
    "longitude": "-90.1064863167503",
    "latitude": "29.980546179579044",
    "geocoded_column": {
      "latitude": "29.980546179579044",
      "longitude": "-90.1064863167503"
    }
  },
  {
    "service_request": "2026-1300482",
    "request_type": "General Services",
    "request_reason": "General Service Request",
    "date_created": "2026-07-15T20:01:42.000",
    "date_modified": "2026-07-15T20:01:43.000",
    "request_status": "Pending",
    "responsible_agency": "Orleans Parish Communication District",
    "final_address": "307 S Pierce St",
    "address_councildis": "A",
    "status": "Pending",
    "rowid": "1300482",
    "final_x": "3670901.54734",
    "final_y": "537369.43956",
    "longitude": "-90.10133790940915",
    "latitude": "29.971897229209855",
    "geocoded_column": {
      "latitude": "29.971897229209855",
      "longitude": "-90.10133790940915"
    }
  },
  {
    "service_request": "2026-1300481",
    "request_type": "Trash/Recycling",
    "request_reason": "Request a Large Item Pick Up",
    "date_created": "2026-07-15T19:53:27.000",
    "date_modified": "2026-07-15T19:53:29.000",
    "request_status": "Pending",
    "responsible_agency": "Department of Sanitation",
    "final_address": "814 Taft Pl",
    "address_councildis": "A",
    "status": "Assigned to Contractor",
    "contractor": "IV Waste",
    "rowid": "1300481",
    "final_x": "3673825.17774",
    "final_y": "539529.816522",
    "longitude": "-90.09203069261666",
    "latitude": "29.977750772550664",
    "geocoded_column": {
      "latitude": "29.977750772550664",
      "longitude": "-90.09203069261666"
    }
  },
  {
    "service_request": "2026-1300480",
    "request_type": "General Services",
    "request_reason": "General Service Request",
    "date_created": "2026-07-15T19:50:42.000",
    "date_modified": "2026-07-15T19:50:43.000",
    "request_status": "Pending",
    "responsible_agency": "Orleans Parish Communication District",
    "final_address": "1637 S Carrollton Ave",
    "address_councildis": "A",
    "status": "Pending",
    "rowid": "1300480",
    "final_x": "3663232.95335",
    "final_y": "529530.059329",
    "longitude": "-90.12581757024985",
    "latitude": "29.950565978745516",
    "geocoded_column": {
      "latitude": "29.950565978745516",
      "longitude": "-90.12581757024985"
    }
  },
  {
    "service_request": "2026-1300479",
    "request_type": "Trash/Recycling",
    "request_reason": "Request a Large Item Pick Up",
    "date_created": "2026-07-15T19:50:01.000",
    "date_modified": "2026-07-15T19:50:04.000",
    "request_status": "Pending",
    "responsible_agency": "Department of Sanitation",
    "final_address": "4841 Montegut Dr",
    "address_councildis": "D",
    "status": "Assigned to Contractor",
    "contractor": "IV Waste",
    "rowid": "1300479",
    "final_x": "3689952.09692",
    "final_y": "550966.351317",
    "longitude": "-90.04068901671482",
    "latitude": "30.00870687863696",
    "geocoded_column": {
      "latitude": "30.00870687863696",
      "longitude": "-90.04068901671482"
    }
  },
  {
    "service_request": "2026-1300478",
    "request_type": "Traffic Signals",
    "request_reason": "Traffic Signal Completely Dark (Blacked Out)",
    "date_created": "2026-07-15T19:36:37.000",
    "date_modified": "2026-07-15T19:36:39.000",
    "request_status": "Pending",
    "responsible_agency": "Department of Public Works",
    "final_address": "2501 Napoleon Ave Apt B",
    "address_councildis": "B",
    "rowid": "1300478",
    "final_x": "3670649.67502",
    "final_y": "524087.519164",
    "longitude": "-90.10258391194614",
    "latitude": "29.93538376799356",
    "geocoded_column": {
      "latitude": "29.93538376799356",
      "longitude": "-90.10258391194614"
    }
  },
  {
    "service_request": "2026-1300477",
    "request_type": "Health Related Request",
    "request_reason": "Noise Ordinance Complaint",
    "date_created": "2026-07-15T19:32:49.000",
    "date_modified": "2026-07-15T19:32:52.000",
    "request_status": "Pending",
    "responsible_agency": "Health Department",
    "final_address": "733 Saint Peter St, New Orleans, Louisiana, 70116",
    "address_councildis": "C",
    "status": "Pending",
    "rowid": "1300477",
    "final_x": "3682344.91317",
    "final_y": "532622.317764",
    "longitude": "-90.06536387543098",
    "latitude": "29.958501000832207",
    "geocoded_column": {
      "latitude": "29.958501000832207",
      "longitude": "-90.06536387543098"
    }
  },
  {
    "service_request": "2026-1300476",
    "request_type": "Traffic Signals",
    "request_reason": "Traffic Signal Flashing",
    "date_created": "2026-07-15T19:32:14.000",
    "date_modified": "2026-07-15T19:32:17.000",
    "request_status": "Pending",
    "final_address": "4015 Orleans Ave",
    "address_councildis": "A",
    "rowid": "1300476",
    "final_x": "3672950.56347",
    "final_y": "540063.568395",
    "longitude": "-90.09477480892825",
    "latitude": "29.979244431620753",
    "geocoded_column": {
      "latitude": "29.979244431620753",
      "longitude": "-90.09477480892825"
    }
  },
  {
    "service_request": "2026-1300475",
    "request_type": "Drainage",
    "request_reason": "Catch Basin Not Draining",
    "date_created": "2026-07-15T19:21:23.000",
    "date_modified": "2026-07-15T19:21:31.000",
    "request_status": "Pending",
    "responsible_agency": "Sewerage & Water Board",
    "final_address": "535 Madison St",
    "address_councildis": "C",
    "status": "Pending",
    "rowid": "1300475",
    "final_x": "3683291.09045",
    "final_y": "532639.222596",
    "longitude": "-90.06237550993669",
    "latitude": "29.958518659782698",
    "geocoded_column": {
      "latitude": "29.958518659782698",
      "longitude": "-90.06237550993669"
    }
  },
  {
    "service_request": "2026-1300474",
    "request_type": "Trash/Recycling",
    "request_reason": "Request a Large Item Pick Up",
    "date_created": "2026-07-15T19:18:54.000",
    "date_modified": "2026-07-15T19:18:56.000",
    "request_status": "Pending",
    "responsible_agency": "Department of Sanitation",
    "final_address": "508 S Scott St",
    "address_councildis": "B",
    "status": "Assigned to Contractor",
    "contractor": "IV Waste",
    "rowid": "1300474",
    "final_x": "3670779.32846",
    "final_y": "536444.128263",
    "longitude": "-90.10175530645968",
    "latitude": "29.969356546879943",
    "geocoded_column": {
      "latitude": "29.969356546879943",
      "longitude": "-90.10175530645968"
    }
  },
  {
    "service_request": "2026-1300473",
    "request_type": "Trash/Recycling",
    "request_reason": "Order Trash Cart",
    "date_created": "2026-07-15T19:08:59.000",
    "date_modified": "2026-07-15T19:09:03.000",
    "request_status": "Pending",
    "responsible_agency": "Department of Sanitation",
    "final_address": "4734 St Bernard Ave",
    "address_councildis": "D",
    "status": "Assigned to Contractor",
    "contractor": "IV Waste",
    "rowid": "1300473",
    "final_x": "3676664.56936",
    "final_y": "549470.730579",
    "longitude": "-90.08272023306054",
    "latitude": "30.00499992982409",
    "geocoded_column": {
      "latitude": "30.00499992982409",
      "longitude": "-90.08272023306054"
    }
  },
  {
    "service_request": "2026-1300472",
    "request_type": "Trash/Recycling",
    "request_reason": "Request a Large Item Pick Up",
    "date_created": "2026-07-15T18:56:43.000",
    "date_modified": "2026-07-15T18:56:45.000",
    "request_status": "Pending",
    "responsible_agency": "Department of Sanitation",
    "final_address": "4820 Carondelet St",
    "address_councildis": "B",
    "status": "Assigned to Contractor",
    "contractor": "IV Waste",
    "rowid": "1300472",
    "final_x": "3669162.42068",
    "final_y": "520989.668793",
    "longitude": "-90.10738383026269",
    "latitude": "29.926909511532198",
    "geocoded_column": {
      "latitude": "29.926909511532198",
      "longitude": "-90.10738383026269"
    }
  },
  {
    "service_request": "2026-1300471",
    "request_type": "Trash/Recycling",
    "request_reason": "Replace Trash Cart",
    "date_created": "2026-07-15T18:54:57.000",
    "date_modified": "2026-07-15T18:54:59.000",
    "request_status": "Pending",
    "responsible_agency": "Department of Sanitation",
    "final_address": "8139 Birch St",
    "address_councildis": "A",
    "status": "Assigned to Contractor",
    "contractor": "IV Waste",
    "rowid": "1300471",
    "final_x": "3662709.71251",
    "final_y": "529654.240513",
    "longitude": "-90.12746557644874",
    "latitude": "29.950922588451395",
    "geocoded_column": {
      "latitude": "29.950922588451395",
      "longitude": "-90.12746557644874"
    }
  },
  {
    "service_request": "2026-1300470",
    "request_type": "Property Maintenance",
    "request_reason": "Property Maintenance",
    "date_created": "2026-07-15T18:47:07.000",
    "date_modified": "2026-07-15T18:47:10.000",
    "request_status": "Pending",
    "responsible_agency": "Department of Code Enforcement",
    "final_address": "1547 Leda St",
    "address_councildis": "A",
    "status": "Pending",
    "rowid": "1300470",
    "final_x": "3675705.77134",
    "final_y": "541853.526476",
    "longitude": "-90.08601123378028",
    "latitude": "29.984084023029414",
    "geocoded_column": {
      "latitude": "29.984084023029414",
      "longitude": "-90.08601123378028"
    }
  },
  {
    "service_request": "2026-1300469",
    "request_type": "Trash/Recycling",
    "request_reason": "Request a Large Item Pick Up",
    "date_created": "2026-07-15T18:38:45.000",
    "date_modified": "2026-07-15T18:38:47.000",
    "request_status": "Pending",
    "responsible_agency": "Department of Sanitation",
    "final_address": "6950 Salem Dr",
    "address_councildis": "E",
    "status": "Assigned to Contractor",
    "contractor": "Waste Pro",
    "rowid": "1300469",
    "final_x": "3706747.82308",
    "final_y": "560542.988702",
    "longitude": "-89.98727090178558",
    "latitude": "30.034507233201996",
    "geocoded_column": {
      "latitude": "30.034507233201996",
      "longitude": "-89.98727090178558"
    }
  },
  {
    "service_request": "2026-1300468",
    "request_type": "Trash/Recycling",
    "request_reason": "Illegal Dumping",
    "date_created": "2026-07-15T18:37:42.000",
    "date_modified": "2026-07-15T18:37:45.000",
    "request_status": "Pending",
    "responsible_agency": "Department of Sanitation",
    "final_address": "4111 S Front St",
    "address_councildis": "B",
    "status": "Pending",
    "rowid": "1300468",
    "final_x": "3672171.39956",
    "final_y": "517322.844533",
    "longitude": "-90.0980100506938",
    "latitude": "29.916738049797154",
    "geocoded_column": {
      "latitude": "29.916738049797154",
      "longitude": "-90.0980100506938"
    }
  },
  {
    "service_request": "2026-1300467",
    "request_type": "Trash/Recycling",
    "request_reason": "Request a Large Item Pick Up",
    "date_created": "2026-07-15T18:19:04.000",
    "date_modified": "2026-07-15T18:19:08.000",
    "request_status": "Pending",
    "responsible_agency": "Department of Sanitation",
    "final_address": "8301 Birch St",
    "address_councildis": "A",
    "status": "Assigned to Contractor",
    "contractor": "IV Waste",
    "rowid": "1300467",
    "final_x": "3662370.03431",
    "final_y": "529958.386497",
    "longitude": "-90.12852801648327",
    "latitude": "29.95176871696243",
    "geocoded_column": {
      "latitude": "29.95176871696243",
      "longitude": "-90.12852801648327"
    }
  },
  {
    "service_request": "2026-1300466",
    "request_type": "Roads and Streets",
    "request_reason": "Pothole",
    "date_created": "2026-07-15T18:09:59.000",
    "date_modified": "2026-07-15T18:10:03.000",
    "request_status": "Pending",
    "responsible_agency": "Department of Public Works",
    "final_address": "1608 Dumaine St",
    "address_councildis": "C",
    "status": "Pending",
    "rowid": "1300466",
    "final_x": "3680415.15893",
    "final_y": "534981.896774",
    "longitude": "-90.0713754657731",
    "latitude": "29.965047615583078",
    "geocoded_column": {
      "latitude": "29.965047615583078",
      "longitude": "-90.0713754657731"
    }
  },
  {
    "service_request": "2026-1300465",
    "request_type": "Alley Ways",
    "request_reason": "Alley Way Issues",
    "date_created": "2026-07-15T17:52:04.000",
    "date_modified": "2026-07-15T17:52:06.000",
    "request_status": "Pending",
    "responsible_agency": "Department of Public Works",
    "final_address": "6658 General Diaz St",
    "address_councildis": "A",
    "status": "Pending",
    "rowid": "1300465",
    "final_x": "3669864.88833",
    "final_y": "551730.314133",
    "longitude": "-90.10412531463106",
    "latitude": "30.011415301977472",
    "geocoded_column": {
      "latitude": "30.011415301977472",
      "longitude": "-90.10412531463106"
    }
  },
  {
    "service_request": "2026-1300464",
    "request_type": "Trash/Recycling",
    "request_reason": "Dead Animal Pick Up",
    "date_created": "2026-07-15T17:48:06.000",
    "date_modified": "2026-07-15T17:48:14.000",
    "request_status": "Pending",
    "responsible_agency": "Department of Sanitation",
    "final_address": "826 Bartholomew St",
    "address_councildis": "C",
    "status": "Assigned to Contractor",
    "contractor": "IV Waste",
    "rowid": "1300464",
    "final_x": "3691539.63158",
    "final_y": "534384.192453",
    "longitude": "-90.03626652330912",
    "latitude": "29.963062566634203",
    "geocoded_column": {
      "latitude": "29.963062566634203",
      "longitude": "-90.03626652330912"
    }
  },
  {
    "service_request": "2026-1300463",
    "request_type": "Trash/Recycling",
    "request_reason": "Missed Trash Pick-Up",
    "date_created": "2026-07-15T17:44:17.000",
    "date_modified": "2026-07-15T17:44:19.000",
    "request_status": "Pending",
    "responsible_agency": "Department of Sanitation",
    "final_address": "650 Ricks Pl",
    "address_councildis": "C",
    "status": "Assigned to Contractor",
    "contractor": "Richards Disposal",
    "rowid": "1300463",
    "final_x": "3688105.22812",
    "final_y": "524657.309884",
    "longitude": "-90.04745662804909",
    "latitude": "29.93642342180576",
    "geocoded_column": {
      "latitude": "29.93642342180576",
      "longitude": "-90.04745662804909"
    }
  },
  {
    "service_request": "2026-1300462",
    "request_type": "Trash/Recycling",
    "request_reason": "Order Trash Cart",
    "date_created": "2026-07-15T17:44:13.000",
    "date_modified": "2026-07-15T17:44:15.000",
    "request_status": "Pending",
    "responsible_agency": "Department of Sanitation",
    "final_address": "2426 Frenchmen St",
    "address_councildis": "D",
    "status": "Assigned to Contractor",
    "contractor": "IV Waste",
    "rowid": "1300462",
    "final_x": "3684152.99426",
    "final_y": "541296.52302",
    "longitude": "-90.05934990296137",
    "latitude": "29.98229691534149",
    "geocoded_column": {
      "latitude": "29.98229691534149",
      "longitude": "-90.05934990296137"
    }
  },
  {
    "service_request": "2026-1300461",
    "request_type": "Property Maintenance",
    "request_reason": "Property Maintenance",
    "date_created": "2026-07-15T17:40:29.000",
    "date_modified": "2026-07-15T17:40:30.000",
    "request_status": "Pending",
    "responsible_agency": "Department of Code Enforcement",
    "final_address": "7831 Jahncke Rd",
    "address_councildis": "E",
    "status": "Pending",
    "rowid": "1300461",
    "final_x": "3713698.45919",
    "final_y": "569019.637862",
    "longitude": "-89.9649862549413",
    "latitude": "30.057588239783893",
    "geocoded_column": {
      "latitude": "30.057588239783893",
      "longitude": "-89.9649862549413"
    }
  },
  {
    "service_request": "2026-1300460",
    "request_type": "Property Maintenance",
    "request_reason": "Property Maintenance",
    "date_created": "2026-07-15T17:39:41.000",
    "date_modified": "2026-07-15T17:39:42.000",
    "request_status": "Pending",
    "responsible_agency": "Department of Code Enforcement",
    "final_address": "719 Montegut St",
    "address_councildis": "C",
    "status": "Pending",
    "rowid": "1300460",
    "final_x": "3688126.08982",
    "final_y": "534792.454342",
    "longitude": "-90.04703157409163",
    "latitude": "29.964290951596528",
    "geocoded_column": {
      "latitude": "29.964290951596528",
      "longitude": "-90.04703157409163"
    }
  },
  {
    "service_request": "2026-1300459",
    "request_type": "Roads and Streets",
    "request_reason": "Pothole",
    "date_created": "2026-07-15T17:38:34.000",
    "date_modified": "2026-07-15T21:34:57.000",
    "request_status": "Pending",
    "responsible_agency": "Department of Public Works",
    "final_address": "5931 Argonne Blvd",
    "address_councildis": "A",
    "status": "Pending",
    "rowid": "1300459",
    "final_x": "3670173.65396",
    "final_y": "546716.591569",
    "longitude": "-90.10331983521009",
    "latitude": "29.997620206115894",
    "geocoded_column": {
      "latitude": "29.997620206115894",
      "longitude": "-90.10331983521009"
    }
  },
  {
    "service_request": "2026-1300458",
    "request_type": "Tree Service",
    "request_reason": "Tree Trim",
    "date_created": "2026-07-15T17:37:31.000",
    "date_modified": "2026-07-15T17:37:33.000",
    "request_status": "Pending",
    "responsible_agency": "Department of Parks & Parkways",
    "final_address": "7870 Parry St",
    "address_councildis": "E",
    "status": "Pending",
    "rowid": "1300458",
    "final_x": "3713820.52319",
    "final_y": "569127.823014",
    "longitude": "-89.96459634551317",
    "latitude": "30.057881695910485",
    "geocoded_column": {
      "latitude": "30.057881695910485",
      "longitude": "-89.96459634551317"
    }
  },
  {
    "service_request": "2026-1300457",
    "request_type": "Property Maintenance",
    "request_reason": "Property Maintenance",
    "date_created": "2026-07-15T17:31:09.000",
    "date_modified": "2026-07-15T17:31:11.000",
    "request_status": "Pending",
    "responsible_agency": "Department of Code Enforcement",
    "final_address": "4933 Feliciana Dr",
    "address_councildis": "D",
    "status": "Pending",
    "rowid": "1300457",
    "final_x": "3690093.90153",
    "final_y": "551651.393429",
    "longitude": "-90.04021658699979",
    "latitude": "30.010586092687767",
    "geocoded_column": {
      "latitude": "30.010586092687767",
      "longitude": "-90.04021658699979"
    }
  },
  {
    "service_request": "2026-1300456",
    "request_type": "Trash/Recycling",
    "request_reason": "Repair Trash Cart",
    "date_created": "2026-07-15T17:30:53.000",
    "date_modified": "2026-07-15T17:30:56.000",
    "request_status": "Pending",
    "responsible_agency": "Department of Sanitation",
    "final_address": "1016 Thalia St",
    "address_councildis": "B",
    "status": "Assigned to Contractor",
    "contractor": "IV Waste",
    "rowid": "1300456",
    "final_x": "3680762.69026",
    "final_y": "525152.751421",
    "longitude": "-90.07062004097554",
    "latitude": "29.93801024915617",
    "geocoded_column": {
      "latitude": "29.93801024915617",
      "longitude": "-90.07062004097554"
    }
  },
  {
    "service_request": "2026-1300455",
    "request_type": "Trash/Recycling",
    "request_reason": "Order Trash Cart",
    "date_created": "2026-07-15T17:11:34.000",
    "date_modified": "2026-07-15T17:11:37.000",
    "request_status": "Pending",
    "responsible_agency": "Department of Sanitation",
    "final_address": "3407 Marigny St",
    "address_councildis": "D",
    "status": "Assigned to Contractor",
    "contractor": "IV Waste",
    "rowid": "1300455",
    "final_x": "3684779.73397",
    "final_y": "545262.240399",
    "longitude": "-90.05723086027152",
    "latitude": "29.99318205647934",
    "geocoded_column": {
      "latitude": "29.99318205647934",
      "longitude": "-90.05723086027152"
    }
  },
  {
    "service_request": "2026-1300454",
    "request_type": "Trash/Recycling",
    "request_reason": "Request a Large Item Pick Up",
    "date_created": "2026-07-15T16:56:50.000",
    "date_modified": "2026-07-15T16:56:52.000",
    "request_status": "Pending",
    "responsible_agency": "Department of Sanitation",
    "final_address": "6130 S Laverne St",
    "address_councildis": "D",
    "status": "Assigned to Contractor",
    "contractor": "Waste Pro",
    "rowid": "1300454",
    "final_x": "3696673.37642",
    "final_y": "555311.158361",
    "longitude": "-90.0192970135772",
    "latitude": "30.020443262882804",
    "geocoded_column": {
      "latitude": "30.020443262882804",
      "longitude": "-90.0192970135772"
    }
  },
  {
    "service_request": "2026-1300453",
    "request_type": "Trash/Recycling",
    "request_reason": "Change Size of Trash Cart",
    "date_created": "2026-07-15T16:55:55.000",
    "date_modified": "2026-07-15T16:55:57.000",
    "request_status": "Pending",
    "responsible_agency": "Department of Sanitation",
    "final_address": "6018 Constance St",
    "address_councildis": "A",
    "status": "Assigned to Contractor",
    "contractor": "IV Waste",
    "rowid": "1300453",
    "final_x": "3664421.67559",
    "final_y": "518906.668599",
    "longitude": "-90.12241866439538",
    "latitude": "29.92132053147225",
    "geocoded_column": {
      "latitude": "29.92132053147225",
      "longitude": "-90.12241866439538"
    }
  },
  {
    "service_request": "2026-1300452",
    "request_type": "Trash/Recycling",
    "request_reason": "Request a Large Item Pick Up",
    "date_created": "2026-07-15T16:55:33.000",
    "date_modified": "2026-07-15T16:55:35.000",
    "request_status": "Pending",
    "responsible_agency": "Department of Sanitation",
    "final_address": "1408 Michael St",
    "address_councildis": "C",
    "status": "Assigned to Contractor",
    "contractor": "Richards Disposal",
    "rowid": "1300452",
    "final_x": "3697222.5208",
    "final_y": "525933.056573",
    "longitude": "-90.01862695078137",
    "latitude": "29.93964680198547",
    "geocoded_column": {
      "latitude": "29.93964680198547",
      "longitude": "-90.01862695078137"
    }
  },
  {
    "service_request": "2026-1300451",
    "request_type": "Trash/Recycling",
    "request_reason": "Request a Large Item Pick Up",
    "date_created": "2026-07-15T16:41:40.000",
    "date_modified": "2026-07-15T16:41:41.000",
    "request_status": "Pending",
    "responsible_agency": "Department of Sanitation",
    "final_address": "6953 Boston Dr",
    "address_councildis": "E",
    "status": "Assigned to Contractor",
    "contractor": "Waste Pro",
    "rowid": "1300451",
    "final_x": "3706561.13195",
    "final_y": "560469.828702",
    "longitude": "-89.98786358193469",
    "latitude": "30.03431210096067",
    "geocoded_column": {
      "latitude": "30.03431210096067",
      "longitude": "-89.98786358193469"
    }
  },
  {
    "service_request": "2026-1300450",
    "request_type": "Trash/Recycling",
    "request_reason": "Request a Large Item Pick Up",
    "date_created": "2026-07-15T16:41:09.000",
    "date_modified": "2026-07-15T16:41:12.000",
    "request_status": "Pending",
    "responsible_agency": "Department of Sanitation",
    "final_address": "1514 N Roman St",
    "address_councildis": "C",
    "status": "Assigned to Contractor",
    "contractor": "IV Waste",
    "rowid": "1300450",
    "final_x": "3681269.54888",
    "final_y": "537712.634568",
    "longitude": "-90.06858216920662",
    "latitude": "29.972530303809215",
    "geocoded_column": {
      "latitude": "29.972530303809215",
      "longitude": "-90.06858216920662"
    }
  },
  {
    "service_request": "2026-1300449",
    "request_type": "Trash/Recycling",
    "request_reason": "Repair Trash Cart",
    "date_created": "2026-07-15T16:40:06.000",
    "date_modified": "2026-07-15T16:40:08.000",
    "request_status": "Pending",
    "responsible_agency": "Department of Sanitation",
    "final_address": "729 Peniston St, New Orleans, Louisiana, 70115",
    "address_councildis": "B",
    "status": "Assigned to Contractor",
    "contractor": "IV Waste",
    "rowid": "1300449",
    "final_x": "3673540.16571",
    "final_y": "518571.902903",
    "longitude": "-90.09364699618747",
    "latitude": "29.92013191523076",
    "geocoded_column": {
      "latitude": "29.92013191523076",
      "longitude": "-90.09364699618747"
    }
  },
  {
    "service_request": "2026-1300448",
    "request_type": "Trash/Recycling",
    "request_reason": "Request a Large Item Pick Up",
    "date_created": "2026-07-15T16:36:38.000",
    "date_modified": "2026-07-15T16:36:40.000",
    "request_status": "Pending",
    "responsible_agency": "Department of Sanitation",
    "final_address": "6552 Virgilian St",
    "address_councildis": "D",
    "status": "Assigned to Contractor",
    "contractor": "Waste Pro",
    "rowid": "1300448",
    "final_x": "3697192.93136",
    "final_y": "555436.854617",
    "longitude": "-90.01765082661952",
    "latitude": "30.020772486847964",
    "geocoded_column": {
      "latitude": "30.020772486847964",
      "longitude": "-90.01765082661952"
    }
  },
  {
    "service_request": "2026-1300447",
    "request_type": "Trash/Recycling",
    "request_reason": "Request a Large Item Pick Up",
    "date_created": "2026-07-15T16:36:33.000",
    "date_modified": "2026-07-15T16:36:35.000",
    "request_status": "Pending",
    "responsible_agency": "Department of Sanitation",
    "final_address": "2317 Wirth Pl",
    "address_councildis": "A",
    "status": "Assigned to Contractor",
    "contractor": "IV Waste",
    "rowid": "1300447",
    "final_x": "3667204.70394",
    "final_y": "524668.172988",
    "longitude": "-90.11344022116722",
    "latitude": "29.937081675357206",
    "geocoded_column": {
      "latitude": "29.937081675357206",
      "longitude": "-90.11344022116722"
    }
  },
  {
    "service_request": "2026-1300446",
    "request_type": "General Services",
    "request_reason": "General Service Request",
    "date_created": "2026-07-15T16:36:06.000",
    "date_modified": "2026-07-15T16:50:22.000",
    "case_close_date": "2026-07-15T11:50:20.000",
    "request_status": "Closed",
    "responsible_agency": "Orleans Parish Communication District",
    "final_address": "5800 Vicksburg St, New Orleans, Louisiana, 70124 and Kenilworth St, New Orleans, Louisiana, 70124",
    "address_councildis": "A",
    "status": "Question Answered.",
    "rowid": "1300446",
    "final_x": "3668662.39463",
    "final_y": "545995.103504",
    "longitude": "-90.10811824865019",
    "latitude": "29.99568088317039",
    "geocoded_column": {
      "latitude": "29.99568088317039",
      "longitude": "-90.10811824865019"
    }
  },
  {
    "service_request": "2026-1300445",
    "request_type": "Trash/Recycling",
    "request_reason": "Request a Large Item Pick Up",
    "date_created": "2026-07-15T16:33:37.000",
    "date_modified": "2026-07-15T16:33:39.000",
    "request_status": "Pending",
    "responsible_agency": "Department of Sanitation",
    "final_address": "2134 Annette St",
    "address_councildis": "D",
    "status": "Assigned to Contractor",
    "contractor": "IV Waste",
    "rowid": "1300445",
    "final_x": "3682784.43176",
    "final_y": "540120.646731",
    "longitude": "-90.0637136386477",
    "latitude": "29.979105435288606",
    "geocoded_column": {
      "latitude": "29.979105435288606",
      "longitude": "-90.0637136386477"
    }
  },
  {
    "service_request": "2026-1300444",
    "request_type": "Trash/Recycling",
    "request_reason": "Repair Trash Cart",
    "date_created": "2026-07-15T16:31:23.000",
    "date_modified": "2026-07-15T16:31:25.000",
    "request_status": "Pending",
    "responsible_agency": "Department of Sanitation",
    "final_address": "5820 Tchoupitoulas St",
    "address_councildis": "A",
    "status": "Assigned to Contractor",
    "contractor": "IV Waste",
    "rowid": "1300444",
    "final_x": "3664927.36493",
    "final_y": "517263.539893",
    "longitude": "-90.12087730116265",
    "latitude": "29.916787736154102",
    "geocoded_column": {
      "latitude": "29.916787736154102",
      "longitude": "-90.12087730116265"
    }
  },
  {
    "service_request": "2026-1300443",
    "request_type": "Trash/Recycling",
    "request_reason": "Request a Large Item Pick Up",
    "date_created": "2026-07-15T16:30:04.000",
    "date_modified": "2026-07-15T16:30:07.000",
    "request_status": "Pending",
    "responsible_agency": "Department of Sanitation",
    "final_address": "3207 Martin Luther King, Jr. Blvd",
    "address_councildis": "B",
    "status": "Assigned to Contractor",
    "contractor": "IV Waste",
    "rowid": "1300443",
    "final_x": "3674400.72097",
    "final_y": "528647.710784",
    "longitude": "-90.09058568809746",
    "latitude": "29.947811482081853",
    "geocoded_column": {
      "latitude": "29.947811482081853",
      "longitude": "-90.09058568809746"
    }
  },
  {
    "service_request": "2026-1300442",
    "request_type": "Trash/Recycling",
    "request_reason": "Request a Large Item Pick Up",
    "date_created": "2026-07-15T16:29:12.000",
    "date_modified": "2026-07-15T16:29:14.000",
    "request_status": "Pending",
    "responsible_agency": "Department of Sanitation",
    "final_address": "3219 Martin Luther King, Jr. Blvd",
    "address_councildis": "B",
    "status": "Assigned to Contractor",
    "contractor": "IV Waste",
    "rowid": "1300442",
    "final_x": "3674315.8372",
    "final_y": "528701.025984",
    "longitude": "-90.09085187488368",
    "latitude": "29.947960612418697",
    "geocoded_column": {
      "latitude": "29.947960612418697",
      "longitude": "-90.09085187488368"
    }
  },
  {
    "service_request": "2026-1300441",
    "request_type": "Trash/Recycling",
    "request_reason": "Request a Large Item Pick Up",
    "date_created": "2026-07-15T16:27:15.000",
    "date_modified": "2026-07-15T16:27:16.000",
    "request_status": "Pending",
    "responsible_agency": "Department of Sanitation",
    "final_address": "12 Carriage Ln",
    "address_councildis": "C",
    "status": "Assigned to Contractor",
    "contractor": "Richards Disposal",
    "rowid": "1300441",
    "final_x": "3695940.59587",
    "final_y": "519889.315384",
    "longitude": "-90.0228923632517",
    "latitude": "29.923068964092447",
    "geocoded_column": {
      "latitude": "29.923068964092447",
      "longitude": "-90.0228923632517"
    }
  },
  {
    "service_request": "2026-1300440",
    "request_type": "Trash/Recycling",
    "request_reason": "Request a Large Item Pick Up",
    "date_created": "2026-07-15T16:26:55.000",
    "date_modified": "2026-07-15T16:26:57.000",
    "request_status": "Pending",
    "responsible_agency": "Department of Sanitation",
    "final_address": "4957 Pentland Dr",
    "address_councildis": "E",
    "status": "Assigned to Contractor",
    "contractor": "Waste Pro",
    "rowid": "1300440",
    "final_x": "3718733.56044",
    "final_y": "558333.340828",
    "longitude": "-89.94947907835831",
    "latitude": "30.02803899599615",
    "geocoded_column": {
      "latitude": "30.02803899599615",
      "longitude": "-89.94947907835831"
    }
  },
  {
    "service_request": "2026-1300439",
    "request_type": "Trash/Recycling",
    "request_reason": "Repair Trash Cart",
    "date_created": "2026-07-15T16:26:48.000",
    "date_modified": "2026-07-15T16:26:50.000",
    "request_status": "Pending",
    "responsible_agency": "Department of Sanitation",
    "final_address": "4617 Donna Dr",
    "address_councildis": "E",
    "status": "Assigned to Contractor",
    "contractor": "Waste Pro",
    "rowid": "1300439",
    "final_x": "3711123.84101",
    "final_y": "555180.902041",
    "longitude": "-89.97364327639094",
    "latitude": "30.01962153442217",
    "geocoded_column": {
      "latitude": "30.01962153442217",
      "longitude": "-89.97364327639094"
    }
  },
  {
    "service_request": "2026-1300438",
    "request_type": "Trash/Recycling",
    "request_reason": "Request a Large Item Pick Up",
    "date_created": "2026-07-15T16:24:16.000",
    "date_modified": "2026-07-15T16:24:18.000",
    "request_status": "Pending",
    "responsible_agency": "Department of Sanitation",
    "final_address": "5000 Revel St",
    "address_councildis": "E",
    "status": "Assigned to Contractor",
    "contractor": "Waste Pro",
    "rowid": "1300438",
    "final_x": "3725124.71737",
    "final_y": "561956.559967",
    "longitude": "-89.92914341809528",
    "latitude": "30.03778757956798",
    "geocoded_column": {
      "latitude": "30.03778757956798",
      "longitude": "-89.92914341809528"
    }
  },
  {
    "service_request": "2026-1300437",
    "request_type": "Streetlights",
    "request_reason": "Streetlight Outage/Malfunction",
    "date_created": "2026-07-15T16:21:06.000",
    "date_modified": "2026-07-15T16:21:08.000",
    "request_status": "Pending",
    "responsible_agency": "Department of Public Works",
    "final_address": "5924 Orleans Ave",
    "address_councildis": "A",
    "status": "Pending",
    "rowid": "1300437",
    "final_x": "3670747.19726",
    "final_y": "546619.507217",
    "longitude": "-90.10151131963008",
    "latitude": "29.997336316456316",
    "geocoded_column": {
      "latitude": "29.997336316456316",
      "longitude": "-90.10151131963008"
    }
  },
  {
    "service_request": "2026-1300436",
    "request_type": "Trash/Recycling",
    "request_reason": "Request a Large Item Pick Up",
    "date_created": "2026-07-15T16:20:57.000",
    "date_modified": "2026-07-15T16:20:59.000",
    "request_status": "Pending",
    "responsible_agency": "Department of Sanitation",
    "final_address": "4403 Shalimar Dr",
    "address_councildis": "D",
    "status": "Assigned to Contractor",
    "contractor": "Waste Pro",
    "rowid": "1300436",
    "final_x": "3697413.35581",
    "final_y": "552428.684822",
    "longitude": "-90.01706354046605",
    "latitude": "30.012494194974227",
    "geocoded_column": {
      "latitude": "30.012494194974227",
      "longitude": "-90.01706354046605"
    }
  },
  {
    "service_request": "2026-1300435",
    "request_type": "Traffic Safety",
    "request_reason": "Request for Traffic Calming due to Speeding",
    "date_created": "2026-07-15T16:20:52.000",
    "date_modified": "2026-07-15T16:20:54.000",
    "request_status": "Pending",
    "responsible_agency": "Department of Public Works",
    "final_address": "1238 N Johnson St",
    "address_councildis": "C",
    "status": "Pending",
    "rowid": "1300435",
    "final_x": "3679987.24968",
    "final_y": "537164.115208",
    "longitude": "-90.07265095808806",
    "latitude": "29.97106091988519",
    "geocoded_column": {
      "latitude": "29.97106091988519",
      "longitude": "-90.07265095808806"
    }
  },
  {
    "service_request": "2026-1300434",
    "request_type": "Streetlights",
    "request_reason": "Streetlight Outage/Malfunction",
    "date_created": "2026-07-15T16:20:09.000",
    "date_modified": "2026-07-15T16:20:11.000",
    "request_status": "Pending",
    "responsible_agency": "Department of Public Works",
    "final_address": "7300 Malvern Dr",
    "address_councildis": "E",
    "status": "Pending",
    "rowid": "1300434",
    "final_x": "3702764.87601",
    "final_y": "560517.883294",
    "longitude": "-89.99985841052685",
    "latitude": "30.034566254272615",
    "geocoded_column": {
      "latitude": "30.034566254272615",
      "longitude": "-89.99985841052685"
    }
  },
  {
    "service_request": "2026-1300433",
    "request_type": "Trash/Recycling",
    "request_reason": "Request a Large Item Pick Up",
    "date_created": "2026-07-15T16:16:23.000",
    "date_modified": "2026-07-15T16:16:24.000",
    "request_status": "Pending",
    "responsible_agency": "Department of Sanitation",
    "final_address": "1025 Cherokee St",
    "address_councildis": "A",
    "status": "Assigned to Contractor",
    "contractor": "IV Waste",
    "rowid": "1300433",
    "final_x": "3663214.73082",
    "final_y": "526535.810494",
    "longitude": "-90.1259747267932",
    "latitude": "29.942333282728992",
    "geocoded_column": {
      "latitude": "29.942333282728992",
      "longitude": "-90.1259747267932"
    }
  },
  {
    "service_request": "2026-1300432",
    "request_type": "Property Maintenance",
    "request_reason": "Property Maintenance",
    "date_created": "2026-07-15T16:14:50.000",
    "date_modified": "2026-07-15T16:14:51.000",
    "request_status": "Pending",
    "responsible_agency": "Department of Code Enforcement",
    "final_address": "7830 Henley St",
    "address_councildis": "E",
    "status": "Pending",
    "rowid": "1300432",
    "final_x": "3696602.66077",
    "final_y": "559840.637213",
    "longitude": "-90.0193563342683",
    "latitude": "30.032899831871994",
    "geocoded_column": {
      "latitude": "30.032899831871994",
      "longitude": "-90.0193563342683"
    }
  },
  {
    "service_request": "2026-1300431",
    "request_type": "Property Maintenance",
    "request_reason": "Property Maintenance",
    "date_created": "2026-07-15T16:14:26.000",
    "date_modified": "2026-07-15T16:14:28.000",
    "request_status": "Pending",
    "responsible_agency": "Department of Code Enforcement",
    "final_address": "5043 Debore Cir",
    "address_councildis": "D",
    "status": "Pending",
    "rowid": "1300431",
    "final_x": "3692274.7272",
    "final_y": "553066.930711",
    "longitude": "-90.0332758077426",
    "latitude": "30.014410442013997",
    "geocoded_column": {
      "latitude": "30.014410442013997",
      "longitude": "-90.0332758077426"
    }
  },
  {
    "service_request": "2026-1300430",
    "request_type": "Roads and Streets",
    "request_reason": "Pothole",
    "date_created": "2026-07-15T16:12:50.000",
    "date_modified": "2026-07-15T16:12:51.000",
    "request_status": "Pending",
    "responsible_agency": "Department of Public Works",
    "final_address": "401 Walnut St",
    "address_councildis": "A",
    "status": "Pending",
    "rowid": "1300430",
    "final_x": "3662412.89223",
    "final_y": "522752.851322",
    "longitude": "-90.12863189508234",
    "latitude": "29.931954550029058",
    "geocoded_column": {
      "latitude": "29.931954550029058",
      "longitude": "-90.12863189508234"
    }
  },
  {
    "service_request": "2026-1300429",
    "request_type": "Streetlights",
    "request_reason": "Streetlight Outage/Malfunction",
    "date_created": "2026-07-15T16:12:11.000",
    "date_modified": "2026-07-15T16:12:13.000",
    "request_status": "Pending",
    "responsible_agency": "Department of Public Works",
    "final_address": "7300 Malvern Dr",
    "address_councildis": "E",
    "status": "Pending",
    "rowid": "1300429",
    "final_x": "3702764.87601",
    "final_y": "560517.883294",
    "longitude": "-89.99985841052685",
    "latitude": "30.034566254272615",
    "geocoded_column": {
      "latitude": "30.034566254272615",
      "longitude": "-89.99985841052685"
    }
  },
  {
    "service_request": "2026-1300428",
    "request_type": "Drainage",
    "request_reason": "Catch Basin Not Draining",
    "date_created": "2026-07-15T16:12:00.000",
    "date_modified": "2026-07-15T16:12:05.000",
    "request_status": "Pending",
    "responsible_agency": "Sewerage & Water Board",
    "final_address": "1833 Oretha Castle Haley Blvd",
    "address_councildis": "B",
    "status": "Pending",
    "rowid": "1300428",
    "final_x": "3677376.24904",
    "final_y": "525345.785789",
    "longitude": "-90.08130467652046",
    "latitude": "29.938643209235487",
    "geocoded_column": {
      "latitude": "29.938643209235487",
      "longitude": "-90.08130467652046"
    }
  },
  {
    "service_request": "2026-1300427",
    "request_type": "Property Maintenance",
    "request_reason": "Property Maintenance",
    "date_created": "2026-07-15T16:11:23.000",
    "date_modified": "2026-07-15T16:11:24.000",
    "request_status": "Pending",
    "responsible_agency": "Department of Code Enforcement",
    "final_address": "4920 Sherwood Dr",
    "address_councildis": "E",
    "status": "Pending",
    "rowid": "1300427",
    "final_x": "3717839.66789",
    "final_y": "557854.956763",
    "longitude": "-89.95232190685832",
    "latitude": "30.02675328532648",
    "geocoded_column": {
      "latitude": "30.02675328532648",
      "longitude": "-89.95232190685832"
    }
  },
  {
    "service_request": "2026-1300426",
    "request_type": "Trash/Recycling",
    "request_reason": "Request a Large Item Pick Up",
    "date_created": "2026-07-15T16:11:05.000",
    "date_modified": "2026-07-15T16:11:07.000",
    "request_status": "Pending",
    "responsible_agency": "Department of Sanitation",
    "final_address": "1210 Casa Calvo St",
    "address_councildis": "C",
    "status": "Assigned to Contractor",
    "contractor": "Richards Disposal",
    "rowid": "1300426",
    "final_x": "3692140.74825",
    "final_y": "526840.92019",
    "longitude": "-90.03463826074146",
    "latitude": "29.942302461966218",
    "geocoded_column": {
      "latitude": "29.942302461966218",
      "longitude": "-90.03463826074146"
    }
  },
  {
    "service_request": "2026-1300425",
    "request_type": "Streetlights",
    "request_reason": "New Streetlight Request",
    "date_created": "2026-07-15T16:09:37.000",
    "date_modified": "2026-07-15T16:09:39.000",
    "request_status": "Pending",
    "responsible_agency": "Department of Public Works",
    "final_address": "5043 Debore Cir",
    "address_councildis": "D",
    "status": "Pending",
    "rowid": "1300425",
    "final_x": "3692274.7272",
    "final_y": "553066.930711",
    "longitude": "-90.0332758077426",
    "latitude": "30.014410442013997",
    "geocoded_column": {
      "latitude": "30.014410442013997",
      "longitude": "-90.0332758077426"
    }
  },
  {
    "service_request": "2026-1300424",
    "request_type": "Trash/Recycling",
    "request_reason": "Return Trash Cart",
    "date_created": "2026-07-15T16:09:32.000",
    "date_modified": "2026-07-15T16:09:35.000",
    "request_status": "Pending",
    "responsible_agency": "Department of Sanitation",
    "final_address": "1841 General Collins Ave",
    "address_councildis": "C",
    "status": "Assigned to Contractor",
    "contractor": "Richards Disposal",
    "rowid": "1300424",
    "final_x": "3698449.57751",
    "final_y": "523983.328316",
    "longitude": "-90.01482381728377",
    "latitude": "29.93424695571347",
    "geocoded_column": {
      "latitude": "29.93424695571347",
      "longitude": "-90.01482381728377"
    }
  },
  {
    "service_request": "2026-1300423",
    "request_type": "Health Related Request",
    "request_reason": "Request Health Records (Immunization, Lead and Health)",
    "date_created": "2026-07-15T16:08:00.000",
    "date_modified": "2026-07-15T16:08:03.000",
    "request_status": "Pending",
    "responsible_agency": "Health Department",
    "final_address": "0 BLK Acadiana Pl",
    "address_councildis": "E",
    "status": "Pending",
    "rowid": "1300423",
    "final_x": "3725131.4083",
    "final_y": "564393.680055",
    "longitude": "-89.92902788187175",
    "latitude": "30.04448842646984",
    "geocoded_column": {
      "latitude": "30.04448842646984",
      "longitude": "-89.92902788187175"
    }
  },
  {
    "service_request": "2026-1300422",
    "request_type": "Abandoned Vehicles",
    "request_reason": "Abandoned/Junk Vehicles",
    "date_created": "2026-07-15T16:00:39.000",
    "date_modified": "2026-07-15T16:00:41.000",
    "request_status": "Pending",
    "responsible_agency": "Department of Public Works",
    "final_address": "3806 Piedmont Dr",
    "address_councildis": "D",
    "status": "Pending",
    "rowid": "1300422",
    "final_x": "3685528.59036",
    "final_y": "546749.796049",
    "longitude": "-90.05481292233443",
    "latitude": "29.99724934846459",
    "geocoded_column": {
      "latitude": "29.99724934846459",
      "longitude": "-90.05481292233443"
    }
  },
  {
    "service_request": "2026-1300421",
    "request_type": "Trash/Recycling",
    "request_reason": "Replace Trash Cart",
    "date_created": "2026-07-15T16:00:07.000",
    "date_modified": "2026-07-15T16:00:09.000",
    "request_status": "Pending",
    "responsible_agency": "Department of Sanitation",
    "final_address": "6318 Ransom St",
    "address_councildis": "D",
    "status": "Assigned to Contractor",
    "contractor": "Waste Pro",
    "rowid": "1300421",
    "final_x": "3698194.62474",
    "final_y": "552870.312855",
    "longitude": "-90.01457912068713",
    "latitude": "30.013683805289574",
    "geocoded_column": {
      "latitude": "30.013683805289574",
      "longitude": "-90.01457912068713"
    }
  },
  {
    "service_request": "2026-1300420",
    "request_type": "Trash/Recycling",
    "request_reason": "Request a Large Item Pick Up",
    "date_created": "2026-07-15T15:59:15.000",
    "date_modified": "2026-07-15T15:59:17.000",
    "request_status": "Pending",
    "responsible_agency": "Department of Sanitation",
    "final_address": "7133 Salem Dr",
    "address_councildis": "E",
    "status": "Assigned to Contractor",
    "contractor": "Waste Pro",
    "rowid": "1300420",
    "final_x": "3706475.51396",
    "final_y": "561302.380446",
    "longitude": "-89.9881032562052",
    "latitude": "30.03660405426816",
    "geocoded_column": {
      "latitude": "30.03660405426816",
      "longitude": "-89.9881032562052"
    }
  },
  {
    "service_request": "2026-1300419",
    "request_type": "Streetlights",
    "request_reason": "Streetlight Outage/Malfunction",
    "date_created": "2026-07-15T15:57:56.000",
    "date_modified": "2026-07-15T15:57:58.000",
    "request_status": "Pending",
    "responsible_agency": "Department of Public Works",
    "final_address": "7400 Malvern Dr",
    "address_councildis": "E",
    "status": "Pending",
    "rowid": "1300419",
    "final_x": "3702638.90922",
    "final_y": "560854.263838",
    "longitude": "-90.00024411357406",
    "latitude": "30.035495199628862",
    "geocoded_column": {
      "latitude": "30.035495199628862",
      "longitude": "-90.00024411357406"
    }
  },
  {
    "service_request": "2026-1300418",
    "request_type": "Trash/Recycling",
    "request_reason": "Replace Trash Cart",
    "date_created": "2026-07-15T15:55:28.000",
    "date_modified": "2026-07-15T15:55:30.000",
    "request_status": "Pending",
    "responsible_agency": "Department of Sanitation",
    "final_address": "5510 Wilton Dr",
    "address_councildis": "D",
    "status": "Assigned to Contractor",
    "contractor": "IV Waste",
    "rowid": "1300418",
    "final_x": "3681817.74255",
    "final_y": "553149.117015",
    "longitude": "-90.06631180738746",
    "latitude": "30.01495850642007",
    "geocoded_column": {
      "latitude": "30.01495850642007",
      "longitude": "-90.06631180738746"
    }
  },
  {
    "service_request": "2026-1300417",
    "request_type": "Property Maintenance",
    "request_reason": "Property Maintenance",
    "date_created": "2026-07-15T15:50:53.000",
    "date_modified": "2026-07-15T15:50:55.000",
    "request_status": "Pending",
    "responsible_agency": "Department of Code Enforcement",
    "final_address": "4574 Laine Ave",
    "address_councildis": "E",
    "status": "Pending",
    "rowid": "1300417",
    "final_x": "3705763.96798",
    "final_y": "554370.14812",
    "longitude": "-89.99060858567263",
    "latitude": "30.017566066579132",
    "geocoded_column": {
      "latitude": "30.017566066579132",
      "longitude": "-89.99060858567263"
    }
  },
  {
    "service_request": "2026-1300416",
    "request_type": "Streetlights",
    "request_reason": "Streetlight Outage/Malfunction",
    "date_created": "2026-07-15T15:50:09.000",
    "date_modified": "2026-07-15T15:50:12.000",
    "request_status": "Pending",
    "responsible_agency": "Department of Public Works",
    "final_address": "7418 Malvern Dr",
    "address_councildis": "E",
    "status": "Pending",
    "rowid": "1300416",
    "final_x": "3702573.12113",
    "final_y": "561023.142686",
    "longitude": "-90.00044580577924",
    "latitude": "30.03596165485333",
    "geocoded_column": {
      "latitude": "30.03596165485333",
      "longitude": "-90.00044580577924"
    }
  },
  {
    "service_request": "2026-1300415",
    "request_type": "Trash/Recycling",
    "request_reason": "Illegal Dumping",
    "date_created": "2026-07-15T15:44:45.000",
    "date_modified": "2026-07-15T15:44:47.000",
    "request_status": "Pending",
    "responsible_agency": "Department of Sanitation",
    "final_address": "LAUSSAT PL & PRESS ST",
    "address_councildis": "D",
    "status": "Pending",
    "rowid": "1300415",
    "final_x": "3689635.3",
    "final_y": "542115.08",
    "longitude": "-90.0420050239188",
    "latitude": "29.984378913428767",
    "geocoded_column": {
      "latitude": "29.984378913428767",
      "longitude": "-90.0420050239188"
    }
  },
  {
    "service_request": "2026-1300414",
    "request_type": "Trash/Recycling",
    "request_reason": "Return Recycling Cart",
    "date_created": "2026-07-15T15:43:19.000",
    "date_modified": "2026-07-15T15:43:20.000",
    "request_status": "Pending",
    "responsible_agency": "Department of Sanitation",
    "final_address": "2205 Valence St",
    "address_councildis": "B",
    "status": "Pending",
    "rowid": "1300414",
    "final_x": "3669595.18023",
    "final_y": "522966.689531",
    "longitude": "-90.10595086819848",
    "latitude": "29.93233294812594",
    "geocoded_column": {
      "latitude": "29.93233294812594",
      "longitude": "-90.10595086819848"
    }
  },
  {
    "service_request": "2026-1300413",
    "request_type": "Trash/Recycling",
    "request_reason": "Request a Large Item Pick Up",
    "date_created": "2026-07-15T15:43:12.000",
    "date_modified": "2026-07-15T15:43:14.000",
    "request_status": "Pending",
    "responsible_agency": "Department of Sanitation",
    "final_address": "4124 Clara St",
    "address_councildis": "B",
    "status": "Assigned to Contractor",
    "contractor": "IV Waste",
    "rowid": "1300413",
    "final_x": "3671347.4082",
    "final_y": "525141.794877",
    "longitude": "-90.10034534561535",
    "latitude": "29.93826205946082",
    "geocoded_column": {
      "latitude": "29.93826205946082",
      "longitude": "-90.10034534561535"
    }
  },
  {
    "service_request": "2026-1300412",
    "request_type": "Trash/Recycling",
    "request_reason": "Repair Recycling Cart",
    "date_created": "2026-07-15T15:42:19.000",
    "date_modified": "2026-07-15T15:42:21.000",
    "request_status": "Pending",
    "responsible_agency": "Department of Sanitation",
    "final_address": "2205 Valence St",
    "address_councildis": "B",
    "status": "Pending",
    "rowid": "1300412",
    "final_x": "3669595.18023",
    "final_y": "522966.689531",
    "longitude": "-90.10595086819848",
    "latitude": "29.93233294812594",
    "geocoded_column": {
      "latitude": "29.93233294812594",
      "longitude": "-90.10595086819848"
    }
  },
  {
    "service_request": "2026-1300411",
    "request_type": "Tree Service",
    "request_reason": "Dead or Dying Tree",
    "date_created": "2026-07-15T15:42:06.000",
    "date_modified": "2026-07-15T15:42:08.000",
    "request_status": "Pending",
    "responsible_agency": "Department of Parks & Parkways",
    "final_address": "7400 Malvern Dr",
    "address_councildis": "E",
    "status": "Pending",
    "rowid": "1300411",
    "final_x": "3702638.90922",
    "final_y": "560854.263838",
    "longitude": "-90.00024411357406",
    "latitude": "30.035495199628862",
    "geocoded_column": {
      "latitude": "30.035495199628862",
      "longitude": "-90.00024411357406"
    }
  },
  {
    "service_request": "2026-1300410",
    "request_type": "Trash/Recycling",
    "request_reason": "Return Recycling Cart",
    "date_created": "2026-07-15T15:41:13.000",
    "date_modified": "2026-07-15T15:41:15.000",
    "request_status": "Pending",
    "responsible_agency": "Department of Sanitation",
    "final_address": "1417 Bordeaux St",
    "address_councildis": "B",
    "status": "Pending",
    "rowid": "1300410",
    "final_x": "3669457.94202",
    "final_y": "520310.321336",
    "longitude": "-90.10647390634267",
    "latitude": "29.92503282491091",
    "geocoded_column": {
      "latitude": "29.92503282491091",
      "longitude": "-90.10647390634267"
    }
  },
  {
    "service_request": "2026-1300409",
    "request_type": "Trash/Recycling",
    "request_reason": "Replace Trash Cart",
    "date_created": "2026-07-15T15:41:00.000",
    "date_modified": "2026-07-15T15:41:02.000",
    "request_status": "Pending",
    "responsible_agency": "Department of Sanitation",
    "final_address": "300 Wagner St",
    "address_councildis": "C",
    "status": "Assigned to Contractor",
    "contractor": "Richards Disposal",
    "rowid": "1300409",
    "final_x": "3690676.72636",
    "final_y": "530599.550274",
    "longitude": "-90.03912645363664",
    "latitude": "29.95268294699283",
    "geocoded_column": {
      "latitude": "29.95268294699283",
      "longitude": "-90.03912645363664"
    }
  },
  {
    "service_request": "2026-1300407",
    "request_type": "Trash/Recycling",
    "request_reason": "Repair Recycling Cart",
    "date_created": "2026-07-15T15:38:09.000",
    "date_modified": "2026-07-15T15:38:11.000",
    "request_status": "Pending",
    "responsible_agency": "Department of Sanitation",
    "final_address": "417 Calhoun St",
    "address_councildis": "A",
    "status": "Pending",
    "rowid": "1300407",
    "final_x": "3662990.29504",
    "final_y": "518556.852151",
    "longitude": "-90.12694854879601",
    "latitude": "29.920400161110997",
    "geocoded_column": {
      "latitude": "29.920400161110997",
      "longitude": "-90.12694854879601"
    }
  },
  {
    "service_request": "2026-1300406",
    "request_type": "Trash/Recycling",
    "request_reason": "Request a Large Item Pick Up",
    "date_created": "2026-07-15T15:33:50.000",
    "date_modified": "2026-07-15T15:33:53.000",
    "request_status": "Pending",
    "responsible_agency": "Department of Sanitation",
    "final_address": "539 Fats Domino Ave",
    "address_councildis": "E",
    "status": "Assigned to Contractor",
    "contractor": "Waste Pro",
    "rowid": "1300406",
    "final_x": "3697557.11658",
    "final_y": "531877.498883",
    "longitude": "-90.01735505128123",
    "latitude": "29.95598137816933",
    "geocoded_column": {
      "latitude": "29.95598137816933",
      "longitude": "-90.01735505128123"
    }
  },
  {
    "service_request": "2026-1300405",
    "request_type": "Healthy Homes",
    "request_reason": "Healthy Homes",
    "date_created": "2026-07-15T15:33:39.000",
    "date_modified": "2026-07-15T15:33:41.000",
    "request_status": "Pending",
    "responsible_agency": "Department of Code Enforcement",
    "final_address": "1743 King Dr",
    "address_councildis": "D",
    "status": "Pending",
    "rowid": "1300405",
    "final_x": "3680305.65423",
    "final_y": "550152.20354",
    "longitude": "-90.0711935816182",
    "latitude": "30.006763962410417",
    "geocoded_column": {
      "latitude": "30.006763962410417",
      "longitude": "-90.0711935816182"
    }
  },
  {
    "service_request": "2026-1300404",
    "request_type": "Tree Service",
    "request_reason": "Tree Trim",
    "date_created": "2026-07-15T15:33:31.000",
    "date_modified": "2026-07-15T15:33:32.000",
    "request_status": "Pending",
    "responsible_agency": "Department of Parks & Parkways",
    "final_address": "7900 Mayo Rd",
    "address_councildis": "E",
    "status": "Pending",
    "rowid": "1300404",
    "final_x": "3700393.31127",
    "final_y": "561530.975903",
    "longitude": "-90.00731579734935",
    "latitude": "30.037427538989704",
    "geocoded_column": {
      "latitude": "30.037427538989704",
      "longitude": "-90.00731579734935"
    }
  },
  {
    "service_request": "2026-1300403",
    "request_type": "Drainage",
    "request_reason": "Drainage Manhole Cover Missing or Damaged",
    "date_created": "2026-07-15T15:32:46.000",
    "date_modified": "2026-07-15T15:32:49.000",
    "request_status": "Pending",
    "responsible_agency": "Sewerage & Water Board",
    "final_address": "2829 Pocahontas St",
    "address_councildis": "D",
    "status": "Pending",
    "rowid": "1300403",
    "final_x": "3688819.76451",
    "final_y": "548385.795474",
    "longitude": "-90.04435812397239",
    "latitude": "30.001646368324234",
    "geocoded_column": {
      "latitude": "30.001646368324234",
      "longitude": "-90.04435812397239"
    }
  },
  {
    "service_request": "2026-1300402",
    "request_type": "Streetlights",
    "request_reason": "Streetlight Outage/Malfunction",
    "date_created": "2026-07-15T15:32:15.000",
    "date_modified": "2026-07-15T15:36:01.000",
    "request_status": "Pending",
    "responsible_agency": "Department of Public Works",
    "final_address": "ABUNDANCE ST & SPAIN ST",
    "address_councildis": "D",
    "status": "Pending",
    "rowid": "1300402",
    "final_x": "3685547.7",
    "final_y": "543759.28",
    "longitude": "-90.05485796015611",
    "latitude": "29.989025912172618",
    "geocoded_column": {
      "latitude": "29.989025912172618",
      "longitude": "-90.05485796015611"
    }
  },
  {
    "service_request": "2026-1300401",
    "request_type": "Trash/Recycling",
    "request_reason": "Repair Trash Cart",
    "date_created": "2026-07-15T15:25:09.000",
    "date_modified": "2026-07-15T15:25:12.000",
    "request_status": "Pending",
    "responsible_agency": "Department of Sanitation",
    "final_address": "1412 Hero Blvd",
    "address_councildis": "C",
    "status": "Assigned to Contractor",
    "contractor": "Richards Disposal",
    "rowid": "1300401",
    "final_x": "3689434.63241",
    "final_y": "523484.993915",
    "longitude": "-90.0433013310104",
    "latitude": "29.933158860634027",
    "geocoded_column": {
      "latitude": "29.933158860634027",
      "longitude": "-90.0433013310104"
    }
  },
  {
    "service_request": "2026-1300400",
    "request_type": "Trash/Recycling",
    "request_reason": "Request a Large Item Pick Up",
    "date_created": "2026-07-15T15:25:08.000",
    "date_modified": "2026-07-15T15:25:10.000",
    "request_status": "Pending",
    "responsible_agency": "Department of Sanitation",
    "final_address": "4726 America St",
    "address_councildis": "E",
    "status": "Assigned to Contractor",
    "contractor": "Waste Pro",
    "rowid": "1300400",
    "final_x": "3699729.80247",
    "final_y": "554421.81276",
    "longitude": "-90.0096721585962",
    "latitude": "30.017901170402695",
    "geocoded_column": {
      "latitude": "30.017901170402695",
      "longitude": "-90.0096721585962"
    }
  },
  {
    "service_request": "2026-1300399",
    "request_type": "Streetlights",
    "request_reason": "Streetlight Outage/Malfunction",
    "date_created": "2026-07-15T15:21:38.000",
    "date_modified": "2026-07-15T15:21:40.000",
    "request_status": "Pending",
    "responsible_agency": "Department of Public Works",
    "final_address": "7320 W Renaissance Ct",
    "address_councildis": "E",
    "status": "Pending",
    "rowid": "1300399",
    "final_x": "3716213.33522",
    "final_y": "568032.864677",
    "longitude": "-89.95707460577216",
    "latitude": "30.054792203394708",
    "geocoded_column": {
      "latitude": "30.054792203394708",
      "longitude": "-89.95707460577216"
    }
  },
  {
    "service_request": "2026-1300398",
    "request_type": "Trash/Recycling",
    "request_reason": "Request a Large Item Pick Up",
    "date_created": "2026-07-15T15:21:16.000",
    "date_modified": "2026-07-15T15:21:18.000",
    "request_status": "Pending",
    "responsible_agency": "Department of Sanitation",
    "final_address": "4700 Laine Ave",
    "address_councildis": "E",
    "status": "Assigned to Contractor",
    "contractor": "Waste Pro",
    "rowid": "1300398",
    "final_x": "3705694.32145",
    "final_y": "555116.451737",
    "longitude": "-89.99080101148618",
    "latitude": "30.019620357472657",
    "geocoded_column": {
      "latitude": "30.019620357472657",
      "longitude": "-89.99080101148618"
    }
  },
  {
    "service_request": "2026-1300397",
    "request_type": "Trash/Recycling",
    "request_reason": "Repair Trash Cart",
    "date_created": "2026-07-15T15:17:54.000",
    "date_modified": "2026-07-15T15:17:56.000",
    "request_status": "Pending",
    "responsible_agency": "Department of Sanitation",
    "final_address": "4700 Laine Ave",
    "address_councildis": "E",
    "status": "Assigned to Contractor",
    "contractor": "Waste Pro",
    "rowid": "1300397",
    "final_x": "3705694.32145",
    "final_y": "555116.451737",
    "longitude": "-89.99080101148618",
    "latitude": "30.019620357472657",
    "geocoded_column": {
      "latitude": "30.019620357472657",
      "longitude": "-89.99080101148618"
    }
  },
  {
    "service_request": "2026-1300396",
    "request_type": "Drainage",
    "request_reason": "Catch Basin Not Draining",
    "date_created": "2026-07-15T15:12:20.000",
    "date_modified": "2026-07-15T15:14:02.000",
    "request_status": "Pending",
    "responsible_agency": "Sewerage & Water Board",
    "final_address": "3418 Franklin Ave",
    "address_councildis": "D",
    "status": "Pending",
    "rowid": "1300396",
    "final_x": "3687106.31471",
    "final_y": "545667.85352",
    "longitude": "-90.04986724695344",
    "latitude": "29.99422589645554",
    "geocoded_column": {
      "latitude": "29.99422589645554",
      "longitude": "-90.04986724695344"
    }
  },
  {
    "service_request": "2026-1300395",
    "request_type": "Homeless Related Request",
    "request_reason": "Homeless Encampment Complaint",
    "date_created": "2026-07-15T15:10:18.000",
    "date_modified": "2026-07-15T15:10:20.000",
    "request_status": "Pending",
    "responsible_agency": "Office Of Homeless Services And Strategy",
    "final_address": "5101 Canal Blvd",
    "address_councildis": "A",
    "status": "Pending",
    "rowid": "1300395",
    "final_x": "3668047.66221",
    "final_y": "541296.987276",
    "longitude": "-90.11021855882808",
    "latitude": "29.982780727159295",
    "geocoded_column": {
      "latitude": "29.982780727159295",
      "longitude": "-90.11021855882808"
    }
  },
  {
    "service_request": "2026-1300394",
    "request_type": "Trash/Recycling",
    "request_reason": "Request a Large Item Pick Up",
    "date_created": "2026-07-15T15:06:45.000",
    "date_modified": "2026-07-15T15:06:47.000",
    "request_status": "Pending",
    "responsible_agency": "Department of Sanitation",
    "final_address": "2026 Deslonde St",
    "address_councildis": "E",
    "status": "Assigned to Contractor",
    "contractor": "Waste Pro",
    "rowid": "1300394",
    "final_x": "3696345.14307",
    "final_y": "537983.340809",
    "longitude": "-90.02096120346054",
    "latitude": "29.97280849237329",
    "geocoded_column": {
      "latitude": "29.97280849237329",
      "longitude": "-90.02096120346054"
    }
  },
  {
    "service_request": "2026-1300393",
    "request_type": "Homeless Related Request",
    "request_reason": "Homeless Encampment Complaint",
    "date_created": "2026-07-15T15:06:04.000",
    "date_modified": "2026-07-15T15:06:06.000",
    "request_status": "Pending",
    "responsible_agency": "Office Of Homeless Services And Strategy",
    "final_address": "5603 West End Blvd",
    "address_councildis": "A",
    "status": "Pending",
    "rowid": "1300393",
    "final_x": "3666354.35777",
    "final_y": "544799.639183",
    "longitude": "-90.11544929981928",
    "latitude": "29.992461422443437",
    "geocoded_column": {
      "latitude": "29.992461422443437",
      "longitude": "-90.11544929981928"
    }
  },
  {
    "service_request": "2026-1300392",
    "request_type": "Trash/Recycling",
    "request_reason": "Request a Large Item Pick Up",
    "date_created": "2026-07-15T15:05:57.000",
    "date_modified": "2026-07-15T15:10:07.000",
    "request_status": "Pending",
    "responsible_agency": "Department of Sanitation",
    "final_address": "1533 Filmore Ave",
    "address_councildis": "D",
    "status": "Assigned to Contractor",
    "contractor": "IV Waste",
    "rowid": "1300392",
    "final_x": "3679063.99413",
    "final_y": "552006.476374",
    "longitude": "-90.07505198256058",
    "latitude": "30.011900095186125",
    "geocoded_column": {
      "latitude": "30.011900095186125",
      "longitude": "-90.07505198256058"
    }
  },
  {
    "service_request": "2026-1300391",
    "request_type": "Homeless Related Request",
    "request_reason": "Homeless Encampment Complaint",
    "date_created": "2026-07-15T15:03:58.000",
    "date_modified": "2026-07-15T15:04:00.000",
    "request_status": "Pending",
    "responsible_agency": "Office Of Homeless Services And Strategy",
    "final_address": "200 BLK N Tonti St",
    "address_councildis": "B",
    "status": "Pending",
    "rowid": "1300391",
    "final_x": "3676782.45906",
    "final_y": "534772.929586",
    "longitude": "-90.0828545319661",
    "latitude": "29.964582535814607",
    "geocoded_column": {
      "latitude": "29.964582535814607",
      "longitude": "-90.0828545319661"
    }
  },
  {
    "service_request": "2026-1300390",
    "request_type": "Roads and Streets",
    "request_reason": "Pothole",
    "date_created": "2026-07-15T15:03:26.000",
    "date_modified": "2026-07-15T15:03:28.000",
    "request_status": "Pending",
    "responsible_agency": "Department of Public Works",
    "final_address": "6423 S Claiborne Ave",
    "address_councildis": "A",
    "status": "Pending",
    "rowid": "1300390",
    "final_x": "3666984.97549",
    "final_y": "528449.361472",
    "longitude": "-90.11400688875564",
    "latitude": "29.947485155940623",
    "geocoded_column": {
      "latitude": "29.947485155940623",
      "longitude": "-90.11400688875564"
    }
  },
  {
    "service_request": "2026-1300389",
    "request_type": "General Services",
    "request_reason": "General Service Request",
    "date_created": "2026-07-15T15:03:16.000",
    "date_modified": "2026-07-15T15:08:09.000",
    "case_close_date": "2026-07-15T10:08:07.000",
    "request_status": "Closed",
    "responsible_agency": "Orleans Parish Communication District",
    "final_address": "5423 West End Blvd",
    "address_councildis": "A",
    "status": "Question Answered.",
    "rowid": "1300389",
    "final_x": "3666309.81639",
    "final_y": "543571.302542",
    "longitude": "-90.11563123239192",
    "latitude": "29.989085216771276",
    "geocoded_column": {
      "latitude": "29.989085216771276",
      "longitude": "-90.11563123239192"
    }
  },
  {
    "service_request": "2026-1300388",
    "request_type": "Trash/Recycling",
    "request_reason": "Request a Large Item Pick Up",
    "date_created": "2026-07-15T15:01:41.000",
    "date_modified": "2026-07-15T15:01:42.000",
    "request_status": "Pending",
    "responsible_agency": "Department of Sanitation",
    "final_address": "7562 Forum Blvd",
    "address_councildis": "E",
    "status": "Assigned to Contractor",
    "contractor": "Waste Pro",
    "rowid": "1300388",
    "final_x": "3720473.77433",
    "final_y": "572886.461737",
    "longitude": "-89.94342236305155",
    "latitude": "30.067996172754388",
    "geocoded_column": {
      "latitude": "30.067996172754388",
      "longitude": "-89.94342236305155"
    }
  },
  {
    "service_request": "2026-1300387",
    "request_type": "Healthy Homes",
    "request_reason": "Healthy Homes",
    "date_created": "2026-07-15T14:54:34.000",
    "date_modified": "2026-07-15T14:54:36.000",
    "request_status": "Pending",
    "responsible_agency": "Department of Code Enforcement",
    "final_address": "1420 Charbonnet St",
    "address_councildis": "E",
    "status": "Pending",
    "rowid": "1300387",
    "final_x": "3698889.86039",
    "final_y": "534910.40167",
    "longitude": "-90.01303638214634",
    "latitude": "29.96427862746914",
    "geocoded_column": {
      "latitude": "29.96427862746914",
      "longitude": "-90.01303638214634"
    }
  },
  {
    "service_request": "2026-1300386",
    "request_type": "Roads and Streets",
    "request_reason": "Abandoned Service Cut",
    "date_created": "2026-07-15T14:51:28.000",
    "date_modified": "2026-07-15T14:51:31.000",
    "request_status": "Pending",
    "responsible_agency": "Department of Public Works",
    "final_address": "830 N Galvez St",
    "address_councildis": "C",
    "status": "Pending",
    "rowid": "1300386",
    "final_x": "3678747.54926",
    "final_y": "536144.859335",
    "longitude": "-90.07660140147019",
    "latitude": "29.968295760831356",
    "geocoded_column": {
      "latitude": "29.968295760831356",
      "longitude": "-90.07660140147019"
    }
  },
  {
    "service_request": "2026-1300385",
    "request_type": "Trash/Recycling",
    "request_reason": "Request a Large Item Pick Up",
    "date_created": "2026-07-15T14:45:56.000",
    "date_modified": "2026-07-15T14:48:03.000",
    "request_status": "Pending",
    "responsible_agency": "Department of Sanitation",
    "final_address": "3720 Kent Dr",
    "address_councildis": "C",
    "status": "Assigned to Contractor",
    "contractor": "Richards Disposal",
    "rowid": "1300385",
    "final_x": "3708726.39665",
    "final_y": "517283.129653",
    "longitude": "-89.98262987043388",
    "latitude": "29.915494602042912",
    "geocoded_column": {
      "latitude": "29.915494602042912",
      "longitude": "-89.98262987043388"
    }
  },
  {
    "service_request": "2026-1300384",
    "request_type": "Trash/Recycling",
    "request_reason": "Request a Large Item Pick Up",
    "date_created": "2026-07-15T14:45:22.000",
    "date_modified": "2026-07-15T14:45:25.000",
    "request_status": "Pending",
    "responsible_agency": "Department of Sanitation",
    "final_address": "3716 Jena St",
    "address_councildis": "B",
    "status": "Assigned to Contractor",
    "contractor": "IV Waste",
    "rowid": "1300384",
    "final_x": "3669667.34708",
    "final_y": "528275.186176",
    "longitude": "-90.10554347356245",
    "latitude": "29.94692747156964",
    "geocoded_column": {
      "latitude": "29.94692747156964",
      "longitude": "-90.10554347356245"
    }
  },
  {
    "service_request": "2026-1300383",
    "request_type": "Trash/Recycling",
    "request_reason": "Dead Animal Pick Up",
    "date_created": "2026-07-15T14:44:58.000",
    "date_modified": "2026-07-15T14:45:00.000",
    "request_status": "Pending",
    "responsible_agency": "Department of Sanitation",
    "final_address": "4718 W Adams Ct",
    "address_councildis": "E",
    "status": "Assigned to Contractor",
    "contractor": "Waste Pro",
    "rowid": "1300383",
    "final_x": "3718475.92236",
    "final_y": "556871.349786",
    "longitude": "-89.95034894721682",
    "latitude": "30.024027659397976",
    "geocoded_column": {
      "latitude": "30.024027659397976",
      "longitude": "-89.95034894721682"
    }
  },
  {
    "service_request": "2026-1300382",
    "request_type": "Trash/Recycling",
    "request_reason": "Replace Trash Cart",
    "date_created": "2026-07-15T14:38:25.000",
    "date_modified": "2026-07-15T14:39:25.000",
    "request_status": "Pending",
    "responsible_agency": "Department of Sanitation",
    "final_address": "3435 Lowerline St",
    "address_councildis": "B",
    "status": "Assigned to Contractor",
    "contractor": "IV Waste",
    "rowid": "1300382",
    "final_x": "3668291.21793",
    "final_y": "533638.999173",
    "longitude": "-90.10970758267896",
    "latitude": "29.961716672637035",
    "geocoded_column": {
      "latitude": "29.961716672637035",
      "longitude": "-90.10970758267896"
    }
  },
  {
    "service_request": "2026-1300381",
    "request_type": "Trash/Recycling",
    "request_reason": "Order Trash Cart",
    "date_created": "2026-07-15T14:38:14.000",
    "date_modified": "2026-07-15T14:38:15.000",
    "request_status": "Pending",
    "responsible_agency": "Department of Sanitation",
    "final_address": "14023 Wales St",
    "address_councildis": "E",
    "status": "Assigned to Contractor",
    "contractor": "Waste Pro",
    "rowid": "1300381",
    "final_x": "3718238.9294",
    "final_y": "572691.133545",
    "longitude": "-89.95049452698109",
    "latitude": "30.067533451185348",
    "geocoded_column": {
      "latitude": "30.067533451185348",
      "longitude": "-89.95049452698109"
    }
  },
  {
    "service_request": "2026-1300380",
    "request_type": "Trash/Recycling",
    "request_reason": "Repair Trash Cart",
    "date_created": "2026-07-15T14:37:03.000",
    "date_modified": "2026-07-15T14:37:06.000",
    "request_status": "Pending",
    "responsible_agency": "Department of Sanitation",
    "final_address": "6570 Colbert St",
    "address_councildis": "A",
    "status": "Assigned to Contractor",
    "contractor": "IV Waste",
    "rowid": "1300380",
    "final_x": "3667683.61786",
    "final_y": "551362.676437",
    "longitude": "-90.11102925694453",
    "latitude": "30.010468587610603",
    "geocoded_column": {
      "latitude": "30.010468587610603",
      "longitude": "-90.11102925694453"
    }
  },
  {
    "service_request": "2026-1300379",
    "request_type": "Trash/Recycling",
    "request_reason": "Order Second Trash Cart",
    "date_created": "2026-07-15T14:34:05.000",
    "date_modified": "2026-07-15T14:34:46.000",
    "request_status": "Pending",
    "responsible_agency": "Department of Sanitation",
    "final_address": "6211 Providence Pl",
    "address_councildis": "D",
    "status": "Assigned to Contractor",
    "contractor": "IV Waste",
    "rowid": "1300379",
    "final_x": "3688364.15311",
    "final_y": "556398.879834",
    "longitude": "-90.04551293459805",
    "latitude": "30.02369348472246",
    "geocoded_column": {
      "latitude": "30.02369348472246",
      "longitude": "-90.04551293459805"
    }
  },
  {
    "service_request": "2026-1300378",
    "request_type": "Trash/Recycling",
    "request_reason": "Order Trash Cart",
    "date_created": "2026-07-15T14:33:43.000",
    "date_modified": "2026-07-15T14:33:45.000",
    "request_status": "Pending",
    "responsible_agency": "Department of Sanitation",
    "final_address": "2533 Hamilton St",
    "address_councildis": "A",
    "status": "Assigned to Contractor",
    "contractor": "IV Waste",
    "rowid": "1300378",
    "final_x": "3662682.42541",
    "final_y": "534356.999301",
    "longitude": "-90.1273954581014",
    "latitude": "29.963854438950772",
    "geocoded_column": {
      "latitude": "29.963854438950772",
      "longitude": "-90.1273954581014"
    }
  },