[
  {
    "service_request": "2023-1031253",
    "request_type": "Traffic Signals/Signs/Striping/Streetlights",
    "request_reason": "Street Name Sign Damaged or Missing",
    "date_created": "2023-09-01T01:40:10.000",
    "date_modified": "2023-09-01T01:40:10.000",
    "request_status": "Pending",
    "responsible_agency": "Department of Public Works",
    "final_address": "1725 Dufossat St",
    "address_councildis": "B",
    "status": "Pending",
    "rowid": "1031253",
    "final_x": "3668192.68743",
    "final_y": "522036.060218",
    "longitude": "-90.11040977787289",
    "latitude": "29.92981524824353",
    "geocoded_column": {
      "latitude": "29.92981524824353",
      "longitude": "-90.11040977787289"
    }
  },
  {
    "service_request": "2023-1031252",
    "request_type": "Roads/Drainage",
    "request_reason": "Pothole",
    "date_created": "2023-09-01T01:23:56.000",
    "date_modified": "2023-09-01T01:23:56.000",
    "request_status": "Pending",
    "responsible_agency": "Department of Public Works",
    "final_address": "5731 Hurst St",
    "address_councildis": "A",
    "status": "Pending",
    "rowid": "1031252",
    "final_x": "3666265.75079",
    "final_y": "521691.120249",
    "longitude": "-90.11650437177222",
    "latitude": "29.928923180872253",
    "geocoded_column": {
      "latitude": "29.928923180872253",
      "longitude": "-90.11650437177222"
    }
  },
  {
    "service_request": "2023-1031251",
    "request_type": "Roads/Drainage",
    "request_reason": "Pothole",
    "date_created": "2023-09-01T01:10:40.000",
    "date_modified": "2023-09-01T01:10:40.000",
    "request_status": "Pending",
    "responsible_agency": "Department of Public Works",
    "final_address": "1836 Valence St",
    "address_councildis": "B",
    "status": "Pending",
    "rowid": "1031251",
    "final_x": "3669548.88276",
    "final_y": "521749.076666",
    "longitude": "-90.10613819354518",
    "latitude": "29.928986265896693",
    "geocoded_column": {
      "latitude": "29.928986265896693",
      "longitude": "-90.10613819354518"
    }
  },
  {
    "service_request": "2023-1031250",
    "request_type": "Roads/Drainage",
    "request_reason": "Debris in Roadway",
    "date_created": "2023-09-01T00:28:22.000",
    "date_modified": "2023-09-01T00:28:22.000",
    "request_status": "Pending",
    "responsible_agency": "Department of Public Works",
    "final_address": "HAMILTON ST & FIG ST",
    "address_councildis": "A",
    "status": "Pending",
    "rowid": "1031250",
    "final_x": "3663694.9",
    "final_y": "535519.08",
    "longitude": "-90.12415941961684",
    "latitude": "29.967020440662587",
    "geocoded_column": {
      "latitude": "29.967020440662587",
      "longitude": "-90.12415941961684"
    }
  },
  {
    "service_request": "2023-1031249",
    "request_type": "Property Maintenance",
    "request_reason": "Property Maintenance",
    "date_created": "2023-08-31T23:59:28.000",
    "date_modified": "2023-08-31T23:59:28.000",
    "request_status": "Pending",
    "responsible_agency": "Department of Code Enforcement",
    "final_address": "2332 Terpsichore St",
    "address_councildis": "B",
    "status": "Pending",
    "rowid": "1031249",
    "final_x": "3676222.34997",
    "final_y": "526976.038014",
    "longitude": "-90.08489158487322",
    "latitude": "29.94316048451267",
    "geocoded_column": {
      "latitude": "29.94316048451267",
      "longitude": "-90.08489158487322"
    }
  },
  {
    "service_request": "2023-1031248",
    "request_type": "Property Maintenance",
    "request_reason": "Property Maintenance",
    "date_created": "2023-08-31T23:58:21.000",
    "date_modified": "2023-08-31T23:58:21.000",
    "request_status": "Pending",
    "responsible_agency": "Department of Code Enforcement",
    "final_address": "2317 St Andrew St",
    "address_councildis": "B",
    "status": "Pending",
    "rowid": "1031248",
    "final_x": "3676454.77397",
    "final_y": "526375.921086",
    "longitude": "-90.0841784192347",
    "latitude": "29.941503395756936",
    "geocoded_column": {
      "latitude": "29.941503395756936",
      "longitude": "-90.0841784192347"
    }
  },
  {
    "service_request": "2023-1031247",
    "request_type": "Property Maintenance",
    "request_reason": "Property Maintenance",
    "date_created": "2023-08-31T23:56:07.000",
    "date_modified": "2023-08-31T23:56:07.000",
    "request_status": "Pending",
    "responsible_agency": "Department of Code Enforcement",
    "final_address": "2313 St Andrew St",
    "address_councildis": "B",
    "status": "Pending",
    "rowid": "1031247",
    "final_x": "3676483.3755",
    "final_y": "526350.292926",
    "longitude": "-90.08408900063935",
    "latitude": "29.94143206937625",
    "geocoded_column": {
      "latitude": "29.94143206937625",
      "longitude": "-90.08408900063935"
    }
  },
  {
    "service_request": "2023-1031246",
    "request_type": "Abandoned Vehicles",
    "request_reason": "Abandoned/Junk Vehicles",
    "date_created": "2023-08-31T23:53:18.000",
    "date_modified": "2023-08-31T23:53:18.000",
    "request_status": "Pending",
    "responsible_agency": "Department of Public Works",
    "final_address": "2600 BLK Saint Andrew St",
    "address_councildis": "B",
    "status": "Pending",
    "rowid": "1031246",
    "final_x": "3675727.45559",
    "final_y": "527079.302256",
    "longitude": "-90.08645054380635",
    "latitude": "29.9434592442984",
    "geocoded_column": {
      "latitude": "29.9434592442984",
      "longitude": "-90.08645054380635"
    }
  },
  {
    "service_request": "2023-1031245",
    "request_type": "Traffic Signals/Signs/Striping/Streetlights",
    "request_reason": "Street Name Sign Damaged or Missing",
    "date_created": "2023-08-31T23:51:29.000",
    "date_modified": "2023-08-31T23:51:29.000",
    "request_status": "Pending",
    "responsible_agency": "Department of Public Works",
    "final_address": "1839 Bordeaux St",
    "address_councildis": "B",
    "status": "Pending",
    "rowid": "1031245",
    "final_x": "3669329.85428",
    "final_y": "521753.37337",
    "longitude": "-90.10682947979618",
    "latitude": "29.92900452881874",
    "geocoded_column": {
      "latitude": "29.92900452881874",
      "longitude": "-90.10682947979618"
    }
  },
  {
    "service_request": "2023-1031244",
    "request_type": "Property Maintenance",
    "request_reason": "Property Maintenance",
    "date_created": "2023-08-31T23:37:46.000",
    "date_modified": "2023-08-31T23:37:46.000",
    "request_status": "Pending",
    "responsible_agency": "Department of Code Enforcement",
    "final_address": "1600 Rev. John Raphael, Jr. Way",
    "address_councildis": "B",
    "status": "Pending",
    "rowid": "1031244",
    "final_x": "3676494.85262",
    "final_y": "526842.259262",
    "longitude": "-90.08403583036095",
    "latitude": "29.942784470450814",
    "geocoded_column": {
      "latitude": "29.942784470450814",
      "longitude": "-90.08403583036095"
    }
  },
  {
    "service_request": "2023-1031243",
    "request_type": "Abandoned Vehicles",
    "request_reason": "Abandoned/Junk Vehicles",
    "date_created": "2023-08-31T23:35:56.000",
    "date_modified": "2023-08-31T23:35:56.000",
    "request_status": "Pending",
    "responsible_agency": "Department of Public Works",
    "final_address": "2200 Terpsichore St",
    "address_councildis": "B",
    "status": "Pending",
    "rowid": "1031243",
    "final_x": "3676684.67912",
    "final_y": "526710.40915",
    "longitude": "-90.08344104335362",
    "latitude": "29.942416233942563",
    "geocoded_column": {
      "latitude": "29.942416233942563",
      "longitude": "-90.08344104335362"
    }
  },
  {
    "service_request": "2023-1031242",
    "request_type": "Abandoned Vehicles",
    "request_reason": "Abandoned/Junk Vehicles",
    "date_created": "2023-08-31T23:33:54.000",
    "date_modified": "2023-08-31T23:33:54.000",
    "request_status": "Pending",
    "responsible_agency": "Department of Public Works",
    "final_address": "2100 Terpsichore St",
    "address_councildis": "B",
    "status": "Pending",
    "rowid": "1031242",
    "final_x": "3677020.54101",
    "final_y": "526510.765822",
    "longitude": "-90.08238753209649",
    "latitude": "29.941857202750395",
    "geocoded_column": {
      "latitude": "29.941857202750395",
      "longitude": "-90.08238753209649"
    }
  },
  {
    "service_request": "2023-1031241",
    "request_type": "Roads/Drainage",
    "request_reason": "Pothole",
    "date_created": "2023-08-31T23:19:34.000",
    "date_modified": "2023-08-31T23:19:34.000",
    "request_status": "Pending",
    "responsible_agency": "Department of Public Works",
    "final_address": "6004 Chestnut St",
    "address_councildis": "A",
    "status": "Pending",
    "rowid": "1031241",
    "final_x": "3664708.90432",
    "final_y": "519836.195832",
    "longitude": "-90.12148097462406",
    "latitude": "29.923868090727332",
    "geocoded_column": {
      "latitude": "29.923868090727332",
      "longitude": "-90.12148097462406"
    }
  },
  {
    "service_request": "2023-1031240",
    "request_type": "Abandoned Vehicles",
    "request_reason": "Abandoned/Junk Vehicles",
    "date_created": "2023-08-31T23:18:41.000",
    "date_modified": "2023-08-31T23:18:41.000",
    "request_status": "Pending",
    "responsible_agency": "Department of Public Works",
    "final_address": "2016 Felicity St",
    "address_councildis": "B",
    "status": "Pending",
    "rowid": "1031240",
    "final_x": "3677171.19938",
    "final_y": "525834.245693",
    "longitude": "-90.08193519874152",
    "latitude": "29.939992472179146",
    "geocoded_column": {
      "latitude": "29.939992472179146",
      "longitude": "-90.08193519874152"
    }
  },
  {
    "service_request": "2023-1031239",
    "request_type": "Abandoned Vehicles",
    "request_reason": "Abandoned/Junk Vehicles",
    "date_created": "2023-08-31T23:03:07.000",
    "date_modified": "2023-08-31T23:03:07.000",
    "request_status": "Pending",
    "responsible_agency": "Department of Public Works",
    "final_address": "1800 BLK S Liberty St",
    "address_councildis": "B",
    "status": "Pending",
    "rowid": "1031239",
    "final_x": "3676606.69695",
    "final_y": "526308.318562",
    "longitude": "-90.08370109572428",
    "latitude": "29.941312956198733",
    "geocoded_column": {
      "latitude": "29.941312956198733",
      "longitude": "-90.08370109572428"
    }
  },
  {
    "service_request": "2023-1031238",
    "request_type": "Abandoned Vehicles",
    "request_reason": "Abandoned/Junk Vehicles",
    "date_created": "2023-08-31T22:52:55.000",
    "date_modified": "2023-08-31T22:52:55.000",
    "request_status": "Pending",
    "responsible_agency": "Department of Public Works",
    "final_address": "2200 BLK Felicity St",
    "address_councildis": "B",
    "status": "Pending",
    "rowid": "1031238",
    "final_x": "3676501.39598",
    "final_y": "526559.830526",
    "longitude": "-90.08402489353927",
    "latitude": "29.942007688454765",
    "geocoded_column": {
      "latitude": "29.942007688454765",
      "longitude": "-90.08402489353927"
    }
  },
  {
    "service_request": "2023-1031237",
    "request_type": "Abandoned Vehicles",
    "request_reason": "Abandoned/Junk Vehicles",
    "date_created": "2023-08-31T22:45:02.000",
    "date_modified": "2023-08-31T22:45:02.000",
    "request_status": "Pending",
    "responsible_agency": "Department of Public Works",
    "final_address": "2200 BLK Felicity St",
    "address_councildis": "B",
    "status": "Pending",
    "rowid": "1031237",
    "final_x": "3676501.39598",
    "final_y": "526559.830526",
    "longitude": "-90.08402489353927",
    "latitude": "29.942007688454765",
    "geocoded_column": {
      "latitude": "29.942007688454765",
      "longitude": "-90.08402489353927"
    }
  },
  {
    "service_request": "2023-1031236",
    "request_type": "Property Maintenance",
    "request_reason": "Property Maintenance",
    "date_created": "2023-08-31T22:17:21.000",
    "date_modified": "2023-08-31T22:17:21.000",
    "request_status": "Pending",
    "responsible_agency": "Department of Code Enforcement",
    "final_address": "INDEPENDENCE ST & N MIRO ST",
    "address_councildis": "D",
    "status": "Pending",
    "rowid": "1031236",
    "final_x": "3691985.0",
    "final_y": "539660.38",
    "longitude": "-90.03467127208778",
    "latitude": "29.977556346116035",
    "geocoded_column": {
      "latitude": "29.977556346116035",
      "longitude": "-90.03467127208778"
    }
  },
  {
    "service_request": "2023-1031235",
    "request_type": "Roads/Drainage",
    "request_reason": "Pothole",
    "date_created": "2023-08-31T21:48:10.000",
    "date_modified": "2023-08-31T21:48:10.000",
    "request_status": "Pending",
    "responsible_agency": "Department of Public Works",
    "final_address": "4200 BLK Perrier St",
    "address_councildis": "B",
    "status": "Pending",
    "rowid": "1031235",
    "final_x": "3671500.64253",
    "final_y": "520125.882108",
    "longitude": "-90.1000320136845",
    "latitude": "29.924465378806524",
    "geocoded_column": {
      "latitude": "29.924465378806524",
      "longitude": "-90.1000320136845"
    }
  },
  {
    "service_request": "2023-1031234",
    "request_type": "Roads/Drainage",
    "request_reason": "Pothole",
    "date_created": "2023-08-31T21:28:40.000",
    "date_modified": "2023-08-31T21:28:40.000",
    "request_status": "Pending",
    "responsible_agency": "Department of Public Works",
    "final_address": "1312 Milan St",
    "address_councildis": "B",
    "status": "Pending",
    "rowid": "1031234",
    "final_x": "3671625.82823",
    "final_y": "520286.919608",
    "longitude": "-90.09963137110304",
    "latitude": "29.92490447494246",
    "geocoded_column": {
      "latitude": "29.92490447494246",
      "longitude": "-90.09963137110304"
    }
  },
  {
    "service_request": "2023-1031233",
    "request_type": "Trash/Recycling",
    "request_reason": "Request a Large Item Pick Up",
    "date_created": "2023-08-31T21:26:57.000",
    "date_modified": "2023-08-31T21:26:58.000",
    "request_status": "Pending",
    "responsible_agency": "Department of Sanitation",
    "final_address": "7028 Lake Willow Dr",
    "address_councildis": "E",
    "status": "Assigned to Contractor",
    "contractor": "Waste Pro",
    "rowid": "1031233",
    "final_x": "3702337.71069",
    "final_y": "558895.66166",
    "longitude": "-90.00126790066801",
    "latitude": "30.030119437590105",
    "geocoded_column": {
      "latitude": "30.030119437590105",
      "longitude": "-90.00126790066801"
    }
  },
  {
    "service_request": "2023-1031232",
    "request_type": "Traffic Signals/Signs/Striping/Streetlights",
    "request_reason": "Street Light Outage/Malfunction",
    "date_created": "2023-08-31T21:24:43.000",
    "date_modified": "2023-08-31T21:24:43.000",
    "request_status": "Pending",
    "responsible_agency": "Department of Public Works",
    "final_address": "1 Frenchmen St",
    "address_councildis": "C",
    "status": "Assigned to Contractor",
    "contractor": "Legacy Professional Services",
    "rowid": "1031232",
    "final_x": "3684531.30549",
    "final_y": "536154.703367",
    "longitude": "-90.05833572288316",
    "latitude": "29.968147136648508",
    "geocoded_column": {
      "latitude": "29.968147136648508",
      "longitude": "-90.05833572288316"
    }
  },
  {
    "service_request": "2023-1031231",
    "request_type": "Traffic Signals/Signs/Striping/Streetlights",
    "request_reason": "Street Light Outage/Malfunction",
    "date_created": "2023-08-31T21:06:11.000",
    "date_modified": "2023-08-31T21:06:12.000",
    "request_status": "Pending",
    "responsible_agency": "Department of Public Works",
    "final_address": "320 20Th St",
    "address_councildis": "A",
    "status": "Assigned to Contractor",
    "contractor": "Legacy Professional Services",
    "rowid": "1031231",
    "final_x": "3665034.48896",
    "final_y": "548981.223443",
    "longitude": "-90.11947860316423",
    "latitude": "30.003997853570926",
    "geocoded_column": {
      "latitude": "30.003997853570926",
      "longitude": "-90.11947860316423"
    }
  },
  {
    "service_request": "2023-1031230",
    "request_type": "Traffic Signals/Signs/Striping/Streetlights",
    "request_reason": "Street Light Outage/Malfunction",
    "date_created": "2023-08-31T21:03:55.000",
    "date_modified": "2023-08-31T21:03:56.000",
    "request_status": "Pending",
    "responsible_agency": "Department of Public Works",
    "final_address": "6855 Milne Blvd",
    "address_councildis": "A",
    "status": "Assigned to Contractor",
    "contractor": "Legacy Professional Services",
    "rowid": "1031230",
    "final_x": "3667703.43201",
    "final_y": "553250.131671",
    "longitude": "-90.11090303844004",
    "latitude": "30.01565784547728",
    "geocoded_column": {
      "latitude": "30.01565784547728",
      "longitude": "-90.11090303844004"
    }
  },
  {
    "service_request": "2023-1031229",
    "request_type": "Traffic Signals/Signs/Striping/Streetlights",
    "request_reason": "Street Light Outage/Malfunction",
    "date_created": "2023-08-31T20:58:57.000",
    "date_modified": "2023-08-31T20:58:58.000",
    "request_status": "Pending",
    "responsible_agency": "Department of Public Works",
    "final_address": "6855 Milne Blvd",
    "address_councildis": "A",
    "status": "Assigned to Contractor",
    "contractor": "Legacy Professional Services",
    "rowid": "1031229",
    "final_x": "3667703.43201",
    "final_y": "553250.131671",
    "longitude": "-90.11090303844004",
    "latitude": "30.01565784547728",
    "geocoded_column": {
      "latitude": "30.01565784547728",
      "longitude": "-90.11090303844004"
    }
  },
  {
    "service_request": "2023-1031228",
    "request_type": "Trash/Recycling",
    "request_reason": "Missed Trash Pick-Up",
    "date_created": "2023-08-31T20:57:53.000",
    "date_modified": "2023-08-31T20:57:53.000",
    "request_status": "Pending",
    "responsible_agency": "Department of Sanitation",
    "final_address": "612 Eighth St",
    "address_councildis": "B",
    "status": "Assigned to Contractor",
    "contractor": "Richards Disposal",
    "rowid": "1031228",
    "final_x": "3677022.7835",
    "final_y": "518773.060663",
    "longitude": "-90.08264710094622",
    "latitude": "29.92058097119563",
    "geocoded_column": {
      "latitude": "29.92058097119563",
      "longitude": "-90.08264710094622"
    }
  },
  {
    "service_request": "2023-1031227",
    "request_type": "Roads/Drainage",
    "request_reason": "Accessibility Ramps, Curbs and Sidewalk Repair",
    "date_created": "2023-08-31T20:56:54.000",
    "date_modified": "2023-08-31T20:56:54.000",
    "request_status": "Pending",
    "responsible_agency": "Department of Public Works",
    "final_address": "5177 Feliciana Dr",
    "address_councildis": "D",
    "status": "Pending",
    "rowid": "1031227",
    "final_x": "3690091.79644",
    "final_y": "552668.000278",
    "longitude": "-90.04018699022848",
    "latitude": "30.013381451362985",
    "geocoded_column": {
      "latitude": "30.013381451362985",
      "longitude": "-90.04018699022848"
    }
  },
  {
    "service_request": "2023-1031226",
    "request_type": "Traffic Signals/Signs/Striping/Streetlights",
    "request_reason": "Street Light Outage/Malfunction",
    "date_created": "2023-08-31T20:52:05.000",
    "date_modified": "2023-08-31T20:52:06.000",
    "request_status": "Pending",
    "responsible_agency": "Department of Public Works",
    "final_address": "6855 Milne Blvd",
    "address_councildis": "A",
    "status": "Assigned to Contractor",
    "contractor": "Legacy Professional Services",
    "rowid": "1031226",
    "final_x": "3667703.43201",
    "final_y": "553250.131671",
    "longitude": "-90.11090303844004",
    "latitude": "30.01565784547728",
    "geocoded_column": {
      "latitude": "30.01565784547728",
      "longitude": "-90.11090303844004"
    }
  },
  {
    "service_request": "2023-1031225",
    "request_type": "Traffic Signals/Signs/Striping/Streetlights",
    "request_reason": "Street Light Outage/Malfunction",
    "date_created": "2023-08-31T20:35:45.000",
    "date_modified": "2023-08-31T20:35:46.000",
    "request_status": "Pending",
    "responsible_agency": "Department of Public Works",
    "final_address": "2624 N Rocheblave St",
    "address_councildis": "D",
    "status": "Assigned to Contractor",
    "contractor": "Legacy Professional Services",
    "rowid": "1031225",
    "final_x": "3686691.39932",
    "final_y": "541221.510732",
    "longitude": "-90.05133504977309",
    "latitude": "29.982012810993897",
    "geocoded_column": {
      "latitude": "29.982012810993897",
      "longitude": "-90.05133504977309"
    }
  },
  {
    "service_request": "2023-1031224",
    "request_type": "Roads/Drainage",
    "request_reason": "Pothole",
    "date_created": "2023-08-31T20:33:54.000",
    "date_modified": "2023-08-31T20:33:54.000",
    "request_status": "Pending",
    "responsible_agency": "Department of Public Works",
    "final_address": "1316 Henry Clay Ave",
    "address_councildis": "A",
    "status": "Pending",
    "rowid": "1031224",
    "final_x": "3664415.91655",
    "final_y": "521334.312953",
    "longitude": "-90.1223558569357",
    "latitude": "29.92799595928297",
    "geocoded_column": {
      "latitude": "29.92799595928297",
      "longitude": "-90.1223558569357"
    }
  },
  {
    "service_request": "2023-1031223",
    "request_type": "Traffic Signals/Signs/Striping/Streetlights",
    "request_reason": "Street Light Outage/Malfunction",
    "date_created": "2023-08-31T20:33:22.000",
    "date_modified": "2023-08-31T20:33:23.000",
    "request_status": "Pending",
    "responsible_agency": "Department of Public Works",
    "final_address": "2540 DAbadie St",
    "address_councildis": "D",
    "status": "Assigned to Contractor",
    "contractor": "Legacy Professional Services",
    "rowid": "1031223",
    "final_x": "3679680.04194",
    "final_y": "540597.525323",
    "longitude": "-90.07350194200791",
    "latitude": "29.980510901603438",
    "geocoded_column": {
      "latitude": "29.980510901603438",
      "longitude": "-90.07350194200791"
    }
  },
  {
    "service_request": "2023-1031222",
    "request_type": "Roads/Drainage",
    "request_reason": "Pothole",
    "date_created": "2023-08-31T20:23:24.000",
    "date_modified": "2023-08-31T20:23:24.000",
    "request_status": "Pending",
    "responsible_agency": "Department of Public Works",
    "final_address": "5823 Perrier St",
    "address_councildis": "A",
    "status": "Pending",
    "rowid": "1031222",
    "final_x": "3665601.07367",
    "final_y": "520421.208184",
    "longitude": "-90.11864512991228",
    "latitude": "29.92545071542357",
    "geocoded_column": {
      "latitude": "29.92545071542357",
      "longitude": "-90.11864512991228"
    }
  },
  {
    "service_request": "2023-1031221",
    "request_type": "Roads/Drainage",
    "request_reason": "Pothole",
    "date_created": "2023-08-31T20:11:52.000",
    "date_modified": "2023-08-31T20:11:52.000",
    "request_status": "Pending",
    "responsible_agency": "Department of Public Works",
    "final_address": "MILAN ST & LOYOLA AVE",
    "address_councildis": "B",
    "status": "Pending",
    "rowid": "1031221",
    "final_x": "3671385.2",
    "final_y": "523075.98",
    "longitude": "-90.1002962159479",
    "latitude": "29.932580617992837",
    "geocoded_column": {
      "latitude": "29.932580617992837",
      "longitude": "-90.1002962159479"
    }
  },
  {
    "service_request": "2023-1031220",
    "request_type": "Trash/Recycling",
    "request_reason": "Return Trash Cart",
    "date_created": "2023-08-31T20:04:35.000",
    "date_modified": "2023-08-31T20:04:36.000",
    "request_status": "Pending",
    "responsible_agency": "Department of Sanitation",
    "final_address": "2132 Burdette St",
    "address_councildis": "A",
    "status": "Assigned to Contractor",
    "contractor": "Richards Disposal",
    "rowid": "1031220",
    "final_x": "3665073.27488",
    "final_y": "530167.393985",
    "longitude": "-90.11998545083887",
    "latitude": "29.952264987752237",
    "geocoded_column": {
      "latitude": "29.952264987752237",
      "longitude": "-90.11998545083887"
    }
  },
  {
    "service_request": "2023-1031219",
    "request_type": "Abandoned Vehicles",
    "request_reason": "Abandoned/Junk Vehicles",
    "date_created": "2023-08-31T20:03:47.000",
    "date_modified": "2023-08-31T20:03:47.000",
    "request_status": "Pending",
    "responsible_agency": "Department of Public Works",
    "final_address": "2221 St Andrew St",
    "address_councildis": "B",
    "status": "Pending",
    "rowid": "1031219",
    "final_x": "3676687.80053",
    "final_y": "526101.662718",
    "longitude": "-90.08345215295915",
    "latitude": "29.940742288413517",
    "geocoded_column": {
      "latitude": "29.940742288413517",
      "longitude": "-90.08345215295915"
    }
  },
  {
    "service_request": "2023-1031218",
    "request_type": "Abandoned Vehicles",
    "request_reason": "Abandoned/Junk Vehicles",
    "date_created": "2023-08-31T20:02:08.000",
    "date_modified": "2023-08-31T20:02:08.000",
    "request_status": "Pending",
    "responsible_agency": "Department of Public Works",
    "status": "Pending",
    "rowid": "1031218",
    "longitude": "0.0",
    "latitude": "0.0",
    "geocoded_column": {
      "latitude": "0.0",
      "longitude": "0.0"
    }
  },
  {
    "service_request": "2023-1031217",
    "request_type": "Abandoned Vehicles",
    "request_reason": "Abandoned/Junk Vehicles",
    "date_created": "2023-08-31T19:39:08.000",
    "date_modified": "2023-08-31T19:39:08.000",
    "request_status": "Pending",
    "responsible_agency": "Department of Public Works",
    "final_address": "1701 Simon Bolivar Ave",
    "address_councildis": "B",
    "status": "Pending",
    "rowid": "1031217",
    "final_x": "3676910.22754",
    "final_y": "526217.346942",
    "longitude": "-90.08274592565637",
    "latitude": "29.94105370867618",
    "geocoded_column": {
      "latitude": "29.94105370867618",
      "longitude": "-90.08274592565637"
    }
  },
  {
    "service_request": "2023-1031216",
    "request_type": "Trash/Recycling",
    "request_reason": "Request a Large Item Pick Up",
    "date_created": "2023-08-31T19:21:34.000",
    "date_modified": "2023-08-31T19:21:34.000",
    "request_status": "Pending",
    "responsible_agency": "Department of Sanitation",
    "final_address": "4665 Pecan St",
    "address_councildis": "E",
    "status": "Assigned to Contractor",
    "contractor": "Waste Pro",
    "rowid": "1031216",
    "final_x": "3701909.22301",
    "final_y": "553914.073367",
    "longitude": "-90.00280470422516",
    "latitude": "30.016435675048957",
    "geocoded_column": {
      "latitude": "30.016435675048957",
      "longitude": "-90.00280470422516"
    }
  },
  {
    "service_request": "2023-1031214",
    "request_type": "Trash/Recycling",
    "request_reason": "MIssed Recycling Pick-Up",
    "date_created": "2023-08-31T18:58:39.000",
    "date_modified": "2023-08-31T18:58:40.000",
    "request_status": "Pending",
    "responsible_agency": "Department of Sanitation",
    "final_address": "625 S Rocheblave St",
    "address_councildis": "B",
    "status": "Assigned to Contractor",
    "contractor": "Richards Disposal",
    "rowid": "1031214",
    "final_x": "3674667.03649",
    "final_y": "532757.690692",
    "longitude": "-90.08960396867559",
    "latitude": "29.959104614912476",
    "geocoded_column": {
      "latitude": "29.959104614912476",
      "longitude": "-90.08960396867559"
    }
  },
  {
    "service_request": "2023-1031213",
    "request_type": "Trash/Recycling",
    "request_reason": "Stop Trash Service",
    "date_created": "2023-08-31T18:55:14.000",
    "date_modified": "2023-08-31T18:55:15.000",
    "request_status": "Pending",
    "responsible_agency": "Department of Sanitation",
    "final_address": "3412 Fourth St",
    "address_councildis": "B",
    "status": "Assigned to Contractor",
    "contractor": "Richards Disposal",
    "rowid": "1031213",
    "final_x": "3672566.51495",
    "final_y": "528108.579647",
    "longitude": "-90.09639539168934",
    "latitude": "29.946383621078393",
    "geocoded_column": {
      "latitude": "29.946383621078393",
      "longitude": "-90.09639539168934"
    }
  },
  {
    "service_request": "2023-1031212",
    "request_type": "Trash/Recycling",
    "request_reason": "Start Trash Service",
    "date_created": "2023-08-31T18:53:25.000",
    "date_modified": "2023-08-31T18:53:26.000",
    "request_status": "Pending",
    "responsible_agency": "Department of Sanitation",
    "final_address": "2705 S Johnson St",
    "address_councildis": "B",
    "status": "Assigned to Contractor",
    "contractor": "Richards Disposal",
    "rowid": "1031212",
    "final_x": "3672593.20878",
    "final_y": "528036.475711",
    "longitude": "-90.09631356744788",
    "latitude": "29.946184566547135",
    "geocoded_column": {
      "latitude": "29.946184566547135",
      "longitude": "-90.09631356744788"
    }
  },
  {
    "service_request": "2023-1031211",
    "request_type": "Trash/Recycling",
    "request_reason": "Start Trash Service",
    "date_created": "2023-08-31T18:51:08.000",
    "date_modified": "2023-08-31T18:51:09.000",
    "request_status": "Pending",
    "responsible_agency": "Department of Sanitation",
    "final_address": "3408 Fourth St",
    "address_councildis": "B",
    "status": "Assigned to Contractor",
    "contractor": "Richards Disposal",
    "rowid": "1031211",
    "final_x": "3672579.18798",
    "final_y": "528092.178751",
    "longitude": "-90.09635593741949",
    "latitude": "29.946338147821386",
    "geocoded_column": {
      "latitude": "29.946338147821386",
      "longitude": "-90.09635593741949"
    }
  },
  {
    "service_request": "2023-1031210",
    "request_type": "Trash/Recycling",
    "request_reason": "Request a Large Item Pick Up",
    "date_created": "2023-08-31T18:42:32.000",
    "date_modified": "2023-08-31T18:42:33.000",
    "request_status": "Pending",
    "responsible_agency": "Department of Sanitation",
    "final_address": "7531 Rochon Ave",
    "address_councildis": "E",
    "status": "Assigned to Contractor",
    "contractor": "Waste Pro",
    "rowid": "1031210",
    "final_x": "3719029.4174",
    "final_y": "571393.224872",
    "longitude": "-89.94804527984085",
    "latitude": "30.06393849208715",
    "geocoded_column": {
      "latitude": "30.06393849208715",
      "longitude": "-89.94804527984085"
    }
  },
  {
    "service_request": "2023-1031209",
    "request_type": "Traffic Signals/Signs/Striping/Streetlights",
    "request_reason": "Street Light Outage/Malfunction",
    "date_created": "2023-08-31T18:39:35.000",
    "date_modified": "2023-08-31T18:39:36.000",
    "request_status": "Pending",
    "responsible_agency": "Department of Public Works",
    "final_address": "7808 Sail St",
    "address_councildis": "E",
    "status": "Assigned to Contractor",
    "contractor": "Legacy Professional Services",
    "rowid": "1031209",
    "final_x": "3720130.23705",
    "final_y": "573880.028074",
    "longitude": "-89.9444702701699",
    "latitude": "30.070739514220207",
    "geocoded_column": {
      "latitude": "30.070739514220207",
      "longitude": "-89.9444702701699"
    }
  },
  {
    "service_request": "2023-1031208",
    "request_type": "Parks & Parkways",
    "request_reason": "Request Tree Service (Right of Way/Public Property)",
    "date_created": "2023-08-31T18:25:18.000",
    "date_modified": "2023-08-31T18:25:18.000",
    "request_status": "Pending",
    "responsible_agency": "Department of Parks & Parkway",
    "final_address": "4850 General Meyer Ave",
    "address_councildis": "C",
    "status": "Pending",
    "rowid": "1031208",
    "final_x": "3702199.60004",
    "final_y": "523246.879675",
    "longitude": "-90.00301219444115",
    "latitude": "29.932102794548513",
    "geocoded_column": {
      "latitude": "29.932102794548513",
      "longitude": "-90.00301219444115"
    }
  },
  {
    "service_request": "2023-1031207",
    "request_type": "Trash/Recycling",
    "request_reason": "MIssed Recycling Pick-Up",
    "date_created": "2023-08-31T18:25:12.000",
    "date_modified": "2023-08-31T18:25:13.000",
    "request_status": "Pending",
    "responsible_agency": "Department of Sanitation",
    "final_address": "6126 Willow St",
    "address_councildis": "A",
    "status": "Assigned to Contractor",
    "contractor": "Richards Disposal",
    "rowid": "1031207",
    "final_x": "3666591.34497",
    "final_y": "525771.868093",
    "longitude": "-90.11533959941936",
    "latitude": "29.940134424247983",
    "geocoded_column": {
      "latitude": "29.940134424247983",
      "longitude": "-90.11533959941936"
    }
  },
  {
    "service_request": "2023-1031206",
    "request_type": "Roads/Drainage",
    "request_reason": "Street Subsidence (Sinking)",
    "date_created": "2023-08-31T18:21:26.000",
    "date_modified": "2023-08-31T18:21:26.000",
    "request_status": "Pending",
    "responsible_agency": "Department of Public Works",
    "final_address": "4760 Franklin Ave",
    "address_councildis": "D",
    "status": "Pending",
    "rowid": "1031206",
    "final_x": "3686731.12207",
    "final_y": "550798.750677",
    "longitude": "-90.05087102435674",
    "latitude": "30.008345556834186",
    "geocoded_column": {
      "latitude": "30.008345556834186",
      "longitude": "-90.05087102435674"
    }
  },
  {
    "service_request": "2023-1031205",
    "request_type": "Traffic Signals/Signs/Striping/Streetlights",
    "request_reason": "Traffic Signal Malfunctioning/Damaged",
    "date_created": "2023-08-31T18:20:38.000",
    "date_modified": "2023-08-31T18:20:38.000",
    "request_status": "Pending",
    "responsible_agency": "Department of Public Works",
    "final_address": "1920 Gentilly Blvd",
    "address_councildis": "D",
    "status": "Pending",
    "rowid": "1031205",
    "final_x": "3679147.05787",
    "final_y": "543169.413581",
    "longitude": "-90.07509613635517",
    "latitude": "29.987598800622656",
    "geocoded_column": {
      "latitude": "29.987598800622656",
      "longitude": "-90.07509613635517"
    }
  },
  {
    "service_request": "2023-1031204",
    "request_type": "Parks & Parkways",
    "request_reason": "Request Tree Service (Right of Way/Public Property)",
    "date_created": "2023-08-31T18:16:37.000",
    "date_modified": "2023-08-31T18:17:21.000",
    "request_status": "Pending",
    "responsible_agency": "Department of Parks & Parkway",
    "final_address": "6342 Peoples Ave",
    "address_councildis": "D",
    "status": "Pending",
    "rowid": "1031204",
    "final_x": "3687645.17167",
    "final_y": "556813.62825",
    "longitude": "-90.04777006248858",
    "latitude": "30.02485608766922",
    "geocoded_column": {
      "latitude": "30.02485608766922",
      "longitude": "-90.04777006248858"
    }
  },
  {
    "service_request": "2023-1031203",
    "request_type": "Trash/Recycling",
    "request_reason": "Replace Trash Cart",
    "date_created": "2023-08-31T18:10:57.000",
    "date_modified": "2023-08-31T18:10:57.000",
    "request_status": "Pending",
    "responsible_agency": "Department of Sanitation",
    "final_address": "4807 Flake Ave",
    "address_councildis": "E",
    "status": "Assigned to Contractor",
    "contractor": "Waste Pro",
    "rowid": "1031203",
    "final_x": "3706124.65687",
    "final_y": "555864.266009",
    "longitude": "-89.98941359195912",
    "latitude": "30.021662686439115",
    "geocoded_column": {
      "latitude": "30.021662686439115",
      "longitude": "-89.98941359195912"
    }
  },
  {
    "service_request": "2023-1031202",
    "request_type": "Trash/Recycling",
    "request_reason": "Request a Large Item Pick Up",
    "date_created": "2023-08-31T18:08:02.000",
    "date_modified": "2023-08-31T18:08:03.000",
    "request_status": "Pending",
    "responsible_agency": "Department of Sanitation",
    "final_address": "1914 Constantinople St",
    "address_councildis": "B",
    "status": "Assigned to Contractor",
    "contractor": "Richards Disposal",
    "rowid": "1031202",
    "final_x": "3672160.4306",
    "final_y": "522223.37241",
    "longitude": "-90.09787789485124",
    "latitude": "29.930213260760663",
    "geocoded_column": {
      "latitude": "29.930213260760663",
      "longitude": "-90.09787789485124"
    }
  },
  {
    "service_request": "2023-1031201",
    "request_type": "Trash/Recycling",
    "request_reason": "MIssed Recycling Pick-Up",
    "date_created": "2023-08-31T18:01:00.000",
    "date_modified": "2023-08-31T18:01:01.000",
    "request_status": "Pending",
    "responsible_agency": "Department of Sanitation",
    "final_address": "2319 Upperline St",
    "address_councildis": "B",
    "status": "Assigned to Contractor",
    "contractor": "Richards Disposal",
    "rowid": "1031201",
    "final_x": "3669227.1458",
    "final_y": "523354.657915",
    "longitude": "-90.10709961506116",
    "latitude": "29.933410571603417",
    "geocoded_column": {
      "latitude": "29.933410571603417",
      "longitude": "-90.10709961506116"
    }
  },
  {
    "service_request": "2023-1031200",
    "request_type": "Trash/Recycling",
    "request_reason": "MIssed Recycling Pick-Up",
    "date_created": "2023-08-31T17:58:24.000",
    "date_modified": "2023-08-31T17:58:25.000",
    "request_status": "Pending",
    "responsible_agency": "Department of Sanitation",
    "final_address": "2319 Upperline St",
    "address_councildis": "B",
    "status": "Assigned to Contractor",
    "contractor": "Richards Disposal",
    "rowid": "1031200",
    "final_x": "3669227.1458",
    "final_y": "523354.657915",
    "longitude": "-90.10709961506116",
    "latitude": "29.933410571603417",
    "geocoded_column": {
      "latitude": "29.933410571603417",
      "longitude": "-90.10709961506116"
    }
  },
  {
    "service_request": "2023-1031199",
    "request_type": "Trash/Recycling",
    "request_reason": "Missed Trash Pick-Up",
    "date_created": "2023-08-31T17:43:36.000",
    "date_modified": "2023-08-31T17:43:36.000",
    "request_status": "Pending",
    "responsible_agency": "Department of Sanitation",
    "final_address": "1615 Prytania St",
    "address_councildis": "B",
    "status": "Assigned to Contractor",
    "contractor": "Richards Disposal",
    "rowid": "1031199",
    "final_x": "3679353.61627",
    "final_y": "524899.763452",
    "longitude": "-90.07507738022869",
    "latitude": "29.937357237420994",
    "geocoded_column": {
      "latitude": "29.937357237420994",
      "longitude": "-90.07507738022869"
    }
  },
  {
    "service_request": "2023-1031198",
    "request_type": "Abandoned Vehicles",
    "request_reason": "Abandoned/Junk Vehicles",
    "date_created": "2023-08-31T17:39:20.000",
    "date_modified": "2023-08-31T17:39:20.000",
    "request_status": "Pending",
    "responsible_agency": "Department of Public Works",
    "final_address": "3137 Trafalgar St",
    "address_councildis": "A",
    "status": "Pending",
    "rowid": "1031198",
    "final_x": "3678731.49698",
    "final_y": "543362.288078",
    "longitude": "-90.07640206755124",
    "latitude": "29.988141678817307",
    "geocoded_column": {
      "latitude": "29.988141678817307",
      "longitude": "-90.07640206755124"
    }
  },
  {
    "service_request": "2023-1031197",
    "request_type": "Trash/Recycling",
    "request_reason": "Request a Large Item Pick Up",
    "date_created": "2023-08-31T17:36:02.000",
    "date_modified": "2023-08-31T17:36:03.000",
    "request_status": "Pending",
    "responsible_agency": "Department of Sanitation",
    "final_address": "5690 Evelyn Ct",
    "address_councildis": "A",
    "status": "Assigned to Contractor",
    "contractor": "IV Waste",
    "rowid": "1031197",
    "final_x": "3664699.5728",
    "final_y": "545516.753488",
    "longitude": "-90.12065249993057",
    "latitude": "29.994481500480713",
    "geocoded_column": {
      "latitude": "29.994481500480713",
      "longitude": "-90.12065249993057"
    }
  },
  {
    "service_request": "2023-1031196",
    "request_type": "Trash/Recycling",
    "request_reason": "Request a Large Item Pick Up",
    "date_created": "2023-08-31T17:33:46.000",
    "date_modified": "2023-08-31T17:33:47.000",
    "request_status": "Pending",
    "responsible_agency": "Department of Sanitation",
    "final_address": "New Orleans, Louisiana",
    "status": "Assigned to Contractor",
    "rowid": "1031196",
    "longitude": "0.0",
    "latitude": "0.0",
    "geocoded_column": {
      "latitude": "0.0",
      "longitude": "0.0"
    }
  },
  {
    "service_request": "2023-1031195",
    "request_type": "Trash/Recycling",
    "request_reason": "Replace Trash Cart",
    "date_created": "2023-08-31T17:28:57.000",
    "date_modified": "2023-08-31T17:28:58.000",
    "request_status": "Pending",
    "responsible_agency": "Department of Sanitation",
    "final_address": "1016 Webster St",
    "address_councildis": "A",
    "status": "Assigned to Contractor",
    "contractor": "Richards Disposal",
    "rowid": "1031195",
    "final_x": "3664356.28436",
    "final_y": "520216.375224",
    "longitude": "-90.12258139285998",
    "latitude": "29.924923714640723",
    "geocoded_column": {
      "latitude": "29.924923714640723",
      "longitude": "-90.12258139285998"
    }
  },
  {
    "service_request": "2023-1031194",
    "request_type": "Graffiti Removal",
    "request_reason": "Graffiti Removal",
    "date_created": "2023-08-31T17:28:55.000",
    "date_modified": "2023-08-31T17:28:55.000",
    "request_status": "Pending",
    "responsible_agency": "Department of Code Enforcement",
    "final_address": "63 French Market Pl",
    "address_councildis": "C",
    "status": "Pending",
    "rowid": "1031194",
    "final_x": "3684435.20745",
    "final_y": "533450.147652",
    "longitude": "-90.05873421246146",
    "latitude": "29.960713481382054",
    "geocoded_column": {
      "latitude": "29.960713481382054",
      "longitude": "-90.05873421246146"
    }
  },
  {
    "service_request": "2023-1031193",
    "request_type": "Graffiti Removal",
    "request_reason": "Graffiti Removal",
    "date_created": "2023-08-31T17:28:39.000",
    "date_modified": "2023-08-31T17:28:40.000",
    "request_status": "Pending",
    "responsible_agency": "Department of Code Enforcement",
    "final_address": "1219 Decatur St",
    "address_councildis": "C",
    "status": "Pending",
    "rowid": "1031193",
    "final_x": "3684341.79817",
    "final_y": "533588.511557",
    "longitude": "-90.05902432116225",
    "latitude": "29.961096791308304",
    "geocoded_column": {
      "latitude": "29.961096791308304",
      "longitude": "-90.05902432116225"
    }
  },
  {
    "service_request": "2023-1031192",
    "request_type": "Abandoned Vehicles",
    "request_reason": "Abandoned/Junk Vehicles",
    "date_created": "2023-08-31T17:27:32.000",
    "date_modified": "2023-08-31T17:27:32.000",
    "request_status": "Pending",
    "responsible_agency": "Department of Public Works",
    "final_address": "3137 Trafalgar St",
    "address_councildis": "A",
    "status": "Pending",
    "rowid": "1031192",
    "final_x": "3678731.49698",
    "final_y": "543362.288078",
    "longitude": "-90.07640206755124",
    "latitude": "29.988141678817307",
    "geocoded_column": {
      "latitude": "29.988141678817307",
      "longitude": "-90.07640206755124"
    }
  },
  {
    "service_request": "2023-1031191",
    "request_type": "Abandoned Vehicles",
    "request_reason": "Abandoned/Junk Vehicles",
    "date_created": "2023-08-31T17:26:41.000",
    "date_modified": "2023-08-31T17:26:41.000",
    "request_status": "Pending",
    "responsible_agency": "Department of Public Works",
    "final_address": "1514 Valmont St",
    "address_councildis": "B",
    "status": "Pending",
    "rowid": "1031191",
    "final_x": "3667671.62394",
    "final_y": "520568.4446",
    "longitude": "-90.11210406948392",
    "latitude": "29.92579505227427",
    "geocoded_column": {
      "latitude": "29.92579505227427",
      "longitude": "-90.11210406948392"
    }
  },
  {
    "service_request": "2023-1031190",
    "request_type": "Traffic Signals/Signs/Striping/Streetlights",
    "request_reason": "Street Light Outage/Malfunction",
    "date_created": "2023-08-31T17:24:49.000",
    "date_modified": "2023-08-31T17:24:49.000",
    "request_status": "Pending",
    "responsible_agency": "Department of Public Works",
    "final_address": "3103 Carondelet St",
    "address_councildis": "B",
    "status": "Assigned to Contractor",
    "contractor": "Legacy Professional Services",
    "rowid": "1031190",
    "final_x": "3674723.17153",
    "final_y": "522246.17049",
    "longitude": "-90.08978693943266",
    "latitude": "29.9301997211619",
    "geocoded_column": {
      "latitude": "29.9301997211619",
      "longitude": "-90.08978693943266"
    }
  },
  {
    "service_request": "2023-1031189",
    "request_type": "Trash/Recycling",
    "request_reason": "MIssed Recycling Pick-Up",
    "date_created": "2023-08-31T17:11:07.000",
    "date_modified": "2023-08-31T17:11:08.000",
    "request_status": "Pending",
    "responsible_agency": "Department of Sanitation",
    "final_address": "2823 Second St",
    "address_councildis": "B",
    "status": "Assigned to Contractor",
    "contractor": "Richards Disposal",
    "rowid": "1031189",
    "final_x": "3674291.72552",
    "final_y": "526780.611518",
    "longitude": "-90.09099374698583",
    "latitude": "29.942680823820208",
    "geocoded_column": {
      "latitude": "29.942680823820208",
      "longitude": "-90.09099374698583"
    }
  },
  {
    "service_request": "2023-1031188",
    "request_type": "Trash/Recycling",
    "request_reason": "Replace Trash Cart",
    "date_created": "2023-08-31T17:10:05.000",
    "date_modified": "2023-08-31T17:10:05.000",
    "request_status": "Pending",
    "responsible_agency": "Department of Sanitation",
    "final_address": "1223 Franklin Ave",
    "address_councildis": "C",
    "status": "Assigned to Contractor",
    "contractor": "IV Waste",
    "rowid": "1031188",
    "final_x": "3687292.56642",
    "final_y": "536991.65204",
    "longitude": "-90.04958595901911",
    "latitude": "29.970363680913557",
    "geocoded_column": {
      "latitude": "29.970363680913557",
      "longitude": "-90.04958595901911"
    }
  },
  {
    "service_request": "2023-1031187",
    "request_type": "Graffiti Removal",
    "request_reason": "Graffiti Removal",
    "date_created": "2023-08-31T17:07:28.000",
    "date_modified": "2023-08-31T17:07:28.000",
    "request_status": "Pending",
    "responsible_agency": "Department of Code Enforcement",
    "final_address": "0 BLK Interstate 10",
    "status": "Pending",
    "rowid": "1031187",
    "final_x": "3749078.15502",
    "final_y": "605653.561774",
    "longitude": "-89.85166076471643",
    "latitude": "30.157105189447982",
    "geocoded_column": {
      "latitude": "30.157105189447982",
      "longitude": "-89.85166076471643"
    }
  },
  {
    "service_request": "2023-1031186",
    "request_type": "Trash/Recycling",
    "request_reason": "Start Trash Service",
    "date_created": "2023-08-31T17:03:36.000",
    "date_modified": "2023-08-31T17:03:36.000",
    "request_status": "Pending",
    "responsible_agency": "Department of Sanitation",
    "final_address": "2438 Congress St",
    "address_councildis": "D",
    "status": "Assigned to Contractor",
    "contractor": "IV Waste",
    "rowid": "1031186",
    "final_x": "3691964.04176",
    "final_y": "540772.933451",
    "longitude": "-90.03469764128843",
    "latitude": "29.98061612378766",
    "geocoded_column": {
      "latitude": "29.98061612378766",
      "longitude": "-90.03469764128843"
    }
  },
  {
    "service_request": "2023-1031185",
    "request_type": "Trash/Recycling",
    "request_reason": "MIssed Recycling Pick-Up",
    "date_created": "2023-08-31T16:58:19.000",
    "date_modified": "2023-08-31T17:02:59.000",
    "request_status": "Pending",
    "responsible_agency": "Department of Sanitation",
    "final_address": "5947 Constance St",
    "address_councildis": "A",
    "status": "Assigned to Contractor",
    "contractor": "Richards Disposal",
    "rowid": "1031185",
    "final_x": "3664785.57818",
    "final_y": "518878.203575",
    "longitude": "-90.1212709299508",
    "latitude": "29.92123168212325",
    "geocoded_column": {
      "latitude": "29.92123168212325",
      "longitude": "-90.1212709299508"
    }
  },
  {
    "service_request": "2023-1031184",
    "request_type": "Trash/Recycling",
    "request_reason": "Repair Recycling Cart",
    "date_created": "2023-08-31T16:56:48.000",
    "date_modified": "2023-08-31T16:56:48.000",
    "request_status": "Pending",
    "responsible_agency": "Department of Sanitation",
    "final_address": "2701 S Johnson St",
    "address_councildis": "B",
    "status": "Pending",
    "rowid": "1031184",
    "final_x": "3672615.78145",
    "final_y": "528046.057727",
    "longitude": "-90.09624197096251",
    "latitude": "29.94621024386386",
    "geocoded_column": {
      "latitude": "29.94621024386386",
      "longitude": "-90.09624197096251"
    }
  },
  {
    "service_request": "2023-1031183",
    "request_type": "Trash/Recycling",
    "request_reason": "Order Recycling Cart",
    "date_created": "2023-08-31T16:54:36.000",
    "date_modified": "2023-08-31T16:54:36.000",
    "request_status": "Pending",
    "responsible_agency": "Department of Sanitation",
    "final_address": "1131 Fern St",
    "address_councildis": "A",
    "status": "Pending",
    "rowid": "1031183",
    "final_x": "3662515.85754",
    "final_y": "527766.499839",
    "longitude": "-90.12814036849142",
    "latitude": "29.945737515472175",
    "geocoded_column": {
      "latitude": "29.945737515472175",
      "longitude": "-90.12814036849142"
    }
  },
  {
    "service_request": "2023-1031182",
    "request_type": "Roads/Drainage",
    "request_reason": "Accessibility Ramps, Curbs and Sidewalk Repair",
    "date_created": "2023-08-31T16:52:30.000",
    "date_modified": "2023-08-31T16:58:40.000",
    "request_status": "Pending",
    "responsible_agency": "Department of Public Works",
    "final_address": "3541 Mansfield Ave",
    "address_councildis": "C",
    "status": "Pending",
    "rowid": "1031182",
    "final_x": "3708973.0083",
    "final_y": "517677.35583",
    "longitude": "-89.98183680238992",
    "latitude": "29.9165705910213",
    "geocoded_column": {
      "latitude": "29.9165705910213",
      "longitude": "-89.98183680238992"
    }
  },
  {
    "service_request": "2023-1031181",
    "request_type": "Trash/Recycling",
    "request_reason": "Order Trash Cart",
    "date_created": "2023-08-31T16:52:11.000",
    "date_modified": "2023-08-31T16:58:19.000",
    "request_status": "Pending",
    "responsible_agency": "Department of Sanitation",
    "final_address": "1131 Fern St",
    "address_councildis": "A",
    "status": "Assigned to Contractor",
    "contractor": "Richards Disposal",
    "rowid": "1031181",
    "final_x": "3662515.85754",
    "final_y": "527766.499839",
    "longitude": "-90.12814036849142",
    "latitude": "29.945737515472175",
    "geocoded_column": {
      "latitude": "29.945737515472175",
      "longitude": "-90.12814036849142"
    }
  },
  {
    "service_request": "2023-1031180",
    "request_type": "Trash/Recycling",
    "request_reason": "Order Trash Cart",
    "date_created": "2023-08-31T16:52:08.000",
    "date_modified": "2023-08-31T16:58:14.000",
    "request_status": "Pending",
    "responsible_agency": "Department of Sanitation",
    "final_address": "1131 Fern St",
    "address_councildis": "A",
    "status": "Assigned to Contractor",
    "contractor": "Richards Disposal",
    "rowid": "1031180",
    "final_x": "3662515.85754",
    "final_y": "527766.499839",
    "longitude": "-90.12814036849142",
    "latitude": "29.945737515472175",
    "geocoded_column": {
      "latitude": "29.945737515472175",
      "longitude": "-90.12814036849142"
    }
  },
  {
    "service_request": "2023-1031179",
    "request_type": "Trash/Recycling",
    "request_reason": "Order Trash Cart",
    "date_created": "2023-08-31T16:51:43.000",
    "date_modified": "2023-08-31T16:57:44.000",
    "request_status": "Pending",
    "responsible_agency": "Department of Sanitation",
    "final_address": "1131 Fern St",
    "address_councildis": "A",
    "status": "Assigned to Contractor",
    "contractor": "Richards Disposal",
    "rowid": "1031179",
    "final_x": "3662515.85754",
    "final_y": "527766.499839",
    "longitude": "-90.12814036849142",
    "latitude": "29.945737515472175",
    "geocoded_column": {
      "latitude": "29.945737515472175",
      "longitude": "-90.12814036849142"
    }
  },
  {
    "service_request": "2023-1031178",
    "request_type": "Trash/Recycling",
    "request_reason": "Illegal Dumping",
    "date_created": "2023-08-31T16:48:58.000",
    "date_modified": "2023-08-31T16:54:32.000",
    "request_status": "Pending",
    "responsible_agency": "Department of Sanitation",
    "final_address": "3500 BLK Gravier St",
    "address_councildis": "B",
    "status": "Pending",
    "rowid": "1031178",
    "final_x": "3671028.86821",
    "final_y": "534855.218463",
    "longitude": "-90.10102120425631",
    "latitude": "29.964980199888885",
    "geocoded_column": {
      "latitude": "29.964980199888885",
      "longitude": "-90.10102120425631"
    }
  },
  {
    "service_request": "2023-1031177",
    "request_type": "Trash/Recycling",
    "request_reason": "Missed Trash Pick-Up",
    "date_created": "2023-08-31T16:32:49.000",
    "date_modified": "2023-08-31T16:35:46.000",
    "request_status": "Pending",
    "responsible_agency": "Department of Sanitation",
    "final_address": "7324 Nelson St",
    "address_councildis": "A",
    "status": "Assigned to Contractor",
    "contractor": "Richards Disposal",
    "rowid": "1031177",
    "final_x": "3666341.71316",
    "final_y": "530637.324162",
    "longitude": "-90.11596452933276",
    "latitude": "29.95352014908417",
    "geocoded_column": {
      "latitude": "29.95352014908417",
      "longitude": "-90.11596452933276"
    }
  },
  {
    "service_request": "2023-1031176",
    "request_type": "Trash/Recycling",
    "request_reason": "MIssed Recycling Pick-Up",
    "date_created": "2023-08-31T16:32:15.000",
    "date_modified": "2023-08-31T16:35:05.000",
    "request_status": "Pending",
    "responsible_agency": "Department of Sanitation",
    "final_address": "4325 Woodland Dr",
    "address_councildis": "C",
    "status": "Assigned to Contractor",
    "contractor": "Richards Disposal",
    "rowid": "1031176",
    "final_x": "3705283.00747",
    "final_y": "514445.348275",
    "longitude": "-89.99360313587252",
    "latitude": "29.907802839054682",
    "geocoded_column": {
      "latitude": "29.907802839054682",
      "longitude": "-89.99360313587252"
    }
  },
  {
    "service_request": "2023-1031175",
    "request_type": "Trash/Recycling",
    "request_reason": "Request a Large Item Pick Up",
    "date_created": "2023-08-31T16:27:34.000",
    "date_modified": "2023-08-31T16:29:19.000",
    "request_status": "Pending",
    "responsible_agency": "Department of Sanitation",
    "final_address": "542 Jefferson Ave, New Orleans, Louisiana, 70115",
    "address_councildis": "A",
    "status": "Assigned to Contractor",
    "contractor": "Richards Disposal",
    "rowid": "1031175",
    "final_x": "3666402.34497",
    "final_y": "517486.041398",
    "longitude": "-90.11621417343814",
    "latitude": "29.917356548237287",
    "geocoded_column": {
      "latitude": "29.917356548237287",
      "longitude": "-90.11621417343814"
    }
  },
  {
    "service_request": "2023-1031174",
    "request_type": "Trash/Recycling",
    "request_reason": "MIssed Recycling Pick-Up",
    "date_created": "2023-08-31T16:26:36.000",
    "date_modified": "2023-08-31T16:28:08.000",
    "request_status": "Pending",
    "responsible_agency": "Department of Sanitation",
    "final_address": "5826 Clara St",
    "address_councildis": "A",
    "status": "Assigned to Contractor",
    "contractor": "Richards Disposal",
    "rowid": "1031174",
    "final_x": "3666914.57978",
    "final_y": "525225.735933",
    "longitude": "-90.11433743670578",
    "latitude": "29.938623284611396",
    "geocoded_column": {
      "latitude": "29.938623284611396",
      "longitude": "-90.11433743670578"
    }
  },
  {
    "service_request": "2023-1031173",
    "request_type": "Abandoned Vehicles",
    "request_reason": "Abandoned/Junk Vehicles",
    "date_created": "2023-08-31T16:20:07.000",
    "date_modified": "2023-08-31T16:20:07.000",
    "request_status": "Pending",
    "responsible_agency": "Department of Public Works",
    "final_address": "300 BLK N Claiborne Ave",
    "address_councildis": "B",
    "status": "Pending",
    "rowid": "1031173",
    "final_x": "3678935.02726",
    "final_y": "533604.424049",
    "longitude": "-90.07609736511225",
    "latitude": "29.961304773702416",
    "geocoded_column": {
      "latitude": "29.961304773702416",
      "longitude": "-90.07609736511225"
    }
  },
  {
    "service_request": "2023-1031172",
    "request_type": "Traffic Signals/Signs/Striping/Streetlights",
    "request_reason": "Street Light Outage/Malfunction",
    "date_created": "2023-08-31T16:19:58.000",
    "date_modified": "2023-08-31T16:20:08.000",
    "request_status": "Pending",
    "responsible_agency": "Department of Public Works",
    "final_address": "4126 Camp St",
    "address_councildis": "B",
    "status": "Assigned to Contractor",
    "contractor": "Legacy Professional Services",
    "rowid": "1031172",
    "final_x": "3671858.07841",
    "final_y": "519189.628471",
    "longitude": "-90.09893554671777",
    "latitude": "29.92188039676977",
    "geocoded_column": {
      "latitude": "29.92188039676977",
      "longitude": "-90.09893554671777"
    }
  },
  {
    "service_request": "2023-1031171",
    "request_type": "Trash/Recycling",
    "request_reason": "Missed Trash Pick-Up",
    "date_created": "2023-08-31T16:15:15.000",
    "date_modified": "2023-08-31T16:15:21.000",
    "request_status": "Pending",
    "responsible_agency": "Department of Sanitation",
    "final_address": "7860 Tulsa St",
    "address_councildis": "E",
    "status": "Assigned to Contractor",
    "contractor": "Waste Pro",
    "rowid": "1031171",
    "final_x": "3704330.45098",
    "final_y": "553459.666775",
    "longitude": "-89.99517149373516",
    "latitude": "30.015108703422385",
    "geocoded_column": {
      "latitude": "30.015108703422385",
      "longitude": "-89.99517149373516"
    }
  },
  {
    "service_request": "2023-1031170",
    "request_type": "Trash/Recycling",
    "request_reason": "Missed Trash Pick-Up",
    "date_created": "2023-08-31T16:14:02.000",
    "date_modified": "2023-08-31T16:19:41.000",
    "request_status": "Pending",
    "responsible_agency": "Department of Sanitation",
    "final_address": "235 New Orleans-Hammond Hwy",
    "address_councildis": "A",
    "status": "Assigned to Contractor",
    "contractor": "IV Waste",
    "rowid": "1031170",
    "final_x": "3665975.53319",
    "final_y": "554730.181144",
    "longitude": "-90.11631276559784",
    "latitude": "30.019778034383453",
    "geocoded_column": {
      "latitude": "30.019778034383453",
      "longitude": "-90.11631276559784"
    }
  },
  {
    "service_request": "2023-1031169",
    "request_type": "Trash/Recycling",
    "request_reason": "Request a Large Item Pick Up",
    "date_created": "2023-08-31T16:07:00.000",
    "date_modified": "2023-08-31T16:07:01.000",
    "request_status": "Pending",
    "responsible_agency": "Department of Sanitation",
    "final_address": "2527 Nashville Ave",
    "address_councildis": "A",
    "status": "Assigned to Contractor",
    "contractor": "Richards Disposal",
    "rowid": "1031169",
    "final_x": "3667284.13191",
    "final_y": "525401.375869",
    "longitude": "-90.11316481242056",
    "latitude": "29.93909542263155",
    "geocoded_column": {
      "latitude": "29.93909542263155",
      "longitude": "-90.11316481242056"
    }
  },
  {
    "service_request": "2023-1031168",
    "request_type": "Parks & Parkways",
    "request_reason": "Request Tree Service (Right of Way/Public Property)",
    "date_created": "2023-08-31T16:04:02.000",
    "date_modified": "2023-08-31T16:04:03.000",
    "request_status": "Pending",
    "responsible_agency": "Department of Parks & Parkway",
    "final_address": "2921 Bell St",
    "address_councildis": "A",
    "status": "Pending",
    "rowid": "1031168",
    "final_x": "3676813.13557",
    "final_y": "539291.775754",
    "longitude": "-90.08260189276184",
    "latitude": "29.9770069006167",
    "geocoded_column": {
      "latitude": "29.9770069006167",
      "longitude": "-90.08260189276184"
    }
  },
  {
    "service_request": "2023-1031167",
    "request_type": "Trash/Recycling",
    "request_reason": "Request a Large Item Pick Up",
    "date_created": "2023-08-31T16:00:58.000",
    "date_modified": "2023-08-31T16:00:58.000",
    "request_status": "Pending",
    "responsible_agency": "Department of Sanitation",
    "final_address": "825 Hendee St",
    "address_councildis": "C",
    "status": "Assigned to Contractor",
    "contractor": "Richards Disposal",
    "rowid": "1031167",
    "final_x": "3690776.88163",
    "final_y": "528375.919552",
    "longitude": "-90.03888952735778",
    "latitude": "29.946565618092304",
    "geocoded_column": {
      "latitude": "29.946565618092304",
      "longitude": "-90.03888952735778"
    }
  },
  {
    "service_request": "2023-1031166",
    "request_type": "Traffic Signals/Signs/Striping/Streetlights",
    "request_reason": "Traffic Sign Missing/Damaged",
    "date_created": "2023-08-31T16:00:18.000",
    "date_modified": "2023-08-31T16:00:19.000",
    "request_status": "Pending",
    "responsible_agency": "Department of Public Works",
    "final_address": "TOURO ST & LAFRENIERE ST",
    "address_councildis": "D",
    "status": "Pending",
    "rowid": "1031166",
    "final_x": "3683495.2",
    "final_y": "545447.78",
    "longitude": "-90.06128197655744",
    "latitude": "29.99373149723279",
    "geocoded_column": {
      "latitude": "29.99373149723279",
      "longitude": "-90.06128197655744"
    }
  },
  {
    "service_request": "2023-1031165",
    "request_type": "Trash/Recycling",
    "request_reason": "Request a Large Item Pick Up",
    "date_created": "2023-08-31T15:56:42.000",
    "date_modified": "2023-08-31T15:56:43.000",
    "request_status": "Pending",
    "responsible_agency": "Department of Sanitation",
    "final_address": "7731 Shelly St",
    "address_councildis": "E",
    "status": "Assigned to Contractor",
    "contractor": "Waste Pro",
    "rowid": "1031165",
    "final_x": "3695932.63082",
    "final_y": "559352.779357",
    "longitude": "-90.02149132910432",
    "latitude": "30.03157951942622",
    "geocoded_column": {
      "latitude": "30.03157951942622",
      "longitude": "-90.02149132910432"
    }
  },
  {
    "service_request": "2023-1031164",
    "request_type": "Traffic Signals/Signs/Striping/Streetlights",
    "request_reason": "Street Light Outage/Malfunction",
    "date_created": "2023-08-31T15:52:04.000",
    "date_modified": "2023-08-31T15:52:04.000",
    "request_status": "Pending",
    "responsible_agency": "Department of Public Works",
    "final_address": "2200 Feliciana St",
    "address_councildis": "D",
    "status": "Assigned to Contractor",
    "contractor": "Legacy Professional Services",
    "rowid": "1031164",
    "final_x": "3689703.83382",
    "final_y": "540264.000715",
    "longitude": "-90.04185445541488",
    "latitude": "29.979286981245398",
    "geocoded_column": {
      "latitude": "29.979286981245398",
      "longitude": "-90.04185445541488"
    }
  },
  {
    "service_request": "2023-1031163",
    "request_type": "Trash/Recycling",
    "request_reason": "Order Recycling Cart",
    "date_created": "2023-08-31T15:46:02.000",
    "date_modified": "2023-08-31T15:46:02.000",
    "request_status": "Pending",
    "responsible_agency": "Department of Sanitation",
    "final_address": "7333 Jeannette St",
    "address_councildis": "A",
    "status": "Pending",
    "rowid": "1031163",
    "final_x": "3664376.85325",
    "final_y": "527705.949183",
    "longitude": "-90.12226658346822",
    "latitude": "29.94551706758655",
    "geocoded_column": {
      "latitude": "29.94551706758655",
      "longitude": "-90.12226658346822"
    }
  },
  {
    "service_request": "2023-1031162",
    "request_type": "Abandoned Vehicles",
    "request_reason": "Abandoned/Junk Vehicles",
    "date_created": "2023-08-31T15:45:14.000",
    "date_modified": "2023-08-31T15:45:14.000",
    "request_status": "Pending",
    "responsible_agency": "Department of Public Works",
    "final_address": "5173 Cameron Blvd",
    "address_councildis": "D",
    "status": "Pending",
    "rowid": "1031162",
    "final_x": "3682696.20572",
    "final_y": "552088.715414",
    "longitude": "-90.06357341311285",
    "latitude": "30.0120160493741",
    "geocoded_column": {
      "latitude": "30.0120160493741",
      "longitude": "-90.06357341311285"
    }
  },
  {
    "service_request": "2023-1031161",
    "request_type": "Trash/Recycling",
    "request_reason": "Repair Trash Cart",
    "date_created": "2023-08-31T15:42:53.000",
    "date_modified": "2023-08-31T15:42:53.000",
    "request_status": "Pending",
    "responsible_agency": "Department of Sanitation",
    "final_address": "1926 Treasure St",
    "address_councildis": "D",
    "status": "Assigned to Contractor",
    "contractor": "IV Waste",
    "rowid": "1031161",
    "final_x": "3682359.43829",
    "final_y": "543829.985166",
    "longitude": "-90.06492624432092",
    "latitude": "29.98931775477434",
    "geocoded_column": {
      "latitude": "29.98931775477434",
      "longitude": "-90.06492624432092"
    }
  },
  {
    "service_request": "2023-1031160",
    "request_type": "Parks & Parkways",
    "request_reason": "Request Tree Service (Right of Way/Public Property)",
    "date_created": "2023-08-31T15:41:59.000",
    "date_modified": "2023-08-31T15:41:59.000",
    "request_status": "Pending",
    "responsible_agency": "Department of Parks & Parkway",
    "final_address": "826 Harrison Ave Ste B",
    "address_councildis": "A",
    "status": "Pending",
    "rowid": "1031160",
    "final_x": "3669561.56532",
    "final_y": "549098.518547",
    "longitude": "-90.10517276219603",
    "latitude": "30.004187730002727",
    "geocoded_column": {
      "latitude": "30.004187730002727",
      "longitude": "-90.10517276219603"
    }
  },
  {
    "service_request": "2023-1031159",
    "request_type": "Trash/Recycling",
    "request_reason": "Request a Large Item Pick Up",
    "date_created": "2023-08-31T15:33:06.000",
    "date_modified": "2023-08-31T15:33:07.000",
    "request_status": "Pending",
    "responsible_agency": "Department of Sanitation",
    "final_address": "6561 Oakland Dr",
    "address_councildis": "A",
    "status": "Assigned to Contractor",
    "contractor": "Richards Disposal",
    "rowid": "1031159",
    "final_x": "3666721.0201",
    "final_y": "540411.565643",
    "longitude": "-90.11443852725343",
    "latitude": "29.980384987690034",
    "geocoded_column": {
      "latitude": "29.980384987690034",
      "longitude": "-90.11443852725343"
    }
  },
  {
    "service_request": "2023-1031158",
    "request_type": "Trash/Recycling",
    "request_reason": "Request a Large Item Pick Up",
    "date_created": "2023-08-31T15:31:04.000",
    "date_modified": "2023-08-31T15:31:05.000",
    "request_status": "Pending",
    "responsible_agency": "Department of Sanitation",
    "final_address": "1521 Owens Blvd",
    "address_councildis": "D",
    "status": "Assigned to Contractor",
    "contractor": "IV Waste",
    "rowid": "1031158",
    "final_x": "3679001.80226",
    "final_y": "549119.364371",
    "longitude": "-90.0753486167169",
    "latitude": "30.003963449200196",
    "geocoded_column": {
      "latitude": "30.003963449200196",
      "longitude": "-90.0753486167169"
    }
  },
  {
    "service_request": "2023-1031157",
    "request_type": "Trash/Recycling",
    "request_reason": "Repair Trash Cart",
    "date_created": "2023-08-31T15:29:39.000",
    "date_modified": "2023-08-31T15:29:40.000",
    "request_status": "Pending",
    "responsible_agency": "Department of Sanitation",
    "final_address": "8530 Pritchard Pl",
    "address_councildis": "A",
    "status": "Assigned to Contractor",
    "contractor": "Richards Disposal",
    "rowid": "1031157",
    "final_x": "3664749.81671",
    "final_y": "534026.315077",
    "longitude": "-90.12087785576566",
    "latitude": "29.962885176176563",
    "geocoded_column": {
      "latitude": "29.962885176176563",
      "longitude": "-90.12087785576566"
    }
  },
  {
    "service_request": "2023-1031156",
    "request_type": "Trash/Recycling",
    "request_reason": "Request a Large Item Pick Up",
    "date_created": "2023-08-31T15:29:03.000",
    "date_modified": "2023-08-31T18:52:41.000",
    "request_status": "Pending",
    "responsible_agency": "Department of Sanitation",
    "final_address": "New Orleans,LA",
    "address_councildis": "B",
    "status": "Assigned to Contractor",
    "contractor": "Richards Disposal",
    "rowid": "1031156",
    "final_x": "3675201.15816",
    "final_y": "521237.021433",
    "longitude": "-90.08831262512274",
    "latitude": "29.927410615706172",
    "geocoded_column": {
      "latitude": "29.927410615706172",
      "longitude": "-90.08831262512274"
    }
  },
  {
    "service_request": "2023-1031155",
    "request_type": "Property Maintenance",
    "request_reason": "Property Maintenance",
    "date_created": "2023-08-31T15:28:40.000",
    "date_modified": "2023-08-31T15:28:41.000",
    "request_status": "Pending",
    "responsible_agency": "Department of Code Enforcement",
    "final_address": "8709 Stroelitz St",
    "address_councildis": "A",
    "status": "Pending",
    "rowid": "1031155",
    "final_x": "3666350.84493",
    "final_y": "536467.127175",
    "longitude": "-90.11574008699941",
    "latitude": "29.969549922699667",
    "geocoded_column": {
      "latitude": "29.969549922699667",
      "longitude": "-90.11574008699941"
    }
  },
  {
    "service_request": "2023-1031154",
    "request_type": "Trash/Recycling",
    "request_reason": "Order Recycling Cart",
    "date_created": "2023-08-31T15:28:13.000",
    "date_modified": "2023-08-31T15:28:13.000",
    "request_status": "Pending",
    "responsible_agency": "Department of Sanitation",
    "final_address": "2829 St Anthony St",
    "address_councildis": "D",
    "status": "Pending",
    "rowid": "1031154",
    "final_x": "3683077.57493",
    "final_y": "542685.472653",
    "longitude": "-90.06269795044916",
    "latitude": "29.986148871631674",
    "geocoded_column": {
      "latitude": "29.986148871631674",
      "longitude": "-90.06269795044916"
    }
  },
  {
    "service_request": "2023-1031153",
    "request_type": "Trash/Recycling",
    "request_reason": "Order Trash Cart",
    "date_created": "2023-08-31T15:27:57.000",
    "date_modified": "2023-08-31T15:27:58.000",
    "request_status": "Pending",
    "responsible_agency": "Department of Sanitation",
    "final_address": "421 Hendee St",
    "address_councildis": "C",
    "status": "Assigned to Contractor",
    "contractor": "Richards Disposal",
    "rowid": "1031153",
    "final_x": "3690852.57539",
    "final_y": "530012.710081",
    "longitude": "-90.03859214103416",
    "latitude": "29.95106387677846",
    "geocoded_column": {
      "latitude": "29.95106387677846",
      "longitude": "-90.03859214103416"
    }
  },
  {
    "service_request": "2023-1031152",
    "request_type": "Trash/Recycling",
    "request_reason": "Order Trash Cart",
    "date_created": "2023-08-31T15:27:08.000",
    "date_modified": "2023-08-31T15:27:09.000",
    "request_status": "Pending",
    "responsible_agency": "Department of Sanitation",
    "final_address": "2829 St Anthony St",
    "address_councildis": "D",
    "status": "Assigned to Contractor",
    "contractor": "IV Waste",
    "rowid": "1031152",
    "final_x": "3683077.57493",
    "final_y": "542685.472653",
    "longitude": "-90.06269795044916",
    "latitude": "29.986148871631674",
    "geocoded_column": {
      "latitude": "29.986148871631674",
      "longitude": "-90.06269795044916"
    }
  },
  {
    "service_request": "2023-1031151",
    "request_type": "Traffic Signals/Signs/Striping/Streetlights",
    "request_reason": "Street Light Outage/Malfunction",
    "date_created": "2023-08-31T15:26:19.000",
    "date_modified": "2023-08-31T15:26:20.000",
    "request_status": "Pending",
    "responsible_agency": "Department of Public Works",
    "final_address": "5726 St Charles Ave",
    "address_councildis": "A",
    "status": "Assigned to Contractor",
    "contractor": "Legacy Professional Services",
    "rowid": "1031151",
    "final_x": "3666288.55757",
    "final_y": "522017.200314",
    "longitude": "-90.1164214428881",
    "latitude": "29.929819131740146",
    "geocoded_column": {
      "latitude": "29.929819131740146",
      "longitude": "-90.1164214428881"
    }
  },
  {
    "service_request": "2023-1031150",
    "request_type": "Graffiti Removal",
    "request_reason": "Graffiti Removal",
    "date_created": "2023-08-31T15:24:39.000",
    "date_modified": "2023-08-31T15:24:39.000",
    "request_status": "Pending",
    "responsible_agency": "Department of Code Enforcement",
    "final_address": "3316 N Galvez St",
    "address_councildis": "D",
    "status": "Pending",
    "rowid": "1031150",
    "final_x": "3690861.78179",
    "final_y": "539482.158602",
    "longitude": "-90.03822512432592",
    "latitude": "29.977101256512732",
    "geocoded_column": {
      "latitude": "29.977101256512732",
      "longitude": "-90.03822512432592"
    }
  },
  {
    "service_request": "2023-1031149",
    "request_type": "Graffiti Removal",
    "request_reason": "Graffiti Removal",
    "date_created": "2023-08-31T15:24:36.000",
    "date_modified": "2023-08-31T15:24:36.000",
    "request_status": "Pending",
    "responsible_agency": "Department of Code Enforcement",
    "final_address": "2830 N Rampart St",
    "address_councildis": "C",
    "status": "Pending",
    "rowid": "1031149",
    "final_x": "3687855.04284",
    "final_y": "535778.886663",
    "longitude": "-90.04785256907486",
    "latitude": "29.96701166050381",
    "geocoded_column": {
      "latitude": "29.96701166050381",
      "longitude": "-90.04785256907486"
    }
  },
  {
    "service_request": "2023-1031148",
    "request_type": "Trash/Recycling",
    "request_reason": "Order Recycling Cart",
    "date_created": "2023-08-31T15:19:21.000",
    "date_modified": "2023-08-31T15:19:22.000",
    "request_status": "Pending",
    "responsible_agency": "Department of Sanitation",
    "final_address": "3436 Lancaster St",
    "address_councildis": "C",
    "status": "Pending",
    "rowid": "1031148",
    "final_x": "3709942.23288",
    "final_y": "517971.773302",
    "longitude": "-89.97876657717408",
    "latitude": "29.91734866687646",
    "geocoded_column": {
      "latitude": "29.91734866687646",
      "longitude": "-89.97876657717408"
    }
  },
  {
    "service_request": "2023-1031147",
    "request_type": "Trash/Recycling",
    "request_reason": "Order Trash Cart",
    "date_created": "2023-08-31T15:16:30.000",
    "date_modified": "2023-08-31T15:16:31.000",
    "request_status": "Pending",
    "responsible_agency": "Department of Sanitation",
    "final_address": "4310 Plum Orchard St",
    "address_councildis": "E",
    "status": "Assigned to Contractor",
    "contractor": "Waste Pro",
    "rowid": "1031147",
    "final_x": "3701819.71722",
    "final_y": "552528.926038",
    "longitude": "-90.00313830786483",
    "latitude": "30.01262990457805",
    "geocoded_column": {
      "latitude": "30.01262990457805",
      "longitude": "-90.00313830786483"
    }
  },
  {
    "service_request": "2023-1031146",
    "request_type": "Property Maintenance",
    "request_reason": "Property Maintenance",
    "date_created": "2023-08-31T15:15:42.000",
    "date_modified": "2023-08-31T15:15:43.000",
    "request_status": "Pending",
    "responsible_agency": "Department of Code Enforcement",
    "final_address": "1439 Port St",
    "address_councildis": "C",
    "status": "Pending",
    "rowid": "1031146",
    "final_x": "3687810.82191",
    "final_y": "537804.68788",
    "longitude": "-90.04792045112035",
    "latitude": "29.972583268904017",
    "geocoded_column": {
      "latitude": "29.972583268904017",
      "longitude": "-90.04792045112035"
    }
  },
  {
    "service_request": "2023-1031145",
    "request_type": "Trash/Recycling",
    "request_reason": "Request a Large Item Pick Up",
    "date_created": "2023-08-31T15:14:17.000",
    "date_modified": "2023-08-31T15:14:18.000",
    "request_status": "Pending",
    "responsible_agency": "Department of Sanitation",
    "final_address": "4538 S Miro St",
    "address_councildis": "B",
    "status": "Assigned to Contractor",
    "contractor": "Richards Disposal",
    "rowid": "1031145",
    "final_x": "3669448.0866",
    "final_y": "527712.745407",
    "longitude": "-90.10625477916675",
    "latitude": "29.945387400890038",
    "geocoded_column": {
      "latitude": "29.945387400890038",
      "longitude": "-90.10625477916675"
    }
  },
  {
    "service_request": "2023-1031144",
    "request_type": "Trash/Recycling",
    "request_reason": "Request a Large Item Pick Up",
    "date_created": "2023-08-31T15:11:44.000",
    "date_modified": "2023-08-31T15:11:45.000",
    "request_status": "Pending",
    "responsible_agency": "Department of Sanitation",
    "final_address": "5852 Oxford Pl",
    "address_councildis": "C",
    "status": "Assigned to Contractor",
    "contractor": "Richards Disposal",
    "rowid": "1031144",
    "final_x": "3705244.73899",
    "final_y": "519824.396728",
    "longitude": "-89.99352540736913",
    "latitude": "29.922594598020726",
    "geocoded_column": {
      "latitude": "29.922594598020726",
      "longitude": "-89.99352540736913"
    }
  },
  {
    "service_request": "2023-1031143",
    "request_type": "Abandoned Vehicles",
    "request_reason": "Abandoned/Junk Vehicles",
    "date_created": "2023-08-31T15:11:40.000",
    "date_modified": "2023-08-31T15:11:40.000",
    "request_status": "Pending",
    "responsible_agency": "Department of Public Works",
    "final_address": "1458 N Rocheblave St",
    "address_councildis": "D",
    "status": "Pending",
    "rowid": "1031143",
    "final_x": "3679431.46799",
    "final_y": "538722.554889",
    "longitude": "-90.07435211281206",
    "latitude": "29.975362894499785",
    "geocoded_column": {
      "latitude": "29.975362894499785",
      "longitude": "-90.07435211281206"
    }
  },
  {
    "service_request": "2023-1031142",
    "request_type": "Abandoned Vehicles",
    "request_reason": "Abandoned/Junk Vehicles",
    "date_created": "2023-08-31T15:05:13.000",
    "date_modified": "2023-08-31T15:05:13.000",
    "request_status": "Pending",
    "responsible_agency": "Department of Public Works",
    "final_address": "1458 N Rocheblave St",
    "address_councildis": "D",
    "status": "Pending",
    "rowid": "1031142",
    "final_x": "3679431.46799",
    "final_y": "538722.554889",
    "longitude": "-90.07435211281206",
    "latitude": "29.975362894499785",
    "geocoded_column": {
      "latitude": "29.975362894499785",
      "longitude": "-90.07435211281206"
    }
  },
  {
    "service_request": "2023-1031140",
    "request_type": "Traffic Signals/Signs/Striping/Streetlights",
    "request_reason": "Street Light Outage/Malfunction",
    "date_created": "2023-08-31T15:01:19.000",
    "date_modified": "2023-08-31T15:01:20.000",
    "request_status": "Pending",
    "responsible_agency": "Department of Public Works",
    "final_address": "3800 BLK Gentilly Blvd",
    "address_councildis": "D",
    "status": "Assigned to Contractor",
    "contractor": "Legacy Professional Services",
    "rowid": "1031140",
    "final_x": "3688258.12082",
    "final_y": "548779.479656",
    "longitude": "-90.04611843676645",
    "latitude": "30.002746217024534",
    "geocoded_column": {
      "latitude": "30.002746217024534",
      "longitude": "-90.04611843676645"
    }
  },
  {
    "service_request": "2023-1031139",
    "request_type": "Roads/Drainage",
    "request_reason": "Street Subsidence (Sinking)",
    "date_created": "2023-08-31T14:57:32.000",
    "date_modified": "2023-08-31T14:57:32.000",
    "request_status": "Pending",
    "responsible_agency": "Department of Public Works",
    "final_address": "3816 Nashville Ave",
    "address_councildis": "A",
    "status": "Pending",
    "rowid": "1031139",
    "final_x": "3668432.86298",
    "final_y": "529638.164865",
    "longitude": "-90.10939524025837",
    "latitude": "29.950711533063096",
    "geocoded_column": {
      "latitude": "29.950711533063096",
      "longitude": "-90.10939524025837"
    }
  },
  {
    "service_request": "2023-1031137",
    "request_type": "Abandoned Vehicles",
    "request_reason": "Abandoned/Junk Vehicles",
    "date_created": "2023-08-31T14:55:36.000",
    "date_modified": "2023-08-31T14:55:36.000",
    "request_status": "Pending",
    "responsible_agency": "Department of Public Works",
    "final_address": "1400 BLK Frenchmen St",
    "address_councildis": "C",
    "status": "Inspected",
    "rowid": "1031137",
    "final_x": "3684486.96957",
    "final_y": "537557.518177",
    "longitude": "-90.0584264457717",
    "latitude": "29.972005746646108",
    "geocoded_column": {
      "latitude": "29.972005746646108",
      "longitude": "-90.0584264457717"
    }
  },
  {
    "service_request": "2023-1031138",
    "request_type": "Abandoned Vehicles",
    "request_reason": "Abandoned/Junk Vehicles",
    "date_created": "2023-08-31T14:55:36.000",
    "date_modified": "2023-08-31T14:55:36.000",
    "request_status": "Pending",
    "responsible_agency": "Department of Public Works",
    "final_address": "1400 BLK Frenchmen St",
    "address_councildis": "C",
    "status": "Inspected",
    "rowid": "1031138",
    "final_x": "3684486.96957",
    "final_y": "537557.518177",
    "longitude": "-90.0584264457717",
    "latitude": "29.972005746646108",
    "geocoded_column": {
      "latitude": "29.972005746646108",
      "longitude": "-90.0584264457717"
    }
  },
  {
    "service_request": "2023-1031136",
    "request_type": "Abandoned Vehicles",
    "request_reason": "Abandoned/Junk Vehicles",
    "date_created": "2023-08-31T14:55:07.000",
    "date_modified": "2023-08-31T14:55:07.000",
    "request_status": "Pending",
    "responsible_agency": "Department of Public Works",
    "final_address": "3023 Martin Luther King, Jr. Blvd",
    "address_councildis": "B",
    "status": "Pending",
    "rowid": "1031136",
    "final_x": "3674911.75016",
    "final_y": "528323.950784",
    "longitude": "-90.08898326531674",
    "latitude": "29.946905999210877",
    "geocoded_column": {
      "latitude": "29.946905999210877",
      "longitude": "-90.08898326531674"
    }
  },
  {
    "service_request": "2023-1031135",
    "request_type": "Graffiti Removal",
    "request_reason": "Graffiti Removal",
    "date_created": "2023-08-31T14:52:02.000",
    "date_modified": "2023-08-31T14:52:02.000",
    "request_status": "Pending",
    "responsible_agency": "Department of Code Enforcement",
    "final_address": "2830 N Rampart St",
    "address_councildis": "C",
    "status": "Pending",
    "rowid": "1031135",
    "final_x": "3687855.04284",
    "final_y": "535778.886663",
    "longitude": "-90.04785256907486",
    "latitude": "29.96701166050381",
    "geocoded_column": {
      "latitude": "29.96701166050381",
      "longitude": "-90.04785256907486"
    }
  },
  {
    "service_request": "2023-1031134",
    "request_type": "Trash/Recycling",
    "request_reason": "Request a Large Item Pick Up",
    "date_created": "2023-08-31T14:51:06.000",
    "date_modified": "2023-08-31T14:51:06.000",
    "request_status": "Pending",
    "responsible_agency": "Department of Sanitation",
    "final_address": "7801 Newcastle St",
    "address_councildis": "E",
    "status": "Assigned to Contractor",
    "contractor": "Waste Pro",
    "rowid": "1031134",
    "final_x": "3697130.85187",
    "final_y": "559885.856989",
    "longitude": "-90.01768557086321",
    "latitude": "30.03300750391188",
    "geocoded_column": {
      "latitude": "30.03300750391188",
      "longitude": "-90.01768557086321"
    }
  },
  {
    "service_request": "2023-1031133",
    "request_type": "Traffic Signals/Signs/Striping/Streetlights",
    "request_reason": "Street Light Outage/Malfunction",
    "date_created": "2023-08-31T14:49:25.000",
    "date_modified": "2023-08-31T14:49:26.000",
    "request_status": "Pending",
    "responsible_agency": "Department of Public Works",
    "final_address": "1823 Jena St",
    "address_councildis": "B",
    "status": "Assigned to Contractor",
    "contractor": "Legacy Professional Services",
    "rowid": "1031133",
    "final_x": "3670442.32705",
    "final_y": "521753.279034",
    "longitude": "-90.10331761761675",
    "latitude": "29.92897147976895",
    "geocoded_column": {
      "latitude": "29.92897147976895",
      "longitude": "-90.10331761761675"
    }
  },
  {
    "service_request": "2023-1031132",
    "request_type": "Traffic Signals/Signs/Striping/Streetlights",
    "request_reason": "Street Light Outage/Malfunction",
    "date_created": "2023-08-31T14:48:05.000",
    "date_modified": "2023-08-31T14:48:06.000",
    "request_status": "Pending",
    "responsible_agency": "Department of Public Works",
    "final_address": "6334 Patton St",
    "address_councildis": "A",
    "status": "Assigned to Contractor",
    "contractor": "Legacy Professional Services",
    "rowid": "1031132",
    "final_x": "3662937.94944",
    "final_y": "519167.932343",
    "longitude": "-90.12709347432384",
    "latitude": "29.92208195670355",
    "geocoded_column": {
      "latitude": "29.92208195670355",
      "longitude": "-90.12709347432384"
    }
  },
  {
    "service_request": "2023-1031131",
    "request_type": "Abandoned Vehicles",
    "request_reason": "Abandoned/Junk Vehicles",
    "date_created": "2023-08-31T14:47:30.000",
    "date_modified": "2023-08-31T14:50:21.000",
    "request_status": "Pending",
    "responsible_agency": "Department of Public Works",
    "final_address": "723 Dante St",
    "address_councildis": "A",
    "status": "Pending",
    "rowid": "1031131",
    "final_x": "3660440.65293",
    "final_y": "527722.234431",
    "longitude": "-90.13469397502544",
    "latitude": "29.94567565352224",
    "geocoded_column": {
      "latitude": "29.94567565352224",
      "longitude": "-90.13469397502544"
    }
  },
  {
    "service_request": "2023-1031130",
    "request_type": "Traffic Signals/Signs/Striping/Streetlights",
    "request_reason": "Street Light Outage/Malfunction",
    "date_created": "2023-08-31T14:47:14.000",
    "date_modified": "2023-08-31T14:47:15.000",
    "request_status": "Pending",
    "responsible_agency": "Department of Public Works",
    "final_address": "1102 General Pershing St",
    "address_councildis": "B",
    "status": "Assigned to Contractor",
    "contractor": "Legacy Professional Services",
    "rowid": "1031130",
    "final_x": "3671324.0859",
    "final_y": "519601.272568",
    "longitude": "-90.1006071598157",
    "latitude": "29.923028094001545",
    "geocoded_column": {
      "latitude": "29.923028094001545",
      "longitude": "-90.1006071598157"
    }
  },
  {
    "service_request": "2023-1031129",
    "request_type": "Trash/Recycling",
    "request_reason": "Replace Recycling Cart",
    "date_created": "2023-08-31T14:44:59.000",
    "date_modified": "2023-08-31T14:44:59.000",
    "request_status": "Pending",
    "responsible_agency": "Department of Sanitation",
    "final_address": "1117 Marengo St",
    "address_councildis": "B",
    "status": "Pending",
    "rowid": "1031129",
    "final_x": "3672135.42734",
    "final_y": "519799.478392",
    "longitude": "-90.09803931847784",
    "latitude": "29.923549070859064",
    "geocoded_column": {
      "latitude": "29.923549070859064",
      "longitude": "-90.09803931847784"
    }
  },
  {
    "service_request": "2023-1031128",
    "request_type": "Abandoned Vehicles",
    "request_reason": "Abandoned/Junk Vehicles",
    "date_created": "2023-08-31T14:43:47.000",
    "date_modified": "2023-08-31T14:43:47.000",
    "request_status": "Pending",
    "responsible_agency": "Department of Public Works",
    "final_address": "723 Dante St",
    "address_councildis": "A",
    "status": "Pending",
    "rowid": "1031128",
    "final_x": "3660440.65293",
    "final_y": "527722.234431",
    "longitude": "-90.13469397502544",
    "latitude": "29.94567565352224",
    "geocoded_column": {
      "latitude": "29.94567565352224",
      "longitude": "-90.13469397502544"
    }
  },
  {
    "service_request": "2023-1031127",
    "request_type": "Trash/Recycling",
    "request_reason": "Request a Large Item Pick Up",
    "date_created": "2023-08-31T14:43:09.000",
    "date_modified": "2023-08-31T14:43:09.000",
    "request_status": "Pending",
    "responsible_agency": "Department of Sanitation",
    "final_address": "7801 Newcastle St",
    "address_councildis": "E",
    "status": "Assigned to Contractor",
    "contractor": "Waste Pro",
    "rowid": "1031127",
    "final_x": "3697130.85187",
    "final_y": "559885.856989",
    "longitude": "-90.01768557086321",
    "latitude": "30.03300750391188",
    "geocoded_column": {
      "latitude": "30.03300750391188",
      "longitude": "-90.01768557086321"
    }
  },
  {
    "service_request": "2023-1031126",
    "request_type": "Trash/Recycling",
    "request_reason": "MIssed Recycling Pick-Up",
    "date_created": "2023-08-31T14:42:40.000",
    "date_modified": "2023-08-31T14:42:41.000",
    "request_status": "Pending",
    "responsible_agency": "Department of Sanitation",
    "final_address": "2240 Lakeshore Dr",
    "address_councildis": "D",
    "status": "Assigned to Contractor",
    "contractor": "IV Waste",
    "rowid": "1031126",
    "final_x": "3684002.70639",
    "final_y": "558700.258524",
    "longitude": "-90.0592133504409",
    "latitude": "30.030155485144437",
    "geocoded_column": {
      "latitude": "30.030155485144437",
      "longitude": "-90.0592133504409"
    }
  },
  {
    "service_request": "2023-1031125",
    "request_type": "Abandoned Vehicles",
    "request_reason": "Vehicle Blocking Your Driveway",
    "date_created": "2023-08-31T14:39:57.000",
    "date_modified": "2023-08-31T14:39:57.000",
    "request_status": "Pending",
    "responsible_agency": "Department of Public Works",
    "final_address": "142 W Harrison Ave, New Orleans, Louisiana, 70124",
    "status": "Pending",
    "rowid": "1031125",
    "longitude": "0.0",
    "latitude": "0.0",
    "geocoded_column": {
      "latitude": "0.0",
      "longitude": "0.0"
    }
  },
  {
    "service_request": "2023-1031123",
    "request_type": "Traffic Signals/Signs/Striping/Streetlights",
    "request_reason": "Traffic Signal Malfunctioning/Damaged",
    "date_created": "2023-08-31T14:38:27.000",
    "date_modified": "2023-08-31T14:38:27.000",
    "request_status": "Pending",
    "responsible_agency": "Department of Public Works",
    "final_address": "CITY PARK AVE & MARCONI DR",
    "address_councildis": "A",
    "status": "Pending",
    "rowid": "1031123",
    "final_x": "3670595.2",
    "final_y": "541788.38",
    "longitude": "-90.10215545455618",
    "latitude": "29.9840568710957",
    "geocoded_column": {
      "latitude": "29.9840568710957",
      "longitude": "-90.10215545455618"
    }
  },
  {
    "service_request": "2023-1031122",
    "request_type": "Trash/Recycling",
    "request_reason": "Order Recycling Cart",
    "date_created": "2023-08-31T14:38:14.000",
    "date_modified": "2023-08-31T14:38:15.000",
    "request_status": "Pending",
    "responsible_agency": "Department of Sanitation",
    "final_address": "2021 Jena St",
    "address_councildis": "B",
    "status": "Pending",
    "rowid": "1031122",
    "final_x": "3670374.18663",
    "final_y": "522446.98009",
    "longitude": "-90.10350922008476",
    "latitude": "29.930880946528596",
    "geocoded_column": {
      "latitude": "29.930880946528596",
      "longitude": "-90.10350922008476"
    }
  },
  {
    "service_request": "2023-1031121",
    "request_type": "Traffic Signals/Signs/Striping/Streetlights",
    "request_reason": "Traffic Signal Malfunctioning/Damaged",
    "date_created": "2023-08-31T14:33:32.000",
    "date_modified": "2023-08-31T14:33:32.000",
    "request_status": "Pending",
    "responsible_agency": "Department of Public Works",
    "final_address": "732 City Park Ave",
    "address_councildis": "A",
    "status": "Pending",
    "rowid": "1031121",
    "final_x": "3670348.97671",
    "final_y": "541694.462092",
    "longitude": "-90.10293634902916",
    "latitude": "29.983805901099217",
    "geocoded_column": {
      "latitude": "29.983805901099217",
      "longitude": "-90.10293634902916"
    }
  },
  {
    "service_request": "2023-1031120",
    "request_type": "Trash/Recycling",
    "request_reason": "Request a Large Item Pick Up",
    "date_created": "2023-08-31T14:31:01.000",
    "date_modified": "2023-08-31T14:31:01.000",
    "request_status": "Pending",
    "responsible_agency": "Department of Sanitation",
    "final_address": "4910 Galahad Dr",
    "address_councildis": "E",
    "status": "Assigned to Contractor",
    "contractor": "Waste Pro",
    "rowid": "1031120",
    "final_x": "3707044.93636",
    "final_y": "556498.597082",
    "longitude": "-89.98648221891386",
    "latitude": "30.023377139632036",
    "geocoded_column": {
      "latitude": "30.023377139632036",
      "longitude": "-89.98648221891386"
    }
  },
  {
    "service_request": "2023-1031119",
    "request_type": "Trash/Recycling",
    "request_reason": "Request a Large Item Pick Up",
    "date_created": "2023-08-31T14:28:57.000",
    "date_modified": "2023-08-31T14:28:58.000",
    "request_status": "Pending",
    "responsible_agency": "Department of Sanitation",
    "final_address": "1930 Sixth St",
    "address_councildis": "B",
    "status": "Assigned to Contractor",
    "contractor": "Richards Disposal",
    "rowid": "1031119",
    "final_x": "3674737.31643",
    "final_y": "523343.899195",
    "longitude": "-90.08970467524092",
    "latitude": "29.933217696672404",
    "geocoded_column": {
      "latitude": "29.933217696672404",
      "longitude": "-90.08970467524092"
    }
  },
  {
    "service_request": "2023-1031117",
    "request_type": "Property Maintenance",
    "request_reason": "Property Maintenance",
    "date_created": "2023-08-31T14:26:43.000",
    "date_modified": "2023-08-31T14:26:43.000",
    "request_status": "Pending",
    "responsible_agency": "Department of Code Enforcement",
    "final_address": "1931 Bordeaux St",
    "address_councildis": "B",
    "status": "Pending",
    "rowid": "1031117",
    "final_x": "3669286.95687",
    "final_y": "522038.187706",
    "longitude": "-90.1069552758382",
    "latitude": "29.9297889398049",
    "geocoded_column": {
      "latitude": "29.9297889398049",
      "longitude": "-90.1069552758382"
    }
  },
  {
    "service_request": "2023-1031116",
    "request_type": "Trash/Recycling",
    "request_reason": "Repair Recycling Cart",
    "date_created": "2023-08-31T14:16:41.000",
    "date_modified": "2023-08-31T14:16:41.000",
    "request_status": "Pending",
    "responsible_agency": "Department of Sanitation",
    "final_address": "1102 Adams St",
    "address_councildis": "A",
    "status": "Pending",
    "rowid": "1031116",
    "final_x": "3662813.9376",
    "final_y": "527176.167231",
    "longitude": "-90.12721884568492",
    "latitude": "29.944105665455606",
    "geocoded_column": {
      "latitude": "29.944105665455606",
      "longitude": "-90.12721884568492"
    }
  },
  {
    "service_request": "2023-1031115",
    "request_type": "Trash/Recycling",
    "request_reason": "Missed Trash Pick-Up",
    "date_created": "2023-08-31T14:14:03.000",
    "date_modified": "2023-08-31T14:14:04.000",
    "request_status": "Pending",
    "responsible_agency": "Department of Sanitation",
    "final_address": "2420 Laurel St",
    "address_councildis": "B",
    "status": "Assigned to Contractor",
    "contractor": "Richards Disposal",
    "rowid": "1031115",
    "final_x": "3678342.30446",
    "final_y": "520758.839033",
    "longitude": "-90.07841333620189",
    "latitude": "29.926001548858167",
    "geocoded_column": {
      "latitude": "29.926001548858167",
      "longitude": "-90.07841333620189"
    }
  },
  {
    "service_request": "2023-1031114",
    "request_type": "Trash/Recycling",
    "request_reason": "Missed Trash Pick-Up",
    "date_created": "2023-08-31T14:09:45.000",
    "date_modified": "2023-08-31T15:14:11.000",
    "case_close_date": "2023-08-31T10:14:11.000",
    "request_status": "Closed",
    "responsible_agency": "Department of Sanitation",
    "final_address": "1433 N Roman St",
    "address_councildis": "D",
    "status": "Invalid Request",
    "contractor": "IV Waste",
    "contractor_action": "Invalid Pick-Up",
    "rowid": "1031114",
    "final_x": "3680829.36719",
    "final_y": "537266.426056",
    "longitude": "-90.06998787827882",
    "latitude": "29.97131673650215",
    "geocoded_column": {
      "latitude": "29.97131673650215",
      "longitude": "-90.06998787827882"
    }
  },
  {
    "service_request": "2023-1031113",
    "request_type": "Traffic Signals/Signs/Striping/Streetlights",
    "request_reason": "Street Light Outage/Malfunction",
    "date_created": "2023-08-31T14:09:06.000",
    "date_modified": "2023-08-31T14:09:07.000",
    "request_status": "Pending",
    "responsible_agency": "Department of Public Works",
    "final_address": "HOLIDAY DR & WALL BLVD",
    "address_councildis": "C",
    "status": "Assigned to Contractor",
    "contractor": "Legacy Professional Services",
    "rowid": "1031113",
    "final_x": "3698885.8",
    "final_y": "523636.28",
    "longitude": "-90.01345930560272",
    "latitude": "29.933278883490274",
    "geocoded_column": {
      "latitude": "29.933278883490274",
      "longitude": "-90.01345930560272"
    }
  },
  {
    "service_request": "2023-1031112",
    "request_type": "Property Maintenance",
    "request_reason": "Property Maintenance",
    "date_created": "2023-08-31T14:08:00.000",
    "date_modified": "2023-08-31T14:08:00.000",
    "request_status": "Pending",
    "responsible_agency": "Department of Code Enforcement",
    "final_address": "1950 N Rocheblave St",
    "address_councildis": "D",
    "status": "Pending",
    "rowid": "1031112",
    "final_x": "3682130.98876",
    "final_y": "540854.641739",
    "longitude": "-90.06575181732582",
    "latitude": "29.981143557329037",
    "geocoded_column": {
      "latitude": "29.981143557329037",
      "longitude": "-90.06575181732582"
    }
  },