[
  {
    "service_request": "2022-940006",
    "request_type": "Trash/Recycling",
    "request_reason": "Replace Recycling Cart",
    "date_created": "2022-11-08T00:59:09.000",
    "date_modified": "2022-11-08T00:59:09.000",
    "request_status": "Pending",
    "responsible_agency": "Department of Sanitation",
    "final_address": "6934 Memphis St",
    "address_councildis": "A",
    "status": "Pending",
    "rowid": "940006",
    "final_x": "3669671.39521",
    "final_y": "553583.053783",
    "longitude": "-90.10467387397537",
    "latitude": "30.016515387731246",
    "geocoded_column": {
      "latitude": "30.016515387731246",
      "longitude": "-90.10467387397537"
    }
  },
  {
    "service_request": "2022-940005",
    "request_type": "Trash/Recycling",
    "request_reason": "MIssed Recycling Pick-Up",
    "date_created": "2022-11-08T00:37:11.000",
    "date_modified": "2022-11-08T00:37:12.000",
    "request_status": "Pending",
    "responsible_agency": "Department of Sanitation",
    "final_address": "3131 Dickens Dr",
    "address_councildis": "C",
    "status": "Assigned to Contractor",
    "contractor": "Richards Disposal",
    "rowid": "940005",
    "final_x": "3708272.32113",
    "final_y": "518685.824119",
    "longitude": "-89.98401095336939",
    "latitude": "29.919366233392076",
    "geocoded_column": {
      "latitude": "29.919366233392076",
      "longitude": "-89.98401095336939"
    }
  },
  {
    "service_request": "2022-940004",
    "request_type": "Traffic Signals/Signs/Striping/Streetlights",
    "request_reason": "Street Light Outage/Malfunction",
    "date_created": "2022-11-08T00:07:25.000",
    "date_modified": "2022-11-08T00:07:26.000",
    "request_status": "Pending",
    "responsible_agency": "Department of Public Works",
    "final_address": "1100 Elysian Fields Ave",
    "address_councildis": "C",
    "status": "Pending",
    "contractor": "Legacy Professional Services",
    "rowid": "940004",
    "final_x": "3684785.76418",
    "final_y": "536405.767751",
    "longitude": "-90.0575233054216",
    "latitude": "29.96882968875892",
    "geocoded_column": {
      "latitude": "29.96882968875892",
      "longitude": "-90.0575233054216"
    }
  },
  {
    "service_request": "2022-940003",
    "request_type": "Abandoned Vehicles",
    "request_reason": "Abandoned/Junk Vehicles",
    "date_created": "2022-11-08T00:04:09.000",
    "date_modified": "2022-11-08T00:04:09.000",
    "request_status": "Pending",
    "responsible_agency": "Department of Public Works",
    "final_address": "13247 Curran Rd",
    "address_councildis": "E",
    "status": "Pending",
    "rowid": "940003",
    "final_x": "3715971.14021",
    "final_y": "570159.175527",
    "longitude": "-89.95775944058455",
    "latitude": "30.060646676821996",
    "geocoded_column": {
      "latitude": "30.060646676821996",
      "longitude": "-89.95775944058455"
    }
  },
  {
    "service_request": "2022-940002",
    "request_type": "Trash/Recycling",
    "request_reason": "Repair Trash Cart",
    "date_created": "2022-11-08T00:03:07.000",
    "date_modified": "2022-11-08T00:03:08.000",
    "request_status": "Pending",
    "responsible_agency": "Department of Sanitation",
    "final_address": "4305 Coliseum St",
    "address_councildis": "B",
    "status": "Assigned to Contractor",
    "contractor": "Richards Disposal",
    "rowid": "940002",
    "final_x": "3671279.36852",
    "final_y": "519924.775864",
    "longitude": "-90.10073733068843",
    "latitude": "29.92391894767519",
    "geocoded_column": {
      "latitude": "29.92391894767519",
      "longitude": "-90.10073733068843"
    }
  },
  {
    "service_request": "2022-940001",
    "request_type": "Trash/Recycling",
    "request_reason": "Missed Trash Pick-Up",
    "date_created": "2022-11-08T00:01:43.000",
    "date_modified": "2022-11-08T00:01:44.000",
    "request_status": "Pending",
    "responsible_agency": "Department of Sanitation",
    "final_address": "7637 Tricia Ct",
    "address_councildis": "E",
    "status": "Assigned to Contractor",
    "contractor": "Waste Pro",
    "rowid": "940001",
    "final_x": "3717727.86815",
    "final_y": "571159.18788",
    "longitude": "-89.95216844155685",
    "latitude": "30.06333818976537",
    "geocoded_column": {
      "latitude": "30.06333818976537",
      "longitude": "-89.95216844155685"
    }
  },
  {
    "service_request": "2022-940000",
    "request_type": "Trash/Recycling",
    "request_reason": "Order Recycling Cart",
    "date_created": "2022-11-07T23:56:58.000",
    "date_modified": "2022-11-07T23:56:58.000",
    "request_status": "Pending",
    "responsible_agency": "Department of Sanitation",
    "final_address": "1221 Jefferson Ave",
    "address_councildis": "B",
    "status": "Pending",
    "rowid": "940000",
    "final_x": "3667128.48199",
    "final_y": "520010.087416",
    "longitude": "-90.11383737075263",
    "latitude": "29.924275652535872",
    "geocoded_column": {
      "latitude": "29.924275652535872",
      "longitude": "-90.11383737075263"
    }
  },
  {
    "service_request": "2022-939999",
    "request_type": "Trash/Recycling",
    "request_reason": "Order Trash Cart",
    "date_created": "2022-11-07T23:54:40.000",
    "date_modified": "2022-11-07T23:54:41.000",
    "request_status": "Pending",
    "responsible_agency": "Department of Sanitation",
    "final_address": "1221 Jefferson Ave",
    "address_councildis": "B",
    "status": "Assigned to Contractor",
    "contractor": "Richards Disposal",
    "rowid": "939999",
    "final_x": "3667128.48199",
    "final_y": "520010.087416",
    "longitude": "-90.11383737075263",
    "latitude": "29.924275652535872",
    "geocoded_column": {
      "latitude": "29.924275652535872",
      "longitude": "-90.11383737075263"
    }
  },
  {
    "service_request": "2022-939998",
    "request_type": "Abandoned Vehicles",
    "request_reason": "Abandoned/Junk Vehicles",
    "date_created": "2022-11-07T23:51:22.000",
    "date_modified": "2022-11-07T23:51:22.000",
    "request_status": "Pending",
    "responsible_agency": "Department of Public Works",
    "final_address": "215 S Olympia St",
    "address_councildis": "A",
    "status": "Pending",
    "rowid": "939998",
    "final_x": "3669009.0569",
    "final_y": "539236.004106",
    "longitude": "-90.10725163596516",
    "latitude": "29.977085468059922",
    "geocoded_column": {
      "latitude": "29.977085468059922",
      "longitude": "-90.10725163596516"
    }
  },
  {
    "service_request": "2022-939997",
    "request_type": "Trash/Recycling",
    "request_reason": "Order Recycling Cart",
    "date_created": "2022-11-07T23:43:05.000",
    "date_modified": "2022-11-07T23:43:05.000",
    "request_status": "Pending",
    "responsible_agency": "Department of Sanitation",
    "final_address": "5929 Milne St",
    "address_councildis": "A",
    "status": "Pending",
    "rowid": "939997",
    "final_x": "3667062.11444",
    "final_y": "547193.355665",
    "longitude": "-90.11313310292529",
    "latitude": "29.99902261757089",
    "geocoded_column": {
      "latitude": "29.99902261757089",
      "longitude": "-90.11313310292529"
    }
  },
  {
    "service_request": "2022-939996",
    "request_type": "Trash/Recycling",
    "request_reason": "Order Trash Cart",
    "date_created": "2022-11-07T23:41:40.000",
    "date_modified": "2022-11-07T23:41:41.000",
    "request_status": "Pending",
    "responsible_agency": "Department of Sanitation",
    "final_address": "5929 Milne St",
    "address_councildis": "A",
    "status": "Assigned to Contractor",
    "contractor": "IV Waste",
    "rowid": "939996",
    "final_x": "3667062.11444",
    "final_y": "547193.355665",
    "longitude": "-90.11313310292529",
    "latitude": "29.99902261757089",
    "geocoded_column": {
      "latitude": "29.99902261757089",
      "longitude": "-90.11313310292529"
    }
  },
  {
    "service_request": "2022-939995",
    "request_type": "Trash/Recycling",
    "request_reason": "Order Recycling Cart",
    "date_created": "2022-11-07T23:40:24.000",
    "date_modified": "2022-11-07T23:40:24.000",
    "request_status": "Pending",
    "responsible_agency": "Department of Sanitation",
    "final_address": "4844 Mendez St",
    "address_councildis": "D",
    "status": "Pending",
    "rowid": "939995",
    "final_x": "3691412.57468",
    "final_y": "554295.954264",
    "longitude": "-90.03595580641525",
    "latitude": "30.01781666768969",
    "geocoded_column": {
      "latitude": "30.01781666768969",
      "longitude": "-90.03595580641525"
    }
  },
  {
    "service_request": "2022-939994",
    "request_type": "Traffic Signals/Signs/Striping/Streetlights",
    "request_reason": "Street Light Outage/Malfunction",
    "date_created": "2022-11-07T23:40:22.000",
    "date_modified": "2022-11-07T23:40:23.000",
    "request_status": "Pending",
    "responsible_agency": "Department of Public Works",
    "final_address": "1109 Austerlitz St",
    "address_councildis": "B",
    "status": "Pending",
    "contractor": "Legacy Professional Services",
    "rowid": "939994",
    "final_x": "3672815.65268",
    "final_y": "519809.978808",
    "longitude": "-90.09589173709816",
    "latitude": "29.923557761936582",
    "geocoded_column": {
      "latitude": "29.923557761936582",
      "longitude": "-90.09589173709816"
    }
  },
  {
    "service_request": "2022-939993",
    "request_type": "Trash/Recycling",
    "request_reason": "Replace Trash Cart",
    "date_created": "2022-11-07T22:41:22.000",
    "date_modified": "2022-11-07T22:41:23.000",
    "request_status": "Pending",
    "responsible_agency": "Department of Sanitation",
    "final_address": "6234 Wainwright Dr",
    "address_councildis": "D",
    "status": "Assigned to Contractor",
    "contractor": "IV Waste",
    "rowid": "939993",
    "final_x": "3681284.76456",
    "final_y": "556064.503641",
    "longitude": "-90.06789403561999",
    "latitude": "30.022990949795478",
    "geocoded_column": {
      "latitude": "30.022990949795478",
      "longitude": "-90.06789403561999"
    }
  },
  {
    "service_request": "2022-939992",
    "request_type": "Traffic Signals/Signs/Striping/Streetlights",
    "request_reason": "Traffic Signal Malfunctioning/Damaged",
    "date_created": "2022-11-07T22:33:25.000",
    "date_modified": "2022-11-07T22:33:26.000",
    "request_status": "Pending",
    "responsible_agency": "Department of Public Works",
    "final_address": "TULANE AVE & LOYOLA AVE",
    "address_councildis": "B",
    "status": "Pending",
    "rowid": "939992",
    "final_x": "3679394.8",
    "final_y": "531129.08",
    "longitude": "-90.07473134329155",
    "latitude": "29.95448453560176",
    "geocoded_column": {
      "latitude": "29.95448453560176",
      "longitude": "-90.07473134329155"
    }
  },
  {
    "service_request": "2022-939991",
    "request_type": "Traffic Signals/Signs/Striping/Streetlights",
    "request_reason": "Traffic Signal Malfunctioning/Damaged",
    "date_created": "2022-11-07T22:25:46.000",
    "date_modified": "2022-11-07T22:25:46.000",
    "request_status": "Pending",
    "responsible_agency": "Department of Public Works",
    "final_address": "GRAVIER ST & LOYOLA AVE",
    "address_councildis": "B",
    "status": "Pending",
    "rowid": "939991",
    "final_x": "3679188.1",
    "final_y": "530787.08",
    "longitude": "-90.07539587633175",
    "latitude": "29.95355039196535",
    "geocoded_column": {
      "latitude": "29.95355039196535",
      "longitude": "-90.07539587633175"
    }
  },
  {
    "service_request": "2022-939990",
    "request_type": "Abandoned Vehicles",
    "request_reason": "Abandoned/Junk Vehicles",
    "date_created": "2022-11-07T22:25:24.000",
    "date_modified": "2022-11-07T22:25:24.000",
    "request_status": "Pending",
    "responsible_agency": "Department of Public Works",
    "final_address": "322 S Gayoso St",
    "address_councildis": "B",
    "status": "Pending",
    "rowid": "939990",
    "final_x": "3673759.04513",
    "final_y": "535043.90279",
    "longitude": "-90.09239300207814",
    "latitude": "29.965418000014445",
    "geocoded_column": {
      "latitude": "29.965418000014445",
      "longitude": "-90.09239300207814"
    }
  },
  {
    "service_request": "2022-939989",
    "request_type": "Trash/Recycling",
    "request_reason": "Missed Trash Pick-Up",
    "date_created": "2022-11-07T22:12:17.000",
    "date_modified": "2022-11-07T22:12:18.000",
    "request_status": "Pending",
    "responsible_agency": "Department of Sanitation",
    "final_address": "320 S Gayoso St",
    "address_councildis": "B",
    "status": "Assigned to Contractor",
    "contractor": "Richards Disposal",
    "rowid": "939989",
    "final_x": "3673776.27054",
    "final_y": "535061.546118",
    "longitude": "-90.09233800150112",
    "latitude": "29.96546600026725",
    "geocoded_column": {
      "latitude": "29.96546600026725",
      "longitude": "-90.09233800150112"
    }
  },
  {
    "service_request": "2022-939988",
    "request_type": "Trash/Recycling",
    "request_reason": "Replace Recycling Cart",
    "date_created": "2022-11-07T22:07:10.000",
    "date_modified": "2022-11-07T22:07:10.000",
    "request_status": "Pending",
    "responsible_agency": "Department of Sanitation",
    "final_address": "4803 Allen St",
    "address_councildis": "D",
    "status": "Pending",
    "rowid": "939988",
    "final_x": "3681683.29647",
    "final_y": "550173.706516",
    "longitude": "-90.06684049997251",
    "latitude": "30.00678129096014",
    "geocoded_column": {
      "latitude": "30.00678129096014",
      "longitude": "-90.06684049997251"
    }
  },
  {
    "service_request": "2022-939987",
    "request_type": "Trash/Recycling",
    "request_reason": "Missed Trash Pick-Up",
    "date_created": "2022-11-07T21:58:12.000",
    "date_modified": "2022-11-07T21:58:12.000",
    "request_status": "Pending",
    "responsible_agency": "Department of Sanitation",
    "final_address": "7861 Star St",
    "address_councildis": "E",
    "status": "Assigned to Contractor",
    "contractor": "Waste Pro",
    "rowid": "939987",
    "final_x": "3720468.77734",
    "final_y": "574786.684779",
    "longitude": "-89.94336529151614",
    "latitude": "30.07322114889641",
    "geocoded_column": {
      "latitude": "30.07322114889641",
      "longitude": "-89.94336529151614"
    }
  },
  {
    "service_request": "2022-939986",
    "request_type": "Trash/Recycling",
    "request_reason": "Order Recycling Cart",
    "date_created": "2022-11-07T21:50:20.000",
    "date_modified": "2022-11-07T21:50:21.000",
    "request_status": "Pending",
    "responsible_agency": "Department of Sanitation",
    "final_address": "7341 Voyageur Dr",
    "address_councildis": "E",
    "status": "Pending",
    "rowid": "939986",
    "final_x": "3726238.58643",
    "final_y": "569390.84695",
    "longitude": "-89.92533467833476",
    "latitude": "30.058191183648",
    "geocoded_column": {
      "latitude": "30.058191183648",
      "longitude": "-89.92533467833476"
    }
  },
  {
    "service_request": "2022-939985",
    "request_type": "Trash/Recycling",
    "request_reason": "Order Recycling Cart",
    "date_created": "2022-11-07T21:39:38.000",
    "date_modified": "2022-11-07T21:39:38.000",
    "request_status": "Pending",
    "responsible_agency": "Department of Sanitation",
    "final_address": "6200 Canal Blvd",
    "address_councildis": "A",
    "status": "Pending",
    "rowid": "939985",
    "final_x": "3668437.9938",
    "final_y": "548663.981011",
    "longitude": "-90.10873701117411",
    "latitude": "30.003025968793334",
    "geocoded_column": {
      "latitude": "30.003025968793334",
      "longitude": "-90.10873701117411"
    }
  },
  {
    "service_request": "2022-939984",
    "request_type": "Trash/Recycling",
    "request_reason": "Replace Trash Cart",
    "date_created": "2022-11-07T21:39:00.000",
    "date_modified": "2022-11-07T21:39:01.000",
    "request_status": "Pending",
    "responsible_agency": "Department of Sanitation",
    "final_address": "522 S Cortez St",
    "address_councildis": "B",
    "status": "Assigned to Contractor",
    "contractor": "Richards Disposal",
    "rowid": "939984",
    "final_x": "3671020.73499",
    "final_y": "536144.772487",
    "longitude": "-90.10100309130189",
    "latitude": "29.96852628223104",
    "geocoded_column": {
      "latitude": "29.96852628223104",
      "longitude": "-90.10100309130189"
    }
  },
  {
    "service_request": "2022-939983",
    "request_type": "Roads/Drainage",
    "request_reason": "Street Subsidence (Sinking)",
    "date_created": "2022-11-07T21:31:37.000",
    "date_modified": "2022-11-07T21:31:37.000",
    "request_status": "Pending",
    "responsible_agency": "Department of Public Works",
    "final_address": "107 Harrison Ave",
    "address_councildis": "A",
    "status": "Pending",
    "rowid": "939983",
    "final_x": "3666706.41671",
    "final_y": "549563.615059",
    "longitude": "-90.1141770945839",
    "latitude": "30.00555042167181",
    "geocoded_column": {
      "latitude": "30.00555042167181",
      "longitude": "-90.1141770945839"
    }
  },
  {
    "service_request": "2022-939982",
    "request_type": "Trash/Recycling",
    "request_reason": "Order Recycling Cart",
    "date_created": "2022-11-07T21:22:58.000",
    "date_modified": "2022-11-07T21:22:59.000",
    "request_status": "Pending",
    "responsible_agency": "Department of Sanitation",
    "final_address": "7810 Brevard Ave",
    "address_councildis": "E",
    "status": "Pending",
    "rowid": "939982",
    "final_x": "3706044.62084",
    "final_y": "563936.968417",
    "longitude": "-89.98936730248451",
    "latitude": "30.043862031021455",
    "geocoded_column": {
      "latitude": "30.043862031021455",
      "longitude": "-89.98936730248451"
    }
  },
  {
    "service_request": "2022-939981",
    "request_type": "Trash/Recycling",
    "request_reason": "Order Trash Cart",
    "date_created": "2022-11-07T21:22:21.000",
    "date_modified": "2022-11-07T21:22:22.000",
    "request_status": "Pending",
    "responsible_agency": "Department of Sanitation",
    "final_address": "7810 Brevard Ave",
    "address_councildis": "E",
    "status": "Assigned to Contractor",
    "contractor": "Waste Pro",
    "rowid": "939981",
    "final_x": "3706044.62084",
    "final_y": "563936.968417",
    "longitude": "-89.98936730248451",
    "latitude": "30.043862031021455",
    "geocoded_column": {
      "latitude": "30.043862031021455",
      "longitude": "-89.98936730248451"
    }
  },
  {
    "service_request": "2022-939980",
    "request_type": "Trash/Recycling",
    "request_reason": "Repair Trash Cart",
    "date_created": "2022-11-07T21:05:24.000",
    "date_modified": "2022-11-07T21:05:24.000",
    "request_status": "Pending",
    "responsible_agency": "Department of Sanitation",
    "final_address": "2213 St Anthony St",
    "address_councildis": "D",
    "status": "Assigned to Contractor",
    "contractor": "IV Waste",
    "rowid": "939980",
    "final_x": "3683255.458",
    "final_y": "540378.259403",
    "longitude": "-90.06221693130988",
    "latitude": "29.97979942089336",
    "geocoded_column": {
      "latitude": "29.97979942089336",
      "longitude": "-90.06221693130988"
    }
  },
  {
    "service_request": "2022-939979",
    "request_type": "Trash/Recycling",
    "request_reason": "Request a Large Item Pick Up",
    "date_created": "2022-11-07T20:52:46.000",
    "date_modified": "2022-11-07T20:52:47.000",
    "request_status": "Pending",
    "responsible_agency": "Department of Sanitation",
    "final_address": "5035 W St Andrews Cir",
    "address_councildis": "E",
    "status": "Assigned to Contractor",
    "contractor": "Waste Pro",
    "rowid": "939979",
    "final_x": "3719135.9637",
    "final_y": "559502.818845",
    "longitude": "-89.94816285232818",
    "latitude": "30.031241220408774",
    "geocoded_column": {
      "latitude": "30.031241220408774",
      "longitude": "-89.94816285232818"
    }
  },
  {
    "service_request": "2022-939978",
    "request_type": "Trash/Recycling",
    "request_reason": "Order Recycling Cart",
    "date_created": "2022-11-07T20:50:56.000",
    "date_modified": "2022-11-07T20:50:56.000",
    "request_status": "Pending",
    "responsible_agency": "Department of Sanitation",
    "final_address": "8610 Hayne Blvd",
    "address_councildis": "E",
    "status": "Pending",
    "rowid": "939978",
    "final_x": "3703559.38282",
    "final_y": "563615.226977",
    "longitude": "-89.99723354124816",
    "latitude": "30.04305728515729",
    "geocoded_column": {
      "latitude": "30.04305728515729",
      "longitude": "-89.99723354124816"
    }
  },
  {
    "service_request": "2022-939977",
    "request_type": "Roads/Drainage",
    "request_reason": "Street Subsidence (Sinking)",
    "date_created": "2022-11-07T20:44:01.000",
    "date_modified": "2022-11-07T20:44:01.000",
    "request_status": "Pending",
    "responsible_agency": "Department of Public Works",
    "final_address": "1821 Fats Domino Ave",
    "address_councildis": "E",
    "status": "Pending",
    "rowid": "939977",
    "final_x": "3698868.00388",
    "final_y": "536544.929223",
    "longitude": "-90.01304592750516",
    "latitude": "29.968773685192723",
    "geocoded_column": {
      "latitude": "29.968773685192723",
      "longitude": "-90.01304592750516"
    }
  },
  {
    "service_request": "2022-939975",
    "request_type": "Trash/Recycling",
    "request_reason": "Illegal Dumping",
    "date_created": "2022-11-07T20:38:39.000",
    "date_modified": "2022-11-07T20:38:39.000",
    "request_status": "Pending",
    "responsible_agency": "Department of Sanitation",
    "final_address": "812 N Rocheblave St",
    "address_councildis": "D",
    "status": "Pending",
    "rowid": "939975",
    "final_x": "3677837.99272",
    "final_y": "536687.240647",
    "longitude": "-90.07945507944503",
    "latitude": "29.969814523040622",
    "geocoded_column": {
      "latitude": "29.969814523040622",
      "longitude": "-90.07945507944503"
    }
  },
  {
    "service_request": "2022-939974",
    "request_type": "Trash/Recycling",
    "request_reason": "Order Recycling Cart",
    "date_created": "2022-11-07T20:35:23.000",
    "date_modified": "2022-11-07T20:35:23.000",
    "request_status": "Pending",
    "responsible_agency": "Department of Sanitation",
    "final_address": "1821 Fats Domino Ave",
    "address_councildis": "E",
    "status": "Pending",
    "rowid": "939974",
    "final_x": "3698868.00388",
    "final_y": "536544.929223",
    "longitude": "-90.01304592750516",
    "latitude": "29.968773685192723",
    "geocoded_column": {
      "latitude": "29.968773685192723",
      "longitude": "-90.01304592750516"
    }
  },
  {
    "service_request": "2022-939973",
    "request_type": "Trash/Recycling",
    "request_reason": "Order Recycling Cart",
    "date_created": "2022-11-07T20:33:12.000",
    "date_modified": "2022-11-07T20:33:12.000",
    "request_status": "Pending",
    "responsible_agency": "Department of Sanitation",
    "final_address": "11417 S Easterlyn Cir",
    "address_councildis": "E",
    "status": "Pending",
    "rowid": "939973",
    "final_x": "3718726.42546",
    "final_y": "560462.677918",
    "longitude": "-89.94942035876439",
    "latitude": "30.033894051699335",
    "geocoded_column": {
      "latitude": "30.033894051699335",
      "longitude": "-89.94942035876439"
    }
  },
  {
    "service_request": "2022-939972",
    "request_type": "Traffic Signals/Signs/Striping/Streetlights",
    "request_reason": "Street Light Outage/Malfunction",
    "date_created": "2022-11-07T20:30:49.000",
    "date_modified": "2022-11-07T20:30:50.000",
    "request_status": "Pending",
    "responsible_agency": "Department of Public Works",
    "final_address": "11417 S Easterlyn Cir",
    "address_councildis": "E",
    "status": "Pending",
    "contractor": "Legacy Professional Services",
    "rowid": "939972",
    "final_x": "3718726.42546",
    "final_y": "560462.677918",
    "longitude": "-89.94942035876439",
    "latitude": "30.033894051699335",
    "geocoded_column": {
      "latitude": "30.033894051699335",
      "longitude": "-89.94942035876439"
    }
  },
  {
    "service_request": "2022-939971",
    "request_type": "Trash/Recycling",
    "request_reason": "Illegal Dumping",
    "date_created": "2022-11-07T20:30:34.000",
    "date_modified": "2022-11-07T20:30:34.000",
    "request_status": "Pending",
    "responsible_agency": "Department of Sanitation",
    "final_address": "819 N Dorgenois St",
    "address_councildis": "D",
    "status": "Pending",
    "rowid": "939971",
    "final_x": "3677415.7051",
    "final_y": "537043.943944",
    "longitude": "-90.08077638957532",
    "latitude": "29.97080803482629",
    "geocoded_column": {
      "latitude": "29.97080803482629",
      "longitude": "-90.08077638957532"
    }
  },
  {
    "service_request": "2022-939970",
    "request_type": "Trash/Recycling",
    "request_reason": "Order Recycling Cart",
    "date_created": "2022-11-07T20:28:03.000",
    "date_modified": "2022-11-07T20:28:03.000",
    "request_status": "Pending",
    "responsible_agency": "Department of Sanitation",
    "final_address": "1825 BROADWAY ST New Orleans LA 70118",
    "address_councildis": "A",
    "status": "Pending",
    "rowid": "939970",
    "final_x": "3665552.07104",
    "final_y": "528449.017472",
    "longitude": "-90.11853115174719",
    "latitude": "29.947526059244137",
    "geocoded_column": {
      "latitude": "29.947526059244137",
      "longitude": "-90.11853115174719"
    }
  },
  {
    "service_request": "2022-939968",
    "request_type": "Trash/Recycling",
    "request_reason": "Order Recycling Cart",
    "date_created": "2022-11-07T20:26:30.000",
    "date_modified": "2022-11-07T20:26:31.000",
    "request_status": "Pending",
    "responsible_agency": "Department of Sanitation",
    "final_address": "7721 Pebble Dr",
    "address_councildis": "E",
    "status": "Pending",
    "rowid": "939968",
    "final_x": "3714894.63397",
    "final_y": "569425.984294",
    "longitude": "-89.96118995971936",
    "latitude": "30.05866619384125",
    "geocoded_column": {
      "latitude": "30.05866619384125",
      "longitude": "-89.96118995971936"
    }
  },
  {
    "service_request": "2022-939967",
    "request_type": "Trash/Recycling",
    "request_reason": "Order Trash Cart",
    "date_created": "2022-11-07T20:24:18.000",
    "date_modified": "2022-11-07T20:24:19.000",
    "request_status": "Pending",
    "responsible_agency": "Department of Sanitation",
    "final_address": "960 Emerald St",
    "address_councildis": "D",
    "status": "Assigned to Contractor",
    "contractor": "IV Waste",
    "rowid": "939967",
    "final_x": "3671149.02023",
    "final_y": "554739.212504",
    "longitude": "-90.09996588025476",
    "latitude": "30.01965076369814",
    "geocoded_column": {
      "latitude": "30.01965076369814",
      "longitude": "-90.09996588025476"
    }
  },
  {
    "service_request": "2022-939966",
    "request_type": "Abandoned Vehicles",
    "request_reason": "Abandoned/Junk Vehicles",
    "date_created": "2022-11-07T20:21:53.000",
    "date_modified": "2022-11-07T20:21:53.000",
    "request_status": "Pending",
    "responsible_agency": "Department of Public Works",
    "final_address": "820 N Rocheblave St",
    "address_councildis": "D",
    "status": "Pending",
    "rowid": "939966",
    "final_x": "3677872.58619",
    "final_y": "536735.538567",
    "longitude": "-90.07934416074816",
    "latitude": "29.969946284885957",
    "geocoded_column": {
      "latitude": "29.969946284885957",
      "longitude": "-90.07934416074816"
    }
  },
  {
    "service_request": "2022-939965",
    "request_type": "Trash/Recycling",
    "request_reason": "Order Recycling Cart",
    "date_created": "2022-11-07T20:17:31.000",
    "date_modified": "2022-11-07T20:17:31.000",
    "request_status": "Pending",
    "responsible_agency": "Department of Sanitation",
    "final_address": "3017 St Roch Ave",
    "address_councildis": "D",
    "status": "Pending",
    "rowid": "939965",
    "final_x": "3685995.73756",
    "final_y": "543952.029774",
    "longitude": "-90.05343594562332",
    "latitude": "29.989542152294653",
    "geocoded_column": {
      "latitude": "29.989542152294653",
      "longitude": "-90.05343594562332"
    }
  },
  {
    "service_request": "2022-939964",
    "request_type": "Trash/Recycling",
    "request_reason": "Order Recycling Cart",
    "date_created": "2022-11-07T20:17:28.000",
    "date_modified": "2022-11-07T20:17:28.000",
    "request_status": "Pending",
    "responsible_agency": "Department of Sanitation",
    "final_address": "3017 St Roch Ave",
    "address_councildis": "D",
    "status": "Pending",
    "rowid": "939964",
    "final_x": "3685995.73756",
    "final_y": "543952.029774",
    "longitude": "-90.05343594562332",
    "latitude": "29.989542152294653",
    "geocoded_column": {
      "latitude": "29.989542152294653",
      "longitude": "-90.05343594562332"
    }
  },
  {
    "service_request": "2022-939963",
    "request_type": "Trash/Recycling",
    "request_reason": "Replace Recycling Cart",
    "date_created": "2022-11-07T20:13:50.000",
    "date_modified": "2022-11-07T20:13:51.000",
    "request_status": "Pending",
    "responsible_agency": "Department of Sanitation",
    "final_address": "4461 Lafaye St",
    "address_councildis": "D",
    "status": "Pending",
    "rowid": "939963",
    "final_x": "3687580.45916",
    "final_y": "549419.394131",
    "longitude": "-90.0482365837891",
    "latitude": "30.004526663972673",
    "geocoded_column": {
      "latitude": "30.004526663972673",
      "longitude": "-90.0482365837891"
    }
  },
  {
    "service_request": "2022-939962",
    "request_type": "Trash/Recycling",
    "request_reason": "MIssed Recycling Pick-Up",
    "date_created": "2022-11-07T20:12:42.000",
    "date_modified": "2022-11-07T20:12:43.000",
    "request_status": "Pending",
    "responsible_agency": "Department of Sanitation",
    "final_address": "3121 Fortin St",
    "address_councildis": "A",
    "status": "Assigned to Contractor",
    "contractor": "IV Waste",
    "rowid": "939962",
    "final_x": "3676421.66344",
    "final_y": "540994.540171",
    "longitude": "-90.08377964187608",
    "latitude": "29.981700660280833",
    "geocoded_column": {
      "latitude": "29.981700660280833",
      "longitude": "-90.08377964187608"
    }
  },
  {
    "service_request": "2022-939961",
    "request_type": "Trash/Recycling",
    "request_reason": "Order Recycling Cart",
    "date_created": "2022-11-07T20:11:34.000",
    "date_modified": "2022-11-07T20:11:34.000",
    "request_status": "Pending",
    "responsible_agency": "Department of Sanitation",
    "final_address": "8 Ani St",
    "address_councildis": "D",
    "status": "Pending",
    "rowid": "939961",
    "final_x": "3672473.09403",
    "final_y": "554571.407704",
    "longitude": "-90.09578796042243",
    "latitude": "30.019150105799802",
    "geocoded_column": {
      "latitude": "30.019150105799802",
      "longitude": "-90.09578796042243"
    }
  },
  {
    "service_request": "2022-939960",
    "request_type": "Trash/Recycling",
    "request_reason": "Illegal Dumping",
    "date_created": "2022-11-07T20:05:02.000",
    "date_modified": "2022-11-07T20:05:02.000",
    "request_status": "Pending",
    "responsible_agency": "Department of Sanitation",
    "final_address": "2422 Dumaine St",
    "address_councildis": "D",
    "status": "Pending",
    "rowid": "939960",
    "final_x": "3678054.24635",
    "final_y": "536786.178312",
    "longitude": "-90.07876870910667",
    "latitude": "29.97008005914032",
    "geocoded_column": {
      "latitude": "29.97008005914032",
      "longitude": "-90.07876870910667"
    }
  },
  {
    "service_request": "2022-939959",
    "request_type": "Trash/Recycling",
    "request_reason": "Missed Trash Pick-Up",
    "date_created": "2022-11-07T20:04:15.000",
    "date_modified": "2022-11-07T20:04:16.000",
    "request_status": "Pending",
    "responsible_agency": "Department of Sanitation",
    "final_address": "5226 Conti St",
    "address_councildis": "A",
    "status": "Assigned to Contractor",
    "contractor": "IV Waste",
    "rowid": "939959",
    "final_x": "3668428.6955",
    "final_y": "541800.77422",
    "longitude": "-90.10899805779543",
    "latitude": "29.9841547811201",
    "geocoded_column": {
      "latitude": "29.9841547811201",
      "longitude": "-90.10899805779543"
    }
  },
  {
    "service_request": "2022-939958",
    "request_type": "Trash/Recycling",
    "request_reason": "Repair Recycling Cart",
    "date_created": "2022-11-07T20:00:49.000",
    "date_modified": "2022-11-07T20:00:49.000",
    "request_status": "Pending",
    "responsible_agency": "Department of Sanitation",
    "final_address": "7036 Chestnut St",
    "address_councildis": "A",
    "status": "Pending",
    "rowid": "939958",
    "final_x": "3661448.36621",
    "final_y": "521635.612985",
    "longitude": "-90.13171380569256",
    "latitude": "29.92891034322514",
    "geocoded_column": {
      "latitude": "29.92891034322514",
      "longitude": "-90.13171380569256"
    }
  },
  {
    "service_request": "2022-939957",
    "request_type": "Trash/Recycling",
    "request_reason": "Replace Recycling Cart",
    "date_created": "2022-11-07T19:47:12.000",
    "date_modified": "2022-11-07T19:47:13.000",
    "request_status": "Pending",
    "responsible_agency": "Department of Sanitation",
    "final_address": "20285 Old Spanish Trl",
    "address_councildis": "E",
    "status": "Pending",
    "rowid": "939957",
    "final_x": "3760224.96208",
    "final_y": "572694.263529",
    "longitude": "-89.81777217770386",
    "latitude": "30.066081972191537",
    "geocoded_column": {
      "latitude": "30.066081972191537",
      "longitude": "-89.81777217770386"
    }
  },
  {
    "service_request": "2022-939956",
    "request_type": "Trash/Recycling",
    "request_reason": "Order Recycling Cart",
    "date_created": "2022-11-07T19:45:51.000",
    "date_modified": "2022-11-07T19:45:51.000",
    "request_status": "Pending",
    "responsible_agency": "Department of Sanitation",
    "final_address": "3378 Desaix Blvd",
    "address_councildis": "A",
    "status": "Pending",
    "rowid": "939956",
    "final_x": "3676976.21941",
    "final_y": "543517.209806",
    "longitude": "-90.08194107524997",
    "latitude": "29.9886204860854",
    "geocoded_column": {
      "latitude": "29.9886204860854",
      "longitude": "-90.08194107524997"
    }
  },
  {
    "service_request": "2022-939955",
    "request_type": "Abandoned Vehicles",
    "request_reason": "Abandoned/Junk Vehicles",
    "date_created": "2022-11-07T19:38:52.000",
    "date_modified": "2022-11-07T19:38:52.000",
    "request_status": "Pending",
    "responsible_agency": "Department of Public Works",
    "final_address": "850 Florida Blvd",
    "address_councildis": "A",
    "status": "Pending",
    "rowid": "939955",
    "final_x": "3669253.43713",
    "final_y": "545170.289295",
    "longitude": "-90.10627909378437",
    "latitude": "29.9933955376943",
    "geocoded_column": {
      "latitude": "29.9933955376943",
      "longitude": "-90.10627909378437"
    }
  },
  {
    "service_request": "2022-939954",
    "request_type": "Trash/Recycling",
    "request_reason": "Order Recycling Cart",
    "date_created": "2022-11-07T19:27:08.000",
    "date_modified": "2022-11-07T19:27:08.000",
    "request_status": "Pending",
    "responsible_agency": "Department of Sanitation",
    "final_address": "5276 Beaver Dr",
    "address_councildis": "E",
    "status": "Pending",
    "rowid": "939954",
    "final_x": "3717509.04287",
    "final_y": "559449.068573",
    "longitude": "-89.9533059677624",
    "latitude": "30.031147406113636",
    "geocoded_column": {
      "latitude": "30.031147406113636",
      "longitude": "-89.9533059677624"
    }
  },
  {
    "service_request": "2022-939953",
    "request_type": "Abandoned Vehicles",
    "request_reason": "Abandoned/Junk Vehicles",
    "date_created": "2022-11-07T19:20:59.000",
    "date_modified": "2022-11-07T19:20:59.000",
    "request_status": "Pending",
    "responsible_agency": "Department of Public Works",
    "final_address": "4659 Francis Dr",
    "address_councildis": "D",
    "status": "Pending",
    "rowid": "939953",
    "final_x": "3698346.34115",
    "final_y": "553987.907416",
    "longitude": "-90.0140591235977",
    "latitude": "30.016751965972947",
    "geocoded_column": {
      "latitude": "30.016751965972947",
      "longitude": "-90.0140591235977"
    }
  },
  {
    "service_request": "2022-939952",
    "request_type": "Traffic Signals/Signs/Striping/Streetlights",
    "request_reason": "Street Light Outage/Malfunction",
    "date_created": "2022-11-07T19:20:16.000",
    "date_modified": "2022-11-07T19:20:16.000",
    "request_status": "Pending",
    "responsible_agency": "Department of Public Works",
    "final_address": "7510 Sardonyx St",
    "address_councildis": "D",
    "status": "Pending",
    "contractor": "Legacy Professional Services",
    "rowid": "939952",
    "final_x": "3669579.63975",
    "final_y": "556418.730138",
    "longitude": "-90.10486772684513",
    "latitude": "30.024315193473782",
    "geocoded_column": {
      "latitude": "30.024315193473782",
      "longitude": "-90.10486772684513"
    }
  },
  {
    "service_request": "2022-939950",
    "request_type": "Trash/Recycling",
    "request_reason": "Order Recycling Cart",
    "date_created": "2022-11-07T19:17:53.000",
    "date_modified": "2022-11-07T19:17:53.000",
    "request_status": "Pending",
    "responsible_agency": "Department of Sanitation",
    "final_address": "14340 Peltier Dr",
    "address_councildis": "E",
    "status": "Pending",
    "rowid": "939950",
    "final_x": "3730116.27386",
    "final_y": "562222.341855",
    "longitude": "-89.91335872242367",
    "latitude": "30.03834923066283",
    "geocoded_column": {
      "latitude": "30.03834923066283",
      "longitude": "-89.91335872242367"
    }
  },
  {
    "service_request": "2022-939949",
    "request_type": "Trash/Recycling",
    "request_reason": "Missed Trash Pick-Up",
    "date_created": "2022-11-07T19:17:51.000",
    "date_modified": "2022-11-07T19:17:52.000",
    "request_status": "Pending",
    "responsible_agency": "Department of Sanitation",
    "final_address": "7160 E Tamaron Blvd",
    "address_councildis": "E",
    "status": "Assigned to Contractor",
    "contractor": "Waste Pro",
    "rowid": "939949",
    "final_x": "3718289.69036",
    "final_y": "569196.475238",
    "longitude": "-89.9504673882969",
    "latitude": "30.05792291461093",
    "geocoded_column": {
      "latitude": "30.05792291461093",
      "longitude": "-89.9504673882969"
    }
  },
  {
    "service_request": "2022-939948",
    "request_type": "Trash/Recycling",
    "request_reason": "Repair Recycling Cart",
    "date_created": "2022-11-07T19:17:01.000",
    "date_modified": "2022-11-07T19:17:01.000",
    "request_status": "Pending",
    "responsible_agency": "Department of Sanitation",
    "final_address": "201 Harrison Ave",
    "address_councildis": "A",
    "status": "Pending",
    "rowid": "939948",
    "final_x": "3666945.77485",
    "final_y": "549551.004755",
    "longitude": "-90.11342132986323",
    "latitude": "30.00550874292979",
    "geocoded_column": {
      "latitude": "30.00550874292979",
      "longitude": "-90.11342132986323"
    }
  },
  {
    "service_request": "2022-939947",
    "request_type": "Trash/Recycling",
    "request_reason": "Replace Recycling Cart",
    "date_created": "2022-11-07T19:16:56.000",
    "date_modified": "2022-11-07T19:16:56.000",
    "request_status": "Pending",
    "responsible_agency": "Department of Sanitation",
    "final_address": "2709 Frankfort St",
    "address_councildis": "D",
    "status": "Pending",
    "rowid": "939947",
    "final_x": "3687065.3334",
    "final_y": "557222.148699",
    "longitude": "-90.04958778981647",
    "latitude": "30.02599724147233",
    "geocoded_column": {
      "latitude": "30.02599724147233",
      "longitude": "-90.04958778981647"
    }
  },
  {
    "service_request": "2022-939946",
    "request_type": "Trash/Recycling",
    "request_reason": "Replace Trash Cart",
    "date_created": "2022-11-07T19:15:58.000",
    "date_modified": "2022-11-07T19:15:59.000",
    "request_status": "Pending",
    "responsible_agency": "Department of Sanitation",
    "final_address": "2014 N Johnson St",
    "address_councildis": "D",
    "status": "Assigned to Contractor",
    "contractor": "IV Waste",
    "rowid": "939946",
    "final_x": "3683784.42076",
    "final_y": "539506.940682",
    "longitude": "-90.06057682080234",
    "latitude": "29.97738745401622",
    "geocoded_column": {
      "latitude": "29.97738745401622",
      "longitude": "-90.06057682080234"
    }
  },
  {
    "service_request": "2022-939945",
    "request_type": "Trash/Recycling",
    "request_reason": "Order Recycling Cart",
    "date_created": "2022-11-07T19:14:52.000",
    "date_modified": "2022-11-07T19:14:52.000",
    "request_status": "Pending",
    "responsible_agency": "Department of Sanitation",
    "final_address": "5522 Arts St",
    "address_councildis": "D",
    "status": "Pending",
    "rowid": "939945",
    "final_x": "3685805.25007",
    "final_y": "553379.529751",
    "longitude": "-90.05370508309566",
    "latitude": "30.01547021665902",
    "geocoded_column": {
      "latitude": "30.01547021665902",
      "longitude": "-90.05370508309566"
    }
  },
  {
    "service_request": "2022-939943",
    "request_type": "Trash/Recycling",
    "request_reason": "Order Recycling Cart",
    "date_created": "2022-11-07T19:05:41.000",
    "date_modified": "2022-11-07T19:05:41.000",
    "request_status": "Pending",
    "responsible_agency": "Department of Sanitation",
    "final_address": "4144 De Ment St",
    "address_councildis": "D",
    "status": "Pending",
    "rowid": "939943",
    "final_x": "3689582.68534",
    "final_y": "549874.992404",
    "longitude": "-90.04189496477284",
    "latitude": "30.005717495686547",
    "geocoded_column": {
      "latitude": "30.005717495686547",
      "longitude": "-90.04189496477284"
    }
  },
  {
    "service_request": "2022-939942",
    "request_type": "Trash/Recycling",
    "request_reason": "Order Recycling Cart",
    "date_created": "2022-11-07T19:05:27.000",
    "date_modified": "2022-11-07T19:05:27.000",
    "request_status": "Pending",
    "responsible_agency": "Department of Sanitation",
    "final_address": "5850 Marshal Foch St",
    "address_councildis": "A",
    "status": "Pending",
    "rowid": "939942",
    "final_x": "3669645.35809",
    "final_y": "546257.548432",
    "longitude": "-90.10500425754292",
    "latitude": "29.996373579084178",
    "geocoded_column": {
      "latitude": "29.996373579084178",
      "longitude": "-90.10500425754292"
    }
  },
  {
    "service_request": "2022-939941",
    "request_type": "Trash/Recycling",
    "request_reason": "Replace Recycling Cart",
    "date_created": "2022-11-07T18:58:06.000",
    "date_modified": "2022-11-07T18:58:06.000",
    "request_status": "Pending",
    "responsible_agency": "Department of Sanitation",
    "final_address": "157 Middle Park Pl",
    "address_councildis": "A",
    "status": "Pending",
    "rowid": "939941",
    "final_x": "3670058.41134",
    "final_y": "544687.922703",
    "longitude": "-90.10375265320876",
    "latitude": "29.99204546840609",
    "geocoded_column": {
      "latitude": "29.99204546840609",
      "longitude": "-90.10375265320876"
    }
  },
  {
    "service_request": "2022-939940",
    "request_type": "Traffic Signals/Signs/Striping/Streetlights",
    "request_reason": "Street Light Outage/Malfunction",
    "date_created": "2022-11-07T18:56:27.000",
    "date_modified": "2022-11-07T18:56:28.000",
    "request_status": "Pending",
    "responsible_agency": "Department of Public Works",
    "final_address": "4012 Vendome Pl",
    "address_councildis": "B",
    "status": "Pending",
    "contractor": "Legacy Professional Services",
    "rowid": "939940",
    "final_x": "3668626.63022",
    "final_y": "529951.891265",
    "longitude": "-90.10877283406187",
    "latitude": "29.951568485613283",
    "geocoded_column": {
      "latitude": "29.951568485613283",
      "longitude": "-90.10877283406187"
    }
  },
  {
    "service_request": "2022-939939",
    "request_type": "Trash/Recycling",
    "request_reason": "Missed Trash Pick-Up",
    "date_created": "2022-11-07T18:55:02.000",
    "date_modified": "2022-11-07T18:55:03.000",
    "request_status": "Pending",
    "responsible_agency": "Department of Sanitation",
    "final_address": "4956 Painters St",
    "address_councildis": "D",
    "status": "Assigned to Contractor",
    "contractor": "IV Waste",
    "rowid": "939939",
    "final_x": "3686061.26358",
    "final_y": "551388.691797",
    "longitude": "-90.05296648630976",
    "latitude": "30.00998827755513",
    "geocoded_column": {
      "latitude": "30.00998827755513",
      "longitude": "-90.05296648630976"
    }
  },
  {
    "service_request": "2022-939938",
    "request_type": "Trash/Recycling",
    "request_reason": "Order Recycling Cart",
    "date_created": "2022-11-07T18:54:20.000",
    "date_modified": "2022-11-07T18:54:20.000",
    "request_status": "Pending",
    "responsible_agency": "Department of Sanitation",
    "final_address": "1490 Pressburg St",
    "address_councildis": "D",
    "status": "Pending",
    "rowid": "939938",
    "final_x": "3678197.82747",
    "final_y": "553925.107351",
    "longitude": "-90.07772214764785",
    "latitude": "30.01720176396163",
    "geocoded_column": {
      "latitude": "30.01720176396163",
      "longitude": "-90.07772214764785"
    }
  },
  {
    "service_request": "2022-939937",
    "request_type": "Trash/Recycling",
    "request_reason": "Missed Trash Pick-Up",
    "date_created": "2022-11-07T18:50:09.000",
    "date_modified": "2022-11-07T18:50:10.000",
    "request_status": "Pending",
    "responsible_agency": "Department of Sanitation",
    "final_address": "6216 Music St",
    "address_councildis": "D",
    "status": "Assigned to Contractor",
    "contractor": "IV Waste",
    "rowid": "939937",
    "final_x": "3685189.06063",
    "final_y": "556039.184857",
    "longitude": "-90.05555824540484",
    "latitude": "30.02280219551577",
    "geocoded_column": {
      "latitude": "30.02280219551577",
      "longitude": "-90.05555824540484"
    }
  },
  {
    "service_request": "2022-939936",
    "request_type": "Trash/Recycling",
    "request_reason": "Order Recycling Cart",
    "date_created": "2022-11-07T18:48:02.000",
    "date_modified": "2022-11-07T18:48:02.000",
    "request_status": "Pending",
    "responsible_agency": "Department of Sanitation",
    "final_address": "5421 Elysian Fields Ave",
    "address_councildis": "D",
    "status": "Pending",
    "rowid": "939936",
    "final_x": "3683789.58466",
    "final_y": "552908.370071",
    "longitude": "-90.06009018875534",
    "latitude": "30.014236440306867",
    "geocoded_column": {
      "latitude": "30.014236440306867",
      "longitude": "-90.06009018875534"
    }
  },
  {
    "service_request": "2022-939935",
    "request_type": "Trash/Recycling",
    "request_reason": "Order Recycling Cart",
    "date_created": "2022-11-07T18:44:58.000",
    "date_modified": "2022-11-07T18:44:58.000",
    "request_status": "Pending",
    "responsible_agency": "Department of Sanitation",
    "final_address": "2508 Burgundy St",
    "address_councildis": "C",
    "status": "Pending",
    "rowid": "939935",
    "final_x": "3686643.19311",
    "final_y": "535681.161031",
    "longitude": "-90.05168303903038",
    "latitude": "29.966780275883714",
    "geocoded_column": {
      "latitude": "29.966780275883714",
      "longitude": "-90.05168303903038"
    }
  },
  {
    "service_request": "2022-939934",
    "request_type": "Trash/Recycling",
    "request_reason": "Order Recycling Cart",
    "date_created": "2022-11-07T18:43:05.000",
    "date_modified": "2022-11-07T18:43:05.000",
    "request_status": "Pending",
    "responsible_agency": "Department of Sanitation",
    "final_address": "5540 Bullard Ave",
    "address_councildis": "E",
    "status": "Pending",
    "rowid": "939934",
    "final_x": "3717322.64204",
    "final_y": "561588.770655",
    "longitude": "-89.9538135895649",
    "latitude": "30.037036895685645",
    "geocoded_column": {
      "latitude": "30.037036895685645",
      "longitude": "-89.9538135895649"
    }
  },
  {
    "service_request": "2022-939933",
    "request_type": "Trash/Recycling",
    "request_reason": "Request a Large Item Pick Up",
    "date_created": "2022-11-07T18:41:26.000",
    "date_modified": "2022-11-07T18:41:27.000",
    "case_close_date": "2020-09-28T19:00:00.000",
    "request_status": "Pending",
    "responsible_agency": "Department of Sanitation",
    "final_address": "2308 Ap Tureaud Ave",
    "address_councildis": "D",
    "status": "Assigned to Contractor",
    "contractor": "IV Waste",
    "rowid": "939933",
    "final_x": "3681559.20911",
    "final_y": "540579.665483",
    "longitude": "-90.06756734838459",
    "latitude": "29.980404848573567",
    "geocoded_column": {
      "latitude": "29.980404848573567",
      "longitude": "-90.06756734838459"
    }
  },
  {
    "service_request": "2022-939932",
    "request_type": "Trash/Recycling",
    "request_reason": "Missed Trash Pick-Up",
    "date_created": "2022-11-07T18:36:17.000",
    "date_modified": "2022-11-07T18:36:17.000",
    "request_status": "Pending",
    "responsible_agency": "Department of Sanitation",
    "final_address": "4600 BLK Elysian Fields Ave",
    "address_councildis": "D",
    "status": "Assigned to Contractor",
    "contractor": "IV Waste",
    "rowid": "939932",
    "final_x": "3683879.65779",
    "final_y": "549742.71231",
    "longitude": "-90.05991675798958",
    "latitude": "30.00552927877125",
    "geocoded_column": {
      "latitude": "30.00552927877125",
      "longitude": "-90.05991675798958"
    }
  },
  {
    "service_request": "2022-939931",
    "request_type": "Trash/Recycling",
    "request_reason": "Request a Large Item Pick Up",
    "date_created": "2022-11-07T18:35:18.000",
    "date_modified": "2022-11-07T18:35:19.000",
    "request_status": "Pending",
    "responsible_agency": "Department of Sanitation",
    "final_address": "1373 Magazine St",
    "address_councildis": "B",
    "status": "Assigned to Contractor",
    "contractor": "Richards Disposal",
    "rowid": "939931",
    "final_x": "3680350.98754",
    "final_y": "524640.560444",
    "longitude": "-90.071937622773",
    "latitude": "29.936614362355204",
    "geocoded_column": {
      "latitude": "29.936614362355204",
      "longitude": "-90.071937622773"
    }
  },
  {
    "service_request": "2022-939930",
    "request_type": "Trash/Recycling",
    "request_reason": "Order Recycling Cart",
    "date_created": "2022-11-07T18:31:53.000",
    "date_modified": "2022-11-07T18:31:53.000",
    "request_status": "Pending",
    "responsible_agency": "Department of Sanitation",
    "final_address": "11220 Woodvine Ln",
    "address_councildis": "E",
    "status": "Pending",
    "rowid": "939930",
    "final_x": "3716434.53989",
    "final_y": "559713.297053",
    "longitude": "-89.95669136363408",
    "latitude": "30.03190946775991",
    "geocoded_column": {
      "latitude": "30.03190946775991",
      "longitude": "-89.95669136363408"
    }
  },
  {
    "service_request": "2022-939929",
    "request_type": "Trash/Recycling",
    "request_reason": "MIssed Recycling Pick-Up",
    "date_created": "2022-11-07T18:27:29.000",
    "date_modified": "2022-11-07T18:27:29.000",
    "request_status": "Pending",
    "responsible_agency": "Department of Sanitation",
    "final_address": "76 Audubon Blvd",
    "address_councildis": "A",
    "status": "Assigned to Contractor",
    "contractor": "Richards Disposal",
    "rowid": "939929",
    "final_x": "3665685.25613",
    "final_y": "527653.766335",
    "longitude": "-90.11813726209179",
    "latitude": "29.94533549199607",
    "geocoded_column": {
      "latitude": "29.94533549199607",
      "longitude": "-90.11813726209179"
    }
  },
  {
    "service_request": "2022-939928",
    "request_type": "Trash/Recycling",
    "request_reason": "Request a Large Item Pick Up",
    "date_created": "2022-11-07T18:23:10.000",
    "date_modified": "2022-11-07T18:23:11.000",
    "request_status": "Pending",
    "responsible_agency": "Department of Sanitation",
    "final_address": "5527 Mandeville St",
    "address_councildis": "D",
    "status": "Assigned to Contractor",
    "contractor": "IV Waste",
    "rowid": "939928",
    "final_x": "3684461.82524",
    "final_y": "553324.792407",
    "longitude": "-90.05795160401684",
    "latitude": "30.015360892900603",
    "geocoded_column": {
      "latitude": "30.015360892900603",
      "longitude": "-90.05795160401684"
    }
  },
  {
    "service_request": "2022-939927",
    "request_type": "Trash/Recycling",
    "request_reason": "Order Recycling Cart",
    "date_created": "2022-11-07T18:20:33.000",
    "date_modified": "2022-11-07T18:20:33.000",
    "request_status": "Pending",
    "responsible_agency": "Department of Sanitation",
    "final_address": "11400 Hayne Blvd",
    "address_councildis": "E",
    "status": "Pending",
    "rowid": "939927",
    "final_x": "3710676.48875",
    "final_y": "567741.791332",
    "longitude": "-89.97458612266878",
    "latitude": "30.05417356360471",
    "geocoded_column": {
      "latitude": "30.05417356360471",
      "longitude": "-89.97458612266878"
    }
  },
  {
    "service_request": "2022-939926",
    "request_type": "Trash/Recycling",
    "request_reason": "Order Recycling Cart",
    "date_created": "2022-11-07T18:19:09.000",
    "date_modified": "2022-11-07T18:19:09.000",
    "request_status": "Pending",
    "responsible_agency": "Department of Sanitation",
    "final_address": "1232 Frenchmen St",
    "address_councildis": "C",
    "status": "Pending",
    "rowid": "939926",
    "final_x": "3684505.24252",
    "final_y": "536904.486728",
    "longitude": "-90.05839168437376",
    "latitude": "29.97020957816471",
    "geocoded_column": {
      "latitude": "29.97020957816471",
      "longitude": "-90.05839168437376"
    }
  },
  {
    "service_request": "2022-939925",
    "request_type": "Trash/Recycling",
    "request_reason": "Order Recycling Cart",
    "date_created": "2022-11-07T18:17:55.000",
    "date_modified": "2022-11-07T18:17:56.000",
    "request_status": "Pending",
    "responsible_agency": "Department of Sanitation",
    "final_address": "7500 Tricia Ct",
    "address_councildis": "E",
    "status": "Pending",
    "rowid": "939925",
    "final_x": "3718139.81657",
    "final_y": "570436.712231",
    "longitude": "-89.9508938191306",
    "latitude": "30.06133802333209",
    "geocoded_column": {
      "latitude": "30.06133802333209",
      "longitude": "-89.9508938191306"
    }
  },
  {
    "service_request": "2022-939924",
    "request_type": "Trash/Recycling",
    "request_reason": "Order Recycling Cart",
    "date_created": "2022-11-07T18:16:09.000",
    "date_modified": "2022-11-07T18:16:09.000",
    "request_status": "Pending",
    "responsible_agency": "Department of Sanitation",
    "final_address": "4915 Moore Dr",
    "address_councildis": "D",
    "status": "Pending",
    "rowid": "939924",
    "final_x": "3680057.80571",
    "final_y": "549679.751636",
    "longitude": "-90.07199303058383",
    "latitude": "30.005472393294887",
    "geocoded_column": {
      "latitude": "30.005472393294887",
      "longitude": "-90.07199303058383"
    }
  },
  {
    "service_request": "2022-939923",
    "request_type": "Roads/Drainage",
    "request_reason": "Man hole cover issue",
    "date_created": "2022-11-07T18:15:20.000",
    "date_modified": "2022-11-07T18:15:20.000",
    "request_status": "Pending",
    "responsible_agency": "Department of Public Works",
    "final_address": "5100 Magazine St",
    "address_councildis": "B",
    "status": "Pending",
    "rowid": "939923",
    "final_x": "3668269.65345",
    "final_y": "518527.683063",
    "longitude": "-90.11028502484048",
    "latitude": "29.92016606397517",
    "geocoded_column": {
      "latitude": "29.92016606397517",
      "longitude": "-90.11028502484048"
    }
  },
  {
    "service_request": "2022-939922",
    "request_type": "Trash/Recycling",
    "request_reason": "Order Recycling Cart",
    "date_created": "2022-11-07T18:13:03.000",
    "date_modified": "2022-11-07T18:13:03.000",
    "request_status": "Pending",
    "responsible_agency": "Department of Sanitation",
    "final_address": "931 Broadway St",
    "address_councildis": "A",
    "status": "Pending",
    "rowid": "939922",
    "final_x": "3663740.5968",
    "final_y": "525771.557501",
    "longitude": "-90.12433990184432",
    "latitude": "29.940216584562297",
    "geocoded_column": {
      "latitude": "29.940216584562297",
      "longitude": "-90.12433990184432"
    }
  },
  {
    "service_request": "2022-939921",
    "request_type": "Trash/Recycling",
    "request_reason": "Missed Trash Pick-Up",
    "date_created": "2022-11-07T18:09:46.000",
    "date_modified": "2022-11-07T18:09:47.000",
    "request_status": "Pending",
    "responsible_agency": "Department of Sanitation",
    "final_address": "5803 Franklin Ave",
    "address_councildis": "D",
    "status": "Assigned to Contractor",
    "contractor": "IV Waste",
    "rowid": "939921",
    "final_x": "3686549.14729",
    "final_y": "554529.31132",
    "longitude": "-90.05131407113214",
    "latitude": "30.018608828561625",
    "geocoded_column": {
      "latitude": "30.018608828561625",
      "longitude": "-90.05131407113214"
    }
  },
  {
    "service_request": "2022-939920",
    "request_type": "Trash/Recycling",
    "request_reason": "Order Recycling Cart",
    "date_created": "2022-11-07T18:09:05.000",
    "date_modified": "2022-11-07T18:09:05.000",
    "request_status": "Pending",
    "responsible_agency": "Department of Sanitation",
    "final_address": "2653 Lepage St",
    "address_councildis": "A",
    "status": "Pending",
    "rowid": "939920",
    "final_x": "3678151.08328",
    "final_y": "539694.560586",
    "longitude": "-90.0783622906707",
    "latitude": "29.978074195505844",
    "geocoded_column": {
      "latitude": "29.978074195505844",
      "longitude": "-90.0783622906707"
    }
  },
  {
    "service_request": "2022-939919",
    "request_type": "Trash/Recycling",
    "request_reason": "Replace Recycling Cart",
    "date_created": "2022-11-07T18:09:03.000",
    "date_modified": "2022-11-07T18:09:03.000",
    "request_status": "Pending",
    "responsible_agency": "Department of Sanitation",
    "final_address": "4730 Good Dr",
    "address_councildis": "E",
    "status": "Pending",
    "rowid": "939919",
    "final_x": "3714720.22123",
    "final_y": "556779.33961",
    "longitude": "-89.96221959411702",
    "latitude": "30.02389877311798",
    "geocoded_column": {
      "latitude": "30.02389877311798",
      "longitude": "-89.96221959411702"
    }
  },
  {
    "service_request": "2022-939918",
    "request_type": "Trash/Recycling",
    "request_reason": "Order Recycling Cart",
    "date_created": "2022-11-07T18:05:04.000",
    "date_modified": "2022-11-07T18:05:05.000",
    "request_status": "Pending",
    "responsible_agency": "Department of Sanitation",
    "final_address": "6016 Warrington Dr",
    "address_councildis": "D",
    "status": "Pending",
    "rowid": "939918",
    "final_x": "3680635.69864",
    "final_y": "554743.160536",
    "longitude": "-90.06999097125241",
    "latitude": "30.019377432785106",
    "geocoded_column": {
      "latitude": "30.019377432785106",
      "longitude": "-90.06999097125241"
    }
  },
  {
    "service_request": "2022-939915",
    "request_type": "Trash/Recycling",
    "request_reason": "Order Recycling Cart",
    "date_created": "2022-11-07T18:02:36.000",
    "date_modified": "2022-11-07T18:02:37.000",
    "request_status": "Pending",
    "responsible_agency": "Department of Sanitation",
    "final_address": "2169 St Denis St",
    "address_councildis": "D",
    "status": "Pending",
    "rowid": "939915",
    "final_x": "3683969.76079",
    "final_y": "546282.008016",
    "longitude": "-90.05975362255053",
    "latitude": "29.996010831985107",
    "geocoded_column": {
      "latitude": "29.996010831985107",
      "longitude": "-90.05975362255053"
    }
  },
  {
    "service_request": "2022-939914",
    "request_type": "Trash/Recycling",
    "request_reason": "Illegal Dumping",
    "date_created": "2022-11-07T18:02:23.000",
    "date_modified": "2022-11-07T18:02:23.000",
    "request_status": "Pending",
    "responsible_agency": "Department of Sanitation",
    "final_address": "121 N St Patrick St Apt A",
    "address_councildis": "A",
    "status": "Pending",
    "rowid": "939914",
    "final_x": "3669225.5179",
    "final_y": "540067.345739",
    "longitude": "-90.10653986864685",
    "latitude": "29.979365006133687",
    "geocoded_column": {
      "latitude": "29.979365006133687",
      "longitude": "-90.10653986864685"
    }
  },
  {
    "service_request": "2022-939911",
    "request_type": "Trash/Recycling",
    "request_reason": "Order Recycling Cart",
    "date_created": "2022-11-07T17:58:59.000",
    "date_modified": "2022-11-07T17:58:59.000",
    "request_status": "Pending",
    "responsible_agency": "Department of Sanitation",
    "final_address": "5605 St Helena Pl",
    "address_councildis": "E",
    "status": "Pending",
    "rowid": "939911",
    "final_x": "3727450.89785",
    "final_y": "564081.825825",
    "longitude": "-89.92170948775363",
    "latitude": "30.043552590377995",
    "geocoded_column": {
      "latitude": "30.043552590377995",
      "longitude": "-89.92170948775363"
    }
  },
  {
    "service_request": "2022-939910",
    "request_type": "Trash/Recycling",
    "request_reason": "Order Recycling Cart",
    "date_created": "2022-11-07T17:58:38.000",
    "date_modified": "2022-11-07T17:58:38.000",
    "request_status": "Pending",
    "responsible_agency": "Department of Sanitation",
    "final_address": "4401 San Giorgio St",
    "address_councildis": "E",
    "status": "Pending",
    "rowid": "939910",
    "final_x": "3759943.98121",
    "final_y": "574093.175594",
    "longitude": "-89.81860191666716",
    "latitude": "30.06993855287457",
    "geocoded_column": {
      "latitude": "30.06993855287457",
      "longitude": "-89.81860191666716"
    }
  },
  {
    "service_request": "2022-939909",
    "request_type": "Traffic Signals/Signs/Striping/Streetlights",
    "request_reason": "Street Light Outage/Malfunction",
    "date_created": "2022-11-07T17:58:20.000",
    "date_modified": "2022-11-07T17:58:21.000",
    "request_status": "Pending",
    "responsible_agency": "Department of Public Works",
    "final_address": "13445 N Nemours St",
    "address_councildis": "E",
    "status": "Pending",
    "contractor": "Legacy Professional Services",
    "rowid": "939909",
    "final_x": "3725458.67993",
    "final_y": "562795.402208",
    "longitude": "-89.92805551844552",
    "latitude": "30.04008279210425",
    "geocoded_column": {
      "latitude": "30.04008279210425",
      "longitude": "-89.92805551844552"
    }
  },
  {
    "service_request": "2022-939907",
    "request_type": "Trash/Recycling",
    "request_reason": "Missed Trash Pick-Up",
    "date_created": "2022-11-07T17:57:18.000",
    "date_modified": "2022-11-07T17:57:19.000",
    "request_status": "Pending",
    "responsible_agency": "Department of Sanitation",
    "final_address": "1135 Philip St",
    "address_councildis": "B",
    "status": "Assigned to Contractor",
    "contractor": "Richards Disposal",
    "rowid": "939907",
    "final_x": "3678404.33051",
    "final_y": "522111.522682",
    "longitude": "-90.0781707638938",
    "latitude": "29.92971911958499",
    "geocoded_column": {
      "latitude": "29.92971911958499",
      "longitude": "-90.0781707638938"
    }
  },
  {
    "service_request": "2022-939906",
    "request_type": "Trash/Recycling",
    "request_reason": "Order Recycling Cart",
    "date_created": "2022-11-07T17:57:16.000",
    "date_modified": "2022-11-07T17:57:16.000",
    "request_status": "Pending",
    "responsible_agency": "Department of Sanitation",
    "final_address": "13445 N Nemours St",
    "address_councildis": "E",
    "status": "Pending",
    "rowid": "939906",
    "final_x": "3725458.67993",
    "final_y": "562795.402208",
    "longitude": "-89.92805551844552",
    "latitude": "30.04008279210425",
    "geocoded_column": {
      "latitude": "30.04008279210425",
      "longitude": "-89.92805551844552"
    }
  },
  {
    "service_request": "2022-939905",
    "request_type": "Roads/Drainage",
    "request_reason": "Bicycle Hazardous Incident Reporting",
    "date_created": "2022-11-07T17:57:02.000",
    "date_modified": "2022-11-07T17:57:02.000",
    "request_status": "Pending",
    "responsible_agency": "Health Department",
    "final_address": "839 Opelousas Ave",
    "address_councildis": "C",
    "status": "Pending",
    "rowid": "939905",
    "final_x": "3688143.25788",
    "final_y": "529033.011008",
    "longitude": "-90.04718150876602",
    "latitude": "29.948453939676035",
    "geocoded_column": {
      "latitude": "29.948453939676035",
      "longitude": "-90.04718150876602"
    }
  },
  {
    "service_request": "2022-939904",
    "request_type": "Safety & Permits",
    "request_reason": "Safety & Permits Request (Cyber Incident Back Up)",
    "date_created": "2022-11-07T17:51:52.000",
    "date_modified": "2022-11-07T17:51:52.000",
    "request_status": "Pending",
    "responsible_agency": "Safety and Permits",
    "status": "Pending",
    "rowid": "939904",
    "longitude": "0.0",
    "latitude": "0.0",
    "geocoded_column": {
      "latitude": "0.0",
      "longitude": "0.0"
    }
  },
  {
    "service_request": "2022-939903",
    "request_type": "Trash/Recycling",
    "request_reason": "Repair Trash Cart",
    "date_created": "2022-11-07T17:42:09.000",
    "date_modified": "2022-11-07T17:42:09.000",
    "request_status": "Pending",
    "responsible_agency": "Department of Sanitation",
    "final_address": "1469 N Robertson St",
    "address_councildis": "C",
    "status": "Assigned to Contractor",
    "contractor": "IV Waste",
    "rowid": "939903",
    "final_x": "3681920.61148",
    "final_y": "536851.232392",
    "longitude": "-90.06655607457692",
    "latitude": "29.970141969694854",
    "geocoded_column": {
      "latitude": "29.970141969694854",
      "longitude": "-90.06655607457692"
    }
  },
  {
    "service_request": "2022-939902",
    "request_type": "Trash/Recycling",
    "request_reason": "Missed Trash Pick-Up",
    "date_created": "2022-11-07T17:35:42.000",
    "date_modified": "2022-11-07T17:35:43.000",
    "request_status": "Pending",
    "responsible_agency": "Department of Sanitation",
    "final_address": "233 S White St",
    "address_councildis": "B",
    "status": "Assigned to Contractor",
    "contractor": "Richards Disposal",
    "rowid": "939902",
    "final_x": "3674432.66932",
    "final_y": "534925.377158",
    "longitude": "-90.09026978546875",
    "latitude": "29.965072017619",
    "geocoded_column": {
      "latitude": "29.965072017619",
      "longitude": "-90.09026978546875"
    }
  },
  {
    "service_request": "2022-939901",
    "request_type": "Trash/Recycling",
    "request_reason": "Order Recycling Cart",
    "date_created": "2022-11-07T17:34:08.000",
    "date_modified": "2022-11-07T17:34:08.000",
    "request_status": "Pending",
    "responsible_agency": "Department of Sanitation",
    "final_address": "1900 Esplanade Ave",
    "address_councildis": "D",
    "status": "Pending",
    "rowid": "939901",
    "final_x": "3680351.80571",
    "final_y": "537204.224584",
    "longitude": "-90.07149824731196",
    "latitude": "29.97116017312894",
    "geocoded_column": {
      "latitude": "29.97116017312894",
      "longitude": "-90.07149824731196"
    }
  },
  {
    "service_request": "2022-939900",
    "request_type": "Trash/Recycling",
    "request_reason": "Order Recycling Cart",
    "date_created": "2022-11-07T17:33:42.000",
    "date_modified": "2022-11-07T17:33:43.000",
    "request_status": "Pending",
    "responsible_agency": "Department of Sanitation",
    "final_address": "7730 Pebble Dr",
    "address_councildis": "E",
    "status": "Pending",
    "rowid": "939900",
    "final_x": "3714726.21855",
    "final_y": "569380.717414",
    "longitude": "-89.96172401209627",
    "latitude": "30.058547272838343",
    "geocoded_column": {
      "latitude": "30.058547272838343",
      "longitude": "-89.96172401209627"
    }
  },
  {
    "service_request": "2022-939899",
    "request_type": "Trash/Recycling",
    "request_reason": "Order Trash Cart",
    "date_created": "2022-11-07T17:32:19.000",
    "date_modified": "2022-11-07T17:32:20.000",
    "request_status": "Pending",
    "responsible_agency": "Department of Sanitation",
    "final_address": "5401 Montegut Dr",
    "address_councildis": "D",
    "status": "Assigned to Contractor",
    "contractor": "IV Waste",
    "rowid": "939899",
    "final_x": "3689735.2831",
    "final_y": "553243.428887",
    "longitude": "-90.04129288052063",
    "latitude": "30.014974725357302",
    "geocoded_column": {
      "latitude": "30.014974725357302",
      "longitude": "-90.04129288052063"
    }
  },
  {
    "service_request": "2022-939898",
    "request_type": "Trash/Recycling",
    "request_reason": "Order Recycling Cart",
    "date_created": "2022-11-07T17:30:29.000",
    "date_modified": "2022-11-07T17:30:29.000",
    "request_status": "Pending",
    "responsible_agency": "Department of Sanitation",
    "final_address": "6050 Louisville St",
    "address_councildis": "A",
    "status": "Pending",
    "rowid": "939898",
    "final_x": "3667693.76545",
    "final_y": "547803.492242",
    "longitude": "-90.11111714025017",
    "latitude": "30.00068177190894",
    "geocoded_column": {
      "latitude": "30.00068177190894",
      "longitude": "-90.11111714025017"
    }
  },
  {
    "service_request": "2022-939897",
    "request_type": "Trash/Recycling",
    "request_reason": "Missed Trash Pick-Up",
    "date_created": "2022-11-07T17:23:44.000",
    "date_modified": "2022-11-07T17:23:45.000",
    "request_status": "Pending",
    "responsible_agency": "Department of Sanitation",
    "final_address": "3200 BLK Banks St",
    "address_councildis": "B",
    "status": "Assigned to Contractor",
    "contractor": "Richards Disposal",
    "rowid": "939897",
    "final_x": "3672986.71764",
    "final_y": "535362.008788",
    "longitude": "-90.09482112312286",
    "latitude": "29.966315660920028",
    "geocoded_column": {
      "latitude": "29.966315660920028",
      "longitude": "-90.09482112312286"
    }
  },
  {
    "service_request": "2022-939896",
    "request_type": "Trash/Recycling",
    "request_reason": "Missed Trash Pick-Up",
    "date_created": "2022-11-07T17:22:20.000",
    "date_modified": "2022-11-07T17:22:21.000",
    "request_status": "Pending",
    "responsible_agency": "Department of Sanitation",
    "final_address": "5650 Evelyn Ct",
    "address_councildis": "A",
    "status": "Assigned to Contractor",
    "contractor": "IV Waste",
    "rowid": "939896",
    "final_x": "3664321.7504",
    "final_y": "545194.736847",
    "longitude": "-90.12185675333897",
    "latitude": "29.993607053732653",
    "geocoded_column": {
      "latitude": "29.993607053732653",
      "longitude": "-90.12185675333897"
    }
  },
  {
    "service_request": "2022-939895",
    "request_type": "Trash/Recycling",
    "request_reason": "Order Recycling Cart",
    "date_created": "2022-11-07T17:20:21.000",
    "date_modified": "2022-11-07T17:20:21.000",
    "request_status": "Pending",
    "responsible_agency": "Department of Sanitation",
    "final_address": "3924 Virgil Blvd",
    "address_councildis": "D",
    "status": "Pending",
    "rowid": "939895",
    "final_x": "3680063.82031",
    "final_y": "546929.561937",
    "longitude": "-90.07206966581546",
    "latitude": "29.997910169971576",
    "geocoded_column": {
      "latitude": "29.997910169971576",
      "longitude": "-90.07206966581546"
    }
  },
  {
    "service_request": "2022-939894",
    "request_type": "Trash/Recycling",
    "request_reason": "Order Recycling Cart",
    "date_created": "2022-11-07T17:17:47.000",
    "date_modified": "2022-11-07T17:17:47.000",
    "request_status": "Pending",
    "responsible_agency": "Department of Sanitation",
    "final_address": "137 18Th St",
    "address_councildis": "A",
    "status": "Pending",
    "rowid": "939894",
    "final_x": "3665853.21914",
    "final_y": "548745.660435",
    "longitude": "-90.11689998103903",
    "latitude": "30.00332626285679",
    "geocoded_column": {
      "latitude": "30.00332626285679",
      "longitude": "-90.11689998103903"
    }
  },
  {
    "service_request": "2022-939893",
    "request_type": "Trash/Recycling",
    "request_reason": "Order Recycling Cart",
    "date_created": "2022-11-07T17:17:05.000",
    "date_modified": "2022-11-07T17:17:05.000",
    "request_status": "Pending",
    "responsible_agency": "Department of Sanitation",
    "final_address": "4819 Coronado Dr",
    "address_councildis": "E",
    "status": "Pending",
    "rowid": "939893",
    "final_x": "3714170.00293",
    "final_y": "556722.586586",
    "longitude": "-89.96396030095141",
    "latitude": "30.02376081658379",
    "geocoded_column": {
      "latitude": "30.02376081658379",
      "longitude": "-89.96396030095141"
    }
  },
  {
    "service_request": "2022-939892",
    "request_type": "Trash/Recycling",
    "request_reason": "Order Recycling Cart",
    "date_created": "2022-11-07T17:16:25.000",
    "date_modified": "2022-11-07T17:16:25.000",
    "request_status": "Pending",
    "responsible_agency": "Department of Sanitation",
    "final_address": "2019 Pauline St",
    "address_councildis": "D",
    "status": "Pending",
    "rowid": "939892",
    "final_x": "3692144.49225",
    "final_y": "538952.161162",
    "longitude": "-90.03419290412454",
    "latitude": "29.975604025366327",
    "geocoded_column": {
      "latitude": "29.975604025366327",
      "longitude": "-90.03419290412454"
    }
  },
  {
    "service_request": "2022-939891",
    "request_type": "Trash/Recycling",
    "request_reason": "Missed Trash Pick-Up",
    "date_created": "2022-11-07T17:16:20.000",
    "date_modified": "2022-11-07T17:16:21.000",
    "request_status": "Pending",
    "responsible_agency": "Department of Sanitation",
    "final_address": "2206 Ursulines Ave",
    "address_councildis": "D",
    "status": "Assigned to Contractor",
    "contractor": "Richards Disposal",
    "rowid": "939891",
    "final_x": "3679167.87272",
    "final_y": "536880.164936",
    "longitude": "-90.07524850507848",
    "latitude": "29.970304916736975",
    "geocoded_column": {
      "latitude": "29.970304916736975",
      "longitude": "-90.07524850507848"
    }
  },
  {
    "service_request": "2022-939890",
    "request_type": "Roads/Drainage",
    "request_reason": "Street Subsidence (Sinking)",
    "date_created": "2022-11-07T17:14:36.000",
    "date_modified": "2022-11-07T17:14:36.000",
    "request_status": "Pending",
    "responsible_agency": "Department of Public Works",
    "final_address": "2701 S Robertson St",
    "address_councildis": "B",
    "status": "Pending",
    "rowid": "939890",
    "final_x": "3674141.45806",
    "final_y": "525730.479485",
    "longitude": "-90.09150410991795",
    "latitude": "29.939797783732725",
    "geocoded_column": {
      "latitude": "29.939797783732725",
      "longitude": "-90.09150410991795"
    }
  },
  {
    "service_request": "2022-939889",
    "request_type": "Trash/Recycling",
    "request_reason": "Return Recycling Cart",
    "date_created": "2022-11-07T17:13:31.000",
    "date_modified": "2022-11-07T17:13:31.000",
    "request_status": "Pending",
    "responsible_agency": "Department of Sanitation",
    "final_address": "2546 Dumaine St",
    "address_councildis": "D",
    "status": "Pending",
    "rowid": "939889",
    "final_x": "3677631.4349",
    "final_y": "537108.97012",
    "longitude": "-90.08009284159667",
    "latitude": "29.97098034853283",
    "geocoded_column": {
      "latitude": "29.97098034853283",
      "longitude": "-90.08009284159667"
    }
  },
  {
    "service_request": "2022-939888",
    "request_type": "Trash/Recycling",
    "request_reason": "Missed Trash Pick-Up",
    "date_created": "2022-11-07T17:11:42.000",
    "date_modified": "2022-11-07T17:11:42.000",
    "request_status": "Pending",
    "responsible_agency": "Department of Sanitation",
    "final_address": "2546 Dumaine St",
    "address_councildis": "D",
    "status": "Assigned to Contractor",
    "contractor": "Richards Disposal",
    "rowid": "939888",
    "final_x": "3677631.4349",
    "final_y": "537108.97012",
    "longitude": "-90.08009284159667",
    "latitude": "29.97098034853283",
    "geocoded_column": {
      "latitude": "29.97098034853283",
      "longitude": "-90.08009284159667"
    }
  },
  {
    "service_request": "2022-939887",
    "request_type": "Trash/Recycling",
    "request_reason": "Order Recycling Cart",
    "date_created": "2022-11-07T17:09:32.000",
    "date_modified": "2022-11-07T17:09:32.000",
    "request_status": "Pending",
    "responsible_agency": "Department of Sanitation",
    "final_address": "4536 Montegut Dr",
    "address_councildis": "D",
    "status": "Pending",
    "rowid": "939887",
    "final_x": "3689989.03337",
    "final_y": "550222.843988",
    "longitude": "-90.04059882398946",
    "latitude": "30.00666136086695",
    "geocoded_column": {
      "latitude": "30.00666136086695",
      "longitude": "-90.04059882398946"
    }
  },
  {
    "service_request": "2022-939886",
    "request_type": "Trash/Recycling",
    "request_reason": "Order Trash Cart",
    "date_created": "2022-11-07T17:08:28.000",
    "date_modified": "2022-11-07T17:08:29.000",
    "request_status": "Pending",
    "responsible_agency": "Department of Sanitation",
    "final_address": "4417 Baccich Street, New Orleans, LA  70122",
    "address_councildis": "D",
    "status": "Assigned to Contractor",
    "contractor": "IV Waste",
    "rowid": "939886",
    "final_x": "3687890.0022",
    "final_y": "549049.850899",
    "longitude": "-90.04727178370707",
    "latitude": "30.0035010052688",
    "geocoded_column": {
      "latitude": "30.0035010052688",
      "longitude": "-90.04727178370707"
    }
  },
  {
    "service_request": "2022-939885",
    "request_type": "Trash/Recycling",
    "request_reason": "Request a Large Item Pick Up",
    "date_created": "2022-11-07T17:06:38.000",
    "date_modified": "2022-11-07T17:06:39.000",
    "request_status": "Pending",
    "responsible_agency": "Department of Sanitation",
    "final_address": "4321 Dumaine St",
    "address_councildis": "A",
    "status": "Assigned to Contractor",
    "contractor": "Richards Disposal",
    "rowid": "939885",
    "final_x": "3672007.42523",
    "final_y": "541467.253708",
    "longitude": "-90.0977058072879",
    "latitude": "29.983132084840722",
    "geocoded_column": {
      "latitude": "29.983132084840722",
      "longitude": "-90.0977058072879"
    }
  },
  {
    "service_request": "2022-939884",
    "request_type": "Abandoned Vehicles",
    "request_reason": "Abandoned/Junk Vehicles",
    "date_created": "2022-11-07T17:05:56.000",
    "date_modified": "2022-11-07T17:05:57.000",
    "request_status": "Pending",
    "responsible_agency": "Department of Public Works",
    "final_address": "4522 Bienville Ave",
    "address_councildis": "A",
    "status": "Pending",
    "rowid": "939884",
    "final_x": "3669991.477",
    "final_y": "540105.899787",
    "longitude": "-90.10411935403701",
    "latitude": "29.979448445256775",
    "geocoded_column": {
      "latitude": "29.979448445256775",
      "longitude": "-90.10411935403701"
    }
  },
  {
    "service_request": "2022-939883",
    "request_type": "Trash/Recycling",
    "request_reason": "Order Recycling Cart",
    "date_created": "2022-11-07T17:04:44.000",
    "date_modified": "2022-11-07T17:04:44.000",
    "request_status": "Pending",
    "responsible_agency": "Department of Sanitation",
    "final_address": "5300 Stillwater Dr",
    "address_councildis": "E",
    "status": "Pending",
    "rowid": "939883",
    "final_x": "3717208.99288",
    "final_y": "559741.413789",
    "longitude": "-89.95424300620195",
    "latitude": "30.031961170962315",
    "geocoded_column": {
      "latitude": "30.031961170962315",
      "longitude": "-89.95424300620195"
    }
  },
  {
    "service_request": "2022-939882",
    "request_type": "Trash/Recycling",
    "request_reason": "Order Recycling Cart",
    "date_created": "2022-11-07T17:02:58.000",
    "date_modified": "2022-11-07T17:02:58.000",
    "request_status": "Pending",
    "responsible_agency": "Department of Sanitation",
    "final_address": "11412 Tanner S Davis Dr",
    "address_councildis": "E",
    "status": "Pending",
    "rowid": "939882",
    "final_x": "3718186.78661",
    "final_y": "561065.731998",
    "longitude": "-89.95110267376931",
    "latitude": "30.035570116515377",
    "geocoded_column": {
      "latitude": "30.035570116515377",
      "longitude": "-89.95110267376931"
    }
  },
  {
    "service_request": "2022-939881",
    "request_type": "Trash/Recycling",
    "request_reason": "Order Trash Cart",
    "date_created": "2022-11-07T16:59:57.000",
    "date_modified": "2022-11-07T16:59:58.000",
    "request_status": "Pending",
    "responsible_agency": "Department of Sanitation",
    "final_address": "5328 Pasteur Blvd",
    "address_councildis": "D",
    "status": "Assigned to Contractor",
    "contractor": "IV Waste",
    "rowid": "939881",
    "final_x": "3682846.14908",
    "final_y": "552579.829078",
    "longitude": "-90.06308247710962",
    "latitude": "30.01336186379407",
    "geocoded_column": {
      "latitude": "30.01336186379407",
      "longitude": "-90.06308247710962"
    }
  },
  {
    "service_request": "2022-939880",
    "request_type": "Abandoned Vehicles",
    "request_reason": "Abandoned/Junk Vehicles",
    "date_created": "2022-11-07T16:59:18.000",
    "date_modified": "2022-11-07T16:59:18.000",
    "request_status": "Pending",
    "responsible_agency": "Department of Public Works",
    "final_address": "96 Morrison Ct",
    "address_councildis": "E",
    "status": "Pending",
    "rowid": "939880",
    "final_x": "3703947.40932",
    "final_y": "561468.443231",
    "longitude": "-89.99608640731016",
    "latitude": "30.037142028864295",
    "geocoded_column": {
      "latitude": "30.037142028864295",
      "longitude": "-89.99608640731016"
    }
  },
  {
    "service_request": "2022-939879",
    "request_type": "Trash/Recycling",
    "request_reason": "Missed Trash Pick-Up",
    "date_created": "2022-11-07T16:55:32.000",
    "date_modified": "2022-11-07T16:55:33.000",
    "request_status": "Pending",
    "responsible_agency": "Department of Sanitation",
    "final_address": "234 S Norman C Francis Pkwy, New Orleans, Louisiana, 70119",
    "status": "Assigned to Contractor",
    "rowid": "939879",
    "longitude": "0.0",
    "latitude": "0.0",
    "geocoded_column": {
      "latitude": "0.0",
      "longitude": "0.0"
    }
  },
  {
    "service_request": "2022-939878",
    "request_type": "Trash/Recycling",
    "request_reason": "Order Recycling Cart",
    "date_created": "2022-11-07T16:54:42.000",
    "date_modified": "2022-11-07T16:54:42.000",
    "request_status": "Pending",
    "responsible_agency": "Department of Sanitation",
    "final_address": "4888 Savoie Ct",
    "address_councildis": "E",
    "status": "Pending",
    "rowid": "939878",
    "final_x": "3725175.74617",
    "final_y": "561478.792991",
    "longitude": "-89.929000661561",
    "latitude": "30.036472197569157",
    "geocoded_column": {
      "latitude": "30.036472197569157",
      "longitude": "-89.929000661561"
    }
  },
  {
    "service_request": "2022-939877",
    "request_type": "Trash/Recycling",
    "request_reason": "Missed Trash Pick-Up",
    "date_created": "2022-11-07T16:53:36.000",
    "date_modified": "2022-11-07T16:53:37.000",
    "request_status": "Pending",
    "responsible_agency": "Department of Sanitation",
    "final_address": "6900 Edgefield Dr",
    "address_councildis": "E",
    "status": "Assigned to Contractor",
    "contractor": "Waste Pro",
    "rowid": "939877",
    "final_x": "3719216.80876",
    "final_y": "568413.605221",
    "longitude": "-89.94756683869356",
    "latitude": "30.055739549275785",
    "geocoded_column": {
      "latitude": "30.055739549275785",
      "longitude": "-89.94756683869356"
    }
  },
  {
    "service_request": "2022-939876",
    "request_type": "Trash/Recycling",
    "request_reason": "Repair Trash Cart",
    "date_created": "2022-11-07T16:53:33.000",
    "date_modified": "2022-11-07T16:53:33.000",
    "request_status": "Pending",
    "responsible_agency": "Department of Sanitation",
    "final_address": "5124 Dauphine St",
    "address_councildis": "E",
    "status": "Assigned to Contractor",
    "contractor": "Waste Pro",
    "rowid": "939876",
    "final_x": "3696141.27504",
    "final_y": "532980.807044",
    "longitude": "-90.0217858905354",
    "latitude": "29.959059722275917",
    "geocoded_column": {
      "latitude": "29.959059722275917",
      "longitude": "-90.0217858905354"
    }
  },
  {
    "service_request": "2022-939875",
    "request_type": "Trash/Recycling",
    "request_reason": "Order Recycling Cart",
    "date_created": "2022-11-07T16:53:14.000",
    "date_modified": "2022-11-07T16:53:14.000",
    "request_status": "Pending",
    "responsible_agency": "Department of Sanitation",
    "final_address": "7220 Briarheath Dr",
    "address_councildis": "E",
    "status": "Pending",
    "rowid": "939875",
    "final_x": "3714421.0924",
    "final_y": "566113.500963",
    "longitude": "-89.96281199922313",
    "latitude": "30.049573805439678",
    "geocoded_column": {
      "latitude": "30.049573805439678",
      "longitude": "-89.96281199922313"
    }
  },
  {
    "service_request": "2022-939874",
    "request_type": "Abandoned Vehicles",
    "request_reason": "Abandoned/Junk Vehicles",
    "date_created": "2022-11-07T16:52:57.000",
    "date_modified": "2022-11-07T16:59:54.000",
    "request_status": "Pending",
    "responsible_agency": "Department of Public Works",
    "final_address": "4945 Pecan St",
    "address_councildis": "E",
    "status": "Pending",
    "rowid": "939874",
    "final_x": "3701777.61546",
    "final_y": "555455.070233",
    "longitude": "-90.00316400326753",
    "latitude": "30.020677028578042",
    "geocoded_column": {
      "latitude": "30.020677028578042",
      "longitude": "-90.00316400326753"
    }
  },
  {
    "service_request": "2022-939873",
    "request_type": "Property Maintenance",
    "request_reason": "Property Maintenance",
    "date_created": "2022-11-07T16:52:11.000",
    "date_modified": "2022-11-07T16:52:11.000",
    "request_status": "Pending",
    "responsible_agency": "Department of Code Enforcement",
    "final_address": "2130 N Claiborne Ave",
    "address_councildis": "C",
    "status": "Pending",
    "rowid": "939873",
    "final_x": "3684695.95586",
    "final_y": "537899.888777",
    "longitude": "-90.05775439735862",
    "latitude": "29.972940751190137",
    "geocoded_column": {
      "latitude": "29.972940751190137",
      "longitude": "-90.05775439735862"
    }
  },
  {
    "service_request": "2022-939872",
    "request_type": "Trash/Recycling",
    "request_reason": "Order Recycling Cart",
    "date_created": "2022-11-07T16:49:54.000",
    "date_modified": "2022-11-07T16:49:55.000",
    "request_status": "Pending",
    "responsible_agency": "Department of Sanitation",
    "final_address": "4719 Frenchmen St",
    "address_councildis": "D",
    "status": "Pending",
    "rowid": "939872",
    "final_x": "3683521.22498",
    "final_y": "550065.791636",
    "longitude": "-90.06103779275334",
    "latitude": "30.006428578277728",
    "geocoded_column": {
      "latitude": "30.006428578277728",
      "longitude": "-90.06103779275334"
    }
  },
  {
    "service_request": "2022-939871",
    "request_type": "Trash/Recycling",
    "request_reason": "Missed Trash Pick-Up",
    "date_created": "2022-11-07T16:47:58.000",
    "date_modified": "2022-11-07T16:47:58.000",
    "request_status": "Pending",
    "responsible_agency": "Department of Sanitation",
    "final_address": "3430 Trafalgar St",
    "address_councildis": "A",
    "status": "Assigned to Contractor",
    "contractor": "IV Waste",
    "rowid": "939871",
    "final_x": "3677502.07592",
    "final_y": "543110.095757",
    "longitude": "-90.08029412008703",
    "latitude": "29.987485262759588",
    "geocoded_column": {
      "latitude": "29.987485262759588",
      "longitude": "-90.08029412008703"
    }
  },
  {
    "service_request": "2022-939870",
    "request_type": "Trash/Recycling",
    "request_reason": "Order Recycling Cart",
    "date_created": "2022-11-07T16:47:48.000",
    "date_modified": "2022-11-07T16:47:48.000",
    "request_status": "Pending",
    "responsible_agency": "Department of Sanitation",
    "final_address": "6239 Wadsworth Dr",
    "address_councildis": "D",
    "status": "Pending",
    "rowid": "939870",
    "final_x": "3681659.81948",
    "final_y": "556127.878874",
    "longitude": "-90.06670673299463",
    "latitude": "30.023153814055455",
    "geocoded_column": {
      "latitude": "30.023153814055455",
      "longitude": "-90.06670673299463"
    }
  },
  {
    "service_request": "2022-939869",
    "request_type": "Trash/Recycling",
    "request_reason": "Repair Trash Cart",
    "date_created": "2022-11-07T16:47:33.000",
    "date_modified": "2022-11-07T16:47:34.000",
    "request_status": "Pending",
    "responsible_agency": "Department of Sanitation",
    "final_address": "5224 Pasteur Blvd",
    "address_councildis": "D",
    "status": "Assigned to Contractor",
    "contractor": "IV Waste",
    "rowid": "939869",
    "final_x": "3682900.61448",
    "final_y": "551953.364758",
    "longitude": "-90.06293233998547",
    "latitude": "30.011637654298163",
    "geocoded_column": {
      "latitude": "30.011637654298163",
      "longitude": "-90.06293233998547"
    }
  },
  {
    "service_request": "2022-939868",
    "request_type": "Trash/Recycling",
    "request_reason": "Repair Trash Cart",
    "date_created": "2022-11-07T16:43:42.000",
    "date_modified": "2022-11-07T16:43:47.000",
    "request_status": "Pending",
    "responsible_agency": "Department of Sanitation",
    "final_address": "2533 St Thomas St",
    "address_councildis": "B",
    "status": "Assigned to Contractor",
    "contractor": "Richards Disposal",
    "rowid": "939868",
    "final_x": "3678590.71874",
    "final_y": "519689.427768",
    "longitude": "-90.07766615880965",
    "latitude": "29.923053532478104",
    "geocoded_column": {
      "latitude": "29.923053532478104",
      "longitude": "-90.07766615880965"
    }
  },
  {
    "service_request": "2022-939867",
    "request_type": "Trash/Recycling",
    "request_reason": "Order Recycling Cart",
    "date_created": "2022-11-07T16:42:10.000",
    "date_modified": "2022-11-07T16:42:10.000",
    "request_status": "Pending",
    "responsible_agency": "Department of Sanitation",
    "final_address": "932 Bartholomew St",
    "address_councildis": "C",
    "status": "Pending",
    "rowid": "939867",
    "final_x": "3691637.77257",
    "final_y": "534783.655814",
    "longitude": "-90.03594232411415",
    "latitude": "29.964157895686835",
    "geocoded_column": {
      "latitude": "29.964157895686835",
      "longitude": "-90.03594232411415"
    }
  },
  {
    "service_request": "2022-939866",
    "request_type": "Trash/Recycling",
    "request_reason": "Order Recycling Cart",
    "date_created": "2022-11-07T16:40:13.000",
    "date_modified": "2022-11-07T16:40:13.000",
    "request_status": "Pending",
    "responsible_agency": "Department of Sanitation",
    "final_address": "2627 Jourdan Ave",
    "address_councildis": "E",
    "status": "Pending",
    "rowid": "939866",
    "final_x": "3696716.49079",
    "final_y": "540328.562571",
    "longitude": "-90.01970351181897",
    "latitude": "29.97924530770744",
    "geocoded_column": {
      "latitude": "29.97924530770744",
      "longitude": "-90.01970351181897"
    }
  },
  {
    "service_request": "2022-939865",
    "request_type": "Trash/Recycling",
    "request_reason": "MIssed Recycling Pick-Up",
    "date_created": "2022-11-07T16:40:02.000",
    "date_modified": "2022-11-07T16:40:03.000",
    "request_status": "Pending",
    "responsible_agency": "Department of Sanitation",
    "final_address": "1813 Farragut St",
    "address_councildis": "C",
    "status": "Assigned to Contractor",
    "contractor": "Richards Disposal",
    "rowid": "939865",
    "final_x": "3692222.044",
    "final_y": "524498.608252",
    "longitude": "-90.03446542120035",
    "latitude": "29.93585937138665",
    "geocoded_column": {
      "latitude": "29.93585937138665",
      "longitude": "-90.03446542120035"
    }
  },
  {
    "service_request": "2022-939864",
    "request_type": "Trash/Recycling",
    "request_reason": "Order Recycling Cart",
    "date_created": "2022-11-07T16:39:52.000",
    "date_modified": "2022-11-07T16:39:53.000",
    "request_status": "Pending",
    "responsible_agency": "Department of Sanitation",
    "final_address": "6437 Colbert St",
    "address_councildis": "A",
    "status": "Pending",
    "rowid": "939864",
    "final_x": "3667789.50964",
    "final_y": "550441.300308",
    "longitude": "-90.110725763463",
    "latitude": "30.007932018987766",
    "geocoded_column": {
      "latitude": "30.007932018987766",
      "longitude": "-90.110725763463"
    }
  },
  {
    "service_request": "2022-939863",
    "request_type": "Trash/Recycling",
    "request_reason": "Replace Trash Cart",
    "date_created": "2022-11-07T16:38:57.000",
    "date_modified": "2022-11-07T16:38:57.000",
    "request_status": "Pending",
    "responsible_agency": "Department of Sanitation",
    "final_address": "6119 Mandeville St",
    "address_councildis": "D",
    "status": "Assigned to Contractor",
    "contractor": "IV Waste",
    "rowid": "939863",
    "final_x": "3684334.48105",
    "final_y": "555583.863833",
    "longitude": "-90.05827452651323",
    "latitude": "30.021576406379612",
    "geocoded_column": {
      "latitude": "30.021576406379612",
      "longitude": "-90.05827452651323"
    }
  },
  {
    "service_request": "2022-939862",
    "request_type": "Trash/Recycling",
    "request_reason": "Order Trash Cart",
    "date_created": "2022-11-07T16:38:33.000",
    "date_modified": "2022-11-07T16:38:34.000",
    "request_status": "Pending",
    "responsible_agency": "Department of Sanitation",
    "final_address": "11283 Midpoint Dr",
    "address_councildis": "E",
    "status": "Assigned to Contractor",
    "contractor": "Waste Pro",
    "rowid": "939862",
    "final_x": "3718312.56882",
    "final_y": "559531.141853",
    "longitude": "-89.9507636995015",
    "latitude": "30.031346440628557",
    "geocoded_column": {
      "latitude": "30.031346440628557",
      "longitude": "-89.9507636995015"
    }
  },
  {
    "service_request": "2022-939861",
    "request_type": "Trash/Recycling",
    "request_reason": "Order Recycling Cart",
    "date_created": "2022-11-07T16:37:16.000",
    "date_modified": "2022-11-07T16:37:17.000",
    "request_status": "Pending",
    "responsible_agency": "Department of Sanitation",
    "final_address": "4834 Sierra Madre Dr",
    "address_councildis": "E",
    "status": "Pending",
    "rowid": "939861",
    "final_x": "3713799.96223",
    "final_y": "556800.745818",
    "longitude": "-89.96512659433472",
    "latitude": "30.023987878010406",
    "geocoded_column": {
      "latitude": "30.023987878010406",
      "longitude": "-89.96512659433472"
    }
  },
  {
    "service_request": "2022-939860",
    "request_type": "Trash/Recycling",
    "request_reason": "MIssed Recycling Pick-Up",
    "date_created": "2022-11-07T16:37:09.000",
    "date_modified": "2022-11-07T16:37:10.000",
    "request_status": "Pending",
    "responsible_agency": "Department of Sanitation",
    "final_address": "1925 Joliet St",
    "address_councildis": "A",
    "status": "Assigned to Contractor",
    "contractor": "Richards Disposal",
    "rowid": "939860",
    "final_x": "3662729.2409",
    "final_y": "531282.36717",
    "longitude": "-90.12734980892895",
    "latitude": "29.955398846005004",
    "geocoded_column": {
      "latitude": "29.955398846005004",
      "longitude": "-90.12734980892895"
    }
  },
  {
    "service_request": "2022-939859",
    "request_type": "Trash/Recycling",
    "request_reason": "Repair Trash Cart",
    "date_created": "2022-11-07T16:36:32.000",
    "date_modified": "2022-11-07T16:36:33.000",
    "request_status": "Pending",
    "responsible_agency": "Department of Sanitation",
    "final_address": "4539 General Meyer Ave",
    "address_councildis": "C",
    "status": "Assigned to Contractor",
    "contractor": "Richards Disposal",
    "rowid": "939859",
    "final_x": "3700390.64272",
    "final_y": "523974.529532",
    "longitude": "-90.00869629851182",
    "latitude": "29.934161203751014",
    "geocoded_column": {
      "latitude": "29.934161203751014",
      "longitude": "-90.00869629851182"
    }
  },
  {
    "service_request": "2022-939858",
    "request_type": "Trash/Recycling",
    "request_reason": "Repair Trash Cart",
    "date_created": "2022-11-07T16:35:30.000",
    "date_modified": "2022-11-07T16:35:30.000",
    "request_status": "Pending",
    "responsible_agency": "Department of Sanitation",
    "final_address": "6773 Colbert St",
    "address_councildis": "A",
    "status": "Assigned to Contractor",
    "contractor": "IV Waste",
    "rowid": "939858",
    "final_x": "3667990.24167",
    "final_y": "552662.413846",
    "longitude": "-90.11001667226466",
    "latitude": "30.01403341195638",
    "geocoded_column": {
      "latitude": "30.01403341195638",
      "longitude": "-90.11001667226466"
    }
  },
  {
    "service_request": "2022-939857",
    "request_type": "Trash/Recycling",
    "request_reason": "Order Recycling Cart",
    "date_created": "2022-11-07T16:35:00.000",
    "date_modified": "2022-11-07T16:35:01.000",
    "request_status": "Pending",
    "responsible_agency": "Department of Sanitation",
    "final_address": "4682 Naples St",
    "address_councildis": "E",
    "status": "Pending",
    "rowid": "939857",
    "final_x": "3763102.37526",
    "final_y": "572671.121641",
    "longitude": "-89.80867749266544",
    "latitude": "30.065913383424387",
    "geocoded_column": {
      "latitude": "30.065913383424387",
      "longitude": "-89.80867749266544"
    }
  },