[
  {
    "service_request": "2025-1184017",
    "request_type": "Streetlights",
    "request_reason": "Streetlight Outage/Malfunction",
    "date_created": "2025-04-14T23:59:16.000",
    "date_modified": "2025-04-14T23:59:17.000",
    "request_status": "Pending",
    "responsible_agency": "Department of Public Works",
    "final_address": "1800 BLK Laurel St",
    "address_councildis": "B",
    "status": "Pending",
    "contractor": "Legacy Professional Services",
    "rowid": "1184017",
    "final_x": "3680389.77534",
    "final_y": "522387.751928",
    "longitude": "-90.07189346542846",
    "latitude": "29.930418708065815",
    "geocoded_column": {
      "latitude": "29.930418708065815",
      "longitude": "-90.07189346542846"
    }
  },
  {
    "service_request": "2025-1184016",
    "request_type": "Streetlights",
    "request_reason": "Streetlight Outage/Malfunction",
    "date_created": "2025-04-14T23:58:01.000",
    "date_modified": "2025-04-14T23:58:03.000",
    "request_status": "Pending",
    "responsible_agency": "Department of Public Works",
    "final_address": "1800 Laurel St",
    "address_councildis": "B",
    "status": "Pending",
    "contractor": "Legacy Professional Services",
    "rowid": "1184016",
    "final_x": "3680510.23426",
    "final_y": "522455.393338",
    "longitude": "-90.07151084376822",
    "latitude": "29.930601052761222",
    "geocoded_column": {
      "latitude": "29.930601052761222",
      "longitude": "-90.07151084376822"
    }
  },
  {
    "service_request": "2025-1184015",
    "request_type": "Streetlights",
    "request_reason": "Streetlight Outage/Malfunction",
    "date_created": "2025-04-14T23:57:06.000",
    "date_modified": "2025-04-14T23:57:08.000",
    "request_status": "Pending",
    "responsible_agency": "Department of Public Works",
    "final_address": "1800 BLK Laurel St",
    "address_councildis": "B",
    "status": "Pending",
    "contractor": "Legacy Professional Services",
    "rowid": "1184015",
    "final_x": "3680389.77534",
    "final_y": "522387.751928",
    "longitude": "-90.07189346542846",
    "latitude": "29.930418708065815",
    "geocoded_column": {
      "latitude": "29.930418708065815",
      "longitude": "-90.07189346542846"
    }
  },
  {
    "service_request": "2025-1184014",
    "request_type": "Streetlights",
    "request_reason": "Streetlight Outage/Malfunction",
    "date_created": "2025-04-14T23:55:58.000",
    "date_modified": "2025-04-14T23:56:00.000",
    "request_status": "Pending",
    "responsible_agency": "Department of Public Works",
    "final_address": "1800 BLK Laurel St",
    "address_councildis": "B",
    "status": "Pending",
    "contractor": "Legacy Professional Services",
    "rowid": "1184014",
    "final_x": "3680389.77534",
    "final_y": "522387.751928",
    "longitude": "-90.07189346542846",
    "latitude": "29.930418708065815",
    "geocoded_column": {
      "latitude": "29.930418708065815",
      "longitude": "-90.07189346542846"
    }
  },
  {
    "service_request": "2025-1184013",
    "request_type": "Roads and Streets",
    "request_reason": "Curb Damage",
    "date_created": "2025-04-14T23:08:20.000",
    "date_modified": "2025-04-14T23:08:21.000",
    "request_status": "Pending",
    "responsible_agency": "Department of Public Works",
    "final_address": "218 Delaronde St",
    "address_councildis": "C",
    "status": "Pending",
    "rowid": "1184013",
    "final_x": "3686091.58466",
    "final_y": "530685.26989",
    "longitude": "-90.05360121866042",
    "latitude": "29.953060250632703",
    "geocoded_column": {
      "latitude": "29.953060250632703",
      "longitude": "-90.05360121866042"
    }
  },
  {
    "service_request": "2025-1184012",
    "request_type": "Trash/Recycling",
    "request_reason": "Replace Recycling Cart",
    "date_created": "2025-04-14T23:06:13.000",
    "date_modified": "2025-04-14T23:06:15.000",
    "request_status": "Pending",
    "responsible_agency": "Department of Sanitation",
    "final_address": "815 N Villere St",
    "address_councildis": "C",
    "status": "Pending",
    "rowid": "1184012",
    "final_x": "3680579.09218",
    "final_y": "534588.803653",
    "longitude": "-90.07087145135482",
    "latitude": "29.963961778442698",
    "geocoded_column": {
      "latitude": "29.963961778442698",
      "longitude": "-90.07087145135482"
    }
  },
  {
    "service_request": "2025-1184011",
    "request_type": "Roads and Streets",
    "request_reason": "Abandoned Service Cut",
    "date_created": "2025-04-14T23:01:49.000",
    "date_modified": "2025-04-14T23:01:55.000",
    "request_status": "Pending",
    "responsible_agency": "Department of Public Works",
    "final_address": "215 Delaronde St",
    "address_councildis": "C",
    "status": "Pending",
    "rowid": "1184011",
    "final_x": "3686108.775",
    "final_y": "530618.544258",
    "longitude": "-90.05354929238555",
    "latitude": "29.952876250044746",
    "geocoded_column": {
      "latitude": "29.952876250044746",
      "longitude": "-90.05354929238555"
    }
  },
  {
    "service_request": "2025-1184010",
    "request_type": "Trash/Recycling",
    "request_reason": "Illegal Dumping",
    "date_created": "2025-04-14T22:11:14.000",
    "date_modified": "2025-04-14T22:11:16.000",
    "request_status": "Pending",
    "responsible_agency": "Department of Sanitation",
    "final_address": "2117 First St",
    "address_councildis": "B",
    "status": "Pending",
    "rowid": "1184010",
    "final_x": "3675906.52136",
    "final_y": "524849.206652",
    "longitude": "-90.08596183503398",
    "latitude": "29.937321855402573",
    "geocoded_column": {
      "latitude": "29.937321855402573",
      "longitude": "-90.08596183503398"
    }
  },
  {
    "service_request": "2025-1184009",
    "request_type": "Trash/Recycling",
    "request_reason": "Replace Recycling Cart",
    "date_created": "2025-04-14T22:04:40.000",
    "date_modified": "2025-04-14T22:04:43.000",
    "request_status": "Pending",
    "responsible_agency": "Department of Sanitation",
    "final_address": "99 Westpark Ct",
    "address_councildis": "C",
    "status": "Pending",
    "rowid": "1184009",
    "final_x": "3695792.49603",
    "final_y": "521876.537722",
    "longitude": "-90.02328813672281",
    "latitude": "29.928537805795997",
    "geocoded_column": {
      "latitude": "29.928537805795997",
      "longitude": "-90.02328813672281"
    }
  },
  {
    "service_request": "2025-1184008",
    "request_type": "Streetlights",
    "request_reason": "Streetlight Knocked Down/Leaning",
    "date_created": "2025-04-14T22:01:17.000",
    "date_modified": "2025-04-14T22:01:19.000",
    "request_status": "Pending",
    "responsible_agency": "Department of Public Works",
    "final_address": "5080 Pontchartrain Blvd",
    "address_councildis": "A",
    "status": "Pending",
    "contractor": "Legacy Professional Services",
    "rowid": "1184008",
    "final_x": "3666841.38119",
    "final_y": "540528.132811",
    "longitude": "-90.1140544564024",
    "latitude": "29.980701987063558",
    "geocoded_column": {
      "latitude": "29.980701987063558",
      "longitude": "-90.1140544564024"
    }
  },
  {
    "service_request": "2025-1184007",
    "request_type": "Trash/Recycling",
    "request_reason": "Repair Trash Cart",
    "date_created": "2025-04-14T21:29:53.000",
    "date_modified": "2025-04-14T21:29:54.000",
    "request_status": "Pending",
    "responsible_agency": "Department of Sanitation",
    "final_address": "1820 Fern St",
    "address_councildis": "A",
    "status": "Assigned to Contractor",
    "contractor": "IV Waste",
    "rowid": "1184007",
    "final_x": "3664044.77632",
    "final_y": "529573.671873",
    "longitude": "-90.12325278647215",
    "latitude": "29.950662350231312",
    "geocoded_column": {
      "latitude": "29.950662350231312",
      "longitude": "-90.12325278647215"
    }
  },
  {
    "service_request": "2025-1184006",
    "request_type": "Streetlights",
    "request_reason": "Streetlight Outage/Malfunction",
    "date_created": "2025-04-14T21:29:17.000",
    "date_modified": "2025-04-14T21:31:14.000",
    "request_status": "Pending",
    "responsible_agency": "Department of Public Works",
    "final_address": "807 Harmony St",
    "address_councildis": "B",
    "status": "Pending",
    "contractor": "Legacy Professional Services",
    "rowid": "1184006",
    "final_x": "3676291.41147",
    "final_y": "519091.310519",
    "longitude": "-90.08494476006355",
    "latitude": "29.92147798603435",
    "geocoded_column": {
      "latitude": "29.92147798603435",
      "longitude": "-90.08494476006355"
    }
  },
  {
    "service_request": "2025-1184005",
    "request_type": "Abandoned Vehicles",
    "request_reason": "Abandoned/Junk Vehicles",
    "date_created": "2025-04-14T20:57:26.000",
    "date_modified": "2025-04-14T20:57:27.000",
    "request_status": "Pending",
    "responsible_agency": "Department of Public Works",
    "final_address": "846 Nunez St",
    "address_councildis": "C",
    "status": "Pending",
    "rowid": "1184005",
    "final_x": "3687000.43081",
    "final_y": "528480.931584",
    "longitude": "-90.05080939269712",
    "latitude": "29.946971131748448",
    "geocoded_column": {
      "latitude": "29.946971131748448",
      "longitude": "-90.05080939269712"
    }
  },
  {
    "service_request": "2025-1184004",
    "request_type": "Trash/Recycling",
    "request_reason": "Replace Trash Cart",
    "date_created": "2025-04-14T20:17:53.000",
    "date_modified": "2025-04-14T20:18:05.000",
    "request_status": "Pending",
    "responsible_agency": "Department of Sanitation",
    "final_address": "3023 St Ann St",
    "address_councildis": "A",
    "status": "Assigned to Contractor",
    "contractor": "IV Waste",
    "rowid": "1184004",
    "final_x": "3675815.53198",
    "final_y": "538153.110921",
    "longitude": "-90.08579180268153",
    "latitude": "29.973905865920592",
    "geocoded_column": {
      "latitude": "29.973905865920592",
      "longitude": "-90.08579180268153"
    }
  },
  {
    "service_request": "2025-1184003",
    "request_type": "Trash/Recycling",
    "request_reason": "Illegal Dumping",
    "date_created": "2025-04-14T20:02:32.000",
    "date_modified": "2025-04-14T20:02:34.000",
    "request_status": "Pending",
    "responsible_agency": "Department of Sanitation",
    "final_address": "3200 Hollygrove St",
    "address_councildis": "A",
    "status": "Pending",
    "rowid": "1184003",
    "final_x": "3664419.31284",
    "final_y": "535846.400327",
    "longitude": "-90.12186078160727",
    "latitude": "29.96789942387394",
    "geocoded_column": {
      "latitude": "29.96789942387394",
      "longitude": "-90.12186078160727"
    }
  },
  {
    "service_request": "2025-1184002",
    "request_type": "Trash/Recycling",
    "request_reason": "MIssed Recycling Pick-Up",
    "date_created": "2025-04-14T20:00:32.000",
    "date_modified": "2025-04-14T20:00:34.000",
    "request_status": "Pending",
    "responsible_agency": "Department of Sanitation",
    "final_address": "2400 N Broad St",
    "address_councildis": "D",
    "status": "Assigned to Contractor",
    "contractor": "IV Waste",
    "rowid": "1184002",
    "final_x": "3681949.93896",
    "final_y": "543915.765838",
    "longitude": "-90.06621673670527",
    "latitude": "29.989566079204355",
    "geocoded_column": {
      "latitude": "29.989566079204355",
      "longitude": "-90.06621673670527"
    }
  },
  {
    "service_request": "2025-1184001",
    "request_type": "Trash/Recycling",
    "request_reason": "Damaged Caused By Contractor",
    "date_created": "2025-04-14T19:58:52.000",
    "date_modified": "2025-04-14T19:58:55.000",
    "request_status": "Pending",
    "responsible_agency": "Department of Sanitation",
    "final_address": "6365 General Haig St",
    "address_councildis": "A",
    "status": "Assigned to Contractor",
    "contractor": "IV Waste",
    "rowid": "1184001",
    "final_x": "3670833.06695",
    "final_y": "549663.616916",
    "longitude": "-90.10113664996338",
    "latitude": "30.00570401778172",
    "geocoded_column": {
      "latitude": "30.00570401778172",
      "longitude": "-90.10113664996338"
    }
  },
  {
    "service_request": "2025-1184000",
    "request_type": "Abandoned Vehicles",
    "request_reason": "Abandoned/Junk Vehicles",
    "date_created": "2025-04-14T19:56:46.000",
    "date_modified": "2025-04-14T19:56:48.000",
    "request_status": "Pending",
    "responsible_agency": "Department of Public Works",
    "final_address": "718 Peniston St",
    "address_councildis": "B",
    "status": "Pending",
    "rowid": "1184000",
    "final_x": "3673487.77704",
    "final_y": "518496.048887",
    "longitude": "-90.09381495252572",
    "latitude": "29.919924899309343",
    "geocoded_column": {
      "latitude": "29.919924899309343",
      "longitude": "-90.09381495252572"
    }
  },
  {
    "service_request": "2025-1183999",
    "request_type": "Trash/Recycling",
    "request_reason": "Repair Trash Cart",
    "date_created": "2025-04-14T19:55:39.000",
    "date_modified": "2025-04-14T19:55:41.000",
    "request_status": "Pending",
    "responsible_agency": "Department of Sanitation",
    "final_address": "8317 Panola St",
    "address_councildis": "A",
    "status": "Assigned to Contractor",
    "contractor": "IV Waste",
    "rowid": "1183999",
    "final_x": "3663463.39994",
    "final_y": "531333.042946",
    "longitude": "-90.1250299030877",
    "latitude": "29.95551692102819",
    "geocoded_column": {
      "latitude": "29.95551692102819",
      "longitude": "-90.1250299030877"
    }
  },
  {
    "service_request": "2025-1183998",
    "request_type": "General Services",
    "request_reason": "General Service Request",
    "date_created": "2025-04-14T19:33:21.000",
    "date_modified": "2025-04-14T19:33:24.000",
    "request_status": "Pending",
    "responsible_agency": "Orleans Parish Communication District",
    "final_address": "3016 Bienville Ave",
    "address_councildis": "B",
    "status": "Pending",
    "rowid": "1183998",
    "final_x": "3674638.88148",
    "final_y": "536544.220039",
    "longitude": "-90.08956308700674",
    "latitude": "29.96951713557606",
    "geocoded_column": {
      "latitude": "29.96951713557606",
      "longitude": "-90.08956308700674"
    }
  },
  {
    "service_request": "2025-1183997",
    "request_type": "Trash/Recycling",
    "request_reason": "Replace Recycling Cart",
    "date_created": "2025-04-14T19:27:21.000",
    "date_modified": "2025-04-14T19:27:22.000",
    "request_status": "Pending",
    "responsible_agency": "Department of Sanitation",
    "final_address": "2921 Lepage St",
    "address_councildis": "A",
    "status": "Pending",
    "rowid": "1183997",
    "final_x": "3677068.44258",
    "final_y": "540036.027403",
    "longitude": "-90.08176987616348",
    "latitude": "29.979045671297992",
    "geocoded_column": {
      "latitude": "29.979045671297992",
      "longitude": "-90.08176987616348"
    }
  },
  {
    "service_request": "2025-1183996",
    "request_type": "Streetlights",
    "request_reason": "Streetlight Knocked Down/Leaning",
    "date_created": "2025-04-14T19:23:09.000",
    "date_modified": "2025-04-14T19:23:11.000",
    "request_status": "Pending",
    "responsible_agency": "Department of Public Works",
    "final_address": "3229 Napoleon Ave",
    "address_councildis": "B",
    "status": "Pending",
    "contractor": "Legacy Professional Services",
    "rowid": "1183996",
    "final_x": "3670357.28538",
    "final_y": "526844.426174",
    "longitude": "-90.10341356732239",
    "latitude": "29.94297300199751",
    "geocoded_column": {
      "latitude": "29.94297300199751",
      "longitude": "-90.10341356732239"
    }
  },
  {
    "service_request": "2025-1183995",
    "request_type": "Streetlights",
    "request_reason": "Streetlight Outage/Malfunction",
    "date_created": "2025-04-14T19:19:49.000",
    "date_modified": "2025-04-14T19:19:53.000",
    "request_status": "Pending",
    "responsible_agency": "Department of Public Works",
    "final_address": "3511 Napoleon Ave",
    "address_councildis": "B",
    "status": "Pending",
    "contractor": "Legacy Professional Services",
    "rowid": "1183995",
    "final_x": "3670261.11431",
    "final_y": "527662.032383",
    "longitude": "-90.1036895018496",
    "latitude": "29.945223991018803",
    "geocoded_column": {
      "latitude": "29.945223991018803",
      "longitude": "-90.1036895018496"
    }
  },
  {
    "service_request": "2025-1183994",
    "request_type": "Abandoned Vehicles",
    "request_reason": "Abandoned/Junk Vehicles",
    "date_created": "2025-04-14T19:18:53.000",
    "date_modified": "2025-04-14T19:18:55.000",
    "request_status": "Pending",
    "responsible_agency": "Department of Public Works",
    "final_address": "5024 S Claiborne Ave",
    "address_councildis": "B",
    "status": "Pending",
    "rowid": "1183994",
    "final_x": "3668632.3865",
    "final_y": "525959.016573",
    "longitude": "-90.10888938290474",
    "latitude": "29.94058920842743",
    "geocoded_column": {
      "latitude": "29.94058920842743",
      "longitude": "-90.10888938290474"
    }
  },
  {
    "service_request": "2025-1183993",
    "request_type": "Trash/Recycling",
    "request_reason": "Replace Trash Cart",
    "date_created": "2025-04-14T19:18:06.000",
    "date_modified": "2025-04-14T19:18:07.000",
    "request_status": "Pending",
    "responsible_agency": "Department of Sanitation",
    "final_address": "523 Atlantic Ave",
    "address_councildis": "C",
    "status": "Assigned to Contractor",
    "contractor": "Richards Disposal",
    "rowid": "1183993",
    "final_x": "3688751.96399",
    "final_y": "529711.562817",
    "longitude": "-90.04523549071311",
    "latitude": "29.95030092355476",
    "geocoded_column": {
      "latitude": "29.95030092355476",
      "longitude": "-90.04523549071311"
    }
  },
  {
    "service_request": "2025-1183992",
    "request_type": "Streetlights",
    "request_reason": "Streetlight Outage/Malfunction",
    "date_created": "2025-04-14T19:16:55.000",
    "date_modified": "2025-04-14T19:16:56.000",
    "request_status": "Pending",
    "responsible_agency": "Department of Public Works",
    "final_address": "3607 Napoleon Ave",
    "address_councildis": "B",
    "status": "Pending",
    "contractor": "Legacy Professional Services",
    "rowid": "1183992",
    "final_x": "3670244.3099",
    "final_y": "527933.442623",
    "longitude": "-90.10373336311882",
    "latitude": "29.945970776536",
    "geocoded_column": {
      "latitude": "29.945970776536",
      "longitude": "-90.10373336311882"
    }
  },
  {
    "service_request": "2025-1183991",
    "request_type": "Streetlights",
    "request_reason": "Streetlight Outage/Malfunction",
    "date_created": "2025-04-14T19:14:29.000",
    "date_modified": "2025-04-14T19:16:04.000",
    "request_status": "Pending",
    "responsible_agency": "Department of Public Works",
    "final_address": "3607 Napoleon Ave",
    "address_councildis": "B",
    "status": "Pending",
    "contractor": "Legacy Professional Services",
    "rowid": "1183991",
    "final_x": "3670244.3099",
    "final_y": "527933.442623",
    "longitude": "-90.10373336311882",
    "latitude": "29.945970776536",
    "geocoded_column": {
      "latitude": "29.945970776536",
      "longitude": "-90.10373336311882"
    }
  },
  {
    "service_request": "2025-1183990",
    "request_type": "Streetlights",
    "request_reason": "Streetlight Knocked Down/Leaning",
    "date_created": "2025-04-14T19:11:31.000",
    "date_modified": "2025-04-14T19:12:00.000",
    "request_status": "Pending",
    "responsible_agency": "Department of Public Works",
    "final_address": "3836 Napoleon Ave",
    "address_councildis": "B",
    "status": "Pending",
    "contractor": "Legacy Professional Services",
    "rowid": "1183990",
    "final_x": "3669911.01908",
    "final_y": "528770.342592",
    "longitude": "-90.10475734627339",
    "latitude": "29.948281808420226",
    "geocoded_column": {
      "latitude": "29.948281808420226",
      "longitude": "-90.10475734627339"
    }
  },
  {
    "service_request": "2025-1183989",
    "request_type": "Streetlights",
    "request_reason": "Streetlight Outage/Malfunction",
    "date_created": "2025-04-14T19:05:05.000",
    "date_modified": "2025-04-14T19:05:07.000",
    "request_status": "Pending",
    "responsible_agency": "Department of Public Works",
    "final_address": "3836 Napoleon Ave",
    "address_councildis": "B",
    "status": "Pending",
    "contractor": "Legacy Professional Services",
    "rowid": "1183989",
    "final_x": "3669911.01908",
    "final_y": "528770.342592",
    "longitude": "-90.10475734627339",
    "latitude": "29.948281808420226",
    "geocoded_column": {
      "latitude": "29.948281808420226",
      "longitude": "-90.10475734627339"
    }
  },
  {
    "service_request": "2025-1183988",
    "request_type": "Streetlights",
    "request_reason": "Streetlight Outage/Malfunction",
    "date_created": "2025-04-14T18:59:32.000",
    "date_modified": "2025-04-14T18:59:34.000",
    "request_status": "Pending",
    "responsible_agency": "Department of Public Works",
    "final_address": "3806 Napoleon Ave",
    "address_councildis": "B",
    "status": "Pending",
    "contractor": "Legacy Professional Services",
    "rowid": "1183988",
    "final_x": "3669978.99879",
    "final_y": "528551.928768",
    "longitude": "-90.10455010117194",
    "latitude": "29.94767923740687",
    "geocoded_column": {
      "latitude": "29.94767923740687",
      "longitude": "-90.10455010117194"
    }
  },
  {
    "service_request": "2025-1183987",
    "request_type": "Streetlights",
    "request_reason": "Streetlight Outage/Malfunction",
    "date_created": "2025-04-14T18:54:26.000",
    "date_modified": "2025-04-14T18:54:28.000",
    "request_status": "Pending",
    "responsible_agency": "Department of Public Works",
    "final_address": "3734 Napoleon Ave",
    "address_councildis": "B",
    "status": "Pending",
    "contractor": "Legacy Professional Services",
    "rowid": "1183987",
    "final_x": "3669962.67047",
    "final_y": "528409.312704",
    "longitude": "-90.10460648491336",
    "latitude": "29.947287571262486",
    "geocoded_column": {
      "latitude": "29.947287571262486",
      "longitude": "-90.10460648491336"
    }
  },
  {
    "service_request": "2025-1183986",
    "request_type": "Streetlights",
    "request_reason": "Streetlight Outage/Malfunction",
    "date_created": "2025-04-14T18:51:04.000",
    "date_modified": "2025-04-14T18:51:07.000",
    "request_status": "Pending",
    "responsible_agency": "Department of Public Works",
    "final_address": "3720 Napoleon Ave",
    "address_councildis": "B",
    "status": "Pending",
    "contractor": "Legacy Professional Services",
    "rowid": "1183986",
    "final_x": "3669972.90215",
    "final_y": "528297.017152",
    "longitude": "-90.10457798168643",
    "latitude": "29.946978493455532",
    "geocoded_column": {
      "latitude": "29.946978493455532",
      "longitude": "-90.10457798168643"
    }
  },
  {
    "service_request": "2025-1183985",
    "request_type": "Streetlights",
    "request_reason": "Streetlight Outage/Malfunction",
    "date_created": "2025-04-14T18:46:58.000",
    "date_modified": "2025-04-14T18:47:00.000",
    "request_status": "Pending",
    "responsible_agency": "Department of Public Works",
    "final_address": "3540 Napoleon Ave",
    "address_councildis": "B",
    "status": "Pending",
    "contractor": "Legacy Professional Services",
    "rowid": "1183985",
    "final_x": "3670057.03873",
    "final_y": "527778.733311",
    "longitude": "-90.10432988244506",
    "latitude": "29.945550900774858",
    "geocoded_column": {
      "latitude": "29.945550900774858",
      "longitude": "-90.10432988244506"
    }
  },
  {
    "service_request": "2025-1183984",
    "request_type": "Mosquito, Termite & Rodent Control",
    "request_reason": "Mosquito Complaint",
    "date_created": "2025-04-14T18:44:31.000",
    "date_modified": "2025-04-14T18:44:35.000",
    "request_status": "Pending",
    "responsible_agency": "Mosquito, Termite & Rodent Control Board",
    "final_address": "1336 Bartholomew St",
    "address_councildis": "D",
    "status": "Pending",
    "rowid": "1183984",
    "final_x": "3692022.60432",
    "final_y": "536346.700039",
    "longitude": "-90.03467112068562",
    "latitude": "29.968443730121805",
    "geocoded_column": {
      "latitude": "29.968443730121805",
      "longitude": "-90.03467112068562"
    }
  },
  {
    "service_request": "2025-1183983",
    "request_type": "Streetlights",
    "request_reason": "Streetlight Outage/Malfunction",
    "date_created": "2025-04-14T18:43:59.000",
    "date_modified": "2025-04-14T18:44:01.000",
    "request_status": "Pending",
    "responsible_agency": "Department of Public Works",
    "final_address": "3504 Napoleon Ave",
    "address_councildis": "B",
    "status": "Pending",
    "contractor": "Legacy Professional Services",
    "rowid": "1183983",
    "final_x": "3670022.10766",
    "final_y": "527614.148223",
    "longitude": "-90.1044457446155",
    "latitude": "29.94509937555158",
    "geocoded_column": {
      "latitude": "29.94509937555158",
      "longitude": "-90.1044457446155"
    }
  },
  {
    "service_request": "2025-1183982",
    "request_type": "Trash/Recycling",
    "request_reason": "Request a Large Item Pick Up",
    "date_created": "2025-04-14T18:42:55.000",
    "date_modified": "2025-04-14T18:42:56.000",
    "request_status": "Pending",
    "responsible_agency": "Department of Sanitation",
    "final_address": "5535 Paris Ave",
    "address_councildis": "D",
    "status": "Assigned to Contractor",
    "contractor": "IV Waste",
    "rowid": "1183982",
    "final_x": "3679218.4164",
    "final_y": "552822.61935",
    "longitude": "-90.07453576952595",
    "latitude": "30.014139530434164",
    "geocoded_column": {
      "latitude": "30.014139530434164",
      "longitude": "-90.07453576952595"
    }
  },
  {
    "service_request": "2025-1183981",
    "request_type": "Trash/Recycling",
    "request_reason": "Illegal Dumping",
    "date_created": "2025-04-14T18:40:46.000",
    "date_modified": "2025-04-14T18:40:49.000",
    "request_status": "Pending",
    "responsible_agency": "Department of Sanitation",
    "final_address": "4638 Willow St",
    "address_councildis": "B",
    "status": "Pending",
    "rowid": "1183981",
    "final_x": "3669281.421",
    "final_y": "525259.220989",
    "longitude": "-90.10686391407584",
    "latitude": "29.938645910117852",
    "geocoded_column": {
      "latitude": "29.938645910117852",
      "longitude": "-90.10686391407584"
    }
  },
  {
    "service_request": "2025-1183980",
    "request_type": "Streetlights",
    "request_reason": "Streetlight Outage/Malfunction",
    "date_created": "2025-04-14T18:38:52.000",
    "date_modified": "2025-04-14T18:38:54.000",
    "request_status": "Pending",
    "responsible_agency": "Department of Public Works",
    "final_address": "3407 Napoleon Ave",
    "address_councildis": "B",
    "status": "Pending",
    "contractor": "Legacy Professional Services",
    "rowid": "1183980",
    "final_x": "3670297.1371",
    "final_y": "527348.538495",
    "longitude": "-90.10358638905268",
    "latitude": "29.9443609219593",
    "geocoded_column": {
      "latitude": "29.9443609219593",
      "longitude": "-90.10358638905268"
    }
  },
  {
    "service_request": "2025-1183979",
    "request_type": "Trash/Recycling",
    "request_reason": "Request a Large Item Pick Up",
    "date_created": "2025-04-14T18:38:23.000",
    "date_modified": "2025-04-14T18:38:25.000",
    "request_status": "Pending",
    "responsible_agency": "Department of Sanitation",
    "final_address": "7061 W Renaissance Ct",
    "address_councildis": "E",
    "status": "Assigned to Contractor",
    "contractor": "Waste Pro",
    "rowid": "1183979",
    "final_x": "3716869.49701",
    "final_y": "567304.35978",
    "longitude": "-89.9550283421899",
    "latitude": "30.05276742862535",
    "geocoded_column": {
      "latitude": "30.05276742862535",
      "longitude": "-89.9550283421899"
    }
  },
  {
    "service_request": "2025-1183978",
    "request_type": "Roads and Streets",
    "request_reason": "Pothole",
    "date_created": "2025-04-14T18:38:09.000",
    "date_modified": "2025-04-14T18:38:11.000",
    "request_status": "Pending",
    "responsible_agency": "Department of Public Works",
    "final_address": "4438 Elba St",
    "address_councildis": "B",
    "status": "Pending",
    "rowid": "1183978",
    "final_x": "3669550.25198",
    "final_y": "530490.593922",
    "longitude": "-90.10583825371941",
    "latitude": "29.95302256762158",
    "geocoded_column": {
      "latitude": "29.95302256762158",
      "longitude": "-90.10583825371941"
    }
  },
  {
    "service_request": "2025-1183977",
    "request_type": "Trash/Recycling",
    "request_reason": "Damaged Caused By Contractor",
    "date_created": "2025-04-14T18:36:08.000",
    "date_modified": "2025-04-14T21:00:12.000",
    "case_close_date": "2025-04-14T16:00:11.000",
    "request_status": "Closed",
    "responsible_agency": "Department of Sanitation",
    "final_address": "7717 Woodbine Dr",
    "address_councildis": "E",
    "status": "Invalid Request",
    "contractor": "Waste Pro",
    "contractor_action": "Invalid Request",
    "rowid": "1183977",
    "final_x": "3701930.11927",
    "final_y": "561693.984927",
    "longitude": "-90.00245317479602",
    "latitude": "30.037826759519366",
    "geocoded_column": {
      "latitude": "30.037826759519366",
      "longitude": "-90.00245317479602"
    }
  },
  {
    "service_request": "2025-1183976",
    "request_type": "Streetlights",
    "request_reason": "Streetlight Outage/Malfunction",
    "date_created": "2025-04-14T18:34:58.000",
    "date_modified": "2025-04-14T18:35:00.000",
    "request_status": "Pending",
    "responsible_agency": "Department of Public Works",
    "final_address": "3333 Napoleon Ave",
    "address_councildis": "B",
    "status": "Pending",
    "contractor": "Legacy Professional Services",
    "rowid": "1183976",
    "final_x": "3670355.6827",
    "final_y": "527176.040063",
    "longitude": "-90.10340738920664",
    "latitude": "29.943884879612",
    "geocoded_column": {
      "latitude": "29.943884879612",
      "longitude": "-90.10340738920664"
    }
  },
  {
    "service_request": "2025-1183975",
    "request_type": "Trash/Recycling",
    "request_reason": "Order Trash Cart",
    "date_created": "2025-04-14T18:34:54.000",
    "date_modified": "2025-04-14T18:34:56.000",
    "request_status": "Pending",
    "responsible_agency": "Department of Sanitation",
    "final_address": "6203 Pasteur Blvd",
    "address_councildis": "D",
    "status": "Assigned to Contractor",
    "contractor": "IV Waste",
    "rowid": "1183975",
    "final_x": "3682815.45231",
    "final_y": "555778.089561",
    "longitude": "-90.06306744178457",
    "latitude": "30.022156846234857",
    "geocoded_column": {
      "latitude": "30.022156846234857",
      "longitude": "-90.06306744178457"
    }
  },
  {
    "service_request": "2025-1183974",
    "request_type": "Streetlights",
    "request_reason": "Streetlight Outage/Malfunction",
    "date_created": "2025-04-14T18:31:21.000",
    "date_modified": "2025-04-14T18:31:23.000",
    "request_status": "Pending",
    "responsible_agency": "Department of Public Works",
    "final_address": "3323 Napoleon Ave",
    "address_councildis": "B",
    "status": "Pending",
    "contractor": "Legacy Professional Services",
    "rowid": "1183974",
    "final_x": "3670324.4443",
    "final_y": "527124.147583",
    "longitude": "-90.10350777608713",
    "latitude": "29.94374311412862",
    "geocoded_column": {
      "latitude": "29.94374311412862",
      "longitude": "-90.10350777608713"
    }
  },
  {
    "service_request": "2025-1183973",
    "request_type": "Streetlights",
    "request_reason": "Streetlight Outage/Malfunction",
    "date_created": "2025-04-14T18:28:16.000",
    "date_modified": "2025-04-14T18:28:18.000",
    "request_status": "Pending",
    "responsible_agency": "Department of Public Works",
    "final_address": "3311 Napoleon Ave",
    "address_councildis": "B",
    "status": "Pending",
    "contractor": "Legacy Professional Services",
    "rowid": "1183973",
    "final_x": "3670337.48148",
    "final_y": "526999.444286",
    "longitude": "-90.10347084003443",
    "latitude": "29.94339983587492",
    "geocoded_column": {
      "latitude": "29.94339983587492",
      "longitude": "-90.10347084003443"
    }
  },
  {
    "service_request": "2025-1183972",
    "request_type": "Trash/Recycling",
    "request_reason": "Repair Recycling Cart",
    "date_created": "2025-04-14T18:26:09.000",
    "date_modified": "2025-04-14T18:26:10.000",
    "request_status": "Pending",
    "responsible_agency": "Department of Sanitation",
    "final_address": "7717 Woodbine Dr",
    "address_councildis": "E",
    "status": "Pending",
    "rowid": "1183972",
    "final_x": "3701930.11927",
    "final_y": "561693.984927",
    "longitude": "-90.00245317479602",
    "latitude": "30.037826759519366",
    "geocoded_column": {
      "latitude": "30.037826759519366",
      "longitude": "-90.00245317479602"
    }
  },
  {
    "service_request": "2025-1183971",
    "request_type": "Streetlights",
    "request_reason": "Streetlight Outage/Malfunction",
    "date_created": "2025-04-14T18:24:22.000",
    "date_modified": "2025-04-14T18:24:24.000",
    "request_status": "Pending",
    "responsible_agency": "Department of Public Works",
    "final_address": "3223 Napoleon Ave",
    "address_councildis": "B",
    "status": "Pending",
    "contractor": "Legacy Professional Services",
    "rowid": "1183971",
    "final_x": "3670366.23303",
    "final_y": "526769.715006",
    "longitude": "-90.10338784928938",
    "latitude": "29.94276730648888",
    "geocoded_column": {
      "latitude": "29.94276730648888",
      "longitude": "-90.10338784928938"
    }
  },
  {
    "service_request": "2025-1183970",
    "request_type": "Streetlights",
    "request_reason": "Streetlight Outage/Malfunction",
    "date_created": "2025-04-14T18:19:30.000",
    "date_modified": "2025-04-14T18:19:32.000",
    "request_status": "Pending",
    "responsible_agency": "Department of Public Works",
    "final_address": "3015 Napoleon Ave",
    "address_councildis": "B",
    "status": "Pending",
    "contractor": "Legacy Professional Services",
    "rowid": "1183970",
    "final_x": "3670431.92724",
    "final_y": "526095.335614",
    "longitude": "-90.10320329456727",
    "latitude": "29.9409110430699",
    "geocoded_column": {
      "latitude": "29.9409110430699",
      "longitude": "-90.10320329456727"
    }
  },
  {
    "service_request": "2025-1183969",
    "request_type": "Streetlights",
    "request_reason": "Streetlight Outage/Malfunction",
    "date_created": "2025-04-14T18:15:30.000",
    "date_modified": "2025-04-14T18:15:32.000",
    "request_status": "Pending",
    "responsible_agency": "Department of Public Works",
    "final_address": "3001 Napoleon Ave",
    "address_councildis": "B",
    "status": "Pending",
    "contractor": "Legacy Professional Services",
    "rowid": "1183969",
    "final_x": "3670439.57364",
    "final_y": "526011.782654",
    "longitude": "-90.10318198547056",
    "latitude": "29.940681073816275",
    "geocoded_column": {
      "latitude": "29.940681073816275",
      "longitude": "-90.10318198547056"
    }
  },
  {
    "service_request": "2025-1183968",
    "request_type": "Streetlights",
    "request_reason": "Streetlight Outage/Malfunction",
    "date_created": "2025-04-14T18:10:41.000",
    "date_modified": "2025-04-14T18:10:43.000",
    "request_status": "Pending",
    "responsible_agency": "Department of Public Works",
    "final_address": "3435 Napoleon Ave",
    "address_councildis": "B",
    "status": "Pending",
    "contractor": "Legacy Professional Services",
    "rowid": "1183968",
    "final_x": "3670286.61831",
    "final_y": "527407.125567",
    "longitude": "-90.10361761482048",
    "latitude": "29.94452232773598",
    "geocoded_column": {
      "latitude": "29.94452232773598",
      "longitude": "-90.10361761482048"
    }
  },
  {
    "service_request": "2025-1183967",
    "request_type": "Trash/Recycling",
    "request_reason": "Request a Large Item Pick Up",
    "date_created": "2025-04-14T18:07:13.000",
    "date_modified": "2025-04-14T18:07:15.000",
    "request_status": "Pending",
    "responsible_agency": "Department of Sanitation",
    "final_address": "2347 Martin Luther King, Jr. Blvd",
    "address_councildis": "B",
    "status": "Assigned to Contractor",
    "contractor": "IV Waste",
    "rowid": "1183967",
    "final_x": "3676734.24801",
    "final_y": "527186.663487",
    "longitude": "-90.08326813891227",
    "latitude": "29.943724289161807",
    "geocoded_column": {
      "latitude": "29.943724289161807",
      "longitude": "-90.08326813891227"
    }
  },
  {
    "service_request": "2025-1183966",
    "request_type": "Trash/Recycling",
    "request_reason": "Request a Large Item Pick Up",
    "date_created": "2025-04-14T18:06:14.000",
    "date_modified": "2025-04-14T18:06:17.000",
    "request_status": "Pending",
    "responsible_agency": "Department of Sanitation",
    "final_address": "5626 Royal St",
    "address_councildis": "E",
    "status": "Assigned to Contractor",
    "contractor": "Waste Pro",
    "rowid": "1183966",
    "final_x": "3697850.59248",
    "final_y": "532171.744515",
    "longitude": "-90.01641768247326",
    "latitude": "29.95678117863615",
    "geocoded_column": {
      "latitude": "29.95678117863615",
      "longitude": "-90.01641768247326"
    }
  },
  {
    "service_request": "2025-1183965",
    "request_type": "Streetlights",
    "request_reason": "Streetlight Outage/Malfunction",
    "date_created": "2025-04-14T18:02:23.000",
    "date_modified": "2025-04-14T18:02:25.000",
    "request_status": "Pending",
    "responsible_agency": "Department of Public Works",
    "final_address": "3101 Napoleon Ave",
    "address_councildis": "B",
    "status": "Pending",
    "contractor": "Legacy Professional Services",
    "rowid": "1183965",
    "final_x": "3670407.42926",
    "final_y": "526303.14195",
    "longitude": "-90.10327359622336",
    "latitude": "29.94148316619606",
    "geocoded_column": {
      "latitude": "29.94148316619606",
      "longitude": "-90.10327359622336"
    }
  },
  {
    "service_request": "2025-1183964",
    "request_type": "Traffic Signals",
    "request_reason": "Traffic Signal Malfunctioning or Damaged",
    "date_created": "2025-04-14T17:58:17.000",
    "date_modified": "2025-04-14T17:58:18.000",
    "request_status": "Pending",
    "responsible_agency": "Department of Public Works",
    "final_address": "4515 Charlene Dr",
    "address_councildis": "E",
    "status": "Pending",
    "rowid": "1183964",
    "final_x": "3708115.79998",
    "final_y": "554156.404824",
    "longitude": "-89.98318575028601",
    "latitude": "30.016902367597588",
    "geocoded_column": {
      "latitude": "30.016902367597588",
      "longitude": "-89.98318575028601"
    }
  },
  {
    "service_request": "2025-1183963",
    "request_type": "Healthy Homes",
    "request_reason": "Healthy Homes",
    "date_created": "2025-04-14T17:48:40.000",
    "date_modified": "2025-04-14T17:48:42.000",
    "request_status": "Pending",
    "responsible_agency": "Department of Code Enforcement",
    "final_address": "1416 Sumner St",
    "address_councildis": "C",
    "status": "Pending",
    "rowid": "1183963",
    "final_x": "3691119.54377",
    "final_y": "526091.189054",
    "longitude": "-90.03788917987472",
    "latitude": "29.940272743661726",
    "geocoded_column": {
      "latitude": "29.940272743661726",
      "longitude": "-90.03788917987472"
    }
  },
  {
    "service_request": "2025-1183962",
    "request_type": "Trash/Recycling",
    "request_reason": "Order Recycling Cart",
    "date_created": "2025-04-14T17:44:52.000",
    "date_modified": "2025-04-14T17:44:53.000",
    "request_status": "Pending",
    "responsible_agency": "Department of Sanitation",
    "final_address": "3032 Orleans Ave",
    "address_councildis": "A",
    "status": "Pending",
    "rowid": "1183962",
    "final_x": "3675511.17934",
    "final_y": "537892.435337",
    "longitude": "-90.08676197357316",
    "latitude": "29.97319820491467",
    "geocoded_column": {
      "latitude": "29.97319820491467",
      "longitude": "-90.08676197357316"
    }
  },
  {
    "service_request": "2025-1183961",
    "request_type": "Abandoned Vehicles",
    "request_reason": "Abandoned/Junk Vehicles",
    "date_created": "2025-04-14T17:29:12.000",
    "date_modified": "2025-04-14T17:29:14.000",
    "request_status": "Pending",
    "responsible_agency": "Department of Public Works",
    "final_address": "2801 N Rampart St",
    "address_councildis": "C",
    "status": "Pending",
    "rowid": "1183961",
    "final_x": "3687649.23913",
    "final_y": "535905.843783",
    "longitude": "-90.04849800074929",
    "latitude": "29.96736709522254",
    "geocoded_column": {
      "latitude": "29.96736709522254",
      "longitude": "-90.04849800074929"
    }
  },
  {
    "service_request": "2025-1183960",
    "request_type": "Trash/Recycling",
    "request_reason": "Request a Large Item Pick Up",
    "date_created": "2025-04-14T17:29:03.000",
    "date_modified": "2025-04-14T17:29:06.000",
    "request_status": "Pending",
    "responsible_agency": "Department of Sanitation",
    "final_address": "2124 Calhoun St, New Orleans, Louisiana, 70118",
    "address_councildis": "A",
    "status": "Assigned to Contractor",
    "contractor": "IV Waste",
    "rowid": "1183960",
    "final_x": "3665666.75104",
    "final_y": "524959.463997",
    "longitude": "-90.11828589457117",
    "latitude": "29.937927564694842",
    "geocoded_column": {
      "latitude": "29.937927564694842",
      "longitude": "-90.11828589457117"
    }
  },
  {
    "service_request": "2025-1183958",
    "request_type": "Roads and Streets",
    "request_reason": "Pothole",
    "date_created": "2025-04-14T17:25:35.000",
    "date_modified": "2025-04-14T17:25:36.000",
    "request_status": "Pending",
    "responsible_agency": "Department of Public Works",
    "final_address": "3000 Orleans Ave",
    "address_councildis": "A",
    "status": "Pending",
    "rowid": "1183958",
    "final_x": "3675717.68494",
    "final_y": "537739.356104",
    "longitude": "-90.08611504916018",
    "latitude": "29.972771110258197",
    "geocoded_column": {
      "latitude": "29.972771110258197",
      "longitude": "-90.08611504916018"
    }
  },
  {
    "service_request": "2025-1183957",
    "request_type": "Trash/Recycling",
    "request_reason": "Order Trash Cart",
    "date_created": "2025-04-14T17:19:58.000",
    "date_modified": "2025-04-14T17:20:00.000",
    "request_status": "Pending",
    "responsible_agency": "Department of Sanitation",
    "final_address": "20 Admiralty Ct",
    "address_councildis": "C",
    "status": "Assigned to Contractor",
    "contractor": "Richards Disposal",
    "rowid": "1183957",
    "final_x": "3704016.43601",
    "final_y": "522950.360763",
    "longitude": "-89.99728758415684",
    "latitude": "29.931229346182075",
    "geocoded_column": {
      "latitude": "29.931229346182075",
      "longitude": "-89.99728758415684"
    }
  },
  {
    "service_request": "2025-1183956",
    "request_type": "Street and Traffic Signs",
    "request_reason": "Additional Signage Request",
    "date_created": "2025-04-14T17:19:57.000",
    "date_modified": "2025-04-14T17:19:59.000",
    "request_status": "Pending",
    "responsible_agency": "Department of Public Works",
    "final_address": "1620 Pauger St",
    "address_councildis": "C",
    "status": "Pending",
    "rowid": "1183956",
    "final_x": "3683879.38268",
    "final_y": "535663.822471",
    "longitude": "-90.06041173994095",
    "latitude": "29.96681731398104",
    "geocoded_column": {
      "latitude": "29.96681731398104",
      "longitude": "-90.06041173994095"
    }
  },
  {
    "service_request": "2025-1183955",
    "request_type": "Trash/Recycling",
    "request_reason": "Replace Trash Cart",
    "date_created": "2025-04-14T17:11:14.000",
    "date_modified": "2025-04-14T17:11:15.000",
    "request_status": "Pending",
    "responsible_agency": "Department of Sanitation",
    "final_address": "1630 N Tonti St",
    "address_councildis": "D",
    "status": "Assigned to Contractor",
    "contractor": "IV Waste",
    "rowid": "1183955",
    "final_x": "3680398.17615",
    "final_y": "539477.543114",
    "longitude": "-90.07127272679412",
    "latitude": "29.97740960944892",
    "geocoded_column": {
      "latitude": "29.97740960944892",
      "longitude": "-90.07127272679412"
    }
  },
  {
    "service_request": "2025-1183954",
    "request_type": "Streetlights",
    "request_reason": "Streetlight Outage/Malfunction",
    "date_created": "2025-04-14T17:03:28.000",
    "date_modified": "2025-04-14T17:03:30.000",
    "request_status": "Pending",
    "responsible_agency": "Department of Public Works",
    "final_address": "736 City Park Ave",
    "address_councildis": "A",
    "status": "Pending",
    "contractor": "Legacy Professional Services",
    "rowid": "1183954",
    "final_x": "3670799.39079",
    "final_y": "541685.461516",
    "longitude": "-90.10151400201269",
    "latitude": "29.983767846140672",
    "geocoded_column": {
      "latitude": "29.983767846140672",
      "longitude": "-90.10151400201269"
    }
  },
  {
    "service_request": "2025-1183953",
    "request_type": "Trash/Recycling",
    "request_reason": "Order Trash Cart",
    "date_created": "2025-04-14T16:56:20.000",
    "date_modified": "2025-04-14T16:56:22.000",
    "request_status": "Pending",
    "responsible_agency": "Department of Sanitation",
    "final_address": "1215 St Denis St",
    "address_councildis": "D",
    "status": "Assigned to Contractor",
    "contractor": "IV Waste",
    "rowid": "1183953",
    "final_x": "3676842.12315",
    "final_y": "545689.971984",
    "longitude": "-90.08228971183446",
    "latitude": "29.99459884863834",
    "geocoded_column": {
      "latitude": "29.99459884863834",
      "longitude": "-90.08228971183446"
    }
  },
  {
    "service_request": "2025-1183952",
    "request_type": "Abandoned Vehicles",
    "request_reason": "Abandoned/Junk Vehicles",
    "date_created": "2025-04-14T16:55:35.000",
    "date_modified": "2025-04-14T16:55:36.000",
    "request_status": "Pending",
    "responsible_agency": "Department of Public Works",
    "final_address": "3228 Washington Ave",
    "address_councildis": "B",
    "status": "Pending",
    "rowid": "1183952",
    "final_x": "3672569.07559",
    "final_y": "527459.805119",
    "longitude": "-90.09640941923094",
    "latitude": "29.94459962785325",
    "geocoded_column": {
      "latitude": "29.94459962785325",
      "longitude": "-90.09640941923094"
    }
  },
  {
    "service_request": "2025-1183951",
    "request_type": "Trash/Recycling",
    "request_reason": "Order Trash Cart",
    "date_created": "2025-04-14T16:55:30.000",
    "date_modified": "2025-04-14T16:55:31.000",
    "request_status": "Pending",
    "responsible_agency": "Department of Sanitation",
    "final_address": "1213 St Denis St",
    "address_councildis": "D",
    "status": "Assigned to Contractor",
    "contractor": "IV Waste",
    "rowid": "1183951",
    "final_x": "3676828.47611",
    "final_y": "545688.334416",
    "longitude": "-90.08233287767135",
    "latitude": "29.99459475559177",
    "geocoded_column": {
      "latitude": "29.99459475559177",
      "longitude": "-90.08233287767135"
    }
  },
  {
    "service_request": "2025-1183950",
    "request_type": "Streetlights",
    "request_reason": "Streetlight Outage/Malfunction",
    "date_created": "2025-04-14T16:55:02.000",
    "date_modified": "2025-04-14T16:55:04.000",
    "request_status": "Pending",
    "responsible_agency": "Department of Public Works",
    "final_address": "3601 St Bernard Ave",
    "address_councildis": "D",
    "status": "Pending",
    "contractor": "Legacy Professional Services",
    "rowid": "1183950",
    "final_x": "3678356.92942",
    "final_y": "545461.438224",
    "longitude": "-90.07751253492788",
    "latitude": "29.993924898238106",
    "geocoded_column": {
      "latitude": "29.993924898238106",
      "longitude": "-90.07751253492788"
    }
  },
  {
    "service_request": "2025-1183949",
    "request_type": "Abandoned Vehicles",
    "request_reason": "Abandoned/Junk Vehicles",
    "date_created": "2025-04-14T16:53:11.000",
    "date_modified": "2025-04-14T16:53:13.000",
    "request_status": "Pending",
    "responsible_agency": "Department of Public Works",
    "final_address": "3200 Washington Ave",
    "address_councildis": "B",
    "status": "Pending",
    "rowid": "1183949",
    "final_x": "3672685.95118",
    "final_y": "527323.834239",
    "longitude": "-90.09604504339562",
    "latitude": "29.944222282809143",
    "geocoded_column": {
      "latitude": "29.944222282809143",
      "longitude": "-90.09604504339562"
    }
  },
  {
    "service_request": "2025-1183948",
    "request_type": "Street and Traffic Signs",
    "request_reason": "Stop Sign Missing or Damaged",
    "date_created": "2025-04-14T16:46:31.000",
    "date_modified": "2025-04-14T16:46:33.000",
    "request_status": "Pending",
    "responsible_agency": "Department of Public Works",
    "final_address": "LAURADALE DR & DE ARMAS ST",
    "address_councildis": "C",
    "status": "Pending",
    "rowid": "1183948",
    "final_x": "3692835.5",
    "final_y": "526959.88",
    "longitude": "-90.03244052002883",
    "latitude": "29.9426078905485",
    "geocoded_column": {
      "latitude": "29.9426078905485",
      "longitude": "-90.03244052002883"
    }
  },
  {
    "service_request": "2025-1183947",
    "request_type": "Abandoned Vehicles",
    "request_reason": "Abandoned/Junk Vehicles",
    "date_created": "2025-04-14T16:45:57.000",
    "date_modified": "2025-04-14T16:45:59.000",
    "request_status": "Pending",
    "responsible_agency": "Department of Public Works",
    "final_address": "2425 N Villere St",
    "address_councildis": "C",
    "status": "Pending",
    "rowid": "1183947",
    "final_x": "3686636.48879",
    "final_y": "537582.014984",
    "longitude": "-90.05163706505712",
    "latitude": "29.97200716739827",
    "geocoded_column": {
      "latitude": "29.97200716739827",
      "longitude": "-90.05163706505712"
    }
  },
  {
    "service_request": "2025-1183946",
    "request_type": "Trash/Recycling",
    "request_reason": "Request a Large Item Pick Up",
    "date_created": "2025-04-14T16:45:39.000",
    "date_modified": "2025-04-14T16:45:41.000",
    "request_status": "Pending",
    "responsible_agency": "Department of Sanitation",
    "final_address": "401 Henry Clay Ave",
    "address_councildis": "A",
    "status": "Assigned to Contractor",
    "contractor": "IV Waste",
    "rowid": "1183946",
    "final_x": "3663323.44538",
    "final_y": "518259.537782",
    "longitude": "-90.125906834101",
    "latitude": "29.919572990303546",
    "geocoded_column": {
      "latitude": "29.919572990303546",
      "longitude": "-90.125906834101"
    }
  },
  {
    "service_request": "2025-1183945",
    "request_type": "Streetlights",
    "request_reason": "Streetlight Knocked Down/Leaning",
    "date_created": "2025-04-14T16:45:34.000",
    "date_modified": "2025-04-14T16:45:36.000",
    "request_status": "Pending",
    "responsible_agency": "Department of Public Works",
    "final_address": "2936 Esplanade Ave",
    "address_councildis": "A",
    "status": "Pending",
    "contractor": "Legacy Professional Services",
    "rowid": "1183945",
    "final_x": "3676897.06152",
    "final_y": "539847.711754",
    "longitude": "-90.0823176576189",
    "latitude": "29.97853301419052",
    "geocoded_column": {
      "latitude": "29.97853301419052",
      "longitude": "-90.0823176576189"
    }
  },
  {
    "service_request": "2025-1183944",
    "request_type": "Mosquito, Termite & Rodent Control",
    "request_reason": "Rodent Complaint (Rats)",
    "date_created": "2025-04-14T16:42:56.000",
    "date_modified": "2025-04-14T16:42:57.000",
    "request_status": "Pending",
    "responsible_agency": "Mosquito, Termite & Rodent Control Board",
    "final_address": "3629 Bruxelles St",
    "address_councildis": "D",
    "status": "Pending",
    "rowid": "1183944",
    "final_x": "3680119.94114",
    "final_y": "545766.837648",
    "longitude": "-90.07193281570949",
    "latitude": "29.994711391410032",
    "geocoded_column": {
      "latitude": "29.994711391410032",
      "longitude": "-90.07193281570949"
    }
  },
  {
    "service_request": "2025-1183943",
    "request_type": "Trash/Recycling",
    "request_reason": "Request a Large Item Pick Up",
    "date_created": "2025-04-14T16:38:06.000",
    "date_modified": "2025-04-14T16:38:07.000",
    "request_status": "Pending",
    "responsible_agency": "Department of Sanitation",
    "final_address": "1927 Marengo St",
    "address_councildis": "B",
    "status": "Assigned to Contractor",
    "contractor": "IV Waste",
    "rowid": "1183943",
    "final_x": "3671901.55585",
    "final_y": "522286.386874",
    "longitude": "-90.09869297941121",
    "latitude": "29.93039420264244",
    "geocoded_column": {
      "latitude": "29.93039420264244",
      "longitude": "-90.09869297941121"
    }
  },
  {
    "service_request": "2025-1183942",
    "request_type": "Mosquito, Termite & Rodent Control",
    "request_reason": "Rodent Complaint (Rats)",
    "date_created": "2025-04-14T16:35:24.000",
    "date_modified": "2025-04-14T16:35:25.000",
    "request_status": "Pending",
    "responsible_agency": "Mosquito, Termite & Rodent Control Board",
    "final_address": "3631 Bruxelles St",
    "address_councildis": "D",
    "status": "Pending",
    "rowid": "1183942",
    "final_x": "3680118.96859",
    "final_y": "545784.52552",
    "longitude": "-90.07193527279112",
    "latitude": "29.994760056241976",
    "geocoded_column": {
      "latitude": "29.994760056241976",
      "longitude": "-90.07193527279112"
    }
  },
  {
    "service_request": "2025-1183941",
    "request_type": "Streetlights",
    "request_reason": "Streetlight Outage/Malfunction",
    "date_created": "2025-04-14T16:34:25.000",
    "date_modified": "2025-04-14T16:34:26.000",
    "request_status": "Pending",
    "responsible_agency": "Department of Public Works",
    "final_address": "11435 Will Stutley Dr",
    "address_councildis": "E",
    "status": "Pending",
    "contractor": "Legacy Professional Services",
    "rowid": "1183941",
    "final_x": "3717635.28748",
    "final_y": "558308.082396",
    "longitude": "-89.95295047080668",
    "latitude": "30.02800597084609",
    "geocoded_column": {
      "latitude": "30.02800597084609",
      "longitude": "-89.95295047080668"
    }
  },
  {
    "service_request": "2025-1183940",
    "request_type": "Trash/Recycling",
    "request_reason": "Request a Large Item Pick Up",
    "date_created": "2025-04-14T16:31:24.000",
    "date_modified": "2025-04-14T16:31:26.000",
    "request_status": "Pending",
    "responsible_agency": "Department of Sanitation",
    "final_address": "4957 Chantilly Dr",
    "address_councildis": "E",
    "status": "Assigned to Contractor",
    "contractor": "Waste Pro",
    "rowid": "1183940",
    "final_x": "3700838.95633",
    "final_y": "555471.063897",
    "longitude": "-90.00612928265917",
    "latitude": "30.020750933229035",
    "geocoded_column": {
      "latitude": "30.020750933229035",
      "longitude": "-90.00612928265917"
    }
  },
  {
    "service_request": "2025-1183939",
    "request_type": "Trash/Recycling",
    "request_reason": "Return Trash Cart",
    "date_created": "2025-04-14T16:30:24.000",
    "date_modified": "2025-04-14T16:30:26.000",
    "request_status": "Pending",
    "responsible_agency": "Department of Sanitation",
    "final_address": "4957 Chantilly Dr",
    "address_councildis": "E",
    "status": "Assigned to Contractor",
    "contractor": "Waste Pro",
    "rowid": "1183939",
    "final_x": "3700838.95633",
    "final_y": "555471.063897",
    "longitude": "-90.00612928265917",
    "latitude": "30.020750933229035",
    "geocoded_column": {
      "latitude": "30.020750933229035",
      "longitude": "-90.00612928265917"
    }
  },
  {
    "service_request": "2025-1183938",
    "request_type": "Trash/Recycling",
    "request_reason": "Repair Recycling Cart",
    "date_created": "2025-04-14T16:27:59.000",
    "date_modified": "2025-04-14T16:28:01.000",
    "request_status": "Pending",
    "responsible_agency": "Department of Sanitation",
    "final_address": "7211 Beauvoir Ct",
    "address_councildis": "E",
    "status": "Pending",
    "rowid": "1183938",
    "final_x": "3716367.85132",
    "final_y": "567707.302628",
    "longitude": "-89.95659858320813",
    "latitude": "30.0538919379059",
    "geocoded_column": {
      "latitude": "30.0538919379059",
      "longitude": "-89.95659858320813"
    }
  },
  {
    "service_request": "2025-1183937",
    "request_type": "Trash/Recycling",
    "request_reason": "Request a Large Item Pick Up",
    "date_created": "2025-04-14T16:26:19.000",
    "date_modified": "2025-04-14T16:26:22.000",
    "request_status": "Pending",
    "responsible_agency": "Department of Sanitation",
    "final_address": "901 Sumner St",
    "address_councildis": "C",
    "status": "Assigned to Contractor",
    "contractor": "Richards Disposal",
    "rowid": "1183937",
    "final_x": "3691084.36624",
    "final_y": "528135.215935",
    "longitude": "-90.03792728396634",
    "latitude": "29.945894211001857",
    "geocoded_column": {
      "latitude": "29.945894211001857",
      "longitude": "-90.03792728396634"
    }
  },
  {
    "service_request": "2025-1183936",
    "request_type": "Roads and Streets",
    "request_reason": "Pothole",
    "date_created": "2025-04-14T16:20:54.000",
    "date_modified": "2025-04-14T16:20:55.000",
    "request_status": "Pending",
    "responsible_agency": "Department of Public Works",
    "final_address": "1204 Henry Clay Ave",
    "address_councildis": "A",
    "status": "Pending",
    "rowid": "1183936",
    "final_x": "3664258.10964",
    "final_y": "520916.620281",
    "longitude": "-90.12286794854776",
    "latitude": "29.926852020722908",
    "geocoded_column": {
      "latitude": "29.926852020722908",
      "longitude": "-90.12286794854776"
    }
  },
  {
    "service_request": "2025-1183935",
    "request_type": "Trash/Recycling",
    "request_reason": "Request a Large Item Pick Up",
    "date_created": "2025-04-14T16:20:32.000",
    "date_modified": "2025-04-14T16:20:34.000",
    "request_status": "Pending",
    "responsible_agency": "Department of Sanitation",
    "final_address": "7625 Lady Gray St",
    "address_councildis": "E",
    "status": "Assigned to Contractor",
    "contractor": "Waste Pro",
    "rowid": "1183935",
    "final_x": "3709993.01029",
    "final_y": "565324.215266",
    "longitude": "-89.97683687860402",
    "latitude": "30.04754847379839",
    "geocoded_column": {
      "latitude": "30.04754847379839",
      "longitude": "-89.97683687860402"
    }
  },
  {
    "service_request": "2025-1183934",
    "request_type": "Abandoned Vehicles",
    "request_reason": "Abandoned/Junk Vehicles",
    "date_created": "2025-04-14T16:17:53.000",
    "date_modified": "2025-04-14T16:17:56.000",
    "request_status": "Pending",
    "responsible_agency": "Department of Public Works",
    "final_address": "CLAYTON AVE & VIRGINIA CT & VIRGINIA ST",
    "address_councildis": "A",
    "status": "Pending",
    "rowid": "1183934",
    "final_x": "3668802.0",
    "final_y": "542027.68",
    "longitude": "-90.10781128901321",
    "latitude": "29.984767721819722",
    "geocoded_column": {
      "latitude": "29.984767721819722",
      "longitude": "-90.10781128901321"
    }
  },
  {
    "service_request": "2025-1183933",
    "request_type": "Trash/Recycling",
    "request_reason": "Repair Recycling Cart",
    "date_created": "2025-04-14T16:16:19.000",
    "date_modified": "2025-04-14T16:16:21.000",
    "request_status": "Pending",
    "responsible_agency": "Department of Sanitation",
    "final_address": "1498 Crescent St",
    "address_councildis": "D",
    "status": "Pending",
    "rowid": "1183933",
    "final_x": "3678445.75144",
    "final_y": "552375.040278",
    "longitude": "-90.07699250734507",
    "latitude": "30.01293216645351",
    "geocoded_column": {
      "latitude": "30.01293216645351",
      "longitude": "-90.07699250734507"
    }
  },
  {
    "service_request": "2025-1183932",
    "request_type": "Trash/Recycling",
    "request_reason": "Request a Large Item Pick Up",
    "date_created": "2025-04-14T16:15:43.000",
    "date_modified": "2025-04-14T16:15:45.000",
    "request_status": "Pending",
    "responsible_agency": "Department of Sanitation",
    "final_address": "1817 General Pershing St",
    "address_councildis": "B",
    "status": "Assigned to Contractor",
    "contractor": "IV Waste",
    "rowid": "1183932",
    "final_x": "3671245.63335",
    "final_y": "521785.59481",
    "longitude": "-90.10078063620091",
    "latitude": "29.92903660239128",
    "geocoded_column": {
      "latitude": "29.92903660239128",
      "longitude": "-90.10078063620091"
    }
  },
  {
    "service_request": "2025-1183931",
    "request_type": "Trash/Recycling",
    "request_reason": "Replace Recycling Cart",
    "date_created": "2025-04-14T16:15:13.000",
    "date_modified": "2025-04-14T16:15:15.000",
    "request_status": "Pending",
    "responsible_agency": "Department of Sanitation",
    "final_address": "1013 Jourdan Ave",
    "address_councildis": "E",
    "status": "Pending",
    "rowid": "1183931",
    "final_x": "3695004.55811",
    "final_y": "534209.716933",
    "longitude": "-90.02533104618331",
    "latitude": "29.962474518094258",
    "geocoded_column": {
      "latitude": "29.962474518094258",
      "longitude": "-90.02533104618331"
    }
  },
  {
    "service_request": "2025-1183930",
    "request_type": "Roads and Streets",
    "request_reason": "Pothole",
    "date_created": "2025-04-14T16:13:27.000",
    "date_modified": "2025-04-14T16:13:28.000",
    "request_status": "Pending",
    "responsible_agency": "Department of Public Works",
    "final_address": "13800 Old Gentilly Rd",
    "address_councildis": "E",
    "status": "Pending",
    "rowid": "1183930",
    "final_x": "3727435.23309",
    "final_y": "556225.911066",
    "longitude": "-89.92206478628862",
    "latitude": "30.02195259142992",
    "geocoded_column": {
      "latitude": "30.02195259142992",
      "longitude": "-89.92206478628862"
    }
  },
  {
    "service_request": "2025-1183929",
    "request_type": "Trash/Recycling",
    "request_reason": "Request a Large Item Pick Up",
    "date_created": "2025-04-14T16:12:12.000",
    "date_modified": "2025-04-14T16:12:13.000",
    "request_status": "Pending",
    "responsible_agency": "Department of Sanitation",
    "final_address": "8414 Green St",
    "address_councildis": "A",
    "status": "Assigned to Contractor",
    "contractor": "IV Waste",
    "rowid": "1183929",
    "final_x": "3662215.18675",
    "final_y": "530467.48365",
    "longitude": "-90.12900005804543",
    "latitude": "29.953173046105153",
    "geocoded_column": {
      "latitude": "29.953173046105153",
      "longitude": "-90.12900005804543"
    }
  },
  {
    "service_request": "2025-1183928",
    "request_type": "Health Related Request",
    "request_reason": "Homeless Encampment Complaint",
    "date_created": "2025-04-14T16:12:11.000",
    "date_modified": "2025-04-14T16:12:12.000",
    "request_status": "Pending",
    "responsible_agency": "Health Department",
    "final_address": "OAK ST & S CARROLLTON AVE",
    "address_councildis": "A",
    "status": "Pending",
    "rowid": "1183928",
    "final_x": "3661989.2",
    "final_y": "528349.78",
    "longitude": "-90.12978386560482",
    "latitude": "29.947356570354405",
    "geocoded_column": {
      "latitude": "29.947356570354405",
      "longitude": "-90.12978386560482"
    }
  },
  {
    "service_request": "2025-1183927",
    "request_type": "Trash/Recycling",
    "request_reason": "Request a Large Item Pick Up",
    "date_created": "2025-04-14T16:12:07.000",
    "date_modified": "2025-04-14T16:12:10.000",
    "request_status": "Pending",
    "responsible_agency": "Department of Sanitation",
    "final_address": "3313 Camp St",
    "address_councildis": "B",
    "status": "Assigned to Contractor",
    "contractor": "IV Waste",
    "rowid": "1183927",
    "final_x": "3675111.24366",
    "final_y": "520117.95052",
    "longitude": "-90.08863483730508",
    "latitude": "29.924336217978798",
    "geocoded_column": {
      "latitude": "29.924336217978798",
      "longitude": "-90.08863483730508"
    }
  },
  {
    "service_request": "2025-1183926",
    "request_type": "Trash/Recycling",
    "request_reason": "Illegal Dumping",
    "date_created": "2025-04-14T16:11:55.000",
    "date_modified": "2025-04-14T16:11:57.000",
    "request_status": "Pending",
    "responsible_agency": "Department of Sanitation",
    "final_address": "4416 S Galvez St",
    "address_councildis": "B",
    "status": "Pending",
    "rowid": "1183926",
    "final_x": "3669981.03988",
    "final_y": "527371.459263",
    "longitude": "-90.1045836256081",
    "latitude": "29.944433270919017",
    "geocoded_column": {
      "latitude": "29.944433270919017",
      "longitude": "-90.1045836256081"
    }
  },
  {
    "service_request": "2025-1183925",
    "request_type": "Traffic Signals",
    "request_reason": "Traffic Signal Malfunctioning or Damaged",
    "date_created": "2025-04-14T16:04:42.000",
    "date_modified": "2025-04-14T16:04:44.000",
    "request_status": "Pending",
    "responsible_agency": "Department of Public Works",
    "final_address": "3300 BLK S Claiborne Ave",
    "address_councildis": "B",
    "status": "Pending",
    "rowid": "1183925",
    "final_x": "3672444.00252",
    "final_y": "526190.520897",
    "longitude": "-90.09684755797484",
    "latitude": "29.9411132229424",
    "geocoded_column": {
      "latitude": "29.9411132229424",
      "longitude": "-90.09684755797484"
    }
  },
  {
    "service_request": "2025-1183924",
    "request_type": "Streetlights",
    "request_reason": "Streetlight Knocked Down/Leaning",
    "date_created": "2025-04-14T16:02:50.000",
    "date_modified": "2025-04-14T16:02:52.000",
    "request_status": "Pending",
    "responsible_agency": "Department of Public Works",
    "final_address": "2936 Esplanade Ave",
    "address_councildis": "A",
    "status": "Pending",
    "contractor": "Legacy Professional Services",
    "rowid": "1183924",
    "final_x": "3676897.06152",
    "final_y": "539847.711754",
    "longitude": "-90.0823176576189",
    "latitude": "29.97853301419052",
    "geocoded_column": {
      "latitude": "29.97853301419052",
      "longitude": "-90.0823176576189"
    }
  },
  {
    "service_request": "2025-1183923",
    "request_type": "Abandoned Vehicles",
    "request_reason": "Abandoned/Junk Vehicles",
    "date_created": "2025-04-14T16:01:55.000",
    "date_modified": "2025-04-14T16:03:12.000",
    "request_status": "Pending",
    "responsible_agency": "Department of Public Works",
    "final_address": "5143 Wentworth Dr",
    "address_councildis": "E",
    "status": "Pending",
    "rowid": "1183923",
    "final_x": "3704766.4657",
    "final_y": "556930.335066",
    "longitude": "-89.99366569877276",
    "latitude": "30.02463769483931",
    "geocoded_column": {
      "latitude": "30.02463769483931",
      "longitude": "-89.99366569877276"
    }
  },
  {
    "service_request": "2025-1183922",
    "request_type": "Trash/Recycling",
    "request_reason": "Order Second Trash Cart",
    "date_created": "2025-04-14T16:00:04.000",
    "date_modified": "2025-04-14T16:00:06.000",
    "request_status": "Pending",
    "responsible_agency": "Department of Sanitation",
    "final_address": "165 Mary Jane Ln",
    "address_councildis": "E",
    "status": "Assigned to Contractor",
    "contractor": "Waste Pro",
    "rowid": "1183922",
    "final_x": "3718282.8453",
    "final_y": "571251.074152",
    "longitude": "-89.95041064404431",
    "latitude": "30.06357243335297",
    "geocoded_column": {
      "latitude": "30.06357243335297",
      "longitude": "-89.95041064404431"
    }
  },
  {
    "service_request": "2025-1183921",
    "request_type": "Trash/Recycling",
    "request_reason": "Request a Large Item Pick Up",
    "date_created": "2025-04-14T15:59:50.000",
    "date_modified": "2025-04-14T15:59:52.000",
    "request_status": "Pending",
    "responsible_agency": "Department of Sanitation",
    "final_address": "4651 Spain St",
    "address_councildis": "D",
    "status": "Assigned to Contractor",
    "contractor": "IV Waste",
    "rowid": "1183921",
    "final_x": "3685119.12021",
    "final_y": "549967.539796",
    "longitude": "-90.05599310792047",
    "latitude": "30.00610953936148",
    "geocoded_column": {
      "latitude": "30.00610953936148",
      "longitude": "-90.05599310792047"
    }
  },
  {
    "service_request": "2025-1183920",
    "request_type": "Trash/Recycling",
    "request_reason": "Request a Large Item Pick Up",
    "date_created": "2025-04-14T15:59:31.000",
    "date_modified": "2025-04-14T15:59:32.000",
    "request_status": "Pending",
    "responsible_agency": "Department of Sanitation",
    "final_address": "7113 Boston Dr",
    "address_councildis": "E",
    "status": "Assigned to Contractor",
    "contractor": "Waste Pro",
    "rowid": "1183920",
    "final_x": "3706265.44772",
    "final_y": "561059.69539",
    "longitude": "-89.98877610304709",
    "latitude": "30.035943545475817",
    "geocoded_column": {
      "latitude": "30.035943545475817",
      "longitude": "-89.98877610304709"
    }
  },
  {
    "service_request": "2025-1183919",
    "request_type": "Trash/Recycling",
    "request_reason": "Repair Trash Cart",
    "date_created": "2025-04-14T15:59:06.000",
    "date_modified": "2025-04-14T15:59:08.000",
    "request_status": "Pending",
    "responsible_agency": "Department of Sanitation",
    "final_address": "7413 Strathmore Dr",
    "address_councildis": "E",
    "status": "Assigned to Contractor",
    "contractor": "Waste Pro",
    "rowid": "1183919",
    "final_x": "3714902.4309",
    "final_y": "566489.131171",
    "longitude": "-89.96127647253836",
    "latitude": "30.05059079626416",
    "geocoded_column": {
      "latitude": "30.05059079626416",
      "longitude": "-89.96127647253836"
    }
  },
  {
    "service_request": "2025-1183918",
    "request_type": "Trash/Recycling",
    "request_reason": "Request a Large Item Pick Up",
    "date_created": "2025-04-14T15:57:31.000",
    "date_modified": "2025-04-14T15:57:32.000",
    "request_status": "Pending",
    "responsible_agency": "Department of Sanitation",
    "final_address": "13400 Wales St",
    "address_councildis": "E",
    "status": "Assigned to Contractor",
    "contractor": "Waste Pro",
    "rowid": "1183918",
    "final_x": "3716481.08792",
    "final_y": "571066.783207",
    "longitude": "-89.9561130476811",
    "latitude": "30.06312537842503",
    "geocoded_column": {
      "latitude": "30.06312537842503",
      "longitude": "-89.9561130476811"
    }
  },
  {
    "service_request": "2025-1183917",
    "request_type": "Trash/Recycling",
    "request_reason": "Repair Trash Cart",
    "date_created": "2025-04-14T15:56:51.000",
    "date_modified": "2025-04-14T15:56:53.000",
    "request_status": "Pending",
    "responsible_agency": "Department of Sanitation",
    "final_address": "8520 Belfast St",
    "address_councildis": "A",
    "status": "Assigned to Contractor",
    "contractor": "IV Waste",
    "rowid": "1183917",
    "final_x": "3664367.88135",
    "final_y": "533423.91066",
    "longitude": "-90.1221040735037",
    "latitude": "29.96123986832636",
    "geocoded_column": {
      "latitude": "29.96123986832636",
      "longitude": "-90.1221040735037"
    }
  },
  {
    "service_request": "2025-1183916",
    "request_type": "Street and Traffic Signs",
    "request_reason": "Stop Sign Missing or Damaged",
    "date_created": "2025-04-14T15:55:31.000",
    "date_modified": "2025-04-14T15:55:40.000",
    "request_status": "Pending",
    "responsible_agency": "Department of Public Works",
    "final_address": "ROYAL ST & FRENCHMEN ST",
    "address_councildis": "C",
    "status": "Pending",
    "rowid": "1183916",
    "final_x": "3684706.3",
    "final_y": "534833.58",
    "longitude": "-90.05782952690005",
    "latitude": "29.964509149186004",
    "geocoded_column": {
      "latitude": "29.964509149186004",
      "longitude": "-90.05782952690005"
    }
  },
  {
    "service_request": "2025-1183915",
    "request_type": "Trash/Recycling",
    "request_reason": "Order Trash Cart",
    "date_created": "2025-04-14T15:52:04.000",
    "date_modified": "2025-04-14T15:52:07.000",
    "request_status": "Pending",
    "responsible_agency": "Department of Sanitation",
    "final_address": "5921 Urquhart St",
    "address_councildis": "E",
    "status": "Assigned to Contractor",
    "contractor": "Waste Pro",
    "rowid": "1183915",
    "final_x": "3699294.11588",
    "final_y": "534229.326533",
    "longitude": "-90.01178459032342",
    "latitude": "29.962393100017863",
    "geocoded_column": {
      "latitude": "29.962393100017863",
      "longitude": "-90.01178459032342"
    }
  },
  {
    "service_request": "2025-1183913",
    "request_type": "Trash/Recycling",
    "request_reason": "Request a Large Item Pick Up",
    "date_created": "2025-04-14T15:45:36.000",
    "date_modified": "2025-04-14T15:45:37.000",
    "request_status": "Pending",
    "responsible_agency": "Department of Sanitation",
    "final_address": "7230 Boston Dr",
    "address_councildis": "E",
    "status": "Assigned to Contractor",
    "contractor": "Waste Pro",
    "rowid": "1183913",
    "final_x": "3706002.05399",
    "final_y": "561464.986655",
    "longitude": "-89.98959344961273",
    "latitude": "30.03706643244553",
    "geocoded_column": {
      "latitude": "30.03706643244553",
      "longitude": "-89.98959344961273"
    }
  },
  {
    "service_request": "2025-1183912",
    "request_type": "Abandoned Vehicles",
    "request_reason": "Abandoned/Junk Vehicles",
    "date_created": "2025-04-14T15:44:33.000",
    "date_modified": "2025-04-14T15:44:34.000",
    "request_status": "Pending",
    "responsible_agency": "Department of Public Works",
    "final_address": "500 BLK S Scott St",
    "address_councildis": "B",
    "status": "Pending",
    "rowid": "1183912",
    "final_x": "3670690.13037",
    "final_y": "536395.277063",
    "longitude": "-90.10203865956761",
    "latitude": "29.969224858332364",
    "geocoded_column": {
      "latitude": "29.969224858332364",
      "longitude": "-90.10203865956761"
    }
  },
  {
    "service_request": "2025-1183911",
    "request_type": "Roads and Streets",
    "request_reason": "Pothole",
    "date_created": "2025-04-14T15:43:12.000",
    "date_modified": "2025-04-14T15:43:14.000",
    "request_status": "Pending",
    "responsible_agency": "Department of Public Works",
    "final_address": "3700 BLK Magazine St",
    "address_councildis": "B",
    "status": "Pending",
    "rowid": "1183911",
    "final_x": "3673521.39767",
    "final_y": "519090.634179",
    "longitude": "-90.09368852368651",
    "latitude": "29.921558818713628",
    "geocoded_column": {
      "latitude": "29.921558818713628",
      "longitude": "-90.09368852368651"
    }
  },
  {
    "service_request": "2025-1183910",
    "request_type": "Property Maintenance",
    "request_reason": "Property Maintenance",
    "date_created": "2025-04-14T15:42:38.000",
    "date_modified": "2025-04-14T15:42:40.000",
    "request_status": "Pending",
    "responsible_agency": "Department of Code Enforcement",
    "final_address": "3110 St Ann St",
    "address_councildis": "A",
    "status": "Pending",
    "rowid": "1183910",
    "final_x": "3675367.51521",
    "final_y": "538360.269513",
    "longitude": "-90.08719962578503",
    "latitude": "29.974488886048874",
    "geocoded_column": {
      "latitude": "29.974488886048874",
      "longitude": "-90.08719962578503"
    }
  },
  {
    "service_request": "2025-1183909",
    "request_type": "Trash/Recycling",
    "request_reason": "Repair Trash Cart",
    "date_created": "2025-04-14T15:42:28.000",
    "date_modified": "2025-04-14T15:42:29.000",
    "request_status": "Pending",
    "responsible_agency": "Department of Sanitation",
    "final_address": "2414 Second St",
    "address_councildis": "B",
    "status": "Assigned to Contractor",
    "contractor": "IV Waste",
    "rowid": "1183909",
    "final_x": "3674997.62433",
    "final_y": "525543.941565",
    "longitude": "-90.08880746339207",
    "latitude": "29.939259323933925",
    "geocoded_column": {
      "latitude": "29.939259323933925",
      "longitude": "-90.08880746339207"
    }
  },
  {
    "service_request": "2025-1183908",
    "request_type": "Trash/Recycling",
    "request_reason": "Repair Trash Cart",
    "date_created": "2025-04-14T15:41:32.000",
    "date_modified": "2025-04-14T15:41:34.000",
    "request_status": "Pending",
    "responsible_agency": "Department of Sanitation",
    "final_address": "2416 Second St",
    "address_councildis": "B",
    "status": "Assigned to Contractor",
    "contractor": "IV Waste",
    "rowid": "1183908",
    "final_x": "3674989.52885",
    "final_y": "525554.864701",
    "longitude": "-90.08883264732633",
    "latitude": "29.939289600747628",
    "geocoded_column": {
      "latitude": "29.939289600747628",
      "longitude": "-90.08883264732633"
    }
  },
  {
    "service_request": "2025-1183907",
    "request_type": "Drainage",
    "request_reason": "Catch Basin Clogged",
    "date_created": "2025-04-14T15:37:43.000",
    "date_modified": "2025-04-14T15:37:45.000",
    "request_status": "Pending",
    "responsible_agency": "Sewerage & Water Board ",
    "final_address": "6032 Bellaire Dr",
    "address_councildis": "A",
    "status": "Pending",
    "rowid": "1183907",
    "final_x": "3664187.20999",
    "final_y": "547901.562642",
    "longitude": "-90.12219137019666",
    "latitude": "30.001053810449676",
    "geocoded_column": {
      "latitude": "30.001053810449676",
      "longitude": "-90.12219137019666"
    }
  },
  {
    "service_request": "2025-1183906",
    "request_type": "Trash/Recycling",
    "request_reason": "Repair Recycling Cart",
    "date_created": "2025-04-14T15:37:39.000",
    "date_modified": "2025-04-14T15:37:41.000",
    "request_status": "Pending",
    "responsible_agency": "Department of Sanitation",
    "final_address": "533 Octavia St",
    "address_councildis": "A",
    "status": "Pending",
    "rowid": "1183906",
    "final_x": "3666324.97645",
    "final_y": "518131.37631",
    "longitude": "-90.11643675021236",
    "latitude": "29.919133276790816",
    "geocoded_column": {
      "latitude": "29.919133276790816",
      "longitude": "-90.11643675021236"
    }
  },
  {
    "service_request": "2025-1183905",
    "request_type": "Trash/Recycling",
    "request_reason": "Repair Trash Cart",
    "date_created": "2025-04-14T15:36:49.000",
    "date_modified": "2025-04-14T15:36:51.000",
    "request_status": "Pending",
    "responsible_agency": "Department of Sanitation",
    "final_address": "6035 Bellaire Dr",
    "address_councildis": "A",
    "status": "Assigned to Contractor",
    "contractor": "IV Waste",
    "rowid": "1183905",
    "final_x": "3664351.3632",
    "final_y": "547933.426002",
    "longitude": "-90.12167173003084",
    "latitude": "30.001136651858324",
    "geocoded_column": {
      "latitude": "30.001136651858324",
      "longitude": "-90.12167173003084"
    }
  },
  {
    "service_request": "2025-1183904",
    "request_type": "Abandoned Vehicles",
    "request_reason": "Abandoned/Junk Vehicles",
    "date_created": "2025-04-14T15:36:22.000",
    "date_modified": "2025-04-14T15:36:23.000",
    "request_status": "Pending",
    "responsible_agency": "Department of Public Works",
    "final_address": "8613 Jeannette St",
    "address_councildis": "A",
    "status": "Pending",
    "rowid": "1183904",
    "final_x": "3661288.15162",
    "final_y": "530461.821762",
    "longitude": "-90.13192743599427",
    "latitude": "29.95318423680016",
    "geocoded_column": {
      "latitude": "29.95318423680016",
      "longitude": "-90.13192743599427"
    }
  },
  {
    "service_request": "2025-1183903",
    "request_type": "Streetlights",
    "request_reason": "New Streetlight Request",
    "date_created": "2025-04-14T15:35:40.000",
    "date_modified": "2025-04-14T15:35:42.000",
    "request_status": "Pending",
    "responsible_agency": "Department of Public Works",
    "final_address": "N PRIEUR ST & URSULINES AVE",
    "address_councildis": "D",
    "status": "Pending",
    "contractor": "Legacy Professional Services",
    "rowid": "1183903",
    "final_x": "3679828.95",
    "final_y": "536453.44",
    "longitude": "-90.0731755726005",
    "latitude": "29.96911159508359",
    "geocoded_column": {
      "latitude": "29.96911159508359",
      "longitude": "-90.0731755726005"
    }
  },
  {
    "service_request": "2025-1183902",
    "request_type": "Trash/Recycling",
    "request_reason": "Request a Large Item Pick Up",
    "date_created": "2025-04-14T15:34:55.000",
    "date_modified": "2025-04-14T15:34:56.000",
    "request_status": "Pending",
    "responsible_agency": "Department of Sanitation",
    "final_address": "6307 General Meyer Ave",
    "address_councildis": "C",
    "status": "Assigned to Contractor",
    "contractor": "Richards Disposal",
    "rowid": "1183902",
    "final_x": "3707709.64593",
    "final_y": "520331.2014",
    "longitude": "-89.98572593878684",
    "latitude": "29.923908653527455",
    "geocoded_column": {
      "latitude": "29.923908653527455",
      "longitude": "-89.98572593878684"
    }
  },
  {
    "service_request": "2025-1183901",
    "request_type": "Trash/Recycling",
    "request_reason": "Repair Trash Cart",
    "date_created": "2025-04-14T15:33:57.000",
    "date_modified": "2025-04-14T15:33:58.000",
    "request_status": "Pending",
    "responsible_agency": "Department of Sanitation",
    "final_address": "3520 Wall Blvd",
    "address_councildis": "C",
    "status": "Assigned to Contractor",
    "contractor": "Richards Disposal",
    "rowid": "1183901",
    "final_x": "3697077.99722",
    "final_y": "523880.31174",
    "longitude": "-90.01915755801801",
    "latitude": "29.93400702139722",
    "geocoded_column": {
      "latitude": "29.93400702139722",
      "longitude": "-90.01915755801801"
    }
  },
  {
    "service_request": "2025-1183900",
    "request_type": "Trash/Recycling",
    "request_reason": "Request a Large Item Pick Up",
    "date_created": "2025-04-14T15:33:06.000",
    "date_modified": "2025-04-14T15:33:08.000",
    "request_status": "Pending",
    "responsible_agency": "Department of Sanitation",
    "final_address": "908 Pacific Ave",
    "address_councildis": "C",
    "status": "Assigned to Contractor",
    "contractor": "Richards Disposal",
    "rowid": "1183900",
    "final_x": "3688479.05033",
    "final_y": "528211.956672",
    "longitude": "-90.04615039683591",
    "latitude": "29.94618595288268",
    "geocoded_column": {
      "latitude": "29.94618595288268",
      "longitude": "-90.04615039683591"
    }
  },
  {
    "service_request": "2025-1183899",
    "request_type": "Trash/Recycling",
    "request_reason": "Illegal Dumping",
    "date_created": "2025-04-14T15:31:58.000",
    "date_modified": "2025-04-14T15:32:00.000",
    "request_status": "Pending",
    "responsible_agency": "Department of Sanitation",
    "final_address": "2724 Hamilton St",
    "address_councildis": "A",
    "status": "Pending",
    "rowid": "1183899",
    "final_x": "3663093.89895",
    "final_y": "534910.871622",
    "longitude": "-90.12607762952732",
    "latitude": "29.965365492446338",
    "geocoded_column": {
      "latitude": "29.965365492446338",
      "longitude": "-90.12607762952732"
    }
  },
  {
    "service_request": "2025-1183898",
    "request_type": "Trash/Recycling",
    "request_reason": "Request a Large Item Pick Up",
    "date_created": "2025-04-14T15:30:30.000",
    "date_modified": "2025-04-14T15:30:32.000",
    "request_status": "Pending",
    "responsible_agency": "Department of Sanitation",
    "final_address": "7813 Mackenzie St",
    "address_councildis": "E",
    "status": "Assigned to Contractor",
    "contractor": "Waste Pro",
    "rowid": "1183898",
    "final_x": "3710627.19185",
    "final_y": "566734.746979",
    "longitude": "-89.97477967620462",
    "latitude": "30.05140620739251",
    "geocoded_column": {
      "latitude": "30.05140620739251",
      "longitude": "-89.97477967620462"
    }
  },
  {
    "service_request": "2025-1183897",
    "request_type": "Trash/Recycling",
    "request_reason": "Request a Large Item Pick Up",
    "date_created": "2025-04-14T15:30:28.000",
    "date_modified": "2025-04-14T15:30:31.000",
    "request_status": "Pending",
    "responsible_agency": "Department of Sanitation",
    "final_address": "4127 Orleans Ave",
    "address_councildis": "A",
    "status": "Assigned to Contractor",
    "contractor": "IV Waste",
    "rowid": "1183897",
    "final_x": "3672476.12916",
    "final_y": "540436.942859",
    "longitude": "-90.09626052968329",
    "latitude": "29.980285176381592",
    "geocoded_column": {
      "latitude": "29.980285176381592",
      "longitude": "-90.09626052968329"
    }
  },
  {
    "service_request": "2025-1183896",
    "request_type": "Trash/Recycling",
    "request_reason": "Illegal Dumping",
    "date_created": "2025-04-14T15:30:23.000",
    "date_modified": "2025-04-14T15:30:25.000",
    "request_status": "Pending",
    "responsible_agency": "Department of Sanitation",
    "final_address": "14736 Curran Rd",
    "address_councildis": "E",
    "status": "Pending",
    "rowid": "1183896",
    "final_x": "3720288.39455",
    "final_y": "573771.325034",
    "longitude": "-89.9439744616258",
    "latitude": "30.07043535485711",
    "geocoded_column": {
      "latitude": "30.07043535485711",
      "longitude": "-89.9439744616258"
    }
  },
  {
    "service_request": "2025-1183895",
    "request_type": "Streetlights",
    "request_reason": "Streetlight Outage/Malfunction",
    "date_created": "2025-04-14T15:24:17.000",
    "date_modified": "2025-04-14T15:24:19.000",
    "request_status": "Pending",
    "responsible_agency": "Department of Public Works",
    "final_address": "7521 Chef Menteur Hwy",
    "address_councildis": "E",
    "status": "Pending",
    "contractor": "Legacy Professional Services",
    "rowid": "1183895",
    "final_x": "3703015.85854",
    "final_y": "552497.21487",
    "longitude": "-89.99936035515056",
    "latitude": "30.01250447560911",
    "geocoded_column": {
      "latitude": "30.01250447560911",
      "longitude": "-89.99936035515056"
    }
  },
  {
    "service_request": "2025-1183894",
    "request_type": "Property Maintenance",
    "request_reason": "Property Maintenance",
    "date_created": "2025-04-14T15:19:25.000",
    "date_modified": "2025-04-14T15:19:27.000",
    "request_status": "Pending",
    "responsible_agency": "Department of Code Enforcement",
    "final_address": "4234 Rayne Dr",
    "address_councildis": "D",
    "status": "Pending",
    "rowid": "1183894",
    "final_x": "3679706.18242",
    "final_y": "547870.936338",
    "longitude": "-90.07316673253884",
    "latitude": "30.000509434758907",
    "geocoded_column": {
      "latitude": "30.000509434758907",
      "longitude": "-90.07316673253884"
    }
  },
  {
    "service_request": "2025-1183893",
    "request_type": "Trash/Recycling",
    "request_reason": "Missed Trash Pick-Up",
    "date_created": "2025-04-14T15:17:55.000",
    "date_modified": "2025-04-14T15:17:56.000",
    "request_status": "Pending",
    "responsible_agency": "Department of Sanitation",
    "final_address": "4500 Shalimar Dr",
    "address_councildis": "D",
    "status": "Assigned to Contractor",
    "contractor": "Waste Pro",
    "rowid": "1183893",
    "final_x": "3697204.51069",
    "final_y": "552944.045463",
    "longitude": "-90.01770467612812",
    "latitude": "30.01391783789882",
    "geocoded_column": {
      "latitude": "30.01391783789882",
      "longitude": "-90.01770467612812"
    }
  },
  {
    "service_request": "2025-1183892",
    "request_type": "Abandoned Vehicles",
    "request_reason": "Abandoned/Junk Vehicles",
    "date_created": "2025-04-14T15:16:07.000",
    "date_modified": "2025-04-14T15:16:08.000",
    "request_status": "Pending",
    "responsible_agency": "Department of Public Works",
    "final_address": "48 Pinewood Ct",
    "address_councildis": "C",
    "status": "Pending",
    "rowid": "1183892",
    "final_x": "3695918.60323",
    "final_y": "523056.736059",
    "longitude": "-90.02284743556217",
    "latitude": "29.931778982646787",
    "geocoded_column": {
      "latitude": "29.931778982646787",
      "longitude": "-90.02284743556217"
    }
  },
  {
    "service_request": "2025-1183891",
    "request_type": "Roads and Streets",
    "request_reason": "Sidewalk Damaged or Missing",
    "date_created": "2025-04-14T15:15:49.000",
    "date_modified": "2025-04-14T15:15:51.000",
    "request_status": "Pending",
    "responsible_agency": "Department of Public Works",
    "final_address": "307 Royal St",
    "address_councildis": "C",
    "status": "Pending",
    "rowid": "1183891",
    "final_x": "3681687.16194",
    "final_y": "531373.705154",
    "longitude": "-90.06748443525743",
    "latitude": "29.955087737577916",
    "geocoded_column": {
      "latitude": "29.955087737577916",
      "longitude": "-90.06748443525743"
    }
  },
  {
    "service_request": "2025-1183890",
    "request_type": "Trash/Recycling",
    "request_reason": "Repair Trash Cart",
    "date_created": "2025-04-14T15:12:47.000",
    "date_modified": "2025-04-14T15:12:48.000",
    "request_status": "Pending",
    "responsible_agency": "Department of Sanitation",
    "final_address": "3319 Dumaine St",
    "address_councildis": "A",
    "status": "Assigned to Contractor",
    "contractor": "IV Waste",
    "rowid": "1183890",
    "final_x": "3675015.95073",
    "final_y": "539205.317898",
    "longitude": "-90.08828095303231",
    "latitude": "29.976822988691858",
    "geocoded_column": {
      "latitude": "29.976822988691858",
      "longitude": "-90.08828095303231"
    }
  },
  {
    "service_request": "2025-1183889",
    "request_type": "Trash/Recycling",
    "request_reason": "Illegal Dumping",
    "date_created": "2025-04-14T15:12:42.000",
    "date_modified": "2025-04-14T15:21:29.000",
    "request_status": "Pending",
    "responsible_agency": "Department of Sanitation",
    "final_address": "PLEASANT ST & ST CHARLES AVE",
    "address_councildis": "B",
    "status": "Pending",
    "rowid": "1183889",
    "final_x": "3674631.4",
    "final_y": "521676.18",
    "longitude": "-90.09009617100403",
    "latitude": "29.928635170078515",
    "geocoded_column": {
      "latitude": "29.928635170078515",
      "longitude": "-90.09009617100403"
    }
  },
  {
    "service_request": "2025-1183888",
    "request_type": "Trash/Recycling",
    "request_reason": "Request a Large Item Pick Up",
    "date_created": "2025-04-14T15:12:26.000",
    "date_modified": "2025-04-14T15:12:28.000",
    "request_status": "Pending",
    "responsible_agency": "Department of Sanitation",
    "final_address": "4810 Major Dr",
    "address_councildis": "E",
    "status": "Assigned to Contractor",
    "contractor": "Waste Pro",
    "rowid": "1183888",
    "final_x": "3718117.0574",
    "final_y": "557331.366491",
    "longitude": "-89.95146534849277",
    "latitude": "30.025304426195316",
    "geocoded_column": {
      "latitude": "30.025304426195316",
      "longitude": "-89.95146534849277"
    }
  },
  {
    "service_request": "2025-1183887",
    "request_type": "Trash/Recycling",
    "request_reason": "Request a Large Item Pick Up",
    "date_created": "2025-04-14T15:11:27.000",
    "date_modified": "2025-04-14T15:11:29.000",
    "request_status": "Pending",
    "responsible_agency": "Department of Sanitation",
    "final_address": "7527 Mackenzie St",
    "address_councildis": "E",
    "status": "Assigned to Contractor",
    "contractor": "Waste Pro",
    "rowid": "1183887",
    "final_x": "3711436.90206",
    "final_y": "565542.882978",
    "longitude": "-89.97226521603733",
    "latitude": "30.04810264224404",
    "geocoded_column": {
      "latitude": "30.04810264224404",
      "longitude": "-89.97226521603733"
    }
  },
  {
    "service_request": "2025-1183886",
    "request_type": "Abandoned Vehicles",
    "request_reason": "Abandoned/Junk Vehicles",
    "date_created": "2025-04-14T15:07:11.000",
    "date_modified": "2025-04-14T15:07:13.000",
    "request_status": "Pending",
    "responsible_agency": "Department of Public Works",
    "final_address": "5042 St Anthony Ave",
    "address_councildis": "D",
    "status": "Pending",
    "rowid": "1183886",
    "final_x": "3682150.96808",
    "final_y": "551286.474837",
    "longitude": "-90.06532409995874",
    "latitude": "30.009826780478733",
    "geocoded_column": {
      "latitude": "30.009826780478733",
      "longitude": "-90.06532409995874"
    }
  },
  {
    "service_request": "2025-1183885",
    "request_type": "Roads and Streets",
    "request_reason": "Pothole",
    "date_created": "2025-04-14T15:05:19.000",
    "date_modified": "2025-04-14T15:05:20.000",
    "request_status": "Pending",
    "responsible_agency": "Department of Public Works",
    "final_address": "3771 General De Gaulle Dr",
    "address_councildis": "C",
    "status": "Pending",
    "rowid": "1183885",
    "final_x": "3697238.37047",
    "final_y": "519576.47884",
    "longitude": "-90.01880714111694",
    "latitude": "29.92216789566761",
    "geocoded_column": {
      "latitude": "29.92216789566761",
      "longitude": "-90.01880714111694"
    }
  },
  {
    "service_request": "2025-1183884",
    "request_type": "Trash/Recycling",
    "request_reason": "Request a Large Item Pick Up",
    "date_created": "2025-04-14T15:05:15.000",
    "date_modified": "2025-04-14T15:05:16.000",
    "request_status": "Pending",
    "responsible_agency": "Department of Sanitation",
    "final_address": "4903 Bonita Dr",
    "address_councildis": "E",
    "status": "Assigned to Contractor",
    "contractor": "Waste Pro",
    "rowid": "1183884",
    "final_x": "3704492.45239",
    "final_y": "556037.478361",
    "longitude": "-89.9945644900989",
    "latitude": "30.022191490308852",
    "geocoded_column": {
      "latitude": "30.022191490308852",
      "longitude": "-89.9945644900989"
    }
  },
  {
    "service_request": "2025-1183883",
    "request_type": "Trash/Recycling",
    "request_reason": "Request a Large Item Pick Up",
    "date_created": "2025-04-14T15:04:57.000",
    "date_modified": "2025-04-14T15:04:58.000",
    "request_status": "Pending",
    "responsible_agency": "Department of Sanitation",
    "final_address": "6329 Dwyer Rd",
    "address_councildis": "D",
    "status": "Assigned to Contractor",
    "contractor": "Waste Pro",
    "rowid": "1183883",
    "final_x": "3697681.95555",
    "final_y": "555239.427225",
    "longitude": "-90.01611283359381",
    "latitude": "30.020214187951225",
    "geocoded_column": {
      "latitude": "30.020214187951225",
      "longitude": "-90.01611283359381"
    }
  },
  {
    "service_request": "2025-1183882",
    "request_type": "Trash/Recycling",
    "request_reason": "Order Recycling Cart",
    "date_created": "2025-04-14T15:02:51.000",
    "date_modified": "2025-04-14T15:02:53.000",
    "request_status": "Pending",
    "responsible_agency": "Department of Sanitation",
    "final_address": "2132 Toledano St",
    "address_councildis": "B",
    "status": "Pending",
    "rowid": "1183882",
    "final_x": "3673696.75214",
    "final_y": "523593.961019",
    "longitude": "-90.09298112923159",
    "latitude": "29.933936298469344",
    "geocoded_column": {
      "latitude": "29.933936298469344",
      "longitude": "-90.09298112923159"
    }
  },
  {
    "service_request": "2025-1183881",
    "request_type": "Trash/Recycling",
    "request_reason": "Request a Large Item Pick Up",
    "date_created": "2025-04-14T15:01:54.000",
    "date_modified": "2025-04-14T15:01:56.000",
    "request_status": "Pending",
    "responsible_agency": "Department of Sanitation",
    "final_address": "7823 Means Ave",
    "address_councildis": "E",
    "status": "Assigned to Contractor",
    "contractor": "Waste Pro",
    "rowid": "1183881",
    "final_x": "3707768.98654",
    "final_y": "565367.631778",
    "longitude": "-89.98386434947577",
    "latitude": "30.047740058798034",
    "geocoded_column": {
      "latitude": "30.047740058798034",
      "longitude": "-89.98386434947577"
    }
  },
  {
    "service_request": "2025-1183880",
    "request_type": "Trash/Recycling",
    "request_reason": "Repair Trash Cart",
    "date_created": "2025-04-14T15:00:55.000",
    "date_modified": "2025-04-14T15:00:57.000",
    "request_status": "Pending",
    "responsible_agency": "Department of Sanitation",
    "final_address": "2132 Toledano St",
    "address_councildis": "B",
    "status": "Assigned to Contractor",
    "contractor": "IV Waste",
    "rowid": "1183880",
    "final_x": "3673696.75214",
    "final_y": "523593.961019",
    "longitude": "-90.09298112923159",
    "latitude": "29.933936298469344",
    "geocoded_column": {
      "latitude": "29.933936298469344",
      "longitude": "-90.09298112923159"
    }
  },
  {
    "service_request": "2025-1183879",
    "request_type": "Abandoned Vehicles",
    "request_reason": "Abandoned/Junk Vehicles",
    "date_created": "2025-04-14T15:00:24.000",
    "date_modified": "2025-04-14T15:00:26.000",
    "request_status": "Pending",
    "responsible_agency": "Department of Public Works",
    "final_address": "DREUX AVE & LOUISA DR",
    "address_councildis": "D",
    "status": "Pending",
    "rowid": "1183879",
    "final_x": "3690545.9",
    "final_y": "552957.48",
    "longitude": "-90.03874193415766",
    "latitude": "30.01416331414302",
    "geocoded_column": {
      "latitude": "30.01416331414302",
      "longitude": "-90.03874193415766"
    }
  },
  {
    "service_request": "2025-1183878",
    "request_type": "Trash/Recycling",
    "request_reason": "Request a Large Item Pick Up",
    "date_created": "2025-04-14T14:59:35.000",
    "date_modified": "2025-04-14T14:59:36.000",
    "request_status": "Pending",
    "responsible_agency": "Department of Sanitation",
    "final_address": "2236 Dublin St",
    "address_councildis": "A",
    "status": "Assigned to Contractor",
    "contractor": "IV Waste",
    "rowid": "1183878",
    "final_x": "3664234.64589",
    "final_y": "531455.995011",
    "longitude": "-90.12259047246525",
    "latitude": "29.955832613978846",
    "geocoded_column": {
      "latitude": "29.955832613978846",
      "longitude": "-90.12259047246525"
    }
  },