[
  {
    "service_request": "2026-1269914",
    "request_type": "Trash/Recycling",
    "request_reason": "Request a Large Item Pick Up",
    "date_created": "2026-03-30T23:26:10.000",
    "date_modified": "2026-03-30T23:26:13.000",
    "request_status": "Pending",
    "responsible_agency": "Department of Sanitation",
    "final_address": "11341 N Parkwood Ct",
    "address_councildis": "E",
    "status": "Assigned to Contractor",
    "contractor": "Waste Pro",
    "rowid": "1269914",
    "final_x": "3716932.57445",
    "final_y": "559625.744285",
    "longitude": "-89.95512089138047",
    "latitude": "30.031652271027017",
    "geocoded_column": {
      "latitude": "30.031652271027017",
      "longitude": "-89.95512089138047"
    }
  },
  {
    "service_request": "2026-1269913",
    "request_type": "Trash/Recycling",
    "request_reason": "Request a Large Item Pick Up",
    "date_created": "2026-03-30T22:58:15.000",
    "date_modified": "2026-03-30T22:58:17.000",
    "request_status": "Pending",
    "responsible_agency": "Department of Sanitation",
    "final_address": "321 Hillary St",
    "address_councildis": "A",
    "status": "Assigned to Contractor",
    "contractor": "IV Waste",
    "rowid": "1269913",
    "final_x": "3661318.54566",
    "final_y": "524936.14502",
    "longitude": "-90.13201438922763",
    "latitude": "29.937989511458262",
    "geocoded_column": {
      "latitude": "29.937989511458262",
      "longitude": "-90.13201438922763"
    }
  },
  {
    "service_request": "2026-1269912",
    "request_type": "Parks & Parkways",
    "request_reason": "Request Tree Service (Right of Way/Public Property)",
    "date_created": "2026-03-30T22:50:13.000",
    "date_modified": "2026-03-30T22:50:15.000",
    "request_status": "Pending",
    "responsible_agency": "Department of Parks & Parkway",
    "final_address": "7282 Canal Blvd",
    "address_councildis": "D",
    "status": "Pending",
    "rowid": "1269912",
    "final_x": "3669066.0827",
    "final_y": "555371.162521",
    "longitude": "-90.1065259193312",
    "latitude": "30.021449885254594",
    "geocoded_column": {
      "latitude": "30.021449885254594",
      "longitude": "-90.1065259193312"
    }
  },
  {
    "service_request": "2026-1269911",
    "request_type": "Streetlights",
    "request_reason": "Streetlight Outage/Malfunction",
    "date_created": "2026-03-30T22:47:51.000",
    "date_modified": "2026-03-30T22:47:53.000",
    "request_status": "Pending",
    "responsible_agency": "Department of Public Works",
    "final_address": "1701 Mendez Dr",
    "address_councildis": "D",
    "status": "Pending",
    "rowid": "1269911",
    "final_x": "3679741.44891",
    "final_y": "553386.114391",
    "longitude": "-90.07286366571465",
    "latitude": "30.015673128282767",
    "geocoded_column": {
      "latitude": "30.015673128282767",
      "longitude": "-90.07286366571465"
    }
  },
  {
    "service_request": "2026-1269910",
    "request_type": "Health Related Request",
    "request_reason": "Noise Ordinance Complaint",
    "date_created": "2026-03-30T22:23:02.000",
    "date_modified": "2026-03-30T22:23:04.000",
    "request_status": "Pending",
    "responsible_agency": "Health Department",
    "final_address": "801 Bourbon St, New Orleans, Louisiana, 70116",
    "address_councildis": "C",
    "status": "Pending",
    "rowid": "1269910",
    "final_x": "3682490.98735",
    "final_y": "533018.672772",
    "longitude": "-90.06488875731978",
    "latitude": "29.959586396383013",
    "geocoded_column": {
      "latitude": "29.959586396383013",
      "longitude": "-90.06488875731978"
    }
  },
  {
    "service_request": "2026-1269909",
    "request_type": "Trash/Recycling",
    "request_reason": "Order Second Trash Cart",
    "date_created": "2026-03-30T22:15:31.000",
    "date_modified": "2026-03-30T22:15:33.000",
    "request_status": "Pending",
    "responsible_agency": "Department of Sanitation",
    "final_address": "65 Grand Canyon Dr",
    "address_councildis": "C",
    "status": "Assigned to Contractor",
    "contractor": "Richards Disposal",
    "rowid": "1269909",
    "final_x": "3699088.94877",
    "final_y": "516070.570996",
    "longitude": "-90.01309317849206",
    "latitude": "29.91246933587103",
    "geocoded_column": {
      "latitude": "29.91246933587103",
      "longitude": "-90.01309317849206"
    }
  },
  {
    "service_request": "2026-1269908",
    "request_type": "Property Maintenance",
    "request_reason": "Property Maintenance",
    "date_created": "2026-03-30T22:09:03.000",
    "date_modified": "2026-03-30T22:09:04.000",
    "request_status": "Pending",
    "responsible_agency": "Department of Code Enforcement",
    "final_address": "2501 Gravier St",
    "address_councildis": "B",
    "status": "Pending",
    "rowid": "1269908",
    "final_x": "3674902.39278",
    "final_y": "532927.285124",
    "longitude": "-90.0888549540379",
    "latitude": "29.959563916310575",
    "geocoded_column": {
      "latitude": "29.959563916310575",
      "longitude": "-90.0888549540379"
    }
  },
  {
    "service_request": "2026-1269907",
    "request_type": "Trash/Recycling",
    "request_reason": "Request a Large Item Pick Up",
    "date_created": "2026-03-30T22:07:46.000",
    "date_modified": "2026-03-30T22:07:49.000",
    "request_status": "Pending",
    "responsible_agency": "Department of Sanitation",
    "final_address": "4842 Gabriel Dr",
    "address_councildis": "E",
    "status": "Assigned to Contractor",
    "contractor": "Waste Pro",
    "rowid": "1269907",
    "final_x": "3708759.61144",
    "final_y": "556382.21609",
    "longitude": "-89.98106859726059",
    "latitude": "30.023001607871134",
    "geocoded_column": {
      "latitude": "30.023001607871134",
      "longitude": "-89.98106859726059"
    }
  },
  {
    "service_request": "2026-1269906",
    "request_type": "Parks & Parkways",
    "request_reason": "Request Tree Service (Right of Way/Public Property)",
    "date_created": "2026-03-30T22:06:25.000",
    "date_modified": "2026-03-30T22:06:27.000",
    "request_status": "Pending",
    "responsible_agency": "Department of Parks & Parkway",
    "final_address": "2019 Audubon St",
    "address_councildis": "A",
    "status": "Pending",
    "rowid": "1269906",
    "final_x": "3666155.3449",
    "final_y": "528835.6736",
    "longitude": "-90.11661341142748",
    "latitude": "29.948571638287255",
    "geocoded_column": {
      "latitude": "29.948571638287255",
      "longitude": "-90.11661341142748"
    }
  },
  {
    "service_request": "2026-1269905",
    "request_type": "Street and Traffic Signs",
    "request_reason": "Street Name Sign Damaged or Missing",
    "date_created": "2026-03-30T22:01:31.000",
    "date_modified": "2026-03-30T22:01:33.000",
    "request_status": "Pending",
    "responsible_agency": "Department of Public Works",
    "final_address": "2756 Ramsey Dr",
    "address_councildis": "C",
    "status": "Pending",
    "rowid": "1269905",
    "final_x": "3703146.0129",
    "final_y": "520519.89196",
    "longitude": "-90.00012465123574",
    "latitude": "29.924574279309688",
    "geocoded_column": {
      "latitude": "29.924574279309688",
      "longitude": "-90.00012465123574"
    }
  },
  {
    "service_request": "2026-1269904",
    "request_type": "Trash/Recycling",
    "request_reason": "Repair Trash Cart",
    "date_created": "2026-03-30T21:26:52.000",
    "date_modified": "2026-03-30T21:26:54.000",
    "request_status": "Pending",
    "responsible_agency": "Department of Sanitation",
    "final_address": "4521 Walmsley Ave",
    "address_councildis": "B",
    "status": "Assigned to Contractor",
    "contractor": "IV Waste",
    "rowid": "1269904",
    "final_x": "3669190.45799",
    "final_y": "530367.307266",
    "longitude": "-90.10697849521809",
    "latitude": "29.952694162979927",
    "geocoded_column": {
      "latitude": "29.952694162979927",
      "longitude": "-90.10697849521809"
    }
  },
  {
    "service_request": "2026-1269903",
    "request_type": "Abandoned Vehicles",
    "request_reason": "Abandoned/Junk Vehicles",
    "date_created": "2026-03-30T21:23:40.000",
    "date_modified": "2026-03-30T21:23:43.000",
    "request_status": "Pending",
    "responsible_agency": "Department of Public Works",
    "final_address": "1101 N White St",
    "address_councildis": "A",
    "status": "Pending",
    "rowid": "1269903",
    "final_x": "3677161.52046",
    "final_y": "538828.694793",
    "longitude": "-90.08151755913669",
    "latitude": "29.975723126226015",
    "geocoded_column": {
      "latitude": "29.975723126226015",
      "longitude": "-90.08151755913669"
    }
  },
  {
    "service_request": "2026-1269902",
    "request_type": "Property Maintenance",
    "request_reason": "Property Maintenance",
    "date_created": "2026-03-30T21:22:10.000",
    "date_modified": "2026-03-30T21:22:12.000",
    "request_status": "Pending",
    "responsible_agency": "Department of Code Enforcement",
    "final_address": "7741 N Coronet Ct",
    "address_councildis": "E",
    "status": "Pending",
    "rowid": "1269902",
    "final_x": "3702619.5946",
    "final_y": "557634.148059",
    "longitude": "-90.0004235251184",
    "latitude": "30.02664175047698",
    "geocoded_column": {
      "latitude": "30.02664175047698",
      "longitude": "-90.0004235251184"
    }
  },
  {
    "service_request": "2026-1269901",
    "request_type": "Property Maintenance",
    "request_reason": "Property Maintenance",
    "date_created": "2026-03-30T21:12:48.000",
    "date_modified": "2026-03-30T21:12:51.000",
    "request_status": "Pending",
    "responsible_agency": "Department of Code Enforcement",
    "final_address": "7745 N Coronet Ct",
    "address_councildis": "E",
    "status": "Pending",
    "rowid": "1269901",
    "final_x": "3702637.31025",
    "final_y": "557637.931675",
    "longitude": "-90.00036740689241",
    "latitude": "30.026651587305814",
    "geocoded_column": {
      "latitude": "30.026651587305814",
      "longitude": "-90.00036740689241"
    }
  },
  {
    "service_request": "2026-1269900",
    "request_type": "Trash/Recycling",
    "request_reason": "Replace Trash Cart",
    "date_created": "2026-03-30T21:09:20.000",
    "date_modified": "2026-03-30T21:09:47.000",
    "request_status": "Pending",
    "responsible_agency": "Department of Sanitation",
    "final_address": "1921 Peniston St",
    "address_councildis": "B",
    "status": "Assigned to Contractor",
    "contractor": "IV Waste",
    "rowid": "1269900",
    "final_x": "3672635.61864",
    "final_y": "522359.34713",
    "longitude": "-90.09637316536005",
    "latitude": "29.93057305084078",
    "geocoded_column": {
      "latitude": "29.93057305084078",
      "longitude": "-90.09637316536005"
    }
  },
  {
    "service_request": "2026-1269899",
    "request_type": "Roads and Streets",
    "request_reason": "Pothole",
    "date_created": "2026-03-30T21:07:34.000",
    "date_modified": "2026-03-30T21:07:36.000",
    "request_status": "Pending",
    "responsible_agency": "Department of Public Works",
    "final_address": "4301 Tulane Ave",
    "address_councildis": "A",
    "status": "Pending",
    "rowid": "1269899",
    "final_x": "3668546.83879",
    "final_y": "536773.220488",
    "longitude": "-90.10879459979293",
    "latitude": "29.97032723080073",
    "geocoded_column": {
      "latitude": "29.97032723080073",
      "longitude": "-90.10879459979293"
    }
  },
  {
    "service_request": "2026-1269898",
    "request_type": "Roads and Streets",
    "request_reason": "Sidewalk Damaged or Missing",
    "date_created": "2026-03-30T20:51:46.000",
    "date_modified": "2026-03-30T20:51:48.000",
    "request_status": "Pending",
    "responsible_agency": "Department of Public Works",
    "final_address": "6755 Parc Brittany Blvd",
    "address_councildis": "E",
    "status": "Pending",
    "rowid": "1269898",
    "final_x": "3702894.47255",
    "final_y": "557462.981339",
    "longitude": "-89.99956124248018",
    "latitude": "30.026162313283024",
    "geocoded_column": {
      "latitude": "30.026162313283024",
      "longitude": "-89.99956124248018"
    }
  },
  {
    "service_request": "2026-1269897",
    "request_type": "Roads and Streets",
    "request_reason": "Pothole",
    "date_created": "2026-03-30T20:50:33.000",
    "date_modified": "2026-03-30T20:50:35.000",
    "request_status": "Pending",
    "responsible_agency": "Department of Public Works",
    "final_address": "8606 Cohn St",
    "address_councildis": "A",
    "status": "Pending",
    "rowid": "1269897",
    "final_x": "3662218.70919",
    "final_y": "531417.425987",
    "longitude": "-90.12895740823564",
    "latitude": "29.95578497895093",
    "geocoded_column": {
      "latitude": "29.95578497895093",
      "longitude": "-90.12895740823564"
    }
  },
  {
    "service_request": "2026-1269896",
    "request_type": "Roads and Streets",
    "request_reason": "Sidewalk Damaged or Missing",
    "date_created": "2026-03-30T20:46:13.000",
    "date_modified": "2026-03-30T20:46:16.000",
    "request_status": "Pending",
    "responsible_agency": "Department of Public Works",
    "final_address": "6747 Parc Brittany Blvd",
    "address_councildis": "E",
    "status": "Pending",
    "rowid": "1269896",
    "final_x": "3702921.98314",
    "final_y": "557423.283099",
    "longitude": "-89.99947577327507",
    "latitude": "30.026052277940853",
    "geocoded_column": {
      "latitude": "30.026052277940853",
      "longitude": "-89.99947577327507"
    }
  },
  {
    "service_request": "2026-1269895",
    "request_type": "Trash/Recycling",
    "request_reason": "Replace Trash Cart",
    "date_created": "2026-03-30T20:36:42.000",
    "date_modified": "2026-03-30T20:36:44.000",
    "request_status": "Pending",
    "responsible_agency": "Department of Sanitation",
    "final_address": "3726 S Galvez St",
    "address_councildis": "B",
    "status": "Assigned to Contractor",
    "contractor": "IV Waste",
    "rowid": "1269895",
    "final_x": "3671216.00455",
    "final_y": "527547.998847",
    "longitude": "-90.10067847861038",
    "latitude": "29.944882224868486",
    "geocoded_column": {
      "latitude": "29.944882224868486",
      "longitude": "-90.10067847861038"
    }
  },
  {
    "service_request": "2026-1269894",
    "request_type": "Roads and Streets",
    "request_reason": "Sidewalk Damaged or Missing",
    "date_created": "2026-03-30T20:31:17.000",
    "date_modified": "2026-03-30T20:31:19.000",
    "request_status": "Pending",
    "responsible_agency": "Department of Public Works",
    "final_address": "7800 N Coronet Ct",
    "address_councildis": "E",
    "status": "Pending",
    "rowid": "1269894",
    "final_x": "3702858.17758",
    "final_y": "557536.830747",
    "longitude": "-89.99967321324506",
    "latitude": "30.02636653220505",
    "geocoded_column": {
      "latitude": "30.02636653220505",
      "longitude": "-89.99967321324506"
    }
  },
  {
    "service_request": "2026-1269893",
    "request_type": "Traffic Signals",
    "request_reason": "Traffic Signal Malfunctioning or Damaged",
    "date_created": "2026-03-30T20:12:09.000",
    "date_modified": "2026-03-30T20:12:13.000",
    "request_status": "Pending",
    "responsible_agency": "Department of Public Works",
    "final_address": "2301 Orleans Ave",
    "address_councildis": "C",
    "status": "Pending",
    "rowid": "1269893",
    "final_x": "3678147.65941",
    "final_y": "536062.796423",
    "longitude": "-90.07849871929459",
    "latitude": "29.968088193444494",
    "geocoded_column": {
      "latitude": "29.968088193444494",
      "longitude": "-90.07849871929459"
    }
  },
  {
    "service_request": "2026-1269892",
    "request_type": "Trash/Recycling",
    "request_reason": "Request a Large Item Pick Up",
    "date_created": "2026-03-30T20:10:18.000",
    "date_modified": "2026-03-30T20:10:21.000",
    "request_status": "Pending",
    "responsible_agency": "Department of Sanitation",
    "final_address": "7535 Oak St",
    "address_councildis": "A",
    "status": "Assigned to Contractor",
    "contractor": "IV Waste",
    "rowid": "1269892",
    "final_x": "3663418.23968",
    "final_y": "527109.048319",
    "longitude": "-90.12531312028524",
    "latitude": "29.943903605706574",
    "geocoded_column": {
      "latitude": "29.943903605706574",
      "longitude": "-90.12531312028524"
    }
  },
  {
    "service_request": "2026-1269891",
    "request_type": "Property Maintenance",
    "request_reason": "Property Maintenance",
    "date_created": "2026-03-30T20:07:13.000",
    "date_modified": "2026-03-30T20:07:16.000",
    "request_status": "Pending",
    "responsible_agency": "Department of Code Enforcement",
    "final_address": "13000 BLK Maple Wood Dr",
    "address_councildis": "E",
    "status": "Pending",
    "rowid": "1269891",
    "final_x": "3723833.42598",
    "final_y": "563718.48029",
    "longitude": "-89.9331561181208",
    "latitude": "30.04267558229765",
    "geocoded_column": {
      "latitude": "30.04267558229765",
      "longitude": "-89.9331561181208"
    }
  },
  {
    "service_request": "2026-1269890",
    "request_type": "Trash/Recycling",
    "request_reason": "Request a Large Item Pick Up",
    "date_created": "2026-03-30T20:04:28.000",
    "date_modified": "2026-03-30T20:04:30.000",
    "request_status": "Pending",
    "responsible_agency": "Department of Sanitation",
    "final_address": "6000 Elysian Fields Ave",
    "address_councildis": "D",
    "status": "Assigned to Contractor",
    "contractor": "IV Waste",
    "rowid": "1269890",
    "final_x": "3683342.35292",
    "final_y": "554958.288088",
    "longitude": "-90.06143132289029",
    "latitude": "30.019886621914463",
    "geocoded_column": {
      "latitude": "30.019886621914463",
      "longitude": "-90.06143132289029"
    }
  },
  {
    "service_request": "2026-1269889",
    "request_type": "Trash/Recycling",
    "request_reason": "Request a Large Item Pick Up",
    "date_created": "2026-03-30T20:01:23.000",
    "date_modified": "2026-03-30T20:01:25.000",
    "request_status": "Pending",
    "responsible_agency": "Department of Sanitation",
    "final_address": "2436 Robert St",
    "address_councildis": "B",
    "status": "Assigned to Contractor",
    "contractor": "IV Waste",
    "rowid": "1269889",
    "final_x": "3668788.71374",
    "final_y": "524569.91302",
    "longitude": "-90.10844271194001",
    "latitude": "29.936765027068432",
    "geocoded_column": {
      "latitude": "29.936765027068432",
      "longitude": "-90.10844271194001"
    }
  },
  {
    "service_request": "2026-1269888",
    "request_type": "Roads and Streets",
    "request_reason": "Curb Damage",
    "date_created": "2026-03-30T20:00:04.000",
    "date_modified": "2026-03-30T20:00:06.000",
    "request_status": "Pending",
    "responsible_agency": "Department of Public Works",
    "final_address": "6866 Parc Brittany Blvd",
    "address_councildis": "E",
    "status": "Pending",
    "rowid": "1269888",
    "final_x": "3702706.94596",
    "final_y": "557612.597467",
    "longitude": "-90.00014829853365",
    "latitude": "30.026579700434283",
    "geocoded_column": {
      "latitude": "30.026579700434283",
      "longitude": "-90.00014829853365"
    }
  },
  {
    "service_request": "2026-1269887",
    "request_type": "Trash/Recycling",
    "request_reason": "Order Trash Cart",
    "date_created": "2026-03-30T19:56:41.000",
    "date_modified": "2026-03-30T19:56:43.000",
    "request_status": "Pending",
    "responsible_agency": "Department of Sanitation",
    "final_address": "20159 Old Spanish Trl",
    "address_councildis": "E",
    "status": "Assigned to Contractor",
    "contractor": "Waste Pro",
    "rowid": "1269887",
    "final_x": "3759425.108",
    "final_y": "572782.236585",
    "longitude": "-89.8202968909289",
    "latitude": "30.06635292246256",
    "geocoded_column": {
      "latitude": "30.06635292246256",
      "longitude": "-89.8202968909289"
    }
  },
  {
    "service_request": "2026-1269886",
    "request_type": "Roads and Streets",
    "request_reason": "Sidewalk Damaged or Missing",
    "date_created": "2026-03-30T19:56:07.000",
    "date_modified": "2026-03-30T19:56:08.000",
    "request_status": "Pending",
    "responsible_agency": "Department of Public Works",
    "final_address": "7805 S Coronet Ct",
    "address_councildis": "E",
    "status": "Pending",
    "rowid": "1269886",
    "final_x": "3702977.7841",
    "final_y": "557372.469339",
    "longitude": "-89.99930131993791",
    "latitude": "30.025910773551267",
    "geocoded_column": {
      "latitude": "30.025910773551267",
      "longitude": "-89.99930131993791"
    }
  },
  {
    "service_request": "2026-1269885",
    "request_type": "Trash/Recycling",
    "request_reason": "Request a Large Item Pick Up",
    "date_created": "2026-03-30T19:54:55.000",
    "date_modified": "2026-03-30T19:54:57.000",
    "request_status": "Pending",
    "responsible_agency": "Department of Sanitation",
    "final_address": "7901 Means Ave",
    "address_councildis": "E",
    "status": "Assigned to Contractor",
    "contractor": "Waste Pro",
    "rowid": "1269885",
    "final_x": "3707697.22276",
    "final_y": "565496.02141",
    "longitude": "-89.9840863831204",
    "latitude": "30.04809540252796",
    "geocoded_column": {
      "latitude": "30.04809540252796",
      "longitude": "-89.9840863831204"
    }
  },
  {
    "service_request": "2026-1269884",
    "request_type": "Property Maintenance",
    "request_reason": "Property Maintenance",
    "date_created": "2026-03-30T19:51:24.000",
    "date_modified": "2026-03-30T19:51:26.000",
    "request_status": "Pending",
    "responsible_agency": "Department of Code Enforcement",
    "final_address": "5030 Warren Dr",
    "address_councildis": "E",
    "status": "Pending",
    "rowid": "1269884",
    "final_x": "3713250.76875",
    "final_y": "557644.020507",
    "longitude": "-89.96683014478842",
    "latitude": "30.02632456974141",
    "geocoded_column": {
      "latitude": "30.02632456974141",
      "longitude": "-89.96683014478842"
    }
  },
  {
    "service_request": "2026-1269883",
    "request_type": "Roads and Streets",
    "request_reason": "Sidewalk Damaged or Missing",
    "date_created": "2026-03-30T19:48:33.000",
    "date_modified": "2026-03-30T19:48:35.000",
    "request_status": "Pending",
    "responsible_agency": "Department of Public Works",
    "final_address": "7760 N Coronet Ct",
    "address_councildis": "E",
    "status": "Pending",
    "rowid": "1269883",
    "final_x": "3702695.98666",
    "final_y": "557525.009243",
    "longitude": "-90.00018614857983",
    "latitude": "30.026339217286672",
    "geocoded_column": {
      "latitude": "30.026339217286672",
      "longitude": "-90.00018614857983"
    }
  },
  {
    "service_request": "2026-1269882",
    "request_type": "General Services",
    "request_reason": "General Service Request",
    "date_created": "2026-03-30T19:48:12.000",
    "date_modified": "2026-03-30T19:48:14.000",
    "request_status": "Pending",
    "responsible_agency": "Orleans Parish Communication District",
    "final_address": "2606 Frenchmen St",
    "address_councildis": "D",
    "status": "Pending",
    "rowid": "1269882",
    "final_x": "3684107.83861",
    "final_y": "541876.512652",
    "longitude": "-90.05947216073321",
    "latitude": "29.983893062974683",
    "geocoded_column": {
      "latitude": "29.983893062974683",
      "longitude": "-90.05947216073321"
    }
  },
  {
    "service_request": "2026-1269881",
    "request_type": "Trash/Recycling",
    "request_reason": "Request a Large Item Pick Up",
    "date_created": "2026-03-30T19:46:46.000",
    "date_modified": "2026-03-30T19:46:49.000",
    "request_status": "Pending",
    "responsible_agency": "Department of Sanitation",
    "final_address": "2412 Audubon St",
    "address_councildis": "A",
    "status": "Assigned to Contractor",
    "contractor": "IV Waste",
    "rowid": "1269881",
    "final_x": "3666880.68026",
    "final_y": "530067.337601",
    "longitude": "-90.1142818404694",
    "latitude": "29.951937115941544",
    "geocoded_column": {
      "latitude": "29.951937115941544",
      "longitude": "-90.1142818404694"
    }
  },
  {
    "service_request": "2026-1269880",
    "request_type": "Trash/Recycling",
    "request_reason": "Request a Large Item Pick Up",
    "date_created": "2026-03-30T19:38:42.000",
    "date_modified": "2026-03-30T19:38:44.000",
    "request_status": "Pending",
    "responsible_agency": "Department of Sanitation",
    "final_address": "6051 Fleur-De-Lis Dr",
    "address_councildis": "A",
    "status": "Assigned to Contractor",
    "contractor": "IV Waste",
    "rowid": "1269880",
    "final_x": "3665265.12493",
    "final_y": "548006.550866",
    "longitude": "-90.1187826187552",
    "latitude": "30.001311119901185",
    "geocoded_column": {
      "latitude": "30.001311119901185",
      "longitude": "-90.1187826187552"
    }
  },
  {
    "service_request": "2026-1269879",
    "request_type": "Trash/Recycling",
    "request_reason": "Illegal Dumping",
    "date_created": "2026-03-30T19:37:33.000",
    "date_modified": "2026-03-30T19:37:35.000",
    "request_status": "Pending",
    "responsible_agency": "Department of Sanitation",
    "final_address": "5030 Warren Dr",
    "address_councildis": "E",
    "status": "Pending",
    "rowid": "1269879",
    "final_x": "3713250.76875",
    "final_y": "557644.020507",
    "longitude": "-89.96683014478842",
    "latitude": "30.02632456974141",
    "geocoded_column": {
      "latitude": "30.02632456974141",
      "longitude": "-89.96683014478842"
    }
  },
  {
    "service_request": "2026-1269878",
    "request_type": "Trash/Recycling",
    "request_reason": "Request a Large Item Pick Up",
    "date_created": "2026-03-30T19:37:29.000",
    "date_modified": "2026-03-30T19:37:31.000",
    "request_status": "Pending",
    "responsible_agency": "Department of Sanitation",
    "final_address": "6661 Avenue A",
    "address_councildis": "A",
    "status": "Assigned to Contractor",
    "contractor": "IV Waste",
    "rowid": "1269878",
    "final_x": "3666133.35917",
    "final_y": "552471.767126",
    "longitude": "-90.11588990262638",
    "latitude": "30.01356357943674",
    "geocoded_column": {
      "latitude": "30.01356357943674",
      "longitude": "-90.11588990262638"
    }
  },
  {
    "service_request": "2026-1269877",
    "request_type": "Trash/Recycling",
    "request_reason": "Request a Large Item Pick Up",
    "date_created": "2026-03-30T19:36:07.000",
    "date_modified": "2026-03-30T19:36:08.000",
    "request_status": "Pending",
    "responsible_agency": "Department of Sanitation",
    "final_address": "7364 Canterbury St",
    "address_councildis": "E",
    "status": "Assigned to Contractor",
    "contractor": "Waste Pro",
    "rowid": "1269877",
    "final_x": "3698740.93514",
    "final_y": "559402.014813",
    "longitude": "-90.01261520998483",
    "latitude": "30.031626194263133",
    "geocoded_column": {
      "latitude": "30.031626194263133",
      "longitude": "-90.01261520998483"
    }
  },
  {
    "service_request": "2026-1269876",
    "request_type": "Roads and Streets",
    "request_reason": "Sidewalk Damaged or Missing",
    "date_created": "2026-03-30T19:35:37.000",
    "date_modified": "2026-03-30T19:35:39.000",
    "request_status": "Pending",
    "responsible_agency": "Department of Public Works",
    "final_address": "6866 Parc Brittany Blvd",
    "address_councildis": "E",
    "status": "Pending",
    "rowid": "1269876",
    "final_x": "3702706.94596",
    "final_y": "557612.597467",
    "longitude": "-90.00014829853365",
    "latitude": "30.026579700434283",
    "geocoded_column": {
      "latitude": "30.026579700434283",
      "longitude": "-90.00014829853365"
    }
  },
  {
    "service_request": "2026-1269875",
    "request_type": "Streetlights",
    "request_reason": "Streetlight Outage/Malfunction",
    "date_created": "2026-03-30T19:32:04.000",
    "date_modified": "2026-03-30T19:32:08.000",
    "request_status": "Pending",
    "responsible_agency": "Department of Public Works",
    "final_address": "716 Constantinople St",
    "address_councildis": "B",
    "status": "Pending",
    "rowid": "1269875",
    "final_x": "3672540.82734",
    "final_y": "518345.492022",
    "longitude": "-90.09680914771026",
    "latitude": "29.91953904872165",
    "geocoded_column": {
      "latitude": "29.91953904872165",
      "longitude": "-90.09680914771026"
    }
  },
  {
    "service_request": "2026-1269874",
    "request_type": "General Services",
    "request_reason": "General Service Request",
    "date_created": "2026-03-30T19:28:01.000",
    "date_modified": "2026-03-30T19:28:03.000",
    "request_status": "Pending",
    "responsible_agency": "Orleans Parish Communication District",
    "final_address": "1653 Farragut St",
    "address_councildis": "C",
    "status": "Pending",
    "rowid": "1269874",
    "final_x": "3692250.2479",
    "final_y": "525006.574653",
    "longitude": "-90.03435820155387",
    "latitude": "29.937255226615278",
    "geocoded_column": {
      "latitude": "29.937255226615278",
      "longitude": "-90.03435820155387"
    }
  },
  {
    "service_request": "2026-1269873",
    "request_type": "Trash/Recycling",
    "request_reason": "Request a Large Item Pick Up",
    "date_created": "2026-03-30T19:20:46.000",
    "date_modified": "2026-03-30T19:20:49.000",
    "request_status": "Pending",
    "responsible_agency": "Department of Sanitation",
    "final_address": "815 N Villere St",
    "address_councildis": "C",
    "status": "Assigned to Contractor",
    "contractor": "IV Waste",
    "rowid": "1269873",
    "final_x": "3680579.09218",
    "final_y": "534588.803653",
    "longitude": "-90.07087145135482",
    "latitude": "29.963961778442698",
    "geocoded_column": {
      "latitude": "29.963961778442698",
      "longitude": "-90.07087145135482"
    }
  },
  {
    "service_request": "2026-1269872",
    "request_type": "Abandoned Vehicles",
    "request_reason": "Abandoned/Junk Vehicles",
    "date_created": "2026-03-30T19:17:16.000",
    "date_modified": "2026-03-30T19:17:19.000",
    "request_status": "Pending",
    "responsible_agency": "Department of Public Works",
    "final_address": "1305 Mystery St",
    "address_councildis": "A",
    "status": "Pending",
    "rowid": "1269872",
    "final_x": "3676062.59957",
    "final_y": "540383.561099",
    "longitude": "-90.08493475997227",
    "latitude": "29.980031440109205",
    "geocoded_column": {
      "latitude": "29.980031440109205",
      "longitude": "-90.08493475997227"
    }
  },
  {
    "service_request": "2026-1269871",
    "request_type": "Trash/Recycling",
    "request_reason": "Request a Large Item Pick Up",
    "date_created": "2026-03-30T19:03:39.000",
    "date_modified": "2026-03-30T19:03:41.000",
    "request_status": "Pending",
    "responsible_agency": "Department of Sanitation",
    "final_address": "7301 Chatelain Dr",
    "address_councildis": "E",
    "status": "Assigned to Contractor",
    "contractor": "Waste Pro",
    "rowid": "1269871",
    "final_x": "3715272.30098",
    "final_y": "567227.589732",
    "longitude": "-89.96007948312568",
    "latitude": "30.052609072070528",
    "geocoded_column": {
      "latitude": "30.052609072070528",
      "longitude": "-89.96007948312568"
    }
  },
  {
    "service_request": "2026-1269870",
    "request_type": "Drainage",
    "request_reason": "Catch Basin Not Draining",
    "date_created": "2026-03-30T19:00:50.000",
    "date_modified": "2026-03-30T19:00:52.000",
    "request_status": "Pending",
    "responsible_agency": "Sewerage & Water Board",
    "final_address": "0 BLK Bamboo Rd",
    "status": "Pending",
    "rowid": "1269870",
    "final_x": "3663403.66299",
    "final_y": "539407.85962",
    "longitude": "-90.12494964049188",
    "latitude": "29.97772174538776",
    "geocoded_column": {
      "latitude": "29.97772174538776",
      "longitude": "-90.12494964049188"
    }
  },
  {
    "service_request": "2026-1269869",
    "request_type": "Roads and Streets",
    "request_reason": "Sidewalk Damaged or Missing",
    "date_created": "2026-03-30T18:59:40.000",
    "date_modified": "2026-03-30T18:59:42.000",
    "request_status": "Pending",
    "responsible_agency": "Department of Public Works",
    "final_address": "723 Pleasant St",
    "address_councildis": "B",
    "status": "Pending",
    "rowid": "1269869",
    "final_x": "3676186.82389",
    "final_y": "518704.525303",
    "longitude": "-90.08528819587896",
    "latitude": "29.920417583987984",
    "geocoded_column": {
      "latitude": "29.920417583987984",
      "longitude": "-90.08528819587896"
    }
  },
  {
    "service_request": "2026-1269868",
    "request_type": "Trash/Recycling",
    "request_reason": "Request a Large Item Pick Up",
    "date_created": "2026-03-30T18:57:05.000",
    "date_modified": "2026-03-30T18:57:07.000",
    "request_status": "Pending",
    "responsible_agency": "Department of Sanitation",
    "final_address": "7601 Berg Rd",
    "address_councildis": "E",
    "status": "Assigned to Contractor",
    "contractor": "Waste Pro",
    "rowid": "1269868",
    "final_x": "3712142.36107",
    "final_y": "566511.358755",
    "longitude": "-89.96999916537659",
    "latitude": "30.050742498190353",
    "geocoded_column": {
      "latitude": "30.050742498190353",
      "longitude": "-89.96999916537659"
    }
  },
  {
    "service_request": "2026-1269867",
    "request_type": "Trash/Recycling",
    "request_reason": "Repair Trash Cart",
    "date_created": "2026-03-30T18:46:09.000",
    "date_modified": "2026-03-30T18:46:11.000",
    "request_status": "Pending",
    "responsible_agency": "Department of Sanitation",
    "final_address": "3107 Gravier St",
    "address_councildis": "B",
    "status": "Assigned to Contractor",
    "contractor": "IV Waste",
    "rowid": "1269867",
    "final_x": "3672534.5026",
    "final_y": "534166.507141",
    "longitude": "-90.09628997183394",
    "latitude": "29.963041864426604",
    "geocoded_column": {
      "latitude": "29.963041864426604",
      "longitude": "-90.09628997183394"
    }
  },
  {
    "service_request": "2026-1269866",
    "request_type": "Trash/Recycling",
    "request_reason": "Start Trash Service",
    "date_created": "2026-03-30T18:43:11.000",
    "date_modified": "2026-03-30T18:43:13.000",
    "request_status": "Pending",
    "responsible_agency": "Department of Sanitation",
    "final_address": "3935 Banks St",
    "address_councildis": "A",
    "status": "Assigned to Contractor",
    "contractor": "IV Waste",
    "rowid": "1269866",
    "final_x": "3670850.56891",
    "final_y": "537091.417608",
    "longitude": "-90.1015083470646",
    "latitude": "29.971134269435268",
    "geocoded_column": {
      "latitude": "29.971134269435268",
      "longitude": "-90.1015083470646"
    }
  },
  {
    "service_request": "2026-1269865",
    "request_type": "Abandoned Vehicles",
    "request_reason": "Abandoned/Junk Vehicles",
    "date_created": "2026-03-30T18:38:47.000",
    "date_modified": "2026-03-30T18:38:50.000",
    "request_status": "Pending",
    "responsible_agency": "Department of Public Works",
    "final_address": "1912 Palmer Ave",
    "address_councildis": "A",
    "status": "Pending",
    "rowid": "1269865",
    "final_x": "3665670.10541",
    "final_y": "524124.556156",
    "longitude": "-90.11830325490767",
    "latitude": "29.93563173672615",
    "geocoded_column": {
      "latitude": "29.93563173672615",
      "longitude": "-90.11830325490767"
    }
  },
  {
    "service_request": "2026-1269864",
    "request_type": "General Services",
    "request_reason": "General Service Request",
    "date_created": "2026-03-30T18:36:58.000",
    "date_modified": "2026-03-30T18:37:00.000",
    "request_status": "Pending",
    "responsible_agency": "Orleans Parish Communication District",
    "final_address": "5030 Warren Dr",
    "address_councildis": "E",
    "status": "Pending",
    "rowid": "1269864",
    "final_x": "3713250.76875",
    "final_y": "557644.020507",
    "longitude": "-89.96683014478842",
    "latitude": "30.02632456974141",
    "geocoded_column": {
      "latitude": "30.02632456974141",
      "longitude": "-89.96683014478842"
    }
  },
  {
    "service_request": "2026-1269863",
    "request_type": "Drainage",
    "request_reason": "Catch Basin Not Draining",
    "date_created": "2026-03-30T18:35:31.000",
    "date_modified": "2026-03-30T18:35:33.000",
    "request_status": "Pending",
    "responsible_agency": "Sewerage & Water Board",
    "final_address": "428 S Genois St",
    "address_councildis": "B",
    "status": "Pending",
    "rowid": "1269863",
    "final_x": "3671676.50235",
    "final_y": "535922.268103",
    "longitude": "-90.09893970889179",
    "latitude": "29.967895061211202",
    "geocoded_column": {
      "latitude": "29.967895061211202",
      "longitude": "-90.09893970889179"
    }
  },
  {
    "service_request": "2026-1269862",
    "request_type": "General Services",
    "request_reason": "General Service Request",
    "date_created": "2026-03-30T18:35:20.000",
    "date_modified": "2026-03-30T18:35:22.000",
    "request_status": "Pending",
    "responsible_agency": "Orleans Parish Communication District",
    "final_address": "5950 Chef Menteur Hwy",
    "address_councildis": "E",
    "status": "Pending",
    "rowid": "1269862",
    "final_x": "3696520.0312",
    "final_y": "551430.003349",
    "longitude": "-90.0199221019063",
    "latitude": "30.00977638133447",
    "geocoded_column": {
      "latitude": "30.00977638133447",
      "longitude": "-90.0199221019063"
    }
  },
  {
    "service_request": "2026-1269861",
    "request_type": "Drainage",
    "request_reason": "Catch Basin Not Draining",
    "date_created": "2026-03-30T18:32:47.000",
    "date_modified": "2026-03-30T18:32:52.000",
    "request_status": "Pending",
    "responsible_agency": "Sewerage & Water Board",
    "final_address": "0 BLK Allard Blvd",
    "address_councildis": "A",
    "status": "Pending",
    "rowid": "1269861",
    "final_x": "3672821.79572",
    "final_y": "540498.945693",
    "longitude": "-90.09516664976555",
    "latitude": "29.98044539706053",
    "geocoded_column": {
      "latitude": "29.98044539706053",
      "longitude": "-90.09516664976555"
    }
  },
  {
    "service_request": "2026-1269860",
    "request_type": "Roads and Streets",
    "request_reason": "Pothole",
    "date_created": "2026-03-30T18:28:19.000",
    "date_modified": "2026-03-30T18:28:22.000",
    "request_status": "Pending",
    "responsible_agency": "Department of Public Works",
    "final_address": "9700 BLK Grant St",
    "address_councildis": "E",
    "status": "Pending",
    "rowid": "1269860",
    "final_x": "3711398.93773",
    "final_y": "555051.224003",
    "longitude": "-89.97277893547017",
    "latitude": "30.01925599185213",
    "geocoded_column": {
      "latitude": "30.01925599185213",
      "longitude": "-89.97277893547017"
    }
  },
  {
    "service_request": "2026-1269859",
    "request_type": "Roads and Streets",
    "request_reason": "Pothole",
    "date_created": "2026-03-30T18:21:09.000",
    "date_modified": "2026-03-30T18:21:19.000",
    "request_status": "Pending",
    "responsible_agency": "Department of Public Works",
    "final_address": "1300 BLK Tennessee St",
    "address_councildis": "E",
    "status": "Pending",
    "rowid": "1269859",
    "final_x": "3695994.31434",
    "final_y": "535441.116569",
    "longitude": "-90.02216105347324",
    "latitude": "29.965829326710395",
    "geocoded_column": {
      "latitude": "29.965829326710395",
      "longitude": "-90.02216105347324"
    }
  },
  {
    "service_request": "2026-1269858",
    "request_type": "Traffic Signals",
    "request_reason": "Traffic Signal Malfunctioning or Damaged",
    "date_created": "2026-03-30T18:16:57.000",
    "date_modified": "2026-03-30T18:16:58.000",
    "request_status": "Pending",
    "responsible_agency": "Department of Public Works",
    "final_address": "1400 N Broad St",
    "address_councildis": "D",
    "status": "Pending",
    "rowid": "1269858",
    "final_x": "3678323.85883",
    "final_y": "539010.605066",
    "longitude": "-90.07784027303971",
    "latitude": "29.976188349412144",
    "geocoded_column": {
      "latitude": "29.976188349412144",
      "longitude": "-90.07784027303971"
    }
  },
  {
    "service_request": "2026-1269857",
    "request_type": "Abandoned Vehicles",
    "request_reason": "Abandoned/Junk Vehicles",
    "date_created": "2026-03-30T18:16:14.000",
    "date_modified": "2026-03-30T18:16:16.000",
    "request_status": "Pending",
    "responsible_agency": "Department of Public Works",
    "final_address": "0 BLK Five Oaks Dr",
    "address_councildis": "C",
    "status": "Pending",
    "rowid": "1269857",
    "final_x": "3699289.32251",
    "final_y": "526172.360501",
    "longitude": "-90.01209310051658",
    "latitude": "29.94023943728689",
    "geocoded_column": {
      "latitude": "29.94023943728689",
      "longitude": "-90.01209310051658"
    }
  },
  {
    "service_request": "2026-1269856",
    "request_type": "Roads and Streets",
    "request_reason": "Ditch and Culvert Maintenance",
    "date_created": "2026-03-30T18:07:48.000",
    "date_modified": "2026-03-30T18:07:50.000",
    "request_status": "Pending",
    "responsible_agency": "Department of Public Works",
    "final_address": "5611 Painters St, New Orleans, Louisiana, 70122",
    "address_councildis": "D",
    "status": "Pending",
    "rowid": "1269856",
    "final_x": "3686223.08335",
    "final_y": "553710.706647",
    "longitude": "-90.05237322795638",
    "latitude": "30.016367994379024",
    "geocoded_column": {
      "latitude": "30.016367994379024",
      "longitude": "-90.05237322795638"
    }
  },
  {
    "service_request": "2026-1269855",
    "request_type": "Trash/Recycling",
    "request_reason": "Repair Trash Cart",
    "date_created": "2026-03-30T18:07:08.000",
    "date_modified": "2026-03-30T18:07:11.000",
    "request_status": "Pending",
    "responsible_agency": "Department of Sanitation",
    "final_address": "6608 Louisville St",
    "address_councildis": "A",
    "status": "Assigned to Contractor",
    "contractor": "IV Waste",
    "rowid": "1269855",
    "final_x": "3668025.80423",
    "final_y": "551546.114773",
    "longitude": "-90.10994196870492",
    "latitude": "30.010962937538036",
    "geocoded_column": {
      "latitude": "30.010962937538036",
      "longitude": "-90.10994196870492"
    }
  },
  {
    "service_request": "2026-1269854",
    "request_type": "General Services",
    "request_reason": "General Service Request",
    "date_created": "2026-03-30T17:45:34.000",
    "date_modified": "2026-03-30T17:45:38.000",
    "request_status": "Pending",
    "responsible_agency": "Orleans Parish Communication District",
    "final_address": "7040 Coliseum St, New Orleans, Louisiana, 70118",
    "address_councildis": "A",
    "status": "Pending",
    "rowid": "1269854",
    "final_x": "3661608.85203",
    "final_y": "521943.33209",
    "longitude": "-90.13119699024115",
    "latitude": "29.929751845778004",
    "geocoded_column": {
      "latitude": "29.929751845778004",
      "longitude": "-90.13119699024115"
    }
  },
  {
    "service_request": "2026-1269853",
    "request_type": "Trash/Recycling",
    "request_reason": "Request a Large Item Pick Up",
    "date_created": "2026-03-30T17:37:57.000",
    "date_modified": "2026-03-30T17:37:59.000",
    "request_status": "Pending",
    "responsible_agency": "Department of Sanitation",
    "final_address": "404 Vallette St",
    "address_councildis": "C",
    "status": "Assigned to Contractor",
    "contractor": "Richards Disposal",
    "rowid": "1269853",
    "final_x": "3687583.72489",
    "final_y": "530284.558337",
    "longitude": "-90.04890388722292",
    "latitude": "29.951912523944806",
    "geocoded_column": {
      "latitude": "29.951912523944806",
      "longitude": "-90.04890388722292"
    }
  },
  {
    "service_request": "2026-1269852",
    "request_type": "Trash/Recycling",
    "request_reason": "Damaged Caused By Contractor",
    "date_created": "2026-03-30T17:36:40.000",
    "date_modified": "2026-03-30T17:36:43.000",
    "request_status": "Pending",
    "responsible_agency": "Department of Sanitation",
    "final_address": "4523 Walmsley Ave",
    "address_councildis": "B",
    "status": "Assigned to Contractor",
    "contractor": "IV Waste",
    "rowid": "1269852",
    "final_x": "3669178.66126",
    "final_y": "530374.656834",
    "longitude": "-90.1070154957437",
    "latitude": "29.952714719040184",
    "geocoded_column": {
      "latitude": "29.952714719040184",
      "longitude": "-90.1070154957437"
    }
  },
  {
    "service_request": "2026-1269851",
    "request_type": "Roads and Streets",
    "request_reason": "Street Subsidence (Sinking)",
    "date_created": "2026-03-30T17:33:15.000",
    "date_modified": "2026-03-30T17:33:17.000",
    "request_status": "Pending",
    "responsible_agency": "Sewerage & Water Board",
    "final_address": "8225 Pritchard Pl",
    "address_councildis": "A",
    "status": "Pending",
    "rowid": "1269851",
    "final_x": "3665664.67994",
    "final_y": "533298.70298",
    "longitude": "-90.1180131919123",
    "latitude": "29.960857832129246",
    "geocoded_column": {
      "latitude": "29.960857832129246",
      "longitude": "-90.1180131919123"
    }
  },
  {
    "service_request": "2026-1269850",
    "request_type": "Trash/Recycling",
    "request_reason": "Order Trash Cart",
    "date_created": "2026-03-30T17:27:49.000",
    "date_modified": "2026-03-30T17:27:51.000",
    "request_status": "Pending",
    "responsible_agency": "Department of Sanitation",
    "final_address": "5620 Mayo Rd",
    "address_councildis": "E",
    "status": "Assigned to Contractor",
    "contractor": "Waste Pro",
    "rowid": "1269850",
    "final_x": "3702714.70078",
    "final_y": "556035.231065",
    "longitude": "-90.00018178511284",
    "latitude": "30.022242303186644",
    "geocoded_column": {
      "latitude": "30.022242303186644",
      "longitude": "-90.00018178511284"
    }
  },
  {
    "service_request": "2026-1269849",
    "request_type": "Trash/Recycling",
    "request_reason": "Missed Trash Pick-Up",
    "date_created": "2026-03-30T17:25:44.000",
    "date_modified": "2026-03-30T17:25:46.000",
    "request_status": "Pending",
    "responsible_agency": "Department of Sanitation",
    "final_address": "6836 Mayo Blvd",
    "address_councildis": "E",
    "status": "Assigned to Contractor",
    "contractor": "Waste Pro",
    "rowid": "1269849",
    "final_x": "3701886.09962",
    "final_y": "557341.808731",
    "longitude": "-90.00275200108187",
    "latitude": "30.02586137077466",
    "geocoded_column": {
      "latitude": "30.02586137077466",
      "longitude": "-90.00275200108187"
    }
  },
  {
    "service_request": "2026-1269848",
    "request_type": "Trash/Recycling",
    "request_reason": "Order Recycling Cart",
    "date_created": "2026-03-30T17:22:55.000",
    "date_modified": "2026-03-30T17:22:57.000",
    "request_status": "Pending",
    "responsible_agency": "Department of Sanitation",
    "final_address": "3408 St Claude Ave",
    "address_councildis": "C",
    "status": "Pending",
    "rowid": "1269848",
    "final_x": "3690264.12841",
    "final_y": "535639.767494",
    "longitude": "-90.04024965018404",
    "latitude": "29.96655459746733",
    "geocoded_column": {
      "latitude": "29.96655459746733",
      "longitude": "-90.04024965018404"
    }
  },
  {
    "service_request": "2026-1269847",
    "request_type": "Trash/Recycling",
    "request_reason": "Illegal Dumping",
    "date_created": "2026-03-30T17:19:53.000",
    "date_modified": "2026-03-30T17:19:54.000",
    "request_status": "Pending",
    "responsible_agency": "Department of Sanitation",
    "final_address": "6801 Old Gentilly Rd",
    "address_councildis": "E",
    "status": "Pending",
    "rowid": "1269847",
    "final_x": "3700117.48669",
    "final_y": "551486.530773",
    "longitude": "-90.0085544599595",
    "latitude": "30.009817937071805",
    "geocoded_column": {
      "latitude": "30.009817937071805",
      "longitude": "-90.0085544599595"
    }
  },
  {
    "service_request": "2026-1269846",
    "request_type": "Abandoned Vehicles",
    "request_reason": "Abandoned/Junk Vehicles",
    "date_created": "2026-03-30T17:19:24.000",
    "date_modified": "2026-03-30T17:19:26.000",
    "request_status": "Pending",
    "responsible_agency": "Department of Public Works",
    "final_address": "1107 Austerlitz St",
    "address_councildis": "B",
    "status": "Pending",
    "rowid": "1269846",
    "final_x": "3672817.38907",
    "final_y": "519789.579",
    "longitude": "-90.09588695137552",
    "latitude": "29.923501617432045",
    "geocoded_column": {
      "latitude": "29.923501617432045",
      "longitude": "-90.09588695137552"
    }
  },
  {
    "service_request": "2026-1269845",
    "request_type": "Drainage",
    "request_reason": "Catch Basin Not Draining",
    "date_created": "2026-03-30T17:16:53.000",
    "date_modified": "2026-03-30T17:17:03.000",
    "request_status": "Pending",
    "responsible_agency": "Sewerage & Water Board",
    "final_address": "2544 Tulane Ave",
    "address_councildis": "B",
    "status": "Pending",
    "rowid": "1269845",
    "final_x": "3674834.17768",
    "final_y": "533400.706948",
    "longitude": "-90.08905412793908",
    "latitude": "29.960867704530123",
    "geocoded_column": {
      "latitude": "29.960867704530123",
      "longitude": "-90.08905412793908"
    }
  },
  {
    "service_request": "2026-1269844",
    "request_type": "General Services",
    "request_reason": "General Service Request",
    "date_created": "2026-03-30T17:16:05.000",
    "date_modified": "2026-03-30T17:16:06.000",
    "request_status": "Pending",
    "responsible_agency": "Orleans Parish Communication District",
    "final_address": "5406 Milne St",
    "address_councildis": "A",
    "status": "Pending",
    "rowid": "1269844",
    "final_x": "3666575.22522",
    "final_y": "543532.88891",
    "longitude": "-90.11479417190758",
    "latitude": "29.988971834173128",
    "geocoded_column": {
      "latitude": "29.988971834173128",
      "longitude": "-90.11479417190758"
    }
  },
  {
    "service_request": "2026-1269843",
    "request_type": "Trash/Recycling",
    "request_reason": "Order Second Trash Cart",
    "date_created": "2026-03-30T17:05:56.000",
    "date_modified": "2026-03-30T17:05:58.000",
    "request_status": "Pending",
    "responsible_agency": "Department of Sanitation",
    "final_address": "7421 Hansbrough Ave",
    "address_councildis": "E",
    "status": "Assigned to Contractor",
    "contractor": "Waste Pro",
    "rowid": "1269843",
    "final_x": "3707988.43915",
    "final_y": "563936.307105",
    "longitude": "-89.98322406459789",
    "latitude": "30.04379738028502",
    "geocoded_column": {
      "latitude": "30.04379738028502",
      "longitude": "-89.98322406459789"
    }
  },
  {
    "service_request": "2026-1269842",
    "request_type": "Trash/Recycling",
    "request_reason": "Request a Large Item Pick Up",
    "date_created": "2026-03-30T16:56:39.000",
    "date_modified": "2026-03-30T16:56:41.000",
    "request_status": "Pending",
    "responsible_agency": "Department of Sanitation",
    "final_address": "45 Neron Pl",
    "address_councildis": "A",
    "status": "Assigned to Contractor",
    "contractor": "IV Waste",
    "rowid": "1269842",
    "final_x": "3665506.46138",
    "final_y": "530438.817346",
    "longitude": "-90.11860855704514",
    "latitude": "29.952998693768492",
    "geocoded_column": {
      "latitude": "29.952998693768492",
      "longitude": "-90.11860855704514"
    }
  },
  {
    "service_request": "2026-1269841",
    "request_type": "Trash/Recycling",
    "request_reason": "Request a Large Item Pick Up",
    "date_created": "2026-03-30T16:55:09.000",
    "date_modified": "2026-03-30T16:55:11.000",
    "request_status": "Pending",
    "responsible_agency": "Department of Sanitation",
    "final_address": "2220 Painters St",
    "address_councildis": "D",
    "status": "Assigned to Contractor",
    "contractor": "IV Waste",
    "rowid": "1269841",
    "final_x": "3687190.73538",
    "final_y": "540734.212747",
    "longitude": "-90.0497751521324",
    "latitude": "29.980657543117136",
    "geocoded_column": {
      "latitude": "29.980657543117136",
      "longitude": "-90.0497751521324"
    }
  },
  {
    "service_request": "2026-1269840",
    "request_type": "Trash/Recycling",
    "request_reason": "Repair Trash Cart",
    "date_created": "2026-03-30T16:53:04.000",
    "date_modified": "2026-03-30T16:53:06.000",
    "request_status": "Pending",
    "responsible_agency": "Department of Sanitation",
    "final_address": "3711 Frenchmen St",
    "address_councildis": "D",
    "status": "Assigned to Contractor",
    "contractor": "IV Waste",
    "rowid": "1269840",
    "final_x": "3683827.70562",
    "final_y": "546363.081936",
    "longitude": "-90.06019951759926",
    "latitude": "29.996238096991373",
    "geocoded_column": {
      "latitude": "29.996238096991373",
      "longitude": "-90.06019951759926"
    }
  },
  {
    "service_request": "2026-1269839",
    "request_type": "Streetlights",
    "request_reason": "Streetlight Outage/Malfunction",
    "date_created": "2026-03-30T16:52:14.000",
    "date_modified": "2026-03-30T16:52:18.000",
    "request_status": "Pending",
    "responsible_agency": "Department of Public Works",
    "final_address": "3236 Upperline St",
    "address_councildis": "B",
    "status": "Pending",
    "rowid": "1269839",
    "final_x": "3669220.16385",
    "final_y": "526986.24755",
    "longitude": "-90.10699895563809",
    "latitude": "29.94339647720517",
    "geocoded_column": {
      "latitude": "29.94339647720517",
      "longitude": "-90.10699895563809"
    }
  },
  {
    "service_request": "2026-1269838",
    "request_type": "Trash/Recycling",
    "request_reason": "Request a Large Item Pick Up",
    "date_created": "2026-03-30T16:47:34.000",
    "date_modified": "2026-03-30T16:47:36.000",
    "request_status": "Pending",
    "responsible_agency": "Department of Sanitation",
    "final_address": "7160 Yorktown Dr",
    "address_councildis": "E",
    "status": "Assigned to Contractor",
    "contractor": "Waste Pro",
    "rowid": "1269838",
    "final_x": "3705822.20932",
    "final_y": "561149.013022",
    "longitude": "-89.99017349912816",
    "latitude": "30.03620342731933",
    "geocoded_column": {
      "latitude": "30.03620342731933",
      "longitude": "-89.99017349912816"
    }
  },
  {
    "service_request": "2026-1269837",
    "request_type": "Trash/Recycling",
    "request_reason": "Request a Large Item Pick Up",
    "date_created": "2026-03-30T16:46:17.000",
    "date_modified": "2026-03-30T16:46:19.000",
    "request_status": "Pending",
    "responsible_agency": "Department of Sanitation",
    "final_address": "7426 Panola St",
    "address_councildis": "A",
    "status": "Assigned to Contractor",
    "contractor": "IV Waste",
    "rowid": "1269837",
    "final_x": "3665264.05658",
    "final_y": "529580.906945",
    "longitude": "-90.11940266695348",
    "latitude": "29.95064678224552",
    "geocoded_column": {
      "latitude": "29.95064678224552",
      "longitude": "-90.11940266695348"
    }
  },
  {
    "service_request": "2026-1269836",
    "request_type": "Trash/Recycling",
    "request_reason": "Request a Large Item Pick Up",
    "date_created": "2026-03-30T16:45:34.000",
    "date_modified": "2026-03-30T16:45:36.000",
    "request_status": "Pending",
    "responsible_agency": "Department of Sanitation",
    "final_address": "1329 St Mary St",
    "address_councildis": "B",
    "status": "Assigned to Contractor",
    "contractor": "IV Waste",
    "rowid": "1269836",
    "final_x": "3679137.14562",
    "final_y": "523566.820347",
    "longitude": "-90.07580697604008",
    "latitude": "29.933698617667677",
    "geocoded_column": {
      "latitude": "29.933698617667677",
      "longitude": "-90.07580697604008"
    }
  },
  {
    "service_request": "2026-1269835",
    "request_type": "Roads and Streets",
    "request_reason": "Street Subsidence (Sinking)",
    "date_created": "2026-03-30T16:45:10.000",
    "date_modified": "2026-03-30T16:45:12.000",
    "request_status": "Pending",
    "responsible_agency": "Sewerage & Water Board",
    "final_address": "N JOHNSON ST & ALVAR ST",
    "address_councildis": "D",
    "status": "Pending",
    "rowid": "1269835",
    "final_x": "3692335.6",
    "final_y": "538764.58",
    "longitude": "-90.03359605550273",
    "latitude": "29.975082284747565",
    "geocoded_column": {
      "latitude": "29.975082284747565",
      "longitude": "-90.03359605550273"
    }
  },
  {
    "service_request": "2026-1269834",
    "request_type": "Trash/Recycling",
    "request_reason": "Replace Trash Cart",
    "date_created": "2026-03-30T16:42:15.000",
    "date_modified": "2026-03-30T16:42:17.000",
    "request_status": "Pending",
    "responsible_agency": "Department of Sanitation",
    "final_address": "922 N Lopez St",
    "address_councildis": "A",
    "status": "Assigned to Contractor",
    "contractor": "IV Waste",
    "rowid": "1269834",
    "final_x": "3675847.02625",
    "final_y": "538771.680969",
    "longitude": "-90.08567106484794",
    "latitude": "29.97560577916738",
    "geocoded_column": {
      "latitude": "29.97560577916738",
      "longitude": "-90.08567106484794"
    }
  },
  {
    "service_request": "2026-1269833",
    "request_type": "Trash/Recycling",
    "request_reason": "Repair Trash Cart",
    "date_created": "2026-03-30T16:41:26.000",
    "date_modified": "2026-03-30T16:41:28.000",
    "request_status": "Pending",
    "responsible_agency": "Department of Sanitation",
    "final_address": "922 N Lopez St",
    "address_councildis": "A",
    "status": "Assigned to Contractor",
    "contractor": "IV Waste",
    "rowid": "1269833",
    "final_x": "3675847.02625",
    "final_y": "538771.680969",
    "longitude": "-90.08567106484794",
    "latitude": "29.97560577916738",
    "geocoded_column": {
      "latitude": "29.97560577916738",
      "longitude": "-90.08567106484794"
    }
  },
  {
    "service_request": "2026-1269832",
    "request_type": "Abandoned Vehicles",
    "request_reason": "Abandoned/Junk Vehicles",
    "date_created": "2026-03-30T16:41:07.000",
    "date_modified": "2026-03-30T16:41:09.000",
    "request_status": "Pending",
    "responsible_agency": "Department of Public Works",
    "final_address": "1100 BLK S Tonti St",
    "address_councildis": "B",
    "status": "Pending",
    "rowid": "1269832",
    "final_x": "3673595.4697",
    "final_y": "530404.260173",
    "longitude": "-90.0930681585041",
    "latitude": "29.95266540205768",
    "geocoded_column": {
      "latitude": "29.95266540205768",
      "longitude": "-90.0930681585041"
    }
  },
  {
    "service_request": "2026-1269831",
    "request_type": "Abandoned Vehicles",
    "request_reason": "Abandoned/Junk Vehicles",
    "date_created": "2026-03-30T16:38:03.000",
    "date_modified": "2026-03-30T16:38:05.000",
    "request_status": "Pending",
    "responsible_agency": "Department of Public Works",
    "final_address": "1100 BLK S Tonti St",
    "address_councildis": "B",
    "status": "Pending",
    "rowid": "1269831",
    "final_x": "3673595.4697",
    "final_y": "530404.260173",
    "longitude": "-90.0930681585041",
    "latitude": "29.95266540205768",
    "geocoded_column": {
      "latitude": "29.95266540205768",
      "longitude": "-90.0930681585041"
    }
  },
  {
    "service_request": "2026-1269830",
    "request_type": "Abandoned Vehicles",
    "request_reason": "Abandoned/Junk Vehicles",
    "date_created": "2026-03-30T16:36:24.000",
    "date_modified": "2026-03-30T16:36:25.000",
    "request_status": "Pending",
    "responsible_agency": "Department of Public Works",
    "final_address": "1612 Ursulines Ave",
    "address_councildis": "C",
    "status": "Pending",
    "rowid": "1269830",
    "final_x": "3680840.75528",
    "final_y": "535603.101702",
    "longitude": "-90.07000982913375",
    "latitude": "29.966742821120697",
    "geocoded_column": {
      "latitude": "29.966742821120697",
      "longitude": "-90.07000982913375"
    }
  },
  {
    "service_request": "2026-1269829",
    "request_type": "Trash/Recycling",
    "request_reason": "Request a Large Item Pick Up",
    "date_created": "2026-03-30T16:30:27.000",
    "date_modified": "2026-03-30T16:30:29.000",
    "request_status": "Pending",
    "responsible_agency": "Department of Sanitation",
    "final_address": "6981 Pinebrook Dr",
    "address_councildis": "E",
    "status": "Assigned to Contractor",
    "contractor": "Waste Pro",
    "rowid": "1269829",
    "final_x": "3719912.07558",
    "final_y": "569478.275046",
    "longitude": "-89.94532849325108",
    "latitude": "30.058643809870674",
    "geocoded_column": {
      "latitude": "30.058643809870674",
      "longitude": "-89.94532849325108"
    }
  },
  {
    "service_request": "2026-1269828",
    "request_type": "Drainage",
    "request_reason": "Catch Basin Not Draining",
    "date_created": "2026-03-30T16:27:28.000",
    "date_modified": "2026-03-30T16:27:29.000",
    "request_status": "Pending",
    "responsible_agency": "Sewerage & Water Board",
    "final_address": "4500 S Carrollton Ave",
    "address_councildis": "A",
    "status": "Pending",
    "rowid": "1269828",
    "final_x": "3670434.98375",
    "final_y": "537435.177224",
    "longitude": "-90.10280916571821",
    "latitude": "29.972091770927403",
    "geocoded_column": {
      "latitude": "29.972091770927403",
      "longitude": "-90.10280916571821"
    }
  },
  {
    "service_request": "2026-1269827",
    "request_type": "Trash/Recycling",
    "request_reason": "Order Trash Cart",
    "date_created": "2026-03-30T16:24:21.000",
    "date_modified": "2026-03-30T16:24:23.000",
    "request_status": "Pending",
    "responsible_agency": "Department of Sanitation",
    "final_address": "3223 St Philip St",
    "address_councildis": "A",
    "status": "Assigned to Contractor",
    "contractor": "IV Waste",
    "rowid": "1269827",
    "final_x": "3675540.46318",
    "final_y": "539333.13601",
    "longitude": "-90.08661998345094",
    "latitude": "29.97715876325833",
    "geocoded_column": {
      "latitude": "29.97715876325833",
      "longitude": "-90.08661998345094"
    }
  },
  {
    "service_request": "2026-1269826",
    "request_type": "Drainage",
    "request_reason": "Catch Basin Not Draining",
    "date_created": "2026-03-30T16:24:05.000",
    "date_modified": "2026-03-30T16:24:07.000",
    "request_status": "Pending",
    "responsible_agency": "Sewerage & Water Board",
    "final_address": "3510 Rue Delphine",
    "address_councildis": "C",
    "status": "Pending",
    "rowid": "1269826",
    "final_x": "3703104.47633",
    "final_y": "517781.247094",
    "longitude": "-90.00035633548376",
    "latitude": "29.917045279159883",
    "geocoded_column": {
      "latitude": "29.917045279159883",
      "longitude": "-90.00035633548376"
    }
  },
  {
    "service_request": "2026-1269825",
    "request_type": "Drainage",
    "request_reason": "Catch Basin Not Draining",
    "date_created": "2026-03-30T16:22:34.000",
    "date_modified": "2026-03-30T16:22:35.000",
    "request_status": "Pending",
    "responsible_agency": "Sewerage & Water Board",
    "final_address": "2456 N Rampart St",
    "address_councildis": "C",
    "status": "Pending",
    "rowid": "1269825",
    "final_x": "3686296.61404",
    "final_y": "536015.361159",
    "longitude": "-90.05276573736514",
    "latitude": "29.967709864726412",
    "geocoded_column": {
      "latitude": "29.967709864726412",
      "longitude": "-90.05276573736514"
    }
  },
  {
    "service_request": "2026-1269824",
    "request_type": "Trash/Recycling",
    "request_reason": "Request a Large Item Pick Up",
    "date_created": "2026-03-30T16:21:34.000",
    "date_modified": "2026-03-30T16:21:36.000",
    "request_status": "Pending",
    "responsible_agency": "Department of Sanitation",
    "final_address": "6029 Marigny St",
    "address_councildis": "D",
    "status": "Assigned to Contractor",
    "contractor": "IV Waste",
    "rowid": "1269824",
    "final_x": "3683941.33922",
    "final_y": "555251.334809",
    "longitude": "-90.05952842802547",
    "latitude": "30.02067409712874",
    "geocoded_column": {
      "latitude": "30.02067409712874",
      "longitude": "-90.05952842802547"
    }
  },
  {
    "service_request": "2026-1269823",
    "request_type": "Abandoned Vehicles",
    "request_reason": "Abandoned/Junk Vehicles",
    "date_created": "2026-03-30T16:19:24.000",
    "date_modified": "2026-03-30T16:19:25.000",
    "request_status": "Pending",
    "responsible_agency": "Department of Public Works",
    "final_address": "4101 Wilson Ave",
    "address_councildis": "E",
    "status": "Pending",
    "rowid": "1269823",
    "final_x": "3703350.86999",
    "final_y": "551928.245206",
    "longitude": "-89.99832285693924",
    "latitude": "30.010929297408527",
    "geocoded_column": {
      "latitude": "30.010929297408527",
      "longitude": "-89.99832285693924"
    }
  },
  {
    "service_request": "2026-1269822",
    "request_type": "Trash/Recycling",
    "request_reason": "Illegal Dumping",
    "date_created": "2026-03-30T16:17:49.000",
    "date_modified": "2026-03-30T16:17:51.000",
    "request_status": "Pending",
    "responsible_agency": "Department of Sanitation",
    "final_address": "600 BLK Esplanade Ave",
    "address_councildis": "C",
    "status": "Pending",
    "rowid": "1269822",
    "final_x": "3684207.82938",
    "final_y": "534327.911119",
    "longitude": "-90.05942141086202",
    "latitude": "29.963133981825923",
    "geocoded_column": {
      "latitude": "29.963133981825923",
      "longitude": "-90.05942141086202"
    }
  },
  {
    "service_request": "2026-1269821",
    "request_type": "Drainage",
    "request_reason": "Catch Basin Not Draining",
    "date_created": "2026-03-30T16:12:50.000",
    "date_modified": "2026-03-30T16:12:52.000",
    "request_status": "Pending",
    "responsible_agency": "Sewerage & Water Board",
    "final_address": "CANAL ST & S CLARK ST",
    "address_councildis": "B",
    "status": "Pending",
    "rowid": "1269821",
    "final_x": "3672837.6",
    "final_y": "536958.48",
    "longitude": "-90.09523755939757",
    "latitude": "29.97070984978766",
    "geocoded_column": {
      "latitude": "29.97070984978766",
      "longitude": "-90.09523755939757"
    }
  },
  {
    "service_request": "2026-1269820",
    "request_type": "Traffic Signals",
    "request_reason": "Traffic Signal Malfunctioning or Damaged",
    "date_created": "2026-03-30T16:09:42.000",
    "date_modified": "2026-03-30T16:09:44.000",
    "request_status": "Pending",
    "responsible_agency": "Department of Public Works",
    "final_address": "BROADWAY ST & ST CHARLES AVE",
    "address_councildis": "A",
    "status": "Pending",
    "rowid": "1269820",
    "final_x": "3662980.9",
    "final_y": "524725.38",
    "longitude": "-90.12677317488857",
    "latitude": "29.937361947391178",
    "geocoded_column": {
      "latitude": "29.937361947391178",
      "longitude": "-90.12677317488857"
    }
  },
  {
    "service_request": "2026-1269819",
    "request_type": "Abandoned Vehicles",
    "request_reason": "Abandoned/Junk Vehicles",
    "date_created": "2026-03-30T16:07:38.000",
    "date_modified": "2026-03-30T16:07:40.000",
    "request_status": "Pending",
    "responsible_agency": "Department of Public Works",
    "final_address": "905 Nashville Ave",
    "address_councildis": "A",
    "status": "Pending",
    "rowid": "1269819",
    "final_x": "3665684.03232",
    "final_y": "519375.714551",
    "longitude": "-90.11841824670756",
    "latitude": "29.922573518290907",
    "geocoded_column": {
      "latitude": "29.922573518290907",
      "longitude": "-90.11841824670756"
    }
  },
  {
    "service_request": "2026-1269818",
    "request_type": "Drainage",
    "request_reason": "Catch Basin Not Draining",
    "date_created": "2026-03-30T16:06:14.000",
    "date_modified": "2026-03-30T16:06:16.000",
    "request_status": "Pending",
    "responsible_agency": "Sewerage & Water Board",
    "final_address": "3588 Somerset Dr",
    "address_councildis": "C",
    "status": "Pending",
    "rowid": "1269818",
    "final_x": "3702538.73514",
    "final_y": "517516.262006",
    "longitude": "-90.0021517583767",
    "latitude": "29.916334745505647",
    "geocoded_column": {
      "latitude": "29.916334745505647",
      "longitude": "-90.0021517583767"
    }
  },
  {
    "service_request": "2026-1269817",
    "request_type": "Abandoned Vehicles",
    "request_reason": "Abandoned/Junk Vehicles",
    "date_created": "2026-03-30T16:04:34.000",
    "date_modified": "2026-03-30T16:04:36.000",
    "request_status": "Pending",
    "responsible_agency": "Department of Public Works",
    "final_address": "905 Nashville Ave",
    "address_councildis": "A",
    "status": "Pending",
    "rowid": "1269817",
    "final_x": "3665684.03232",
    "final_y": "519375.714551",
    "longitude": "-90.11841824670756",
    "latitude": "29.922573518290907",
    "geocoded_column": {
      "latitude": "29.922573518290907",
      "longitude": "-90.11841824670756"
    }
  },
  {
    "service_request": "2026-1269816",
    "request_type": "Drainage",
    "request_reason": "Drainage Manhole Cover Missing or Damaged",
    "date_created": "2026-03-30T16:04:24.000",
    "date_modified": "2026-03-30T16:04:26.000",
    "request_status": "Pending",
    "responsible_agency": "Sewerage & Water Board",
    "final_address": "CAMP ST & NATCHEZ ST",
    "address_councildis": "B",
    "status": "Pending",
    "rowid": "1269816",
    "final_x": "3681180.3",
    "final_y": "529513.18",
    "longitude": "-90.06914973126064",
    "latitude": "29.949987308616148",
    "geocoded_column": {
      "latitude": "29.949987308616148",
      "longitude": "-90.06914973126064"
    }
  },
  {
    "service_request": "2026-1269815",
    "request_type": "Trash/Recycling",
    "request_reason": "Request a Large Item Pick Up",
    "date_created": "2026-03-30T16:00:07.000",
    "date_modified": "2026-03-30T16:00:15.000",
    "request_status": "Pending",
    "responsible_agency": "Department of Sanitation",
    "final_address": "11026 Vienna St",
    "address_councildis": "E",
    "status": "Assigned to Contractor",
    "contractor": "Waste Pro",
    "rowid": "1269815",
    "final_x": "3715902.57036",
    "final_y": "557810.302939",
    "longitude": "-89.95844455583878",
    "latitude": "30.02669455732732",
    "geocoded_column": {
      "latitude": "30.02669455732732",
      "longitude": "-89.95844455583878"
    }
  },
  {
    "service_request": "2026-1269814",
    "request_type": "Trash/Recycling",
    "request_reason": "Replace Recycling Cart",
    "date_created": "2026-03-30T15:59:55.000",
    "date_modified": "2026-03-30T15:59:57.000",
    "request_status": "Pending",
    "responsible_agency": "Department of Sanitation",
    "final_address": "4420 Copernicus St",
    "address_councildis": "C",
    "status": "Pending",
    "rowid": "1269814",
    "final_x": "3700091.78672",
    "final_y": "523011.801339",
    "longitude": "-90.00967487980235",
    "latitude": "29.931523531250022",
    "geocoded_column": {
      "latitude": "29.931523531250022",
      "longitude": "-90.00967487980235"
    }
  },
  {
    "service_request": "2026-1269813",
    "request_type": "Abandoned Vehicles",
    "request_reason": "Abandoned/Junk Vehicles",
    "date_created": "2026-03-30T15:59:20.000",
    "date_modified": "2026-03-30T15:59:22.000",
    "request_status": "Pending",
    "responsible_agency": "Department of Public Works",
    "final_address": "5231 Norgate Dr",
    "address_councildis": "E",
    "status": "Pending",
    "rowid": "1269813",
    "final_x": "3707491.90846",
    "final_y": "557455.820379",
    "longitude": "-89.98503430348735",
    "latitude": "30.025994676648963",
    "geocoded_column": {
      "latitude": "30.025994676648963",
      "longitude": "-89.98503430348735"
    }
  },
  {
    "service_request": "2026-1269812",
    "request_type": "Trash/Recycling",
    "request_reason": "Request a Large Item Pick Up",
    "date_created": "2026-03-30T15:57:35.000",
    "date_modified": "2026-03-30T15:57:36.000",
    "request_status": "Pending",
    "responsible_agency": "Department of Sanitation",
    "final_address": "4420 Copernicus St",
    "address_councildis": "C",
    "status": "Assigned to Contractor",
    "contractor": "Richards Disposal",
    "rowid": "1269812",
    "final_x": "3700091.78672",
    "final_y": "523011.801339",
    "longitude": "-90.00967487980235",
    "latitude": "29.931523531250022",
    "geocoded_column": {
      "latitude": "29.931523531250022",
      "longitude": "-90.00967487980235"
    }
  },
  {
    "service_request": "2026-1269811",
    "request_type": "Trash/Recycling",
    "request_reason": "Request a Large Item Pick Up",
    "date_created": "2026-03-30T15:57:06.000",
    "date_modified": "2026-03-30T15:57:08.000",
    "request_status": "Pending",
    "responsible_agency": "Department of Sanitation",
    "final_address": "7415 Devine Ave",
    "address_councildis": "E",
    "status": "Assigned to Contractor",
    "contractor": "Waste Pro",
    "rowid": "1269811",
    "final_x": "3706016.58379",
    "final_y": "562567.638432",
    "longitude": "-89.98950666547107",
    "latitude": "30.040097820754326",
    "geocoded_column": {
      "latitude": "30.040097820754326",
      "longitude": "-89.98950666547107"
    }
  },
  {
    "service_request": "2026-1269810",
    "request_type": "Abandoned Vehicles",
    "request_reason": "Abandoned/Junk Vehicles",
    "date_created": "2026-03-30T15:56:08.000",
    "date_modified": "2026-03-30T15:56:09.000",
    "request_status": "Pending",
    "responsible_agency": "Department of Public Works",
    "final_address": "11100 Curran Rd",
    "address_councildis": "E",
    "status": "Pending",
    "rowid": "1269810",
    "final_x": "3710728.17816",
    "final_y": "566182.010659",
    "longitude": "-89.9744812120682",
    "latitude": "30.04988311364366",
    "geocoded_column": {
      "latitude": "30.04988311364366",
      "longitude": "-89.9744812120682"
    }
  },
  {
    "service_request": "2026-1269809",
    "request_type": "Trash/Recycling",
    "request_reason": "Replace Trash Cart",
    "date_created": "2026-03-30T15:51:40.000",
    "date_modified": "2026-03-30T15:51:42.000",
    "request_status": "Pending",
    "responsible_agency": "Department of Sanitation",
    "final_address": "2131 General Pershing St",
    "address_councildis": "B",
    "status": "Assigned to Contractor",
    "contractor": "IV Waste",
    "rowid": "1269809",
    "final_x": "3671087.22708",
    "final_y": "522949.988987",
    "longitude": "-90.10124117024674",
    "latitude": "29.932242996674308",
    "geocoded_column": {
      "latitude": "29.932242996674308",
      "longitude": "-90.10124117024674"
    }
  },
  {
    "service_request": "2026-1269808",
    "request_type": "Trash/Recycling",
    "request_reason": "Request a Large Item Pick Up",
    "date_created": "2026-03-30T15:49:35.000",
    "date_modified": "2026-03-30T15:49:37.000",
    "request_status": "Pending",
    "responsible_agency": "Department of Sanitation",
    "final_address": "1562 Lafreniere St",
    "address_councildis": "D",
    "status": "Assigned to Contractor",
    "contractor": "IV Waste",
    "rowid": "1269808",
    "final_x": "3679484.67362",
    "final_y": "545087.688719",
    "longitude": "-90.07396312930267",
    "latitude": "29.99286318534605",
    "geocoded_column": {
      "latitude": "29.99286318534605",
      "longitude": "-90.07396312930267"
    }
  },
  {
    "service_request": "2026-1269807",
    "request_type": "Roads and Streets",
    "request_reason": "Push-up/Pavement Expansion",
    "date_created": "2026-03-30T15:49:26.000",
    "date_modified": "2026-03-30T15:49:28.000",
    "request_status": "Pending",
    "responsible_agency": "Department of Public Works",
    "final_address": "3317 Fern St",
    "address_councildis": "B",
    "status": "Pending",
    "rowid": "1269807",
    "final_x": "3667695.38292",
    "final_y": "533470.415236",
    "longitude": "-90.11159481506839",
    "latitude": "29.961270604646526",
    "geocoded_column": {
      "latitude": "29.961270604646526",
      "longitude": "-90.11159481506839"
    }
  },
  {
    "service_request": "2026-1269806",
    "request_type": "General Services",
    "request_reason": "General Service Request",
    "date_created": "2026-03-30T15:49:03.000",
    "date_modified": "2026-03-30T15:49:06.000",
    "request_status": "Pending",
    "responsible_agency": "Orleans Parish Communication District",
    "final_address": "2439 General Ogden St",
    "address_councildis": "A",
    "status": "Pending",
    "rowid": "1269806",
    "final_x": "3663023.95527",
    "final_y": "533686.251013",
    "longitude": "-90.12633924636512",
    "latitude": "29.962000212507782",
    "geocoded_column": {
      "latitude": "29.962000212507782",
      "longitude": "-90.12633924636512"
    }
  },
  {
    "service_request": "2026-1269805",
    "request_type": "Roads and Streets",
    "request_reason": "Debris in Driving Lanes",
    "date_created": "2026-03-30T15:45:50.000",
    "date_modified": "2026-03-30T15:45:52.000",
    "request_status": "Pending",
    "responsible_agency": "Department of Public Works",
    "final_address": "2738 St Charles Ave",
    "address_councildis": "B",
    "status": "Pending",
    "rowid": "1269805",
    "final_x": "3676043.54907",
    "final_y": "522483.959162",
    "longitude": "-90.08561054115155",
    "latitude": "29.930814094749167",
    "geocoded_column": {
      "latitude": "29.930814094749167",
      "longitude": "-90.08561054115155"
    }
  },
  {
    "service_request": "2026-1269804",
    "request_type": "Safety & Permits",
    "request_reason": "Zoning Enforcement",
    "date_created": "2026-03-30T15:45:26.000",
    "date_modified": "2026-03-30T15:46:26.000",
    "request_status": "Pending",
    "responsible_agency": "Safety and Permits",
    "final_address": "916 Jena St",
    "address_councildis": "B",
    "status": "Pending",
    "rowid": "1269804",
    "final_x": "3670609.42081",
    "final_y": "518902.111031",
    "longitude": "-90.1028867861079",
    "latitude": "29.92112674365691",
    "geocoded_column": {
      "latitude": "29.92112674365691",
      "longitude": "-90.1028867861079"
    }
  },
  {
    "service_request": "2026-1269803",
    "request_type": "Drainage",
    "request_reason": "Catch Basin Not Draining",
    "date_created": "2026-03-30T15:43:50.000",
    "date_modified": "2026-03-30T15:43:53.000",
    "request_status": "Pending",
    "responsible_agency": "Sewerage & Water Board",
    "final_address": "1720 Washington Ave Unit 4",
    "address_councildis": "B",
    "status": "Pending",
    "rowid": "1269803",
    "final_x": "3675549.38843",
    "final_y": "522986.934331",
    "longitude": "-90.08715326974408",
    "latitude": "29.93221189960906",
    "geocoded_column": {
      "latitude": "29.93221189960906",
      "longitude": "-90.08715326974408"
    }
  },
  {
    "service_request": "2026-1269802",
    "request_type": "Trash/Recycling",
    "request_reason": "Replace Trash Cart",
    "date_created": "2026-03-30T15:39:19.000",
    "date_modified": "2026-03-30T15:39:20.000",
    "request_status": "Pending",
    "responsible_agency": "Department of Sanitation",
    "final_address": "2133 General Pershing St",
    "address_councildis": "B",
    "status": "Assigned to Contractor",
    "contractor": "IV Waste",
    "rowid": "1269802",
    "final_x": "3671087.22708",
    "final_y": "522967.107195",
    "longitude": "-90.10124058916222",
    "latitude": "29.932290066237513",
    "geocoded_column": {
      "latitude": "29.932290066237513",
      "longitude": "-90.10124058916222"
    }
  },
  {
    "service_request": "2026-1269801",
    "request_type": "Drainage",
    "request_reason": "Catch Basin Not Draining",
    "date_created": "2026-03-30T15:38:54.000",
    "date_modified": "2026-03-30T15:39:03.000",
    "request_status": "Pending",
    "responsible_agency": "Sewerage & Water Board",
    "final_address": "1720 Washington Ave Unit 1",
    "address_councildis": "B",
    "status": "Pending",
    "rowid": "1269801",
    "final_x": "3675566.7204",
    "final_y": "522987.465083",
    "longitude": "-90.08709853610662",
    "latitude": "29.932212840687804",
    "geocoded_column": {
      "latitude": "29.932212840687804",
      "longitude": "-90.08709853610662"
    }
  },
  {
    "service_request": "2026-1269800",
    "request_type": "Trash/Recycling",
    "request_reason": "Repair Trash Cart",
    "date_created": "2026-03-30T15:38:51.000",
    "date_modified": "2026-03-30T15:38:59.000",
    "request_status": "Pending",
    "responsible_agency": "Department of Sanitation",
    "final_address": "1910 St Philip St",
    "address_councildis": "C",
    "status": "Assigned to Contractor",
    "contractor": "IV Waste",
    "rowid": "1269800",
    "final_x": "3679760.5293",
    "final_y": "535976.643975",
    "longitude": "-90.07340820672644",
    "latitude": "29.967802638250067",
    "geocoded_column": {
      "latitude": "29.967802638250067",
      "longitude": "-90.07340820672644"
    }
  },
  {
    "service_request": "2026-1269799",
    "request_type": "Utility Poles",
    "request_reason": "Utility Pole Leaning",
    "date_created": "2026-03-30T15:38:40.000",
    "date_modified": "2026-03-30T15:38:46.000",
    "request_status": "Pending",
    "responsible_agency": "Utility Company Collective",
    "final_address": "2703 Amelia St Apt 3",
    "address_councildis": "B",
    "status": "Pending",
    "rowid": "1269799",
    "final_x": "3672223.81358",
    "final_y": "525056.983741",
    "longitude": "-90.09758133271062",
    "latitude": "29.938002896220638",
    "geocoded_column": {
      "latitude": "29.938002896220638",
      "longitude": "-90.09758133271062"
    }
  },
  {
    "service_request": "2026-1269798",
    "request_type": "Trash/Recycling",
    "request_reason": "Order Trash Cart",
    "date_created": "2026-03-30T15:37:27.000",
    "date_modified": "2026-03-30T15:37:29.000",
    "request_status": "Pending",
    "responsible_agency": "Department of Sanitation",
    "final_address": "2730 Ursulines Ave",
    "address_councildis": "A",
    "status": "Assigned to Contractor",
    "contractor": "IV Waste",
    "rowid": "1269798",
    "final_x": "3677344.24546",
    "final_y": "538297.869897",
    "longitude": "-90.08095878574314",
    "latitude": "29.974258049711814",
    "geocoded_column": {
      "latitude": "29.974258049711814",
      "longitude": "-90.08095878574314"
    }
  },
  {
    "service_request": "2026-1269797",
    "request_type": "Trash/Recycling",
    "request_reason": "Request a Large Item Pick Up",
    "date_created": "2026-03-30T15:34:40.000",
    "date_modified": "2026-03-30T15:35:31.000",
    "request_status": "Pending",
    "responsible_agency": "Department of Sanitation",
    "final_address": "8600 Lake Forest Blvd",
    "address_councildis": "E",
    "status": "Assigned to Contractor",
    "contractor": "Waste Pro",
    "rowid": "1269797",
    "final_x": "3706233.01867",
    "final_y": "557882.382491",
    "longitude": "-89.98899638685525",
    "latitude": "30.027208226926486",
    "geocoded_column": {
      "latitude": "30.027208226926486",
      "longitude": "-89.98899638685525"
    }
  },
  {
    "service_request": "2026-1269796",
    "request_type": "Trash/Recycling",
    "request_reason": "Request a Large Item Pick Up",
    "date_created": "2026-03-30T15:32:40.000",
    "date_modified": "2026-03-30T15:32:47.000",
    "request_status": "Pending",
    "responsible_agency": "Department of Sanitation",
    "final_address": "5011 Camp St",
    "address_councildis": "B",
    "status": "Assigned to Contractor",
    "contractor": "IV Waste",
    "rowid": "1269796",
    "final_x": "3668547.13274",
    "final_y": "518999.438199",
    "longitude": "-90.10939324641774",
    "latitude": "29.92145509488807",
    "geocoded_column": {
      "latitude": "29.92145509488807",
      "longitude": "-90.10939324641774"
    }
  },
  {
    "service_request": "2026-1269795",
    "request_type": "Trash/Recycling",
    "request_reason": "Return Trash Cart",
    "date_created": "2026-03-30T15:32:17.000",
    "date_modified": "2026-03-30T15:32:20.000",
    "request_status": "Pending",
    "responsible_agency": "Department of Sanitation",
    "final_address": "3218 Chippewa St",
    "address_councildis": "B",
    "status": "Assigned to Contractor",
    "contractor": "IV Waste",
    "rowid": "1269795",
    "final_x": "3676376.08405",
    "final_y": "518526.716407",
    "longitude": "-90.0846969060357",
    "latitude": "29.919922997164928",
    "geocoded_column": {
      "latitude": "29.919922997164928",
      "longitude": "-90.0846969060357"
    }
  },
  {
    "service_request": "2026-1269794",
    "request_type": "Trash/Recycling",
    "request_reason": "Request a Large Item Pick Up",
    "date_created": "2026-03-30T15:31:53.000",
    "date_modified": "2026-03-30T15:31:55.000",
    "request_status": "Pending",
    "responsible_agency": "Department of Sanitation",
    "final_address": "5009 Camp St",
    "address_councildis": "B",
    "status": "Assigned to Contractor",
    "contractor": "IV Waste",
    "rowid": "1269794",
    "final_x": "3668560.62074",
    "final_y": "518999.077559",
    "longitude": "-90.10935068271841",
    "latitude": "29.921453707079813",
    "geocoded_column": {
      "latitude": "29.921453707079813",
      "longitude": "-90.10935068271841"
    }
  },
  {
    "service_request": "2026-1269793",
    "request_type": "Property Maintenance",
    "request_reason": "Property Maintenance",
    "date_created": "2026-03-30T15:28:40.000",
    "date_modified": "2026-03-30T15:28:41.000",
    "request_status": "Pending",
    "responsible_agency": "Department of Code Enforcement",
    "final_address": "4901 General De Gaulle Dr",
    "address_councildis": "C",
    "status": "Pending",
    "rowid": "1269793",
    "final_x": "3701390.457",
    "final_y": "516919.037941",
    "longitude": "-90.00579799989453",
    "latitude": "29.91472921431419",
    "geocoded_column": {
      "latitude": "29.91472921431419",
      "longitude": "-90.00579799989453"
    }
  },
  {
    "service_request": "2026-1269792",
    "request_type": "Trash/Recycling",
    "request_reason": "Illegal Dumping",
    "date_created": "2026-03-30T15:28:12.000",
    "date_modified": "2026-03-30T15:28:15.000",
    "request_status": "Pending",
    "responsible_agency": "Department of Sanitation",
    "final_address": "4901 General De Gaulle Dr",
    "address_councildis": "C",
    "status": "Pending",
    "rowid": "1269792",
    "final_x": "3701390.457",
    "final_y": "516919.037941",
    "longitude": "-90.00579799989453",
    "latitude": "29.91472921431419",
    "geocoded_column": {
      "latitude": "29.91472921431419",
      "longitude": "-90.00579799989453"
    }
  },
  {
    "service_request": "2026-1269791",
    "request_type": "Property Maintenance",
    "request_reason": "Property Maintenance",
    "date_created": "2026-03-30T15:26:05.000",
    "date_modified": "2026-03-30T15:26:07.000",
    "request_status": "Pending",
    "responsible_agency": "Department of Code Enforcement",
    "final_address": "4455 Gawain Dr",
    "address_councildis": "E",
    "status": "Pending",
    "rowid": "1269791",
    "final_x": "3707233.62052",
    "final_y": "553920.405591",
    "longitude": "-89.98598181387648",
    "latitude": "30.016282013088194",
    "geocoded_column": {
      "latitude": "30.016282013088194",
      "longitude": "-89.98598181387648"
    }
  },
  {
    "service_request": "2026-1269790",
    "request_type": "Property Maintenance",
    "request_reason": "Property Maintenance",
    "date_created": "2026-03-30T15:25:42.000",
    "date_modified": "2026-03-30T15:25:44.000",
    "request_status": "Pending",
    "responsible_agency": "Department of Code Enforcement",
    "final_address": "4350 General De Gaulle Dr",
    "address_councildis": "C",
    "status": "Pending",
    "rowid": "1269790",
    "final_x": "3699735.21348",
    "final_y": "518581.886519",
    "longitude": "-90.01096192415491",
    "latitude": "29.919354108661576",
    "geocoded_column": {
      "latitude": "29.919354108661576",
      "longitude": "-90.01096192415491"
    }
  },
  {
    "service_request": "2026-1269789",
    "request_type": "Traffic Signals",
    "request_reason": "Traffic Signal Malfunctioning or Damaged",
    "date_created": "2026-03-30T15:24:14.000",
    "date_modified": "2026-03-30T15:24:18.000",
    "request_status": "Pending",
    "responsible_agency": "Department of Public Works",
    "final_address": "NAPOLEON AVE & S CLAIBORNE AVE",
    "address_councildis": "B",
    "status": "Pending",
    "rowid": "1269789",
    "final_x": "3670387.1",
    "final_y": "525920.08",
    "longitude": "-90.10335076198908",
    "latitude": "29.940430470168412",
    "geocoded_column": {
      "latitude": "29.940430470168412",
      "longitude": "-90.10335076198908"
    }
  },
  {
    "service_request": "2026-1269788",
    "request_type": "Drainage",
    "request_reason": "Catch Basin Not Draining",
    "date_created": "2026-03-30T15:24:00.000",
    "date_modified": "2026-03-30T15:24:01.000",
    "request_status": "Pending",
    "responsible_agency": "Sewerage & Water Board",
    "final_address": "7102 Freret St",
    "address_councildis": "A",
    "status": "Pending",
    "rowid": "1269788",
    "final_x": "3663946.01581",
    "final_y": "525720.501245",
    "longitude": "-90.12369306061936",
    "latitude": "29.94007023488417",
    "geocoded_column": {
      "latitude": "29.94007023488417",
      "longitude": "-90.12369306061936"
    }
  },
  {
    "service_request": "2026-1269787",
    "request_type": "Traffic Signals",
    "request_reason": "Traffic Signal Malfunctioning or Damaged",
    "date_created": "2026-03-30T15:22:37.000",
    "date_modified": "2026-03-30T15:22:39.000",
    "request_status": "Pending",
    "responsible_agency": "Department of Public Works",
    "final_address": "N CLAIBORNE AVE & ST BERNARD AVE",
    "address_councildis": "C",
    "status": "Pending",
    "rowid": "1269787",
    "final_x": "3682234.31",
    "final_y": "537715.64",
    "longitude": "-90.06553517869295",
    "latitude": "29.972509251901485",
    "geocoded_column": {
      "latitude": "29.972509251901485",
      "longitude": "-90.06553517869295"
    }
  },
  {
    "service_request": "2026-1269786",
    "request_type": "Abandoned Vehicles",
    "request_reason": "Abandoned/Junk Vehicles",
    "date_created": "2026-03-30T15:22:07.000",
    "date_modified": "2026-03-30T15:22:08.000",
    "request_status": "Pending",
    "responsible_agency": "Department of Public Works",
    "final_address": "BEHRMAN HWY & BEHRMAN PL",
    "address_councildis": "C",
    "status": "Pending",
    "rowid": "1269786",
    "final_x": "3697620.9",
    "final_y": "516520.28",
    "longitude": "-90.017710426513",
    "latitude": "29.913752312730836",
    "geocoded_column": {
      "latitude": "29.913752312730836",
      "longitude": "-90.017710426513"
    }
  },
  {
    "service_request": "2026-1269785",
    "request_type": "Drainage",
    "request_reason": "Catch Basin Not Draining",
    "date_created": "2026-03-30T15:21:44.000",
    "date_modified": "2026-03-30T15:21:46.000",
    "request_status": "Pending",
    "responsible_agency": "Sewerage & Water Board",
    "final_address": "4413 Duplessis St",
    "address_councildis": "D",
    "status": "Pending",
    "rowid": "1269785",
    "final_x": "3678351.17115",
    "final_y": "548658.716947",
    "longitude": "-90.07742002491246",
    "latitude": "30.002716457564233",
    "geocoded_column": {
      "latitude": "30.002716457564233",
      "longitude": "-90.07742002491246"
    }
  },
  {
    "service_request": "2026-1269784",
    "request_type": "Parks & Parkways",
    "request_reason": "Request Tree Service (Right of Way/Public Property)",
    "date_created": "2026-03-30T15:18:30.000",
    "date_modified": "2026-03-30T15:25:53.000",
    "request_status": "Pending",
    "responsible_agency": "Department of Parks & Parkway",
    "final_address": "2844 Magazine St",
    "address_councildis": "B",
    "status": "Pending",
    "rowid": "1269784",
    "final_x": "3676804.04129",
    "final_y": "520547.0142",
    "longitude": "-90.08327648062173",
    "latitude": "29.925465333362045",
    "geocoded_column": {
      "latitude": "29.925465333362045",
      "longitude": "-90.08327648062173"
    }
  },
  {
    "service_request": "2026-1269783",
    "request_type": "Drainage",
    "request_reason": "Catch Basin Not Draining",
    "date_created": "2026-03-30T15:18:12.000",
    "date_modified": "2026-03-30T15:18:14.000",
    "request_status": "Pending",
    "responsible_agency": "Sewerage & Water Board",
    "final_address": "2734 S Carrollton Ave",
    "address_councildis": "A",
    "status": "Pending",
    "rowid": "1269783",
    "final_x": "3665768.62656",
    "final_y": "532573.619396",
    "longitude": "-90.11770923821021",
    "latitude": "29.958861058092825",
    "geocoded_column": {
      "latitude": "29.958861058092825",
      "longitude": "-90.11770923821021"
    }
  },
  {
    "service_request": "2026-1269782",
    "request_type": "Safety & Permits",
    "request_reason": "Zoning Enforcement",
    "date_created": "2026-03-30T15:17:57.000",
    "date_modified": "2026-03-30T15:17:58.000",
    "request_status": "Pending",
    "responsible_agency": "Safety and Permits",
    "final_address": "4511 Knight Dr",
    "address_councildis": "E",
    "status": "Pending",
    "rowid": "1269782",
    "final_x": "3708346.486",
    "final_y": "554159.302232",
    "longitude": "-89.98245677715242",
    "latitude": "30.016902858339122",
    "geocoded_column": {
      "latitude": "30.016902858339122",
      "longitude": "-89.98245677715242"
    }
  },
  {
    "service_request": "2026-1269781",
    "request_type": "Healthy Homes",
    "request_reason": "Healthy Homes",
    "date_created": "2026-03-30T15:17:37.000",
    "date_modified": "2026-03-30T15:17:39.000",
    "request_status": "Pending",
    "responsible_agency": "Department of Code Enforcement",
    "final_address": "2216 Amelia St",
    "address_councildis": "B",
    "status": "Pending",
    "rowid": "1269781",
    "final_x": "3672517.77319",
    "final_y": "523397.130299",
    "longitude": "-90.096709829775",
    "latitude": "29.93343011699422",
    "geocoded_column": {
      "latitude": "29.93343011699422",
      "longitude": "-90.096709829775"
    }
  },
  {
    "service_request": "2026-1269780",
    "request_type": "Trash/Recycling",
    "request_reason": "Illegal Dumping",
    "date_created": "2026-03-30T15:15:17.000",
    "date_modified": "2026-03-30T15:15:20.000",
    "request_status": "Pending",
    "responsible_agency": "Department of Sanitation",
    "final_address": "2121 Alvar St",
    "address_councildis": "D",
    "status": "Pending",
    "rowid": "1269780",
    "final_x": "3692504.4072",
    "final_y": "539296.023178",
    "longitude": "-90.03304387398722",
    "latitude": "29.976538297992548",
    "geocoded_column": {
      "latitude": "29.976538297992548",
      "longitude": "-90.03304387398722"
    }
  },
  {
    "service_request": "2026-1269779",
    "request_type": "Drainage",
    "request_reason": "Catch Basin Not Draining",
    "date_created": "2026-03-30T15:14:04.000",
    "date_modified": "2026-03-30T15:14:09.000",
    "request_status": "Pending",
    "responsible_agency": "Sewerage & Water Board",
    "final_address": "400 Chartres St",
    "address_councildis": "C",
    "status": "Pending",
    "rowid": "1269779",
    "final_x": "3682207.49794",
    "final_y": "531375.162242",
    "longitude": "-90.06584135886212",
    "latitude": "29.95507592785548",
    "geocoded_column": {
      "latitude": "29.95507592785548",
      "longitude": "-90.06584135886212"
    }
  },
  {
    "service_request": "2026-1269778",
    "request_type": "Trash/Recycling",
    "request_reason": "Request a Large Item Pick Up",
    "date_created": "2026-03-30T15:13:23.000",
    "date_modified": "2026-03-30T15:13:25.000",
    "request_status": "Pending",
    "responsible_agency": "Department of Sanitation",
    "final_address": "9901 E Rockton Cir",
    "address_councildis": "E",
    "status": "Assigned to Contractor",
    "contractor": "Waste Pro",
    "rowid": "1269778",
    "final_x": "3708751.20548",
    "final_y": "562966.307232",
    "longitude": "-89.98084959726441",
    "latitude": "30.041105533761176",
    "geocoded_column": {
      "latitude": "30.041105533761176",
      "longitude": "-89.98084959726441"
    }
  },
  {
    "service_request": "2026-1269777",
    "request_type": "Drainage",
    "request_reason": "Catch Basin Not Draining",
    "date_created": "2026-03-30T15:13:20.000",
    "date_modified": "2026-03-30T15:13:22.000",
    "request_status": "Pending",
    "responsible_agency": "Sewerage & Water Board",
    "final_address": "1204 Race St",
    "address_councildis": "B",
    "status": "Pending",
    "rowid": "1269777",
    "final_x": "3679673.1748",
    "final_y": "523922.88742",
    "longitude": "-90.07410240552706",
    "latitude": "29.93466149822084",
    "geocoded_column": {
      "latitude": "29.93466149822084",
      "longitude": "-90.07410240552706"
    }
  },
  {
    "service_request": "2026-1269776",
    "request_type": "Traffic Signals",
    "request_reason": "Traffic Signal Malfunctioning or Damaged",
    "date_created": "2026-03-30T15:07:35.000",
    "date_modified": "2026-03-30T15:07:37.000",
    "request_status": "Pending",
    "responsible_agency": "Department of Public Works",
    "final_address": "WASHINGTON AVE & S BROAD ST",
    "address_councildis": "B",
    "status": "Pending",
    "rowid": "1269776",
    "final_x": "3671132.4",
    "final_y": "529731.88",
    "longitude": "-90.10086827971178",
    "latitude": "29.95088965529137",
    "geocoded_column": {
      "latitude": "29.95088965529137",
      "longitude": "-90.10086827971178"
    }
  },
  {
    "service_request": "2026-1269775",
    "request_type": "Traffic Signals",
    "request_reason": "Traffic Signal Malfunctioning or Damaged",
    "date_created": "2026-03-30T15:04:48.000",
    "date_modified": "2026-03-30T15:04:50.000",
    "request_status": "Pending",
    "responsible_agency": "Department of Public Works",
    "final_address": "CANAL ST & S BROAD ST & N BROAD ST",
    "address_councildis": "B",
    "status": "Pending",
    "rowid": "1269775",
    "final_x": "3675348.3",
    "final_y": "535171.68",
    "longitude": "-90.08736981491973",
    "latitude": "29.965721922519283",
    "geocoded_column": {
      "latitude": "29.965721922519283",
      "longitude": "-90.08736981491973"
    }
  },