[
  {
    "service_request": "2024-1080131",
    "request_type": "Trash/Recycling",
    "request_reason": "Replace Trash Cart",
    "date_created": "2024-03-31T23:24:46.000",
    "date_modified": "2024-03-31T23:24:46.000",
    "request_status": "Pending",
    "responsible_agency": "Department of Sanitation",
    "final_address": "4215 Dryades St",
    "address_councildis": "B",
    "status": "Assigned to Contractor",
    "contractor": "IV Waste",
    "rowid": "1080131",
    "final_x": "3671356.26356",
    "final_y": "522050.464442",
    "longitude": "-90.10042240082073",
    "latitude": "29.929761636221155",
    "geocoded_column": {
      "latitude": "29.929761636221155",
      "longitude": "-90.10042240082073"
    }
  },
  {
    "service_request": "2024-1080130",
    "request_type": "Parks & Parkways",
    "request_reason": "Request Tree Service (Right of Way/Public Property)",
    "date_created": "2024-03-31T23:12:15.000",
    "date_modified": "2024-03-31T23:12:15.000",
    "request_status": "Pending",
    "responsible_agency": "Department of Parks & Parkway",
    "final_address": "1709 Pine St",
    "address_councildis": "A",
    "status": "Pending",
    "rowid": "1080130",
    "final_x": "3664975.94752",
    "final_y": "528159.085247",
    "longitude": "-90.12035989541937",
    "latitude": "29.946745621420728",
    "geocoded_column": {
      "latitude": "29.946745621420728",
      "longitude": "-90.12035989541937"
    }
  },
  {
    "service_request": "2024-1080129",
    "request_type": "Roads/Drainage",
    "request_reason": "Pothole",
    "date_created": "2024-03-31T22:55:35.000",
    "date_modified": "2024-03-31T22:55:35.000",
    "request_status": "Pending",
    "responsible_agency": "Department of Public Works",
    "final_address": "1122 Aline St",
    "address_councildis": "B",
    "status": "Pending",
    "rowid": "1080129",
    "final_x": "3674288.77825",
    "final_y": "519514.088503",
    "longitude": "-90.09125174299426",
    "latitude": "29.92270033208624",
    "geocoded_column": {
      "latitude": "29.92270033208624",
      "longitude": "-90.09125174299426"
    }
  },
  {
    "service_request": "2024-1080128",
    "request_type": "Trash/Recycling",
    "request_reason": "Repair Trash Cart",
    "date_created": "2024-03-31T22:25:00.000",
    "date_modified": "2024-03-31T22:25:01.000",
    "request_status": "Pending",
    "responsible_agency": "Department of Sanitation",
    "final_address": "3048 St Ann St",
    "address_councildis": "A",
    "status": "Assigned to Contractor",
    "contractor": "IV Waste",
    "rowid": "1080128",
    "final_x": "3675567.16571",
    "final_y": "538205.670473",
    "longitude": "-90.08657439334428",
    "latitude": "29.974057819767097",
    "geocoded_column": {
      "latitude": "29.974057819767097",
      "longitude": "-90.08657439334428"
    }
  },
  {
    "service_request": "2024-1080127",
    "request_type": "Trash/Recycling",
    "request_reason": "Request a Large Item Pick Up",
    "date_created": "2024-03-31T22:23:24.000",
    "date_modified": "2024-03-31T22:23:24.000",
    "request_status": "Pending",
    "responsible_agency": "Department of Sanitation",
    "final_address": "4225 Laurel St",
    "address_councildis": "B",
    "status": "Assigned to Contractor",
    "contractor": "IV Waste",
    "rowid": "1080127",
    "final_x": "3671660.22177",
    "final_y": "518144.854198",
    "longitude": "-90.09959560672687",
    "latitude": "29.91901345920342",
    "geocoded_column": {
      "latitude": "29.91901345920342",
      "longitude": "-90.09959560672687"
    }
  },
  {
    "service_request": "2024-1080126",
    "request_type": "Trash/Recycling",
    "request_reason": "Replace Trash Cart",
    "date_created": "2024-03-31T22:09:25.000",
    "date_modified": "2024-03-31T22:09:25.000",
    "request_status": "Pending",
    "responsible_agency": "Department of Sanitation",
    "final_address": "2220 Palmer Ave",
    "address_councildis": "A",
    "status": "Assigned to Contractor",
    "contractor": "IV Waste",
    "rowid": "1080126",
    "final_x": "3666069.24071",
    "final_y": "525106.214397",
    "longitude": "-90.11701027783295",
    "latitude": "29.93831933962598",
    "geocoded_column": {
      "latitude": "29.93831933962598",
      "longitude": "-90.11701027783295"
    }
  },
  {
    "service_request": "2024-1080125",
    "request_type": "Trash/Recycling",
    "request_reason": "Replace Recycling Cart",
    "date_created": "2024-03-31T21:59:11.000",
    "date_modified": "2024-03-31T21:59:11.000",
    "request_status": "Pending",
    "responsible_agency": "Department of Sanitation",
    "final_address": "1201 Riviera Ave",
    "address_councildis": "D",
    "status": "Pending",
    "rowid": "1080125",
    "final_x": "3676821.97435",
    "final_y": "550909.154965",
    "longitude": "-90.0821733380724",
    "latitude": "30.008950360000725",
    "geocoded_column": {
      "latitude": "30.008950360000725",
      "longitude": "-90.0821733380724"
    }
  },
  {
    "service_request": "2024-1080124",
    "request_type": "Trash/Recycling",
    "request_reason": "Replace Trash Cart",
    "date_created": "2024-03-31T21:56:21.000",
    "date_modified": "2024-03-31T21:56:22.000",
    "request_status": "Pending",
    "responsible_agency": "Department of Sanitation",
    "final_address": "1201 Riviera Ave",
    "address_councildis": "D",
    "status": "Assigned to Contractor",
    "contractor": "IV Waste",
    "rowid": "1080124",
    "final_x": "3676821.97435",
    "final_y": "550909.154965",
    "longitude": "-90.0821733380724",
    "latitude": "30.008950360000725",
    "geocoded_column": {
      "latitude": "30.008950360000725",
      "longitude": "-90.0821733380724"
    }
  },
  {
    "service_request": "2024-1080123",
    "request_type": "Abandoned Vehicles",
    "request_reason": "Vehicle Blocking Your Driveway",
    "date_created": "2024-03-31T21:52:52.000",
    "date_modified": "2024-03-31T21:52:52.000",
    "request_status": "Pending",
    "responsible_agency": "Department of Public Works",
    "final_address": "918 Toulouse St",
    "address_councildis": "C",
    "status": "Pending",
    "rowid": "1080123",
    "final_x": "3681582.51151",
    "final_y": "532676.792708",
    "longitude": "-90.06776943618952",
    "latitude": "29.95867396420865",
    "geocoded_column": {
      "latitude": "29.95867396420865",
      "longitude": "-90.06776943618952"
    }
  },
  {
    "service_request": "2024-1080122",
    "request_type": "Trash/Recycling",
    "request_reason": "Order Recycling Cart",
    "date_created": "2024-03-31T21:46:10.000",
    "date_modified": "2024-03-31T21:46:10.000",
    "request_status": "Pending",
    "responsible_agency": "Department of Sanitation",
    "final_address": "2641 Governor Nicholls St",
    "address_councildis": "D",
    "status": "Pending",
    "rowid": "1080122",
    "final_x": "3678049.30293",
    "final_y": "538378.458249",
    "longitude": "-90.07872926196316",
    "latitude": "29.97445843203254",
    "geocoded_column": {
      "latitude": "29.97445843203254",
      "longitude": "-90.07872926196316"
    }
  },
  {
    "service_request": "2024-1080121",
    "request_type": "Traffic Signals/Signs/Striping/Streetlights",
    "request_reason": "Traffic Signal Malfunctioning/Damaged",
    "date_created": "2024-03-31T21:45:37.000",
    "date_modified": "2024-03-31T21:45:37.000",
    "request_status": "Pending",
    "responsible_agency": "Department of Public Works",
    "final_address": "Camp Street & Pontchartrain Expressway",
    "address_councildis": "B",
    "status": "Pending",
    "rowid": "1080121",
    "final_x": "3680400.11471",
    "final_y": "526346.816446",
    "longitude": "-90.0717232165824",
    "latitude": "29.941304512830204",
    "geocoded_column": {
      "latitude": "29.941304512830204",
      "longitude": "-90.0717232165824"
    }
  },
  {
    "service_request": "2024-1080120",
    "request_type": "Abandoned Vehicles",
    "request_reason": "Abandoned/Junk Vehicles",
    "date_created": "2024-03-31T21:38:02.000",
    "date_modified": "2024-03-31T21:38:02.000",
    "request_status": "Pending",
    "responsible_agency": "Department of Public Works",
    "final_address": "712 N Dupre St",
    "address_councildis": "A",
    "status": "Pending",
    "rowid": "1080120",
    "final_x": "3676046.92341",
    "final_y": "537479.685",
    "longitude": "-90.08508418549205",
    "latitude": "29.972047245317654",
    "geocoded_column": {
      "latitude": "29.972047245317654",
      "longitude": "-90.08508418549205"
    }
  },
  {
    "service_request": "2024-1080119",
    "request_type": "Property Maintenance",
    "request_reason": "Property Maintenance",
    "date_created": "2024-03-31T21:06:46.000",
    "date_modified": "2024-03-31T21:06:46.000",
    "request_status": "Pending",
    "responsible_agency": "Department of Code Enforcement",
    "final_address": "2614 St Claude Ave",
    "address_councildis": "C",
    "status": "Pending",
    "rowid": "1080119",
    "final_x": "3687260.29174",
    "final_y": "536391.462983",
    "longitude": "-90.04970911962272",
    "latitude": "29.968714364924857",
    "geocoded_column": {
      "latitude": "29.968714364924857",
      "longitude": "-90.04970911962272"
    }
  },
  {
    "service_request": "2024-1080118",
    "request_type": "Property Maintenance",
    "request_reason": "Property Maintenance",
    "date_created": "2024-03-31T20:59:01.000",
    "date_modified": "2024-03-31T20:59:01.000",
    "request_status": "Pending",
    "responsible_agency": "Department of Code Enforcement",
    "final_address": "2614 St Claude Ave",
    "address_councildis": "C",
    "status": "Pending",
    "rowid": "1080118",
    "final_x": "3687260.29174",
    "final_y": "536391.462983",
    "longitude": "-90.04970911962272",
    "latitude": "29.968714364924857",
    "geocoded_column": {
      "latitude": "29.968714364924857",
      "longitude": "-90.04970911962272"
    }
  },
  {
    "service_request": "2024-1080117",
    "request_type": "Traffic Signals/Signs/Striping/Streetlights",
    "request_reason": "Street Light Outage/Malfunction",
    "date_created": "2024-03-31T20:42:38.000",
    "date_modified": "2024-03-31T20:42:39.000",
    "request_status": "Pending",
    "responsible_agency": "Department of Public Works",
    "final_address": "6800 BLK Louis XIV St",
    "address_councildis": "A",
    "status": "Assigned to Contractor",
    "contractor": "Legacy Professional Services",
    "rowid": "1080117",
    "final_x": "3668600.30154",
    "final_y": "553039.458341",
    "longitude": "-90.10807644778959",
    "latitude": "30.015052228614305",
    "geocoded_column": {
      "latitude": "30.015052228614305",
      "longitude": "-90.10807644778959"
    }
  },
  {
    "service_request": "2024-1080116",
    "request_type": "Trash/Recycling",
    "request_reason": "Replace Trash Cart",
    "date_created": "2024-03-31T20:41:07.000",
    "date_modified": "2024-03-31T20:41:07.000",
    "request_status": "Pending",
    "responsible_agency": "Department of Sanitation",
    "final_address": "1713 Lowerline St",
    "address_councildis": "A",
    "status": "Assigned to Contractor",
    "contractor": "IV Waste",
    "rowid": "1080116",
    "final_x": "3664796.88231",
    "final_y": "528359.202496",
    "longitude": "-90.12091858617546",
    "latitude": "29.94730109034079",
    "geocoded_column": {
      "latitude": "29.94730109034079",
      "longitude": "-90.12091858617546"
    }
  },
  {
    "service_request": "2024-1080115",
    "request_type": "Traffic Signals/Signs/Striping/Streetlights",
    "request_reason": "Street Light Outage/Malfunction",
    "date_created": "2024-03-31T20:39:43.000",
    "date_modified": "2024-03-31T20:39:44.000",
    "request_status": "Pending",
    "responsible_agency": "Department of Public Works",
    "final_address": "6700 BLK Louis XIV St",
    "address_councildis": "A",
    "status": "Assigned to Contractor",
    "contractor": "Legacy Professional Services",
    "rowid": "1080115",
    "final_x": "3668540.27771",
    "final_y": "552382.695547",
    "longitude": "-90.10828828018127",
    "latitude": "30.01324812701911",
    "geocoded_column": {
      "latitude": "30.01324812701911",
      "longitude": "-90.10828828018127"
    }
  },
  {
    "service_request": "2024-1080114",
    "request_type": "Traffic Signals/Signs/Striping/Streetlights",
    "request_reason": "Street Light Outage/Malfunction",
    "date_created": "2024-03-31T20:36:14.000",
    "date_modified": "2024-03-31T20:36:14.000",
    "request_status": "Pending",
    "responsible_agency": "Department of Public Works",
    "final_address": "6700 BLK General Diaz St",
    "address_councildis": "A",
    "status": "Assigned to Contractor",
    "contractor": "Legacy Professional Services",
    "rowid": "1080114",
    "final_x": "3669966.76108",
    "final_y": "552250.717137",
    "longitude": "-90.10378581313434",
    "latitude": "30.012843221406477",
    "geocoded_column": {
      "latitude": "30.012843221406477",
      "longitude": "-90.10378581313434"
    }
  },
  {
    "service_request": "2024-1080113",
    "request_type": "Trash/Recycling",
    "request_reason": "Request a Large Item Pick Up",
    "date_created": "2024-03-31T20:31:38.000",
    "date_modified": "2024-03-31T20:31:39.000",
    "request_status": "Pending",
    "responsible_agency": "Department of Sanitation",
    "final_address": "New Orleans,LA",
    "status": "Assigned to Contractor",
    "rowid": "1080113",
    "longitude": "0.0",
    "latitude": "0.0",
    "geocoded_column": {
      "latitude": "0.0",
      "longitude": "0.0"
    }
  },
  {
    "service_request": "2024-1080112",
    "request_type": "Traffic Signals/Signs/Striping/Streetlights",
    "request_reason": "Street Light Outage/Malfunction",
    "date_created": "2024-03-31T20:20:13.000",
    "date_modified": "2024-03-31T20:20:14.000",
    "request_status": "Pending",
    "responsible_agency": "Department of Public Works",
    "final_address": "3901 Lennox Blvd",
    "address_councildis": "C",
    "status": "Assigned to Contractor",
    "contractor": "Legacy Professional Services",
    "rowid": "1080112",
    "final_x": "3700462.86903",
    "final_y": "516755.943669",
    "longitude": "-90.008731724283",
    "latitude": "29.914310278009882",
    "geocoded_column": {
      "latitude": "29.914310278009882",
      "longitude": "-90.008731724283"
    }
  },
  {
    "service_request": "2024-1080111",
    "request_type": "Traffic Signals/Signs/Striping/Streetlights",
    "request_reason": "Street Light Outage/Malfunction",
    "date_created": "2024-03-31T20:18:04.000",
    "date_modified": "2024-03-31T20:18:05.000",
    "request_status": "Pending",
    "responsible_agency": "Department of Public Works",
    "final_address": "75 Yosemite Dr",
    "address_councildis": "C",
    "status": "Assigned to Contractor",
    "contractor": "Legacy Professional Services",
    "rowid": "1080111",
    "final_x": "3699425.82429",
    "final_y": "516242.623604",
    "longitude": "-90.01202364995252",
    "latitude": "29.912931745137346",
    "geocoded_column": {
      "latitude": "29.912931745137346",
      "longitude": "-90.01202364995252"
    }
  },
  {
    "service_request": "2024-1080110",
    "request_type": "Traffic Signals/Signs/Striping/Streetlights",
    "request_reason": "Street Light Outage/Malfunction",
    "date_created": "2024-03-31T20:15:19.000",
    "date_modified": "2024-03-31T20:15:20.000",
    "request_status": "Pending",
    "responsible_agency": "Department of Public Works",
    "final_address": "4 Yellowstone Ct",
    "address_councildis": "C",
    "status": "Assigned to Contractor",
    "contractor": "Legacy Professional Services",
    "rowid": "1080110",
    "final_x": "3699611.0938",
    "final_y": "518190.456822",
    "longitude": "-90.01136795961361",
    "latitude": "29.918281748598012",
    "geocoded_column": {
      "latitude": "29.918281748598012",
      "longitude": "-90.01136795961361"
    }
  },
  {
    "service_request": "2024-1080109",
    "request_type": "Trash/Recycling",
    "request_reason": "Request a Large Item Pick Up",
    "date_created": "2024-03-31T19:47:55.000",
    "date_modified": "2024-03-31T19:47:55.000",
    "request_status": "Pending",
    "responsible_agency": "Department of Sanitation",
    "final_address": "918 Elmira Ave",
    "address_councildis": "C",
    "status": "Assigned to Contractor",
    "contractor": "Richards Disposal",
    "rowid": "1080109",
    "final_x": "3688170.77916",
    "final_y": "528156.80544",
    "longitude": "-90.04712566734109",
    "latitude": "29.94604382421929",
    "geocoded_column": {
      "latitude": "29.94604382421929",
      "longitude": "-90.04712566734109"
    }
  },
  {
    "service_request": "2024-1080108",
    "request_type": "Roads/Drainage",
    "request_reason": "Catch Basin - Broken/Damage",
    "date_created": "2024-03-31T19:45:00.000",
    "date_modified": "2024-03-31T19:45:00.000",
    "request_status": "Pending",
    "responsible_agency": "Department of Public Works",
    "final_address": "1026 Cadiz St",
    "address_councildis": "B",
    "status": "Pending",
    "rowid": "1080108",
    "final_x": "3670211.66036",
    "final_y": "519290.557623",
    "longitude": "-90.10412918774753",
    "latitude": "29.92220658724318",
    "geocoded_column": {
      "latitude": "29.92220658724318",
      "longitude": "-90.10412918774753"
    }
  },
  {
    "service_request": "2024-1080107",
    "request_type": "Property Maintenance",
    "request_reason": "Property Maintenance",
    "date_created": "2024-03-31T19:17:53.000",
    "date_modified": "2024-03-31T19:17:53.000",
    "request_status": "Pending",
    "responsible_agency": "Department of Code Enforcement",
    "final_address": "1523 N Roman St",
    "address_councildis": "D",
    "status": "Pending",
    "rowid": "1080107",
    "final_x": "3681260.3533",
    "final_y": "537810.934664",
    "longitude": "-90.06860778388139",
    "latitude": "29.972800874185157",
    "geocoded_column": {
      "latitude": "29.972800874185157",
      "longitude": "-90.06860778388139"
    }
  },
  {
    "service_request": "2024-1080106",
    "request_type": "Trash/Recycling",
    "request_reason": "Illegal Dumping",
    "date_created": "2024-03-31T19:02:02.000",
    "date_modified": "2024-03-31T19:02:02.000",
    "request_status": "Pending",
    "responsible_agency": "Department of Sanitation",
    "final_address": "434 Whitney Ave",
    "address_councildis": "C",
    "status": "Pending",
    "rowid": "1080106",
    "final_x": "3690336.95139",
    "final_y": "529932.415425",
    "longitude": "-90.04022307924146",
    "latitude": "29.950859104408163",
    "geocoded_column": {
      "latitude": "29.950859104408163",
      "longitude": "-90.04022307924146"
    }
  },
  {
    "service_request": "2024-1080105",
    "request_type": "Trash/Recycling",
    "request_reason": "Illegal Dumping",
    "date_created": "2024-03-31T18:55:42.000",
    "date_modified": "2024-03-31T18:55:42.000",
    "request_status": "Pending",
    "responsible_agency": "Department of Sanitation",
    "final_address": "1300 BLK Pelican Ave",
    "address_councildis": "C",
    "status": "Pending",
    "rowid": "1080105",
    "final_x": "3689722.64414",
    "final_y": "530689.918723",
    "longitude": "-90.042135791699",
    "latitude": "29.952961025437528",
    "geocoded_column": {
      "latitude": "29.952961025437528",
      "longitude": "-90.042135791699"
    }
  },
  {
    "service_request": "2024-1080104",
    "request_type": "Trash/Recycling",
    "request_reason": "Request a Large Item Pick Up",
    "date_created": "2024-03-31T18:49:04.000",
    "date_modified": "2024-03-31T18:49:04.000",
    "request_status": "Pending",
    "responsible_agency": "Department of Sanitation",
    "final_address": "4316 Perrier St",
    "address_councildis": "B",
    "status": "Assigned to Contractor",
    "contractor": "IV Waste",
    "rowid": "1080104",
    "final_x": "3671168.22542",
    "final_y": "520055.252792",
    "longitude": "-90.10108374112265",
    "latitude": "29.92428100460743",
    "geocoded_column": {
      "latitude": "29.92428100460743",
      "longitude": "-90.10108374112265"
    }
  },
  {
    "service_request": "2024-1080103",
    "request_type": "Roads/Drainage",
    "request_reason": "Pothole",
    "date_created": "2024-03-31T18:46:26.000",
    "date_modified": "2024-03-31T18:46:26.000",
    "request_status": "Pending",
    "responsible_agency": "Department of Public Works",
    "final_address": "1301 Constantinople St",
    "address_councildis": "B",
    "status": "Pending",
    "rowid": "1080103",
    "final_x": "3672430.66305",
    "final_y": "520250.7726",
    "longitude": "-90.09709199725775",
    "latitude": "29.924781230435865",
    "geocoded_column": {
      "latitude": "29.924781230435865",
      "longitude": "-90.09709199725775"
    }
  },
  {
    "service_request": "2024-1080102",
    "request_type": "Roads/Drainage",
    "request_reason": "Pothole",
    "date_created": "2024-03-31T18:45:05.000",
    "date_modified": "2024-03-31T18:45:05.000",
    "request_status": "Pending",
    "responsible_agency": "Department of Public Works",
    "final_address": "6031 Perrier St",
    "address_councildis": "A",
    "status": "Pending",
    "rowid": "1080102",
    "final_x": "3664876.20525",
    "final_y": "520636.762041",
    "longitude": "-90.1209261245309",
    "latitude": "29.92606452997952",
    "geocoded_column": {
      "latitude": "29.92606452997952",
      "longitude": "-90.1209261245309"
    }
  },
  {
    "service_request": "2024-1080101",
    "request_type": "Trash/Recycling",
    "request_reason": "Request a Large Item Pick Up",
    "date_created": "2024-03-31T18:17:10.000",
    "date_modified": "2024-03-31T18:17:11.000",
    "request_status": "Pending",
    "responsible_agency": "Department of Sanitation",
    "final_address": "3717 Tall Pines Dr",
    "address_councildis": "C",
    "status": "Assigned to Contractor",
    "contractor": "Richards Disposal",
    "rowid": "1080101",
    "final_x": "3703745.78775",
    "final_y": "513474.531634",
    "longitude": "-89.9984904606439",
    "latitude": "29.905182755148758",
    "geocoded_column": {
      "latitude": "29.905182755148758",
      "longitude": "-89.9984904606439"
    }
  },
  {
    "service_request": "2024-1080100",
    "request_type": "Roads/Drainage",
    "request_reason": "Pothole",
    "date_created": "2024-03-31T18:10:50.000",
    "date_modified": "2024-03-31T18:10:50.000",
    "request_status": "Pending",
    "responsible_agency": "Department of Public Works",
    "final_address": "1436 Nashville Ave",
    "address_councildis": "A",
    "status": "Pending",
    "rowid": "1080100",
    "final_x": "3665926.99981",
    "final_y": "521249.450873",
    "longitude": "-90.11758853810002",
    "latitude": "29.927718617023086",
    "geocoded_column": {
      "latitude": "29.927718617023086",
      "longitude": "-90.11758853810002"
    }
  },
  {
    "service_request": "2024-1080099",
    "request_type": "Property Maintenance",
    "request_reason": "Property Maintenance",
    "date_created": "2024-03-31T17:56:18.000",
    "date_modified": "2024-03-31T17:56:18.000",
    "request_status": "Pending",
    "responsible_agency": "Department of Code Enforcement",
    "final_address": "6301 Argonne Blvd",
    "address_councildis": "A",
    "status": "Pending",
    "rowid": "1080099",
    "final_x": "3670460.02062",
    "final_y": "549244.730771",
    "longitude": "-90.10232940912792",
    "latitude": "30.0045632527301",
    "geocoded_column": {
      "latitude": "30.0045632527301",
      "longitude": "-90.10232940912792"
    }
  },
  {
    "service_request": "2024-1080098",
    "request_type": "Trash/Recycling",
    "request_reason": "Replace Trash Cart",
    "date_created": "2024-03-31T17:43:58.000",
    "date_modified": "2024-03-31T17:43:59.000",
    "request_status": "Pending",
    "responsible_agency": "Department of Sanitation",
    "final_address": "1713 Lesseps St",
    "address_councildis": "D",
    "status": "Assigned to Contractor",
    "contractor": "IV Waste",
    "rowid": "1080098",
    "final_x": "3693326.01776",
    "final_y": "537442.952392",
    "longitude": "-90.03051553123363",
    "latitude": "29.971417351549963",
    "geocoded_column": {
      "latitude": "29.971417351549963",
      "longitude": "-90.03051553123363"
    }
  },
  {
    "service_request": "2024-1080097",
    "request_type": "Parks & Parkways",
    "request_reason": "Request Tree Service (Right of Way/Public Property)",
    "date_created": "2024-03-31T17:26:40.000",
    "date_modified": "2024-03-31T17:26:40.000",
    "request_status": "Pending",
    "responsible_agency": "Department of Parks & Parkway",
    "final_address": "3316 Elysian Fields Ave",
    "address_councildis": "D",
    "status": "Pending",
    "rowid": "1080097",
    "final_x": "3684175.51484",
    "final_y": "544927.151247",
    "longitude": "-90.05915125506478",
    "latitude": "29.992279169426656",
    "geocoded_column": {
      "latitude": "29.992279169426656",
      "longitude": "-90.05915125506478"
    }
  },
  {
    "service_request": "2024-1080096",
    "request_type": "Parks & Parkways",
    "request_reason": "Request Tree Service (Right of Way/Public Property)",
    "date_created": "2024-03-31T17:25:06.000",
    "date_modified": "2024-03-31T17:25:06.000",
    "request_status": "Pending",
    "responsible_agency": "Department of Parks & Parkway",
    "final_address": "2112 Mirabeau Ave",
    "address_councildis": "D",
    "status": "Pending",
    "rowid": "1080096",
    "final_x": "3683235.42773",
    "final_y": "550563.494676",
    "longitude": "-90.06192325045829",
    "latitude": "30.00780580430185",
    "geocoded_column": {
      "latitude": "30.00780580430185",
      "longitude": "-90.06192325045829"
    }
  },
  {
    "service_request": "2024-1080095",
    "request_type": "Property Maintenance",
    "request_reason": "Property Maintenance",
    "date_created": "2024-03-31T17:15:47.000",
    "date_modified": "2024-03-31T17:15:47.000",
    "request_status": "Pending",
    "responsible_agency": "Department of Code Enforcement",
    "final_address": "3318 Elysian Fields Ave",
    "address_councildis": "D",
    "status": "Pending",
    "rowid": "1080095",
    "final_x": "3684172.00476",
    "final_y": "544978.909263",
    "longitude": "-90.05916052465984",
    "latitude": "29.992421592868304",
    "geocoded_column": {
      "latitude": "29.992421592868304",
      "longitude": "-90.05916052465984"
    }
  },
  {
    "service_request": "2024-1080094",
    "request_type": "Property Maintenance",
    "request_reason": "Property Maintenance",
    "date_created": "2024-03-31T17:13:47.000",
    "date_modified": "2024-03-31T17:13:47.000",
    "request_status": "Pending",
    "responsible_agency": "Department of Code Enforcement",
    "final_address": "2100 BLK Mirabeau Ave",
    "address_councildis": "D",
    "status": "Pending",
    "rowid": "1080094",
    "final_x": "3683255.1095",
    "final_y": "550631.018604",
    "longitude": "-90.06185870281863",
    "latitude": "30.007990870175266",
    "geocoded_column": {
      "latitude": "30.007990870175266",
      "longitude": "-90.06185870281863"
    }
  },
  {
    "service_request": "2024-1080093",
    "request_type": "Trash/Recycling",
    "request_reason": "Request a Large Item Pick Up",
    "date_created": "2024-03-31T17:09:22.000",
    "date_modified": "2024-03-31T17:09:22.000",
    "request_status": "Pending",
    "responsible_agency": "Department of Sanitation",
    "final_address": "6939 Pinebrook Dr",
    "address_councildis": "E",
    "status": "Assigned to Contractor",
    "rowid": "1080093",
    "final_x": "3720061.10866",
    "final_y": "569277.898534",
    "longitude": "-89.94486509450095",
    "latitude": "30.058087893279666",
    "geocoded_column": {
      "latitude": "30.058087893279666",
      "longitude": "-89.94486509450095"
    }
  },
  {
    "service_request": "2024-1080092",
    "request_type": "Roads/Drainage",
    "request_reason": "Pothole",
    "date_created": "2024-03-31T16:41:56.000",
    "date_modified": "2024-03-31T16:41:56.000",
    "request_status": "Pending",
    "responsible_agency": "Department of Public Works",
    "final_address": "1312 Milan St",
    "address_councildis": "B",
    "status": "Pending",
    "rowid": "1080092",
    "final_x": "3671625.82823",
    "final_y": "520286.919608",
    "longitude": "-90.09963137110304",
    "latitude": "29.92490447494246",
    "geocoded_column": {
      "latitude": "29.92490447494246",
      "longitude": "-90.09963137110304"
    }
  },
  {
    "service_request": "2024-1080091",
    "request_type": "Trash/Recycling",
    "request_reason": "Request a Large Item Pick Up",
    "date_created": "2024-03-31T16:31:26.000",
    "date_modified": "2024-03-31T16:31:26.000",
    "request_status": "Pending",
    "responsible_agency": "Department of Sanitation",
    "final_address": "1514 Gallier St",
    "address_councildis": "D",
    "status": "Assigned to Contractor",
    "contractor": "IV Waste",
    "rowid": "1080091",
    "final_x": "3690811.65404",
    "final_y": "537265.12052",
    "longitude": "-90.03846257167017",
    "latitude": "29.97100674491652",
    "geocoded_column": {
      "latitude": "29.97100674491652",
      "longitude": "-90.03846257167017"
    }
  },
  {
    "service_request": "2024-1080090",
    "request_type": "Roads/Drainage",
    "request_reason": "WaterMain Break",
    "date_created": "2024-03-31T16:28:28.000",
    "date_modified": "2024-03-31T16:28:28.000",
    "request_status": "Pending",
    "responsible_agency": "Department of Public Works",
    "final_address": "3808 Banks St",
    "address_councildis": "B",
    "status": "Pending",
    "rowid": "1080090",
    "final_x": "3671229.22638",
    "final_y": "536646.575623",
    "longitude": "-90.10032761029235",
    "latitude": "29.969899905112126",
    "geocoded_column": {
      "latitude": "29.969899905112126",
      "longitude": "-90.10032761029235"
    }
  },
  {
    "service_request": "2024-1080089",
    "request_type": "Traffic Signals/Signs/Striping/Streetlights",
    "request_reason": "Request for Traffic Calming due to Speeding",
    "date_created": "2024-03-31T16:17:58.000",
    "date_modified": "2024-03-31T16:17:58.000",
    "request_status": "Pending",
    "responsible_agency": "Department of Public Works",
    "final_address": "6940 Berkley Dr",
    "address_councildis": "C",
    "status": "Pending",
    "rowid": "1080089",
    "final_x": "3710301.00881",
    "final_y": "517923.337142",
    "longitude": "-89.9776359447792",
    "latitude": "29.91720381733256",
    "geocoded_column": {
      "latitude": "29.91720381733256",
      "longitude": "-89.9776359447792"
    }
  },
  {
    "service_request": "2024-1080088",
    "request_type": "Roads/Drainage",
    "request_reason": "Pothole",
    "date_created": "2024-03-31T16:11:59.000",
    "date_modified": "2024-03-31T16:11:59.000",
    "request_status": "Pending",
    "responsible_agency": "Department of Public Works",
    "final_address": "4216 Chestnut St",
    "address_councildis": "B",
    "status": "Pending",
    "rowid": "1080088",
    "final_x": "3671574.31393",
    "final_y": "519539.203703",
    "longitude": "-90.09981939416457",
    "latitude": "29.922850019854593",
    "geocoded_column": {
      "latitude": "29.922850019854593",
      "longitude": "-90.09981939416457"
    }
  },
  {
    "service_request": "2024-1080087",
    "request_type": "Trash/Recycling",
    "request_reason": "Request a Large Item Pick Up",
    "date_created": "2024-03-31T16:07:20.000",
    "date_modified": "2024-03-31T16:07:20.000",
    "request_status": "Pending",
    "responsible_agency": "Department of Sanitation",
    "final_address": "1506 Music St",
    "address_councildis": "C",
    "status": "Assigned to Contractor",
    "contractor": "IV Waste",
    "rowid": "1080087",
    "final_x": "3686690.11068",
    "final_y": "538016.473609",
    "longitude": "-90.05145236888673",
    "latitude": "29.973200127159824",
    "geocoded_column": {
      "latitude": "29.973200127159824",
      "longitude": "-90.05145236888673"
    }
  },
  {
    "service_request": "2024-1080086",
    "request_type": "Property Maintenance",
    "request_reason": "Property Maintenance",
    "date_created": "2024-03-31T15:52:58.000",
    "date_modified": "2024-03-31T15:52:58.000",
    "request_status": "Pending",
    "responsible_agency": "Department of Code Enforcement",
    "final_address": "3305 Touro St",
    "address_councildis": "D",
    "status": "Pending",
    "rowid": "1080086",
    "final_x": "3683587.85813",
    "final_y": "544785.842447",
    "longitude": "-90.06101250145049",
    "latitude": "29.99190857570357",
    "geocoded_column": {
      "latitude": "29.99190857570357",
      "longitude": "-90.06101250145049"
    }
  },
  {
    "service_request": "2024-1080085",
    "request_type": "Trash/Recycling",
    "request_reason": "Request a Large Item Pick Up",
    "date_created": "2024-03-31T15:30:28.000",
    "date_modified": "2024-03-31T15:30:28.000",
    "request_status": "Pending",
    "responsible_agency": "Department of Sanitation",
    "final_address": "7040 Queensway Dr",
    "address_councildis": "E",
    "status": "Assigned to Contractor",
    "rowid": "1080085",
    "final_x": "3719143.7742",
    "final_y": "569435.856358",
    "longitude": "-89.94775861293397",
    "latitude": "30.05855274367395",
    "geocoded_column": {
      "latitude": "30.05855274367395",
      "longitude": "-89.94775861293397"
    }
  },
  {
    "service_request": "2024-1080084",
    "request_type": "Trash/Recycling",
    "request_reason": "Return Trash Cart",
    "date_created": "2024-03-31T15:11:45.000",
    "date_modified": "2024-03-31T15:11:46.000",
    "request_status": "Pending",
    "responsible_agency": "Department of Sanitation",
    "final_address": "3600 S Saratoga St",
    "address_councildis": "B",
    "status": "Assigned to Contractor",
    "contractor": "IV Waste",
    "rowid": "1080084",
    "final_x": "3672888.29032",
    "final_y": "522914.286459",
    "longitude": "-90.09555659264849",
    "latitude": "29.932091452226246",
    "geocoded_column": {
      "latitude": "29.932091452226246",
      "longitude": "-90.09555659264849"
    }
  },
  {
    "service_request": "2024-1080083",
    "request_type": "Trash/Recycling",
    "request_reason": "Request a Large Item Pick Up",
    "date_created": "2024-03-31T14:56:39.000",
    "date_modified": "2024-03-31T14:56:39.000",
    "request_status": "Pending",
    "responsible_agency": "Department of Sanitation",
    "final_address": "5015 LaSalle St",
    "address_councildis": "B",
    "status": "Assigned to Contractor",
    "contractor": "IV Waste",
    "rowid": "1080083",
    "final_x": "3668668.30791",
    "final_y": "523606.462587",
    "longitude": "-90.10885534411386",
    "latitude": "29.934119386272908",
    "geocoded_column": {
      "latitude": "29.934119386272908",
      "longitude": "-90.10885534411386"
    }
  },
  {
    "service_request": "2024-1080082",
    "request_type": "Abandoned Vehicles",
    "request_reason": "Abandoned/Junk Vehicles",
    "date_created": "2024-03-31T14:54:32.000",
    "date_modified": "2024-03-31T14:54:32.000",
    "request_status": "Pending",
    "responsible_agency": "Department of Public Works",
    "final_address": "813 Burdette St",
    "address_councildis": "A",
    "status": "Pending",
    "rowid": "1080082",
    "final_x": "3662029.63091",
    "final_y": "526593.751678",
    "longitude": "-90.12971444950095",
    "latitude": "29.94252688520812",
    "geocoded_column": {
      "latitude": "29.94252688520812",
      "longitude": "-90.12971444950095"
    }
  },
  {
    "service_request": "2024-1080081",
    "request_type": "Trash/Recycling",
    "request_reason": "Missed Trash Pick-Up",
    "date_created": "2024-03-31T14:29:13.000",
    "date_modified": "2024-03-31T14:29:14.000",
    "request_status": "Pending",
    "responsible_agency": "Department of Sanitation",
    "final_address": "NEW",
    "address_councildis": "B",
    "status": "Assigned to Contractor",
    "contractor": "IV Waste",
    "rowid": "1080081",
    "final_x": "3672187.92769",
    "final_y": "534175.720965",
    "longitude": "-90.09738410181727",
    "latitude": "29.963077482958436",
    "geocoded_column": {
      "latitude": "29.963077482958436",
      "longitude": "-90.09738410181727"
    }
  },
  {
    "service_request": "2024-1080080",
    "request_type": "Trash/Recycling",
    "request_reason": "Repair Trash Cart",
    "date_created": "2024-03-31T14:00:43.000",
    "date_modified": "2024-03-31T14:00:44.000",
    "request_status": "Pending",
    "responsible_agency": "Department of Sanitation",
    "final_address": "5130 Pauline Dr",
    "address_councildis": "D",
    "status": "Assigned to Contractor",
    "contractor": "IV Waste",
    "rowid": "1080080",
    "final_x": "3692397.17571",
    "final_y": "553003.504407",
    "longitude": "-90.03289120695435",
    "latitude": "30.014232222693437",
    "geocoded_column": {
      "latitude": "30.014232222693437",
      "longitude": "-90.03289120695435"
    }
  },
  {
    "service_request": "2024-1080079",
    "request_type": "Trash/Recycling",
    "request_reason": "Repair Trash Cart",
    "date_created": "2024-03-31T13:58:15.000",
    "date_modified": "2024-03-31T13:58:15.000",
    "request_status": "Pending",
    "responsible_agency": "Department of Sanitation",
    "final_address": "5130 Pauline Dr",
    "address_councildis": "D",
    "status": "Assigned to Contractor",
    "contractor": "IV Waste",
    "rowid": "1080079",
    "final_x": "3692397.17571",
    "final_y": "553003.504407",
    "longitude": "-90.03289120695435",
    "latitude": "30.014232222693437",
    "geocoded_column": {
      "latitude": "30.014232222693437",
      "longitude": "-90.03289120695435"
    }
  },
  {
    "service_request": "2024-1080078",
    "request_type": "Trash/Recycling",
    "request_reason": "Request a Large Item Pick Up",
    "date_created": "2024-03-31T13:29:50.000",
    "date_modified": "2024-03-31T13:29:50.000",
    "request_status": "Pending",
    "responsible_agency": "Department of Sanitation",
    "final_address": "6120 Magnolia St",
    "address_councildis": "A",
    "status": "Assigned to Contractor",
    "contractor": "IV Waste",
    "rowid": "1080078",
    "final_x": "3666369.69044",
    "final_y": "525067.322173",
    "longitude": "-90.11606302982325",
    "latitude": "29.93820362548688",
    "geocoded_column": {
      "latitude": "29.93820362548688",
      "longitude": "-90.11606302982325"
    }
  },
  {
    "service_request": "2024-1080077",
    "request_type": "Abandoned Vehicles",
    "request_reason": "Abandoned/Junk Vehicles",
    "date_created": "2024-03-31T13:26:51.000",
    "date_modified": "2024-03-31T13:26:51.000",
    "request_status": "Pending",
    "responsible_agency": "Department of Public Works",
    "final_address": "4407 Hamilton St",
    "address_councildis": "A",
    "status": "Pending",
    "rowid": "1080077",
    "final_x": "3667077.94529",
    "final_y": "539154.58817",
    "longitude": "-90.11335347032744",
    "latitude": "29.97691827762943",
    "geocoded_column": {
      "latitude": "29.97691827762943",
      "longitude": "-90.11335347032744"
    }
  },
  {
    "service_request": "2024-1080076",
    "request_type": "Trash/Recycling",
    "request_reason": "Request a Large Item Pick Up",
    "date_created": "2024-03-31T13:23:35.000",
    "date_modified": "2024-03-31T13:23:36.000",
    "request_status": "Pending",
    "responsible_agency": "Department of Sanitation",
    "final_address": "2340 Dauphine St",
    "address_councildis": "C",
    "status": "Assigned to Contractor",
    "contractor": "IV Waste",
    "rowid": "1080076",
    "final_x": "3685841.38044",
    "final_y": "535265.53543",
    "longitude": "-90.05422980785603",
    "latitude": "29.965662085508974",
    "geocoded_column": {
      "latitude": "29.965662085508974",
      "longitude": "-90.05422980785603"
    }
  },
  {
    "service_request": "2024-1080075",
    "request_type": "Property Maintenance",
    "request_reason": "Property Maintenance",
    "date_created": "2024-03-31T13:22:58.000",
    "date_modified": "2024-03-31T13:22:58.000",
    "request_status": "Pending",
    "responsible_agency": "Department of Code Enforcement",
    "final_address": "4300 Hamilton St",
    "address_councildis": "A",
    "status": "Pending",
    "rowid": "1080075",
    "final_x": "3666754.39399",
    "final_y": "538937.880522",
    "longitude": "-90.1143826330025",
    "latitude": "29.976331872470016",
    "geocoded_column": {
      "latitude": "29.976331872470016",
      "longitude": "-90.1143826330025"
    }
  },
  {
    "service_request": "2024-1080074",
    "request_type": "Roads/Drainage",
    "request_reason": "Damaged Sidewalk",
    "date_created": "2024-03-31T13:02:35.000",
    "date_modified": "2024-03-31T13:02:35.000",
    "request_status": "Pending",
    "responsible_agency": "Department of Public Works",
    "final_address": "4200 BLK S Derbigny St",
    "address_councildis": "B",
    "status": "Pending",
    "rowid": "1080074",
    "final_x": "3670882.70282",
    "final_y": "526305.067584",
    "longitude": "-90.10177299507691",
    "latitude": "29.941474423518752",
    "geocoded_column": {
      "latitude": "29.941474423518752",
      "longitude": "-90.10177299507691"
    }
  },
  {
    "service_request": "2024-1080073",
    "request_type": "Trash/Recycling",
    "request_reason": "Order Trash Cart",
    "date_created": "2024-03-31T12:55:17.000",
    "date_modified": "2024-03-31T12:55:18.000",
    "request_status": "Pending",
    "responsible_agency": "Department of Sanitation",
    "final_address": "7630 Morel St, New Orleans, Louisiana, 70128",
    "address_councildis": "E",
    "status": "Assigned to Contractor",
    "rowid": "1080073",
    "final_x": "3718719.76165",
    "final_y": "571868.250984",
    "longitude": "-89.94900597138815",
    "latitude": "30.06525490498265",
    "geocoded_column": {
      "latitude": "30.06525490498265",
      "longitude": "-89.94900597138815"
    }
  },
  {
    "service_request": "2024-1080072",
    "request_type": "Utility Poles",
    "request_reason": "Utility Pole Leaning",
    "date_created": "2024-03-31T12:51:19.000",
    "date_modified": "2024-03-31T12:51:36.000",
    "request_status": "Pending",
    "responsible_agency": "Utility Company Collective",
    "final_address": "1726 Urquhart St",
    "address_councildis": "C",
    "status": "Pending",
    "rowid": "1080072",
    "final_x": "3683333.77564",
    "final_y": "536856.576008",
    "longitude": "-90.06209297442491",
    "latitude": "29.970113628813557",
    "geocoded_column": {
      "latitude": "29.970113628813557",
      "longitude": "-90.06209297442491"
    }
  },
  {
    "service_request": "2024-1080071",
    "request_type": "Traffic Signals/Signs/Striping/Streetlights",
    "request_reason": "Street Light Outage/Malfunction",
    "date_created": "2024-03-31T12:42:15.000",
    "date_modified": "2024-03-31T12:42:15.000",
    "request_status": "Pending",
    "responsible_agency": "Department of Public Works",
    "final_address": "1718 Urquhart St",
    "address_councildis": "C",
    "status": "Assigned to Contractor",
    "contractor": "Legacy Professional Services",
    "rowid": "1080071",
    "final_x": "3683265.47279",
    "final_y": "536801.357512",
    "longitude": "-90.06231061593071",
    "latitude": "29.969963880521334",
    "geocoded_column": {
      "latitude": "29.969963880521334",
      "longitude": "-90.06231061593071"
    }
  },
  {
    "service_request": "2024-1080070",
    "request_type": "Trash/Recycling",
    "request_reason": "Request a Large Item Pick Up",
    "date_created": "2024-03-31T12:42:06.000",
    "date_modified": "2024-03-31T12:42:06.000",
    "request_status": "Pending",
    "responsible_agency": "Department of Sanitation",
    "final_address": "2113 Toledano St",
    "address_councildis": "B",
    "status": "Assigned to Contractor",
    "contractor": "IV Waste",
    "rowid": "1080070",
    "final_x": "3673838.64392",
    "final_y": "523478.890491",
    "longitude": "-90.0925371159095",
    "latitude": "29.933615667738376",
    "geocoded_column": {
      "latitude": "29.933615667738376",
      "longitude": "-90.0925371159095"
    }
  },
  {
    "service_request": "2024-1080069",
    "request_type": "Trash/Recycling",
    "request_reason": "Replace Trash Cart",
    "date_created": "2024-03-31T12:30:44.000",
    "date_modified": "2024-03-31T12:30:44.000",
    "request_status": "Pending",
    "responsible_agency": "Department of Sanitation",
    "final_address": "1421 Sumner St",
    "address_councildis": "C",
    "status": "Assigned to Contractor",
    "contractor": "Richards Disposal",
    "rowid": "1080069",
    "final_x": "3690975.65993",
    "final_y": "526088.05139",
    "longitude": "-90.03834355424905",
    "latitude": "29.9402685882436",
    "geocoded_column": {
      "latitude": "29.9402685882436",
      "longitude": "-90.03834355424905"
    }
  },
  {
    "service_request": "2024-1080068",
    "request_type": "Trash/Recycling",
    "request_reason": "Replace Trash Cart",
    "date_created": "2024-03-31T12:11:24.000",
    "date_modified": "2024-03-31T12:11:25.000",
    "request_status": "Pending",
    "responsible_agency": "Department of Sanitation",
    "final_address": "936 N Robertson St",
    "address_councildis": "C",
    "status": "Assigned to Contractor",
    "contractor": "IV Waste",
    "rowid": "1080068",
    "final_x": "3680720.71816",
    "final_y": "535166.935878",
    "longitude": "-90.07040408729792",
    "latitude": "29.965547152993377",
    "geocoded_column": {
      "latitude": "29.965547152993377",
      "longitude": "-90.07040408729792"
    }
  },
  {
    "service_request": "2024-1080066",
    "request_type": "Trash/Recycling",
    "request_reason": "Request a Large Item Pick Up",
    "date_created": "2024-03-31T11:52:45.000",
    "date_modified": "2024-03-31T11:52:46.000",
    "request_status": "Pending",
    "responsible_agency": "Department of Sanitation",
    "final_address": "3045 Royal St",
    "address_councildis": "C",
    "status": "Assigned to Contractor",
    "contractor": "IV Waste",
    "rowid": "1080066",
    "final_x": "3688413.68822",
    "final_y": "534585.515973",
    "longitude": "-90.046130705577",
    "latitude": "29.963713062648118",
    "geocoded_column": {
      "latitude": "29.963713062648118",
      "longitude": "-90.046130705577"
    }
  },
  {
    "service_request": "2024-1080065",
    "request_type": "Trash/Recycling",
    "request_reason": "Replace Trash Cart",
    "date_created": "2024-03-31T11:47:46.000",
    "date_modified": "2024-03-31T11:47:47.000",
    "request_status": "Pending",
    "responsible_agency": "Department of Sanitation",
    "final_address": "1922 Mandeville St",
    "address_councildis": "D",
    "status": "Assigned to Contractor",
    "contractor": "IV Waste",
    "rowid": "1080065",
    "final_x": "3685487.43766",
    "final_y": "539544.048586",
    "longitude": "-90.05519682978182",
    "latitude": "29.977437364092737",
    "geocoded_column": {
      "latitude": "29.977437364092737",
      "longitude": "-90.05519682978182"
    }
  },
  {
    "service_request": "2024-1080064",
    "request_type": "Property Maintenance",
    "request_reason": "Property Maintenance",
    "date_created": "2024-03-31T11:38:17.000",
    "date_modified": "2024-03-31T11:38:17.000",
    "request_status": "Pending",
    "responsible_agency": "Department of Code Enforcement",
    "final_address": "1300 Esplanade Ave",
    "address_councildis": "C",
    "status": "Pending",
    "rowid": "1080064",
    "final_x": "3682063.70882",
    "final_y": "535874.240775",
    "longitude": "-90.06613828092144",
    "latitude": "29.967451228797124",
    "geocoded_column": {
      "latitude": "29.967451228797124",
      "longitude": "-90.06613828092144"
    }
  },
  {
    "service_request": "2024-1080063",
    "request_type": "Property Maintenance",
    "request_reason": "Property Maintenance",
    "date_created": "2024-03-31T11:29:42.000",
    "date_modified": "2024-03-31T11:29:42.000",
    "request_status": "Pending",
    "responsible_agency": "Department of Code Enforcement",
    "final_address": "7310 Freret St",
    "address_councildis": "A",
    "status": "Pending",
    "rowid": "1080063",
    "final_x": "3663408.77242",
    "final_y": "526103.131326",
    "longitude": "-90.1253764924454",
    "latitude": "29.941137929694378",
    "geocoded_column": {
      "latitude": "29.941137929694378",
      "longitude": "-90.1253764924454"
    }
  },
  {
    "service_request": "2024-1080061",
    "request_type": "Safety & Permits",
    "request_reason": "Construction permit",
    "date_created": "2024-03-31T11:04:03.000",
    "date_modified": "2024-03-31T11:04:03.000",
    "request_status": "Pending",
    "responsible_agency": "Department of Code Enforcement",
    "final_address": "318 Olivier St",
    "address_councildis": "C",
    "status": "Pending",
    "rowid": "1080061",
    "final_x": "3687277.88354",
    "final_y": "530618.240386",
    "longitude": "-90.04985778536037",
    "latitude": "29.952839458403993",
    "geocoded_column": {
      "latitude": "29.952839458403993",
      "longitude": "-90.04985778536037"
    }
  },
  {
    "service_request": "2024-1080060",
    "request_type": "Abandoned Vehicles",
    "request_reason": "Abandoned/Junk Vehicles",
    "date_created": "2024-03-31T10:41:22.000",
    "date_modified": "2024-03-31T10:41:22.000",
    "request_status": "Pending",
    "responsible_agency": "Department of Public Works",
    "final_address": "2636 Lepage St",
    "address_councildis": "A",
    "status": "Pending",
    "rowid": "1080060",
    "final_x": "3678221.4395",
    "final_y": "539543.185674",
    "longitude": "-90.07814531792586",
    "latitude": "29.977655847753564",
    "geocoded_column": {
      "latitude": "29.977655847753564",
      "longitude": "-90.07814531792586"
    }
  },
  {
    "service_request": "2024-1080059",
    "request_type": "Utility Poles",
    "request_reason": "Utility Pole Leaning",
    "date_created": "2024-03-31T10:24:47.000",
    "date_modified": "2024-03-31T10:24:53.000",
    "request_status": "Pending",
    "responsible_agency": "Utility Company Collective",
    "final_address": "616 Delaronde St",
    "address_councildis": "C",
    "status": "Pending",
    "rowid": "1080059",
    "final_x": "3687372.21244",
    "final_y": "531236.979714",
    "longitude": "-90.04953804812723",
    "latitude": "29.954537873504975",
    "geocoded_column": {
      "latitude": "29.954537873504975",
      "longitude": "-90.04953804812723"
    }
  },
  {
    "service_request": "2024-1080058",
    "request_type": "Trash/Recycling",
    "request_reason": "Request a Large Item Pick Up",
    "date_created": "2024-03-31T10:18:47.000",
    "date_modified": "2024-03-31T10:18:47.000",
    "request_status": "Pending",
    "responsible_agency": "Department of Sanitation",
    "final_address": "2529 General Meyer Ave",
    "address_councildis": "C",
    "status": "Assigned to Contractor",
    "contractor": "Richards Disposal",
    "rowid": "1080058",
    "final_x": "3693595.48861",
    "final_y": "526700.070718",
    "longitude": "-90.03005040003065",
    "latitude": "29.941869757726295",
    "geocoded_column": {
      "latitude": "29.941869757726295",
      "longitude": "-90.03005040003065"
    }
  },
  {
    "service_request": "2024-1080057",
    "request_type": "Trash/Recycling",
    "request_reason": "MIssed Recycling Pick-Up",
    "date_created": "2024-03-31T10:17:54.000",
    "date_modified": "2024-03-31T10:17:54.000",
    "request_status": "Pending",
    "responsible_agency": "Department of Sanitation",
    "final_address": "2529 General Meyer Ave",
    "address_councildis": "C",
    "status": "Assigned to Contractor",
    "contractor": "Richards Disposal",
    "rowid": "1080057",
    "final_x": "3693595.48861",
    "final_y": "526700.070718",
    "longitude": "-90.03005040003065",
    "latitude": "29.941869757726295",
    "geocoded_column": {
      "latitude": "29.941869757726295",
      "longitude": "-90.03005040003065"
    }
  },
  {
    "service_request": "2024-1080056",
    "request_type": "Trash/Recycling",
    "request_reason": "Missed Trash Pick-Up",
    "date_created": "2024-03-31T10:17:07.000",
    "date_modified": "2024-03-31T10:17:07.000",
    "request_status": "Pending",
    "responsible_agency": "Department of Sanitation",
    "final_address": "2529 General Meyer Ave",
    "address_councildis": "C",
    "status": "Assigned to Contractor",
    "contractor": "Richards Disposal",
    "rowid": "1080056",
    "final_x": "3693595.48861",
    "final_y": "526700.070718",
    "longitude": "-90.03005040003065",
    "latitude": "29.941869757726295",
    "geocoded_column": {
      "latitude": "29.941869757726295",
      "longitude": "-90.03005040003065"
    }
  },
  {
    "service_request": "2024-1080055",
    "request_type": "Trash/Recycling",
    "request_reason": "Order Trash Cart",
    "date_created": "2024-03-31T10:16:16.000",
    "date_modified": "2024-03-31T10:16:16.000",
    "request_status": "Pending",
    "responsible_agency": "Department of Sanitation",
    "final_address": "2529 General Meyer Ave",
    "address_councildis": "C",
    "status": "Assigned to Contractor",
    "contractor": "Richards Disposal",
    "rowid": "1080055",
    "final_x": "3693595.48861",
    "final_y": "526700.070718",
    "longitude": "-90.03005040003065",
    "latitude": "29.941869757726295",
    "geocoded_column": {
      "latitude": "29.941869757726295",
      "longitude": "-90.03005040003065"
    }
  },
  {
    "service_request": "2024-1080054",
    "request_type": "Health Related Request",
    "request_reason": "Noise Ordinance Complaint",
    "date_created": "2024-03-31T10:16:15.000",
    "date_modified": "2024-03-31T10:16:15.000",
    "request_status": "Pending",
    "responsible_agency": "Health Department",
    "final_address": "2224 Baronne St",
    "address_councildis": "B",
    "status": "Pending",
    "rowid": "1080054",
    "final_x": "3676867.29166",
    "final_y": "524323.570428",
    "longitude": "-90.08294672740904",
    "latitude": "29.935847734422172",
    "geocoded_column": {
      "latitude": "29.935847734422172",
      "longitude": "-90.08294672740904"
    }
  },
  {
    "service_request": "2024-1080052",
    "request_type": "Trash/Recycling",
    "request_reason": "Return Trash Cart",
    "date_created": "2024-03-31T10:14:29.000",
    "date_modified": "2024-03-31T10:14:30.000",
    "request_status": "Pending",
    "responsible_agency": "Department of Sanitation",
    "final_address": "2529 General Meyer Ave",
    "address_councildis": "C",
    "status": "Assigned to Contractor",
    "contractor": "Richards Disposal",
    "rowid": "1080052",
    "final_x": "3693595.48861",
    "final_y": "526700.070718",
    "longitude": "-90.03005040003065",
    "latitude": "29.941869757726295",
    "geocoded_column": {
      "latitude": "29.941869757726295",
      "longitude": "-90.03005040003065"
    }
  },
  {
    "service_request": "2024-1080051",
    "request_type": "Trash/Recycling",
    "request_reason": "Start Trash Service",
    "date_created": "2024-03-31T10:13:27.000",
    "date_modified": "2024-03-31T10:13:27.000",
    "request_status": "Pending",
    "responsible_agency": "Department of Sanitation",
    "final_address": "2529 General Meyer Ave",
    "address_councildis": "C",
    "status": "Assigned to Contractor",
    "contractor": "Richards Disposal",
    "rowid": "1080051",
    "final_x": "3693595.48861",
    "final_y": "526700.070718",
    "longitude": "-90.03005040003065",
    "latitude": "29.941869757726295",
    "geocoded_column": {
      "latitude": "29.941869757726295",
      "longitude": "-90.03005040003065"
    }
  },
  {
    "service_request": "2024-1080050",
    "request_type": "Trash/Recycling",
    "request_reason": "Stop Trash Service",
    "date_created": "2024-03-31T10:12:26.000",
    "date_modified": "2024-03-31T10:12:27.000",
    "request_status": "Pending",
    "responsible_agency": "Department of Sanitation",
    "final_address": "2529 General Meyer Ave",
    "address_councildis": "C",
    "status": "Assigned to Contractor",
    "contractor": "Richards Disposal",
    "rowid": "1080050",
    "final_x": "3693595.48861",
    "final_y": "526700.070718",
    "longitude": "-90.03005040003065",
    "latitude": "29.941869757726295",
    "geocoded_column": {
      "latitude": "29.941869757726295",
      "longitude": "-90.03005040003065"
    }
  },
  {
    "service_request": "2024-1080049",
    "request_type": "Trash/Recycling",
    "request_reason": "Damaged Caused By Contractor",
    "date_created": "2024-03-31T10:11:31.000",
    "date_modified": "2024-03-31T10:11:31.000",
    "request_status": "Pending",
    "responsible_agency": "Department of Sanitation",
    "final_address": "2529 General Meyer Ave",
    "address_councildis": "C",
    "status": "Assigned to Contractor",
    "contractor": "Richards Disposal",
    "rowid": "1080049",
    "final_x": "3693595.48861",
    "final_y": "526700.070718",
    "longitude": "-90.03005040003065",
    "latitude": "29.941869757726295",
    "geocoded_column": {
      "latitude": "29.941869757726295",
      "longitude": "-90.03005040003065"
    }
  },
  {
    "service_request": "2024-1080048",
    "request_type": "Trash/Recycling",
    "request_reason": "Change Size of Trash Cart",
    "date_created": "2024-03-31T10:10:10.000",
    "date_modified": "2024-03-31T10:10:11.000",
    "request_status": "Pending",
    "responsible_agency": "Department of Sanitation",
    "final_address": "2529 General Meyer Ave",
    "address_councildis": "C",
    "status": "Assigned to Contractor",
    "contractor": "Richards Disposal",
    "rowid": "1080048",
    "final_x": "3693595.48861",
    "final_y": "526700.070718",
    "longitude": "-90.03005040003065",
    "latitude": "29.941869757726295",
    "geocoded_column": {
      "latitude": "29.941869757726295",
      "longitude": "-90.03005040003065"
    }
  },
  {
    "service_request": "2024-1080046",
    "request_type": "Trash/Recycling",
    "request_reason": "Dead Animal Pick Up",
    "date_created": "2024-03-31T10:03:38.000",
    "date_modified": "2024-03-31T10:03:38.000",
    "request_status": "Pending",
    "responsible_agency": "Department of Sanitation",
    "final_address": "2529 General Meyer Ave",
    "address_councildis": "C",
    "status": "Assigned to Contractor",
    "contractor": "Richards Disposal",
    "rowid": "1080046",
    "final_x": "3693595.48861",
    "final_y": "526700.070718",
    "longitude": "-90.03005040003065",
    "latitude": "29.941869757726295",
    "geocoded_column": {
      "latitude": "29.941869757726295",
      "longitude": "-90.03005040003065"
    }
  },
  {
    "service_request": "2024-1080045",
    "request_type": "Trash/Recycling",
    "request_reason": "Replace Trash Cart",
    "date_created": "2024-03-31T10:02:36.000",
    "date_modified": "2024-03-31T10:02:36.000",
    "request_status": "Pending",
    "responsible_agency": "Department of Sanitation",
    "final_address": "2529 General Meyer Ave",
    "address_councildis": "C",
    "status": "Assigned to Contractor",
    "contractor": "Richards Disposal",
    "rowid": "1080045",
    "final_x": "3693595.48861",
    "final_y": "526700.070718",
    "longitude": "-90.03005040003065",
    "latitude": "29.941869757726295",
    "geocoded_column": {
      "latitude": "29.941869757726295",
      "longitude": "-90.03005040003065"
    }
  },
  {
    "service_request": "2024-1080044",
    "request_type": "Trash/Recycling",
    "request_reason": "Repair Trash Cart",
    "date_created": "2024-03-31T09:59:29.000",
    "date_modified": "2024-03-31T09:59:30.000",
    "request_status": "Pending",
    "responsible_agency": "Department of Sanitation",
    "final_address": "2529 General Meyer Ave",
    "address_councildis": "C",
    "status": "Assigned to Contractor",
    "contractor": "Richards Disposal",
    "rowid": "1080044",
    "final_x": "3693595.48861",
    "final_y": "526700.070718",
    "longitude": "-90.03005040003065",
    "latitude": "29.941869757726295",
    "geocoded_column": {
      "latitude": "29.941869757726295",
      "longitude": "-90.03005040003065"
    }
  },
  {
    "service_request": "2024-1080043",
    "request_type": "Abandoned Vehicles",
    "request_reason": "Abandoned/Junk Vehicles",
    "date_created": "2024-03-31T09:50:41.000",
    "date_modified": "2024-03-31T09:50:41.000",
    "request_status": "Pending",
    "responsible_agency": "Department of Public Works",
    "final_address": "N CAVELIER DR & E MARCHAND DR",
    "address_councildis": "E",
    "status": "Pending",
    "rowid": "1080043",
    "final_x": "3723962.0",
    "final_y": "570296.48",
    "longitude": "-89.93249562411869",
    "latitude": "30.060758015542756",
    "geocoded_column": {
      "latitude": "30.060758015542756",
      "longitude": "-89.93249562411869"
    }
  },
  {
    "service_request": "2024-1080042",
    "request_type": "Trash/Recycling",
    "request_reason": "Request a Large Item Pick Up",
    "date_created": "2024-03-31T09:37:45.000",
    "date_modified": "2024-03-31T09:37:46.000",
    "request_status": "Pending",
    "responsible_agency": "Department of Sanitation",
    "final_address": "730 S Pierce St",
    "address_councildis": "B",
    "status": "Assigned to Contractor",
    "contractor": "IV Waste",
    "rowid": "1080042",
    "final_x": "3669794.43956",
    "final_y": "535751.167879",
    "longitude": "-90.1048891336081",
    "latitude": "29.967480208272075",
    "geocoded_column": {
      "latitude": "29.967480208272075",
      "longitude": "-90.1048891336081"
    }
  },
  {
    "service_request": "2024-1080041",
    "request_type": "Trash/Recycling",
    "request_reason": "MIssed Recycling Pick-Up",
    "date_created": "2024-03-31T09:36:43.000",
    "date_modified": "2024-03-31T09:36:44.000",
    "request_status": "Pending",
    "responsible_agency": "Department of Sanitation",
    "final_address": "730 S Pierce St",
    "address_councildis": "B",
    "status": "Assigned to Contractor",
    "contractor": "IV Waste",
    "rowid": "1080041",
    "final_x": "3669794.43956",
    "final_y": "535751.167879",
    "longitude": "-90.1048891336081",
    "latitude": "29.967480208272075",
    "geocoded_column": {
      "latitude": "29.967480208272075",
      "longitude": "-90.1048891336081"
    }
  },
  {
    "service_request": "2024-1080040",
    "request_type": "Trash/Recycling",
    "request_reason": "Missed Trash Pick-Up",
    "date_created": "2024-03-31T09:35:49.000",
    "date_modified": "2024-03-31T09:35:49.000",
    "request_status": "Pending",
    "responsible_agency": "Department of Sanitation",
    "final_address": "730 S Pierce St",
    "address_councildis": "B",
    "status": "Assigned to Contractor",
    "contractor": "IV Waste",
    "rowid": "1080040",
    "final_x": "3669794.43956",
    "final_y": "535751.167879",
    "longitude": "-90.1048891336081",
    "latitude": "29.967480208272075",
    "geocoded_column": {
      "latitude": "29.967480208272075",
      "longitude": "-90.1048891336081"
    }
  },
  {
    "service_request": "2024-1080039",
    "request_type": "Trash/Recycling",
    "request_reason": "Order Trash Cart",
    "date_created": "2024-03-31T09:34:50.000",
    "date_modified": "2024-03-31T09:34:50.000",
    "request_status": "Pending",
    "responsible_agency": "Department of Sanitation",
    "final_address": "730 S Pierce St",
    "address_councildis": "B",
    "status": "Assigned to Contractor",
    "contractor": "IV Waste",
    "rowid": "1080039",
    "final_x": "3669794.43956",
    "final_y": "535751.167879",
    "longitude": "-90.1048891336081",
    "latitude": "29.967480208272075",
    "geocoded_column": {
      "latitude": "29.967480208272075",
      "longitude": "-90.1048891336081"
    }
  },
  {
    "service_request": "2024-1080037",
    "request_type": "Trash/Recycling",
    "request_reason": "Return Trash Cart",
    "date_created": "2024-03-31T09:30:36.000",
    "date_modified": "2024-03-31T09:30:36.000",
    "request_status": "Pending",
    "responsible_agency": "Department of Sanitation",
    "final_address": "730 S Pierce St",
    "address_councildis": "B",
    "status": "Assigned to Contractor",
    "contractor": "IV Waste",
    "rowid": "1080037",
    "final_x": "3669794.43956",
    "final_y": "535751.167879",
    "longitude": "-90.1048891336081",
    "latitude": "29.967480208272075",
    "geocoded_column": {
      "latitude": "29.967480208272075",
      "longitude": "-90.1048891336081"
    }
  },
  {
    "service_request": "2024-1080036",
    "request_type": "Trash/Recycling",
    "request_reason": "Start Trash Service",
    "date_created": "2024-03-31T09:29:36.000",
    "date_modified": "2024-03-31T09:29:37.000",
    "request_status": "Pending",
    "responsible_agency": "Department of Sanitation",
    "final_address": "730 S Pierce St",
    "address_councildis": "B",
    "status": "Assigned to Contractor",
    "contractor": "IV Waste",
    "rowid": "1080036",
    "final_x": "3669794.43956",
    "final_y": "535751.167879",
    "longitude": "-90.1048891336081",
    "latitude": "29.967480208272075",
    "geocoded_column": {
      "latitude": "29.967480208272075",
      "longitude": "-90.1048891336081"
    }
  },
  {
    "service_request": "2024-1080035",
    "request_type": "Trash/Recycling",
    "request_reason": "Stop Trash Service",
    "date_created": "2024-03-31T09:28:46.000",
    "date_modified": "2024-03-31T09:28:47.000",
    "request_status": "Pending",
    "responsible_agency": "Department of Sanitation",
    "final_address": "730 S Pierce St",
    "address_councildis": "B",
    "status": "Assigned to Contractor",
    "contractor": "IV Waste",
    "rowid": "1080035",
    "final_x": "3669794.43956",
    "final_y": "535751.167879",
    "longitude": "-90.1048891336081",
    "latitude": "29.967480208272075",
    "geocoded_column": {
      "latitude": "29.967480208272075",
      "longitude": "-90.1048891336081"
    }
  },
  {
    "service_request": "2024-1080034",
    "request_type": "Trash/Recycling",
    "request_reason": "Damaged Caused By Contractor",
    "date_created": "2024-03-31T09:27:43.000",
    "date_modified": "2024-03-31T09:27:44.000",
    "request_status": "Pending",
    "responsible_agency": "Department of Sanitation",
    "final_address": "730 S Pierce St",
    "address_councildis": "B",
    "status": "Assigned to Contractor",
    "contractor": "IV Waste",
    "rowid": "1080034",
    "final_x": "3669794.43956",
    "final_y": "535751.167879",
    "longitude": "-90.1048891336081",
    "latitude": "29.967480208272075",
    "geocoded_column": {
      "latitude": "29.967480208272075",
      "longitude": "-90.1048891336081"
    }
  },
  {
    "service_request": "2024-1080033",
    "request_type": "Trash/Recycling",
    "request_reason": "Change Size of Trash Cart",
    "date_created": "2024-03-31T09:26:41.000",
    "date_modified": "2024-03-31T09:26:42.000",
    "request_status": "Pending",
    "responsible_agency": "Department of Sanitation",
    "final_address": "730 S Pierce St",
    "address_councildis": "B",
    "status": "Assigned to Contractor",
    "contractor": "IV Waste",
    "rowid": "1080033",
    "final_x": "3669794.43956",
    "final_y": "535751.167879",
    "longitude": "-90.1048891336081",
    "latitude": "29.967480208272075",
    "geocoded_column": {
      "latitude": "29.967480208272075",
      "longitude": "-90.1048891336081"
    }
  },
  {
    "service_request": "2024-1080032",
    "request_type": "Trash/Recycling",
    "request_reason": "Dead Animal Pick Up",
    "date_created": "2024-03-31T09:25:44.000",
    "date_modified": "2024-03-31T09:25:45.000",
    "request_status": "Pending",
    "responsible_agency": "Department of Sanitation",
    "final_address": "730 S Pierce St",
    "address_councildis": "B",
    "status": "Assigned to Contractor",
    "contractor": "IV Waste",
    "rowid": "1080032",
    "final_x": "3669794.43956",
    "final_y": "535751.167879",
    "longitude": "-90.1048891336081",
    "latitude": "29.967480208272075",
    "geocoded_column": {
      "latitude": "29.967480208272075",
      "longitude": "-90.1048891336081"
    }
  },
  {
    "service_request": "2024-1080031",
    "request_type": "Trash/Recycling",
    "request_reason": "Replace Trash Cart",
    "date_created": "2024-03-31T09:24:34.000",
    "date_modified": "2024-03-31T09:24:35.000",
    "request_status": "Pending",
    "responsible_agency": "Department of Sanitation",
    "final_address": "730 S Pierce St",
    "address_councildis": "B",
    "status": "Assigned to Contractor",
    "contractor": "IV Waste",
    "rowid": "1080031",
    "final_x": "3669794.43956",
    "final_y": "535751.167879",
    "longitude": "-90.1048891336081",
    "latitude": "29.967480208272075",
    "geocoded_column": {
      "latitude": "29.967480208272075",
      "longitude": "-90.1048891336081"
    }
  },
  {
    "service_request": "2024-1080030",
    "request_type": "Trash/Recycling",
    "request_reason": "Repair Trash Cart",
    "date_created": "2024-03-31T09:23:28.000",
    "date_modified": "2024-03-31T09:23:28.000",
    "request_status": "Pending",
    "responsible_agency": "Department of Sanitation",
    "final_address": "730 S Pierce St",
    "address_councildis": "B",
    "status": "Assigned to Contractor",
    "contractor": "IV Waste",
    "rowid": "1080030",
    "final_x": "3669794.43956",
    "final_y": "535751.167879",
    "longitude": "-90.1048891336081",
    "latitude": "29.967480208272075",
    "geocoded_column": {
      "latitude": "29.967480208272075",
      "longitude": "-90.1048891336081"
    }
  },
  {
    "service_request": "2024-1080029",
    "request_type": "Trash/Recycling",
    "request_reason": "Missed Trash Pick-Up",
    "date_created": "2024-03-31T09:20:08.000",
    "date_modified": "2024-03-31T09:20:09.000",
    "request_status": "Pending",
    "responsible_agency": "Department of Sanitation",
    "final_address": "730 S Pierce St",
    "address_councildis": "B",
    "status": "Assigned to Contractor",
    "contractor": "IV Waste",
    "rowid": "1080029",
    "final_x": "3669794.43956",
    "final_y": "535751.167879",
    "longitude": "-90.1048891336081",
    "latitude": "29.967480208272075",
    "geocoded_column": {
      "latitude": "29.967480208272075",
      "longitude": "-90.1048891336081"
    }
  },
  {
    "service_request": "2024-1080028",
    "request_type": "Trash/Recycling",
    "request_reason": "Change Size of Trash Cart",
    "date_created": "2024-03-31T08:52:47.000",
    "date_modified": "2024-03-31T08:52:48.000",
    "request_status": "Pending",
    "responsible_agency": "Department of Sanitation",
    "final_address": "5119 Perrier St",
    "address_councildis": "B",
    "status": "Assigned to Contractor",
    "contractor": "IV Waste",
    "rowid": "1080028",
    "final_x": "3668225.11079",
    "final_y": "519936.471544",
    "longitude": "-90.11037816369986",
    "latitude": "29.92404109458198",
    "geocoded_column": {
      "latitude": "29.92404109458198",
      "longitude": "-90.11037816369986"
    }
  },
  {
    "service_request": "2024-1080027",
    "request_type": "Trash/Recycling",
    "request_reason": "Request a Large Item Pick Up",
    "date_created": "2024-03-31T07:52:21.000",
    "date_modified": "2024-03-31T07:52:21.000",
    "request_status": "Pending",
    "responsible_agency": "Department of Sanitation",
    "final_address": "8117 Cohn St",
    "address_councildis": "A",
    "status": "Assigned to Contractor",
    "contractor": "IV Waste",
    "rowid": "1080027",
    "final_x": "3663544.62023",
    "final_y": "530325.164802",
    "longitude": "-90.12480700370331",
    "latitude": "29.95274322727445",
    "geocoded_column": {
      "latitude": "29.95274322727445",
      "longitude": "-90.12480700370331"
    }
  },
  {
    "service_request": "2024-1080026",
    "request_type": "Trash/Recycling",
    "request_reason": "Illegal Dumping",
    "date_created": "2024-03-31T07:31:14.000",
    "date_modified": "2024-03-31T07:31:14.000",
    "request_status": "Pending",
    "responsible_agency": "Department of Sanitation",
    "final_address": "6236 Milne Blvd",
    "address_councildis": "A",
    "status": "Pending",
    "rowid": "1080026",
    "final_x": "3667099.20749",
    "final_y": "549233.364307",
    "longitude": "-90.11294728799572",
    "latitude": "30.004630849534326",
    "geocoded_column": {
      "latitude": "30.004630849534326",
      "longitude": "-90.11294728799572"
    }
  },
  {
    "service_request": "2024-1080025",
    "request_type": "Abandoned Vehicles",
    "request_reason": "Vehicle Blocking Your Driveway",
    "date_created": "2024-03-31T05:40:04.000",
    "date_modified": "2024-03-31T05:40:04.000",
    "request_status": "Pending",
    "responsible_agency": "Department of Public Works",
    "final_address": "1125 Kerlerec St Unit 2",
    "address_councildis": "C",
    "status": "Pending",
    "rowid": "1080025",
    "final_x": "3682974.09416",
    "final_y": "535767.897607",
    "longitude": "-90.0632669931395",
    "latitude": "29.967131106721233",
    "geocoded_column": {
      "latitude": "29.967131106721233",
      "longitude": "-90.0632669931395"
    }
  },
  {
    "service_request": "2024-1080024",
    "request_type": "Graffiti Removal",
    "request_reason": "Graffiti Removal",
    "date_created": "2024-03-31T01:21:45.000",
    "date_modified": "2024-03-31T01:21:45.000",
    "request_status": "Pending",
    "responsible_agency": "Department of Code Enforcement",
    "final_address": "2121 Chartres St",
    "address_councildis": "C",
    "status": "Pending",
    "rowid": "1080024",
    "final_x": "3684978.41941",
    "final_y": "534526.877573",
    "longitude": "-90.05698098429305",
    "latitude": "29.963657491562515",
    "geocoded_column": {
      "latitude": "29.963657491562515",
      "longitude": "-90.05698098429305"
    }
  },
  {
    "service_request": "2024-1080023",
    "request_type": "Graffiti Removal",
    "request_reason": "Graffiti Removal",
    "date_created": "2024-03-31T01:21:14.000",
    "date_modified": "2024-03-31T01:21:14.000",
    "request_status": "Pending",
    "responsible_agency": "Department of Code Enforcement",
    "final_address": "2121 Chartres St",
    "address_councildis": "C",
    "status": "Pending",
    "rowid": "1080023",
    "final_x": "3684978.41941",
    "final_y": "534526.877573",
    "longitude": "-90.05698098429305",
    "latitude": "29.963657491562515",
    "geocoded_column": {
      "latitude": "29.963657491562515",
      "longitude": "-90.05698098429305"
    }
  },
  {
    "service_request": "2024-1080022",
    "request_type": "Graffiti Removal",
    "request_reason": "Graffiti Removal",
    "date_created": "2024-03-31T01:19:06.000",
    "date_modified": "2024-03-31T01:19:06.000",
    "request_status": "Pending",
    "responsible_agency": "Department of Code Enforcement",
    "final_address": "2121 Chartres St",
    "address_councildis": "C",
    "status": "Pending",
    "rowid": "1080022",
    "final_x": "3684978.41941",
    "final_y": "534526.877573",
    "longitude": "-90.05698098429305",
    "latitude": "29.963657491562515",
    "geocoded_column": {
      "latitude": "29.963657491562515",
      "longitude": "-90.05698098429305"
    }
  },
  {
    "service_request": "2024-1080021",
    "request_type": "Health Related Request",
    "request_reason": "Noise Ordinance Complaint",
    "date_created": "2024-03-31T01:06:09.000",
    "date_modified": "2024-03-31T01:06:09.000",
    "request_status": "Pending",
    "responsible_agency": "Health Department",
    "final_address": "3008 Toulouse St, New Orleans, Louisiana, 70119",
    "address_councildis": "A",
    "status": "Pending",
    "rowid": "1080021",
    "final_x": "3675353.15374",
    "final_y": "537348.488648",
    "longitude": "-90.0872797319936",
    "latitude": "29.97170726298513",
    "geocoded_column": {
      "latitude": "29.97170726298513",
      "longitude": "-90.0872797319936"
    }
  },
  {
    "service_request": "2024-1080019",
    "request_type": "Traffic Signals/Signs/Striping/Streetlights",
    "request_reason": "Street Light Knocked Down/Leaning",
    "date_created": "2024-03-30T22:51:09.000",
    "date_modified": "2024-03-30T22:51:09.000",
    "request_status": "Pending",
    "responsible_agency": "Department of Public Works",
    "final_address": "4650 Alba Rd",
    "address_councildis": "E",
    "status": "Pending",
    "contractor": "Legacy Professional Services",
    "rowid": "1080019",
    "final_x": "3761804.32643",
    "final_y": "573973.17585",
    "longitude": "-89.81272606886762",
    "latitude": "30.06954085818183",
    "geocoded_column": {
      "latitude": "30.06954085818183",
      "longitude": "-89.81272606886762"
    }
  },
  {
    "service_request": "2024-1080018",
    "request_type": "Trash/Recycling",
    "request_reason": "Replace Trash Cart",
    "date_created": "2024-03-30T22:50:41.000",
    "date_modified": "2024-03-30T22:50:42.000",
    "request_status": "Pending",
    "responsible_agency": "Department of Sanitation",
    "final_address": "2424 Calhoun St",
    "address_councildis": "A",
    "status": "Assigned to Contractor",
    "contractor": "IV Waste",
    "rowid": "1080018",
    "final_x": "3666075.44135",
    "final_y": "525917.771965",
    "longitude": "-90.11696350296958",
    "latitude": "29.94055068194443",
    "geocoded_column": {
      "latitude": "29.94055068194443",
      "longitude": "-90.11696350296958"
    }
  },
  {
    "service_request": "2024-1080017",
    "request_type": "Property Maintenance",
    "request_reason": "Property Maintenance",
    "date_created": "2024-03-30T22:47:12.000",
    "date_modified": "2024-03-30T22:47:12.000",
    "request_status": "Pending",
    "responsible_agency": "Department of Code Enforcement",
    "final_address": "1568 N Rocheblave St",
    "address_councildis": "D",
    "status": "Pending",
    "rowid": "1080017",
    "final_x": "3679875.85563",
    "final_y": "539373.957706",
    "longitude": "-90.07292598750266",
    "latitude": "29.977140593822085",
    "geocoded_column": {
      "latitude": "29.977140593822085",
      "longitude": "-90.07292598750266"
    }
  },
  {
    "service_request": "2024-1080016",
    "request_type": "Traffic Signals/Signs/Striping/Streetlights",
    "request_reason": "Traffic Sign Missing/Damaged",
    "date_created": "2024-03-30T20:50:43.000",
    "date_modified": "2024-03-30T20:50:43.000",
    "request_status": "Pending",
    "responsible_agency": "Department of Public Works",
    "final_address": "300 BLK Dauphine St",
    "address_councildis": "C",
    "status": "Pending",
    "rowid": "1080016",
    "final_x": "3681204.39215",
    "final_y": "531877.58892",
    "longitude": "-90.06899128501021",
    "latitude": "29.956487903147913",
    "geocoded_column": {
      "latitude": "29.956487903147913",
      "longitude": "-90.06899128501021"
    }
  },
  {
    "service_request": "2024-1080015",
    "request_type": "Traffic Signals/Signs/Striping/Streetlights",
    "request_reason": "Street Light Outage/Malfunction",
    "date_created": "2024-03-30T20:33:24.000",
    "date_modified": "2024-03-30T20:33:25.000",
    "request_status": "Pending",
    "responsible_agency": "Department of Public Works",
    "final_address": "200 BLK Hay Pl",
    "address_councildis": "A",
    "status": "Assigned to Contractor",
    "contractor": "Legacy Professional Services",
    "rowid": "1080015",
    "final_x": "3665700.39494",
    "final_y": "554223.375921",
    "longitude": "-90.11719911239219",
    "latitude": "30.018392530908713",
    "geocoded_column": {
      "latitude": "30.018392530908713",
      "longitude": "-90.11719911239219"
    }
  },
  {
    "service_request": "2024-1080014",
    "request_type": "Traffic Signals/Signs/Striping/Streetlights",
    "request_reason": "Street Light Outage/Malfunction",
    "date_created": "2024-03-30T19:58:00.000",
    "date_modified": "2024-03-30T19:58:01.000",
    "request_status": "Pending",
    "responsible_agency": "Department of Public Works",
    "final_address": "200 BLK Hay Pl",
    "address_councildis": "A",
    "status": "Assigned to Contractor",
    "contractor": "Legacy Professional Services",
    "rowid": "1080014",
    "final_x": "3665700.39494",
    "final_y": "554223.375921",
    "longitude": "-90.11719911239219",
    "latitude": "30.018392530908713",
    "geocoded_column": {
      "latitude": "30.018392530908713",
      "longitude": "-90.11719911239219"
    }
  },
  {
    "service_request": "2024-1080012",
    "request_type": "Property Maintenance",
    "request_reason": "Property Maintenance",
    "date_created": "2024-03-30T18:03:40.000",
    "date_modified": "2024-03-30T18:03:40.000",
    "request_status": "Pending",
    "responsible_agency": "Department of Code Enforcement",
    "final_address": "801 Dante St",
    "address_councildis": "A",
    "status": "Pending",
    "rowid": "1080012",
    "final_x": "3660533.10022",
    "final_y": "527825.962111",
    "longitude": "-90.13439866010214",
    "latitude": "29.945958212170087",
    "geocoded_column": {
      "latitude": "29.945958212170087",
      "longitude": "-90.13439866010214"
    }
  },
  {
    "service_request": "2024-1080011",
    "request_type": "Property Maintenance",
    "request_reason": "Property Maintenance",
    "date_created": "2024-03-30T18:02:35.000",
    "date_modified": "2024-03-30T18:02:35.000",
    "request_status": "Pending",
    "responsible_agency": "Department of Code Enforcement",
    "final_address": "801 Dante St",
    "address_councildis": "A",
    "status": "Pending",
    "rowid": "1080011",
    "final_x": "3660533.10022",
    "final_y": "527825.962111",
    "longitude": "-90.13439866010214",
    "latitude": "29.945958212170087",
    "geocoded_column": {
      "latitude": "29.945958212170087",
      "longitude": "-90.13439866010214"
    }
  },
  {
    "service_request": "2024-1080010",
    "request_type": "Property Maintenance",
    "request_reason": "Property Maintenance",
    "date_created": "2024-03-30T18:02:17.000",
    "date_modified": "2024-03-30T18:02:17.000",
    "request_status": "Pending",
    "responsible_agency": "Department of Code Enforcement",
    "final_address": "801 Dante St",
    "address_councildis": "A",
    "status": "Pending",
    "rowid": "1080010",
    "final_x": "3660533.10022",
    "final_y": "527825.962111",
    "longitude": "-90.13439866010214",
    "latitude": "29.945958212170087",
    "geocoded_column": {
      "latitude": "29.945958212170087",
      "longitude": "-90.13439866010214"
    }
  },
  {
    "service_request": "2024-1080008",
    "request_type": "Trash/Recycling",
    "request_reason": "Request a Large Item Pick Up",
    "date_created": "2024-03-30T17:53:06.000",
    "date_modified": "2024-03-30T17:53:07.000",
    "request_status": "Pending",
    "responsible_agency": "Department of Sanitation",
    "final_address": "8217 Spruce St",
    "address_councildis": "A",
    "status": "Assigned to Contractor",
    "contractor": "IV Waste",
    "rowid": "1080008",
    "final_x": "3663506.96775",
    "final_y": "530821.432258",
    "longitude": "-90.1249093681595",
    "latitude": "29.954108894103822",
    "geocoded_column": {
      "latitude": "29.954108894103822",
      "longitude": "-90.1249093681595"
    }
  },
  {
    "service_request": "2024-1080007",
    "request_type": "Trash/Recycling",
    "request_reason": "Request a Large Item Pick Up",
    "date_created": "2024-03-30T17:36:25.000",
    "date_modified": "2024-03-30T17:36:26.000",
    "request_status": "Pending",
    "responsible_agency": "Department of Sanitation",
    "final_address": "11810 Morrison Rd",
    "address_councildis": "E",
    "status": "Assigned to Contractor",
    "rowid": "1080007",
    "final_x": "3713460.15749",
    "final_y": "566462.102819",
    "longitude": "-89.96583596660554",
    "latitude": "30.05056388658042",
    "geocoded_column": {
      "latitude": "30.05056388658042",
      "longitude": "-89.96583596660554"
    }
  },
  {
    "service_request": "2024-1080006",
    "request_type": "Abandoned Vehicles",
    "request_reason": "Vehicle Blocking Your Driveway",
    "date_created": "2024-03-30T17:35:47.000",
    "date_modified": "2024-03-30T17:35:47.000",
    "request_status": "Pending",
    "responsible_agency": "Department of Public Works",
    "final_address": "3309 St Claude Ave",
    "address_councildis": "C",
    "status": "Pending",
    "rowid": "1080006",
    "final_x": "3689947.25404",
    "final_y": "535875.974151",
    "longitude": "-90.0412419214707",
    "latitude": "29.967213911733026",
    "geocoded_column": {
      "latitude": "29.967213911733026",
      "longitude": "-90.0412419214707"
    }
  },
  {
    "service_request": "2024-1080005",
    "request_type": "Abandoned Vehicles",
    "request_reason": "Abandoned/Junk Vehicles",
    "date_created": "2024-03-30T17:29:37.000",
    "date_modified": "2024-03-30T17:29:37.000",
    "request_status": "Pending",
    "responsible_agency": "Department of Public Works",
    "final_address": "1016 France St",
    "address_councildis": "C",
    "status": "Pending",
    "rowid": "1080005",
    "final_x": "3692303.76451",
    "final_y": "534949.207302",
    "longitude": "-90.03383325826515",
    "latitude": "29.964592352729248",
    "geocoded_column": {
      "latitude": "29.964592352729248",
      "longitude": "-90.03383325826515"
    }
  },
  {
    "service_request": "2024-1080004",
    "request_type": "Trash/Recycling",
    "request_reason": "Replace Trash Cart",
    "date_created": "2024-03-30T17:17:33.000",
    "date_modified": "2024-03-30T17:17:34.000",
    "request_status": "Pending",
    "responsible_agency": "Department of Sanitation",
    "final_address": "1933 Cambronne St",
    "address_councildis": "A",
    "status": "Assigned to Contractor",
    "contractor": "IV Waste",
    "rowid": "1080004",
    "final_x": "3663039.14963",
    "final_y": "531092.202306",
    "longitude": "-90.1263775500142",
    "latitude": "29.95486698184023",
    "geocoded_column": {
      "latitude": "29.95486698184023",
      "longitude": "-90.1263775500142"
    }
  },
  {
    "service_request": "2024-1080003",
    "request_type": "Roads/Drainage",
    "request_reason": "Catch Basin - Clogged",
    "date_created": "2024-03-30T17:16:56.000",
    "date_modified": "2024-03-30T17:16:56.000",
    "request_status": "Pending",
    "responsible_agency": "Department of Public Works",
    "final_address": "1738 S Carrollton Ave",
    "address_councildis": "A",
    "status": "Pending",
    "rowid": "1080003",
    "final_x": "3663333.21933",
    "final_y": "529902.978561",
    "longitude": "-90.12548856848827",
    "latitude": "29.951588480592996",
    "geocoded_column": {
      "latitude": "29.951588480592996",
      "longitude": "-90.12548856848827"
    }
  },
  {
    "service_request": "2024-1080002",
    "request_type": "Trash/Recycling",
    "request_reason": "Order Recycling Cart",
    "date_created": "2024-03-30T17:05:22.000",
    "date_modified": "2024-03-30T17:05:22.000",
    "request_status": "Pending",
    "responsible_agency": "Department of Sanitation",
    "final_address": "219 Nashville Ave",
    "address_councildis": "A",
    "status": "Pending",
    "rowid": "1080002",
    "final_x": "3665175.78247",
    "final_y": "517092.525941",
    "longitude": "-90.12009890429549",
    "latitude": "29.91631027090209",
    "geocoded_column": {
      "latitude": "29.91631027090209",
      "longitude": "-90.12009890429549"
    }
  },
  {
    "service_request": "2024-1080001",
    "request_type": "Health Related Request",
    "request_reason": "Noise Ordinance Complaint",
    "date_created": "2024-03-30T17:01:57.000",
    "date_modified": "2024-03-30T17:01:57.000",
    "request_status": "Pending",
    "responsible_agency": "Health Department",
    "final_address": "2227 Brainard St",
    "address_councildis": "B",
    "status": "Pending",
    "rowid": "1080001",
    "final_x": "3676988.06734",
    "final_y": "524140.428924",
    "longitude": "-90.08257174735182",
    "latitude": "29.935340530845217",
    "geocoded_column": {
      "latitude": "29.935340530845217",
      "longitude": "-90.08257174735182"
    }
  },
  {
    "service_request": "2024-1080000",
    "request_type": "Property Maintenance",
    "request_reason": "Property Maintenance",
    "date_created": "2024-03-30T16:59:58.000",
    "date_modified": "2024-03-30T16:59:58.000",
    "request_status": "Pending",
    "responsible_agency": "Department of Code Enforcement",
    "final_address": "617 First St",
    "address_councildis": "B",
    "status": "Pending",
    "rowid": "1080000",
    "final_x": "3679028.40936",
    "final_y": "520117.103224",
    "longitude": "-90.07626972804592",
    "latitude": "29.92421630502302",
    "geocoded_column": {
      "latitude": "29.92421630502302",
      "longitude": "-90.07626972804592"
    }
  },
  {
    "service_request": "2024-1079999",
    "request_type": "Trash/Recycling",
    "request_reason": "Request a Large Item Pick Up",
    "date_created": "2024-03-30T16:52:41.000",
    "date_modified": "2024-03-30T16:52:41.000",
    "request_status": "Pending",
    "responsible_agency": "Department of Sanitation",
    "final_address": "6345 Louis Xiv St",
    "address_councildis": "A",
    "status": "Assigned to Contractor",
    "contractor": "IV Waste",
    "rowid": "1079999",
    "final_x": "3668370.19002",
    "final_y": "549739.6445",
    "longitude": "-90.10891490164555",
    "latitude": "30.005985661326022",
    "geocoded_column": {
      "latitude": "30.005985661326022",
      "longitude": "-90.10891490164555"
    }
  },
  {
    "service_request": "2024-1079998",
    "request_type": "Trash/Recycling",
    "request_reason": "Replace Trash Cart",
    "date_created": "2024-03-30T16:39:10.000",
    "date_modified": "2024-03-30T16:39:11.000",
    "request_status": "Pending",
    "responsible_agency": "Department of Sanitation",
    "final_address": "6016 Orleans Ave",
    "address_councildis": "A",
    "status": "Assigned to Contractor",
    "contractor": "IV Waste",
    "rowid": "1079998",
    "final_x": "3670803.39713",
    "final_y": "547237.616593",
    "longitude": "-90.1013127913613",
    "latitude": "29.99903424115317",
    "geocoded_column": {
      "latitude": "29.99903424115317",
      "longitude": "-90.1013127913613"
    }
  },
  {
    "service_request": "2024-1079996",
    "request_type": "Roads/Drainage",
    "request_reason": "Damaged Sidewalk",
    "date_created": "2024-03-30T16:31:15.000",
    "date_modified": "2024-03-30T16:31:15.000",
    "request_status": "Pending",
    "responsible_agency": "Department of Public Works",
    "final_address": "1528 Painters St",
    "address_councildis": "C",
    "status": "Pending",
    "rowid": "1079996",
    "final_x": "3687400.29154",
    "final_y": "538176.777609",
    "longitude": "-90.04920380745604",
    "latitude": "29.973619041844042",
    "geocoded_column": {
      "latitude": "29.973619041844042",
      "longitude": "-90.04920380745604"
    }
  },
  {
    "service_request": "2024-1079995",
    "request_type": "Property Maintenance",
    "request_reason": "Property Maintenance",
    "date_created": "2024-03-30T16:25:54.000",
    "date_modified": "2024-03-30T16:25:54.000",
    "request_status": "Pending",
    "responsible_agency": "Department of Code Enforcement",
    "final_address": "DEER PARK BLVD & LAKE FOREST BLVD",
    "address_councildis": "E",
    "status": "Pending",
    "rowid": "1079995",
    "final_x": "3712891.2",
    "final_y": "559993.38",
    "longitude": "-89.96787786256515",
    "latitude": "30.03279616123644",
    "geocoded_column": {
      "latitude": "30.03279616123644",
      "longitude": "-89.96787786256515"
    }
  },
  {
    "service_request": "2024-1079993",
    "request_type": "Trash/Recycling",
    "request_reason": "Order Recycling Cart",
    "date_created": "2024-03-30T16:12:39.000",
    "date_modified": "2024-03-30T16:12:39.000",
    "request_status": "Pending",
    "responsible_agency": "Department of Sanitation",
    "final_address": "4916 Willow St",
    "address_councildis": "B",
    "status": "Pending",
    "rowid": "1079993",
    "final_x": "3669047.98055",
    "final_y": "525251.338109",
    "longitude": "-90.10760117897748",
    "latitude": "29.938631103194776",
    "geocoded_column": {
      "latitude": "29.938631103194776",
      "longitude": "-90.10760117897748"
    }
  },
  {
    "service_request": "2024-1079992",
    "request_type": "Trash/Recycling",
    "request_reason": "Request a Large Item Pick Up",
    "date_created": "2024-03-30T15:11:29.000",
    "date_modified": "2024-03-30T15:11:30.000",
    "request_status": "Pending",
    "responsible_agency": "Department of Sanitation",
    "final_address": "1310 St Andrew St Apt 2",
    "address_councildis": "B",
    "status": "Assigned to Contractor",
    "contractor": "IV Waste",
    "rowid": "1079992",
    "final_x": "3678918.51003",
    "final_y": "523187.716091",
    "longitude": "-90.07651032513685",
    "latitude": "29.93266280145192",
    "geocoded_column": {
      "latitude": "29.93266280145192",
      "longitude": "-90.07651032513685"
    }
  },
  {
    "service_request": "2024-1079991",
    "request_type": "Abandoned Vehicles",
    "request_reason": "Abandoned/Junk Vehicles",
    "date_created": "2024-03-30T15:04:46.000",
    "date_modified": "2024-03-30T15:04:46.000",
    "request_status": "Pending",
    "responsible_agency": "Department of Public Works",
    "final_address": "3111 Conti St",
    "address_councildis": "B",
    "status": "Pending",
    "rowid": "1079991",
    "final_x": "3674724.79924",
    "final_y": "537111.411848",
    "longitude": "-90.08927230333406",
    "latitude": "29.971074156014595",
    "geocoded_column": {
      "latitude": "29.971074156014595",
      "longitude": "-90.08927230333406"
    }
  },
  {
    "service_request": "2024-1079990",
    "request_type": "Roads/Drainage",
    "request_reason": "Pothole",
    "date_created": "2024-03-30T15:02:23.000",
    "date_modified": "2024-03-30T15:02:23.000",
    "request_status": "Pending",
    "responsible_agency": "Department of Public Works",
    "final_address": "5920 Pitt St",
    "address_councildis": "A",
    "status": "Pending",
    "rowid": "1079990",
    "final_x": "3665467.7065",
    "final_y": "521009.245113",
    "longitude": "-90.11904645902852",
    "latitude": "29.9270715185238",
    "geocoded_column": {
      "latitude": "29.9270715185238",
      "longitude": "-90.11904645902852"
    }
  },
  {
    "service_request": "2024-1079989",
    "request_type": "Abandoned Vehicles",
    "request_reason": "Abandoned/Junk Vehicles",
    "date_created": "2024-03-30T15:01:14.000",
    "date_modified": "2024-03-30T15:01:14.000",
    "request_status": "Pending",
    "responsible_agency": "Department of Public Works",
    "final_address": "3111 Conti St",
    "address_councildis": "B",
    "status": "Pending",
    "rowid": "1079989",
    "final_x": "3674724.79924",
    "final_y": "537111.411848",
    "longitude": "-90.08927230333406",
    "latitude": "29.971074156014595",
    "geocoded_column": {
      "latitude": "29.971074156014595",
      "longitude": "-90.08927230333406"
    }
  },
  {
    "service_request": "2024-1079988",
    "request_type": "Trash/Recycling",
    "request_reason": "Order Trash Cart",
    "date_created": "2024-03-30T14:37:10.000",
    "date_modified": "2024-03-30T14:37:10.000",
    "request_status": "Pending",
    "responsible_agency": "Department of Sanitation",
    "final_address": "5319 N Galvez St",
    "address_councildis": "E",
    "status": "Assigned to Contractor",
    "rowid": "1079988",
    "final_x": "3698024.27568",
    "final_y": "537783.957256",
    "longitude": "-90.01566545942384",
    "latitude": "29.97220727202459",
    "geocoded_column": {
      "latitude": "29.97220727202459",
      "longitude": "-90.01566545942384"
    }
  },
  {
    "service_request": "2024-1079984",
    "request_type": "Roads/Drainage",
    "request_reason": "Pothole",
    "date_created": "2024-03-30T14:14:58.000",
    "date_modified": "2024-03-30T14:14:58.000",
    "request_status": "Pending",
    "responsible_agency": "Department of Public Works",
    "final_address": "804 Webster St",
    "address_councildis": "A",
    "status": "Pending",
    "rowid": "1079984",
    "final_x": "3664124.39348",
    "final_y": "519522.014135",
    "longitude": "-90.1233365457699",
    "latitude": "29.923021174551675",
    "geocoded_column": {
      "latitude": "29.923021174551675",
      "longitude": "-90.1233365457699"
    }
  },
  {
    "service_request": "2024-1079983",
    "request_type": "Roads/Drainage",
    "request_reason": "Pothole",
    "date_created": "2024-03-30T14:13:25.000",
    "date_modified": "2024-03-30T14:13:25.000",
    "request_status": "Pending",
    "responsible_agency": "Department of Public Works",
    "final_address": "7200 BLK Nelson St",
    "address_councildis": "A",
    "status": "Pending",
    "rowid": "1079983",
    "final_x": "3666668.13447",
    "final_y": "530500.052961",
    "longitude": "-90.114938433841",
    "latitude": "29.953133158215756",
    "geocoded_column": {
      "latitude": "29.953133158215756",
      "longitude": "-90.114938433841"
    }
  },
  {
    "service_request": "2024-1079982",
    "request_type": "Roads/Drainage",
    "request_reason": "Pothole",
    "date_created": "2024-03-30T14:10:54.000",
    "date_modified": "2024-03-30T14:10:54.000",
    "request_status": "Pending",
    "responsible_agency": "Department of Public Works",
    "final_address": "823 Eleonore St",
    "address_councildis": "A",
    "status": "Pending",
    "rowid": "1079982",
    "final_x": "3665306.05754",
    "final_y": "519248.081655",
    "longitude": "-90.11961563380379",
    "latitude": "29.922233582058627",
    "geocoded_column": {
      "latitude": "29.922233582058627",
      "longitude": "-90.11961563380379"
    }
  },
  {
    "service_request": "2024-1079981",
    "request_type": "Property Maintenance",
    "request_reason": "Property Maintenance",
    "date_created": "2024-03-30T13:55:14.000",
    "date_modified": "2024-03-30T13:55:14.000",
    "request_status": "Pending",
    "responsible_agency": "Department of Code Enforcement",
    "final_address": "2800 Seine St",
    "address_councildis": "C",
    "status": "Pending",
    "rowid": "1079981",
    "final_x": "3693311.14614",
    "final_y": "521066.519417",
    "longitude": "-90.03115025565624",
    "latitude": "29.926388303046597",
    "geocoded_column": {
      "latitude": "29.926388303046597",
      "longitude": "-90.03115025565624"
    }
  },
  {
    "service_request": "2024-1079980",
    "request_type": "Trash/Recycling",
    "request_reason": "Request a Large Item Pick Up",
    "date_created": "2024-03-30T13:49:14.000",
    "date_modified": "2024-03-30T13:49:15.000",
    "request_status": "Pending",
    "responsible_agency": "Department of Sanitation",
    "final_address": "2425 N Johnson St",
    "address_councildis": "D",
    "status": "Assigned to Contractor",
    "contractor": "IV Waste",
    "rowid": "1079980",
    "final_x": "3686477.86543",
    "final_y": "539799.525834",
    "longitude": "-90.05205971220393",
    "latitude": "29.978109421804433",
    "geocoded_column": {
      "latitude": "29.978109421804433",
      "longitude": "-90.05205971220393"
    }
  },