[
  {
    "service_request": "2024-1062638",
    "request_type": "Trash/Recycling",
    "request_reason": "Request a Large Item Pick Up",
    "date_created": "2024-01-21T22:33:30.000",
    "date_modified": "2024-01-21T22:33:31.000",
    "request_status": "Pending",
    "responsible_agency": "Department of Sanitation",
    "final_address": "2931 St Claude Ave",
    "address_councildis": "C",
    "status": "Assigned to Contractor",
    "contractor": "IV Waste",
    "rowid": "1062638",
    "final_x": "3688401.44431",
    "final_y": "536252.633159",
    "longitude": "-90.04611022881703",
    "latitude": "29.968297431309566",
    "geocoded_column": {
      "latitude": "29.968297431309566",
      "longitude": "-90.04611022881703"
    }
  },
  {
    "service_request": "2024-1062637",
    "request_type": "Roads/Drainage",
    "request_reason": "Pothole",
    "date_created": "2024-01-21T22:19:25.000",
    "date_modified": "2024-01-21T22:19:25.000",
    "request_status": "Pending",
    "responsible_agency": "Department of Public Works",
    "final_address": "4216 Chestnut St",
    "address_councildis": "B",
    "status": "Pending",
    "rowid": "1062637",
    "final_x": "3671574.31393",
    "final_y": "519539.203703",
    "longitude": "-90.09981939416457",
    "latitude": "29.922850019854593",
    "geocoded_column": {
      "latitude": "29.922850019854593",
      "longitude": "-90.09981939416457"
    }
  },
  {
    "service_request": "2024-1062636",
    "request_type": "Property Maintenance",
    "request_reason": "Property Maintenance",
    "date_created": "2024-01-21T22:16:48.000",
    "date_modified": "2024-01-21T22:16:48.000",
    "request_status": "Pending",
    "responsible_agency": "Department of Code Enforcement",
    "final_address": "2400 Napoleon Ave",
    "address_councildis": "B",
    "status": "Pending",
    "rowid": "1062636",
    "final_x": "3670433.47783",
    "final_y": "523797.044603",
    "longitude": "-90.1032762933551",
    "latitude": "29.93459144002167",
    "geocoded_column": {
      "latitude": "29.93459144002167",
      "longitude": "-90.1032762933551"
    }
  },
  {
    "service_request": "2024-1062635",
    "request_type": "Trash/Recycling",
    "request_reason": "Order Recycling Cart",
    "date_created": "2024-01-21T21:31:58.000",
    "date_modified": "2024-01-21T21:31:58.000",
    "request_status": "Pending",
    "responsible_agency": "Department of Sanitation",
    "final_address": "2543 St Philip St",
    "address_councildis": "D",
    "status": "Pending",
    "rowid": "1062635",
    "final_x": "3677945.98203",
    "final_y": "537479.529608",
    "longitude": "-90.07908665058306",
    "latitude": "29.971989796874894",
    "geocoded_column": {
      "latitude": "29.971989796874894",
      "longitude": "-90.07908665058306"
    }
  },
  {
    "service_request": "2024-1062634",
    "request_type": "Roads/Drainage",
    "request_reason": "Catch Basin - Clogged",
    "date_created": "2024-01-21T21:25:39.000",
    "date_modified": "2024-01-21T21:25:39.000",
    "request_status": "Pending",
    "responsible_agency": "Department of Public Works",
    "final_address": "2455 Laharpe St",
    "address_councildis": "D",
    "status": "Pending",
    "rowid": "1062634",
    "final_x": "3679386.69557",
    "final_y": "539505.495178",
    "longitude": "-90.07446634965271",
    "latitude": "29.97751706233542",
    "geocoded_column": {
      "latitude": "29.97751706233542",
      "longitude": "-90.07446634965271"
    }
  },
  {
    "service_request": "2024-1062633",
    "request_type": "Trash/Recycling",
    "request_reason": "Request a Large Item Pick Up",
    "date_created": "2024-01-21T21:13:35.000",
    "date_modified": "2024-01-21T21:13:36.000",
    "request_status": "Pending",
    "responsible_agency": "Department of Sanitation",
    "final_address": "47 Marywood Ct",
    "address_councildis": "E",
    "status": "Assigned to Contractor",
    "contractor": "Waste Pro",
    "rowid": "1062633",
    "final_x": "3712179.97656",
    "final_y": "567072.598628",
    "longitude": "-89.96985916897015",
    "latitude": "30.052284449063876",
    "geocoded_column": {
      "latitude": "30.052284449063876",
      "longitude": "-89.96985916897015"
    }
  },
  {
    "service_request": "2024-1062632",
    "request_type": "Roads/Drainage",
    "request_reason": "Debris in Roadway",
    "date_created": "2024-01-21T21:11:59.000",
    "date_modified": "2024-01-21T21:11:59.000",
    "request_status": "Pending",
    "responsible_agency": "Department of Public Works",
    "final_address": "7600 BLK Gannon Rd",
    "address_councildis": "E",
    "status": "Pending",
    "rowid": "1062632",
    "final_x": "3716373.68893",
    "final_y": "569891.598849",
    "longitude": "-89.9564971740266",
    "latitude": "30.05989765801519",
    "geocoded_column": {
      "latitude": "30.05989765801519",
      "longitude": "-89.9564971740266"
    }
  },
  {
    "service_request": "2024-1062631",
    "request_type": "Trash/Recycling",
    "request_reason": "Request a Large Item Pick Up",
    "date_created": "2024-01-21T21:07:55.000",
    "date_modified": "2024-01-21T21:07:56.000",
    "request_status": "Pending",
    "responsible_agency": "Department of Sanitation",
    "final_address": "47 Marywood Ct",
    "address_councildis": "E",
    "status": "Assigned to Contractor",
    "contractor": "Waste Pro",
    "rowid": "1062631",
    "final_x": "3712179.97656",
    "final_y": "567072.598628",
    "longitude": "-89.96985916897015",
    "latitude": "30.052284449063876",
    "geocoded_column": {
      "latitude": "30.052284449063876",
      "longitude": "-89.96985916897015"
    }
  },
  {
    "service_request": "2024-1062630",
    "request_type": "Trash/Recycling",
    "request_reason": "Replace Trash Cart",
    "date_created": "2024-01-21T21:02:35.000",
    "date_modified": "2024-01-21T21:02:37.000",
    "request_status": "Pending",
    "responsible_agency": "Department of Sanitation",
    "final_address": "6215 Craigie Rd",
    "address_councildis": "E",
    "status": "Assigned to Contractor",
    "contractor": "Waste Pro",
    "rowid": "1062630",
    "final_x": "3696112.31632",
    "final_y": "558956.677404",
    "longitude": "-90.02093785348474",
    "latitude": "30.030484733046006",
    "geocoded_column": {
      "latitude": "30.030484733046006",
      "longitude": "-90.02093785348474"
    }
  },
  {
    "service_request": "2024-1062629",
    "request_type": "Traffic Signals/Signs/Striping/Streetlights",
    "request_reason": "Street Light Outage/Malfunction",
    "date_created": "2024-01-21T20:56:08.000",
    "date_modified": "2024-01-21T20:56:09.000",
    "request_status": "Pending",
    "responsible_agency": "Department of Public Works",
    "final_address": "3369 State Street Dr",
    "address_councildis": "A",
    "status": "Assigned to Contractor",
    "contractor": "Legacy Professional Services",
    "rowid": "1062629",
    "final_x": "3667858.05236",
    "final_y": "528807.869824",
    "longitude": "-90.11123816553213",
    "latitude": "29.948445362173977",
    "geocoded_column": {
      "latitude": "29.948445362173977",
      "longitude": "-90.11123816553213"
    }
  },
  {
    "service_request": "2024-1062628",
    "request_type": "Roads/Drainage",
    "request_reason": "Damaged Sidewalk",
    "date_created": "2024-01-21T20:06:06.000",
    "date_modified": "2024-01-21T20:06:06.000",
    "request_status": "Pending",
    "responsible_agency": "Department of Public Works",
    "final_address": "127 Lavergne St",
    "address_councildis": "C",
    "status": "Pending",
    "rowid": "1062628",
    "final_x": "3686464.38818",
    "final_y": "531103.426434",
    "longitude": "-90.05240931061171",
    "latitude": "29.954198583978037",
    "geocoded_column": {
      "latitude": "29.954198583978037",
      "longitude": "-90.05240931061171"
    }
  },
  {
    "service_request": "2024-1062627",
    "request_type": "Trash/Recycling",
    "request_reason": "Replace Trash Cart",
    "date_created": "2024-01-21T18:44:33.000",
    "date_modified": "2024-01-21T18:44:34.000",
    "request_status": "Pending",
    "responsible_agency": "Department of Sanitation",
    "final_address": "4351 General Meyer Ave",
    "address_councildis": "C",
    "status": "Assigned to Contractor",
    "contractor": "Richards Disposal",
    "rowid": "1062627",
    "final_x": "3699838.70736",
    "final_y": "524243.840828",
    "longitude": "-90.01042891212292",
    "latitude": "29.934919249332747",
    "geocoded_column": {
      "latitude": "29.934919249332747",
      "longitude": "-90.01042891212292"
    }
  },
  {
    "service_request": "2024-1062626",
    "request_type": "Roads/Drainage",
    "request_reason": "Pothole",
    "date_created": "2024-01-21T18:43:58.000",
    "date_modified": "2024-01-21T18:43:58.000",
    "request_status": "Pending",
    "responsible_agency": "Department of Public Works",
    "final_address": "MOUTON ST & CANAL BLVD",
    "address_councildis": "A",
    "status": "Pending",
    "rowid": "1062626",
    "final_x": "3668972.8",
    "final_y": "553337.68",
    "longitude": "-90.10688944060529",
    "latitude": "30.015861275317334",
    "geocoded_column": {
      "latitude": "30.015861275317334",
      "longitude": "-90.10688944060529"
    }
  },
  {
    "service_request": "2024-1062625",
    "request_type": "Trash/Recycling",
    "request_reason": "Request a Large Item Pick Up",
    "date_created": "2024-01-21T18:11:19.000",
    "date_modified": "2024-01-21T18:11:20.000",
    "request_status": "Pending",
    "responsible_agency": "Department of Sanitation",
    "final_address": "2604 Constance St",
    "address_councildis": "B",
    "status": "Assigned to Contractor",
    "contractor": "Richards Disposal",
    "rowid": "1062625",
    "final_x": "3677744.38882",
    "final_y": "520793.550777",
    "longitude": "-90.08029958323586",
    "latitude": "29.92611498715494",
    "geocoded_column": {
      "latitude": "29.92611498715494",
      "longitude": "-90.08029958323586"
    }
  },
  {
    "service_request": "2024-1062624",
    "request_type": "Trash/Recycling",
    "request_reason": "Order Recycling Cart",
    "date_created": "2024-01-21T18:09:13.000",
    "date_modified": "2024-01-21T18:09:13.000",
    "request_status": "Pending",
    "responsible_agency": "Department of Sanitation",
    "final_address": "2301 Dumaine St",
    "address_councildis": "D",
    "status": "Pending",
    "rowid": "1062624",
    "final_x": "3678500.49051",
    "final_y": "536554.283079",
    "longitude": "-90.07736745182231",
    "latitude": "29.96942898458777",
    "geocoded_column": {
      "latitude": "29.96942898458777",
      "longitude": "-90.07736745182231"
    }
  },
  {
    "service_request": "2024-1062623",
    "request_type": "Trash/Recycling",
    "request_reason": "Request a Large Item Pick Up",
    "date_created": "2024-01-21T17:21:33.000",
    "date_modified": "2024-01-21T17:21:34.000",
    "request_status": "Pending",
    "responsible_agency": "Department of Sanitation",
    "final_address": "223 N Norman C Francis Prkwy",
    "address_councildis": "B",
    "status": "Assigned to Contractor",
    "contractor": "Richards Disposal",
    "rowid": "1062623",
    "final_x": "3673473.28782",
    "final_y": "537328.340616",
    "longitude": "-90.09321733495887",
    "latitude": "29.97170793939713",
    "geocoded_column": {
      "latitude": "29.97170793939713",
      "longitude": "-90.09321733495887"
    }
  },
  {
    "service_request": "2024-1062622",
    "request_type": "Traffic Signals/Signs/Striping/Streetlights",
    "request_reason": "Traffic Signal Malfunctioning/Damaged",
    "date_created": "2024-01-21T17:19:22.000",
    "date_modified": "2024-01-21T17:19:22.000",
    "request_status": "Pending",
    "responsible_agency": "Department of Public Works",
    "final_address": "1215 Franklin Ave",
    "address_councildis": "C",
    "status": "Pending",
    "rowid": "1062622",
    "final_x": "3687278.92674",
    "final_y": "536938.412744",
    "longitude": "-90.04963091817498",
    "latitude": "29.97021771164346",
    "geocoded_column": {
      "latitude": "29.97021771164346",
      "longitude": "-90.04963091817498"
    }
  },
  {
    "service_request": "2024-1062621",
    "request_type": "Trash/Recycling",
    "request_reason": "Order Recycling Cart",
    "date_created": "2024-01-21T17:14:27.000",
    "date_modified": "2024-01-21T17:14:27.000",
    "request_status": "Pending",
    "responsible_agency": "Department of Sanitation",
    "final_address": "4614 Allen St",
    "address_councildis": "D",
    "status": "Pending",
    "rowid": "1062621",
    "final_x": "3681660.93589",
    "final_y": "549518.229267",
    "longitude": "-90.06693402993716",
    "latitude": "30.0049796437878",
    "geocoded_column": {
      "latitude": "30.0049796437878",
      "longitude": "-90.06693402993716"
    }
  },
  {
    "service_request": "2024-1062620",
    "request_type": "Trash/Recycling",
    "request_reason": "Request a Large Item Pick Up",
    "date_created": "2024-01-21T17:12:27.000",
    "date_modified": "2024-01-21T17:12:28.000",
    "request_status": "Pending",
    "responsible_agency": "Department of Sanitation",
    "final_address": "4614 Allen St",
    "address_councildis": "D",
    "status": "Assigned to Contractor",
    "contractor": "IV Waste",
    "rowid": "1062620",
    "final_x": "3681660.93589",
    "final_y": "549518.229267",
    "longitude": "-90.06693402993716",
    "latitude": "30.0049796437878",
    "geocoded_column": {
      "latitude": "30.0049796437878",
      "longitude": "-90.06693402993716"
    }
  },
  {
    "service_request": "2024-1062619",
    "request_type": "Trash/Recycling",
    "request_reason": "Order Recycling Cart",
    "date_created": "2024-01-21T17:05:35.000",
    "date_modified": "2024-01-21T17:05:35.000",
    "request_status": "Pending",
    "responsible_agency": "Department of Sanitation",
    "final_address": "227 N St Patrick St",
    "address_councildis": "A",
    "status": "Pending",
    "rowid": "1062619",
    "final_x": "3669444.39028",
    "final_y": "540415.312715",
    "longitude": "-90.10583680774866",
    "latitude": "29.98031535221631",
    "geocoded_column": {
      "latitude": "29.98031535221631",
      "longitude": "-90.10583680774866"
    }
  },
  {
    "service_request": "2024-1062618",
    "request_type": "Trash/Recycling",
    "request_reason": "Request a Large Item Pick Up",
    "date_created": "2024-01-21T16:19:19.000",
    "date_modified": "2024-01-21T16:19:20.000",
    "request_status": "Pending",
    "responsible_agency": "Department of Sanitation",
    "final_address": "2 Hawk St",
    "address_councildis": "D",
    "status": "Assigned to Contractor",
    "contractor": "IV Waste",
    "rowid": "1062618",
    "final_x": "3672111.76353",
    "final_y": "555663.102553",
    "longitude": "-90.09689242146538",
    "latitude": "30.02216260121542",
    "geocoded_column": {
      "latitude": "30.02216260121542",
      "longitude": "-90.09689242146538"
    }
  },
  {
    "service_request": "2024-1062617",
    "request_type": "Abandoned Vehicles",
    "request_reason": "Abandoned/Junk Vehicles",
    "date_created": "2024-01-21T16:12:40.000",
    "date_modified": "2024-01-21T16:12:40.000",
    "request_status": "Pending",
    "responsible_agency": "Department of Public Works",
    "final_address": "South Solomon Street & Ulloa Street",
    "address_councildis": "A",
    "status": "Pending",
    "rowid": "1062617",
    "final_x": "3669163.76455",
    "final_y": "536849.832648",
    "longitude": "-90.10684368519937",
    "latitude": "29.970519745742173",
    "geocoded_column": {
      "latitude": "29.970519745742173",
      "longitude": "-90.10684368519937"
    }
  },
  {
    "service_request": "2024-1062615",
    "request_type": "Property Maintenance",
    "request_reason": "Property Maintenance",
    "date_created": "2024-01-21T15:53:01.000",
    "date_modified": "2024-01-21T15:53:01.000",
    "request_status": "Pending",
    "responsible_agency": "Department of Code Enforcement",
    "final_address": "2101 Robert St",
    "address_councildis": "B",
    "status": "Pending",
    "rowid": "1062615",
    "final_x": "3668830.03706",
    "final_y": "523241.682235",
    "longitude": "-90.10835708081",
    "latitude": "29.933111603996934",
    "geocoded_column": {
      "latitude": "29.933111603996934",
      "longitude": "-90.10835708081"
    }
  },
  {
    "service_request": "2024-1062614",
    "request_type": "Roads/Drainage",
    "request_reason": "Pothole",
    "date_created": "2024-01-21T15:46:48.000",
    "date_modified": "2024-01-21T15:46:48.000",
    "request_status": "Pending",
    "responsible_agency": "Department of Public Works",
    "final_address": "1301 Constantinople St",
    "address_councildis": "B",
    "status": "Pending",
    "rowid": "1062614",
    "final_x": "3672430.66305",
    "final_y": "520250.7726",
    "longitude": "-90.09709199725775",
    "latitude": "29.924781230435865",
    "geocoded_column": {
      "latitude": "29.924781230435865",
      "longitude": "-90.09709199725775"
    }
  },
  {
    "service_request": "2024-1062613",
    "request_type": "Abandoned Vehicles",
    "request_reason": "Abandoned/Junk Vehicles",
    "date_created": "2024-01-21T15:16:49.000",
    "date_modified": "2024-01-21T15:16:49.000",
    "request_status": "Pending",
    "responsible_agency": "Department of Public Works",
    "final_address": "2708 S Carrollton Ave",
    "address_councildis": "A",
    "status": "Pending",
    "rowid": "1062613",
    "final_x": "3665652.67418",
    "final_y": "532454.124164",
    "longitude": "-90.11807938984224",
    "latitude": "29.958535867283196",
    "geocoded_column": {
      "latitude": "29.958535867283196",
      "longitude": "-90.11807938984224"
    }
  },
  {
    "service_request": "2024-1062612",
    "request_type": "Abandoned Vehicles",
    "request_reason": "Abandoned/Junk Vehicles",
    "date_created": "2024-01-21T15:14:52.000",
    "date_modified": "2024-01-21T15:14:52.000",
    "request_status": "Pending",
    "responsible_agency": "Department of Public Works",
    "final_address": "2708 S Carrollton Ave, New Orleans, Louisiana, 70118",
    "address_councildis": "A",
    "status": "Pending",
    "rowid": "1062612",
    "final_x": "3665652.67418",
    "final_y": "532454.124164",
    "longitude": "-90.11807938984224",
    "latitude": "29.958535867283196",
    "geocoded_column": {
      "latitude": "29.958535867283196",
      "longitude": "-90.11807938984224"
    }
  },
  {
    "service_request": "2024-1062611",
    "request_type": "Trash/Recycling",
    "request_reason": "Request a Large Item Pick Up",
    "date_created": "2024-01-21T15:13:58.000",
    "date_modified": "2024-01-21T15:13:59.000",
    "request_status": "Pending",
    "responsible_agency": "Department of Sanitation",
    "final_address": "3326 Plymouth Pl",
    "address_councildis": "C",
    "status": "Assigned to Contractor",
    "contractor": "Richards Disposal",
    "rowid": "1062611",
    "final_x": "3702868.40311",
    "final_y": "518909.216055",
    "longitude": "-90.00106008090722",
    "latitude": "29.92015435519999",
    "geocoded_column": {
      "latitude": "29.92015435519999",
      "longitude": "-90.00106008090722"
    }
  },
  {
    "service_request": "2024-1062610",
    "request_type": "Roads/Drainage",
    "request_reason": "Pothole",
    "date_created": "2024-01-21T15:09:19.000",
    "date_modified": "2024-01-21T15:09:19.000",
    "request_status": "Pending",
    "responsible_agency": "Department of Public Works",
    "final_address": "4216 Chestnut St",
    "address_councildis": "B",
    "status": "Pending",
    "rowid": "1062610",
    "final_x": "3671574.31393",
    "final_y": "519539.203703",
    "longitude": "-90.09981939416457",
    "latitude": "29.922850019854593",
    "geocoded_column": {
      "latitude": "29.922850019854593",
      "longitude": "-90.09981939416457"
    }
  },
  {
    "service_request": "2024-1062609",
    "request_type": "Trash/Recycling",
    "request_reason": "Replace Trash Cart",
    "date_created": "2024-01-21T15:05:33.000",
    "date_modified": "2024-01-21T15:05:34.000",
    "request_status": "Pending",
    "responsible_agency": "Department of Sanitation",
    "final_address": "5519 Perrier St",
    "address_councildis": "A",
    "status": "Assigned to Contractor",
    "contractor": "Richards Disposal",
    "rowid": "1062609",
    "final_x": "3666567.18138",
    "final_y": "520212.087544",
    "longitude": "-90.11560243180904",
    "latitude": "29.924847503312908",
    "geocoded_column": {
      "latitude": "29.924847503312908",
      "longitude": "-90.11560243180904"
    }
  },
  {
    "service_request": "2024-1062608",
    "request_type": "Roads/Drainage",
    "request_reason": "Pothole",
    "date_created": "2024-01-21T14:51:44.000",
    "date_modified": "2024-01-21T14:51:44.000",
    "request_status": "Pending",
    "responsible_agency": "Department of Public Works",
    "final_address": "5915 Pitt St",
    "address_councildis": "A",
    "status": "Pending",
    "rowid": "1062608",
    "final_x": "3665542.56448",
    "final_y": "521174.406329",
    "longitude": "-90.11880462457182",
    "latitude": "29.927523478234637",
    "geocoded_column": {
      "latitude": "29.927523478234637",
      "longitude": "-90.11880462457182"
    }
  },
  {
    "service_request": "2024-1062607",
    "request_type": "Roads/Drainage",
    "request_reason": "Pothole",
    "date_created": "2024-01-21T14:49:22.000",
    "date_modified": "2024-01-21T14:49:22.000",
    "request_status": "Pending",
    "responsible_agency": "Department of Public Works",
    "final_address": "1208 Henry Clay Ave",
    "address_councildis": "A",
    "status": "Pending",
    "rowid": "1062607",
    "final_x": "3664264.90919",
    "final_y": "520961.131129",
    "longitude": "-90.12284499971729",
    "latitude": "29.92697421404992",
    "geocoded_column": {
      "latitude": "29.92697421404992",
      "longitude": "-90.12284499971729"
    }
  },
  {
    "service_request": "2024-1062606",
    "request_type": "Trash/Recycling",
    "request_reason": "Return Trash Cart",
    "date_created": "2024-01-21T14:38:34.000",
    "date_modified": "2024-01-21T14:38:35.000",
    "request_status": "Pending",
    "responsible_agency": "Department of Sanitation",
    "final_address": "940 Joliet St",
    "address_councildis": "A",
    "status": "Assigned to Contractor",
    "contractor": "Richards Disposal",
    "rowid": "1062606",
    "final_x": "3660377.11302",
    "final_y": "528814.957824",
    "longitude": "-90.13485850681022",
    "latitude": "29.948682122074917",
    "geocoded_column": {
      "latitude": "29.948682122074917",
      "longitude": "-90.13485850681022"
    }
  },
  {
    "service_request": "2024-1062605",
    "request_type": "Trash/Recycling",
    "request_reason": "MIssed Recycling Pick-Up",
    "date_created": "2024-01-21T14:27:05.000",
    "date_modified": "2024-01-21T14:27:06.000",
    "request_status": "Pending",
    "responsible_agency": "Department of Sanitation",
    "final_address": "3314 Broadway St",
    "address_councildis": "B",
    "status": "Assigned to Contractor",
    "contractor": "Richards Disposal",
    "rowid": "1062605",
    "final_x": "3668386.67022",
    "final_y": "532852.66842",
    "longitude": "-90.10943268163588",
    "latitude": "29.959551719631513",
    "geocoded_column": {
      "latitude": "29.959551719631513",
      "longitude": "-90.10943268163588"
    }
  },
  {
    "service_request": "2024-1062604",
    "request_type": "Trash/Recycling",
    "request_reason": "MIssed Recycling Pick-Up",
    "date_created": "2024-01-21T14:25:56.000",
    "date_modified": "2024-01-21T14:25:57.000",
    "request_status": "Pending",
    "responsible_agency": "Department of Sanitation",
    "final_address": "3314 Broadway St",
    "address_councildis": "B",
    "status": "Assigned to Contractor",
    "contractor": "Richards Disposal",
    "rowid": "1062604",
    "final_x": "3668386.67022",
    "final_y": "532852.66842",
    "longitude": "-90.10943268163588",
    "latitude": "29.959551719631513",
    "geocoded_column": {
      "latitude": "29.959551719631513",
      "longitude": "-90.10943268163588"
    }
  },
  {
    "service_request": "2024-1062603",
    "request_type": "Trash/Recycling",
    "request_reason": "Order Recycling Cart",
    "date_created": "2024-01-21T14:10:20.000",
    "date_modified": "2024-01-21T14:10:20.000",
    "request_status": "Pending",
    "responsible_agency": "Department of Sanitation",
    "final_address": "3715 State Street Dr",
    "address_councildis": "A",
    "status": "Pending",
    "rowid": "1062603",
    "final_x": "3668058.37761",
    "final_y": "529444.268993",
    "longitude": "-90.11058421062349",
    "latitude": "29.950189376259914",
    "geocoded_column": {
      "latitude": "29.950189376259914",
      "longitude": "-90.11058421062349"
    }
  },
  {
    "service_request": "2024-1062602",
    "request_type": "Trash/Recycling",
    "request_reason": "Request a Large Item Pick Up",
    "date_created": "2024-01-21T14:00:12.000",
    "date_modified": "2024-01-21T14:00:13.000",
    "request_status": "Pending",
    "responsible_agency": "Department of Sanitation",
    "final_address": "25 Heron St",
    "address_councildis": "D",
    "status": "Assigned to Contractor",
    "contractor": "IV Waste",
    "rowid": "1062602",
    "final_x": "3675116.78497",
    "final_y": "555477.507865",
    "longitude": "-90.08740366761765",
    "latitude": "30.02156278004902",
    "geocoded_column": {
      "latitude": "30.02156278004902",
      "longitude": "-90.08740366761765"
    }
  },
  {
    "service_request": "2024-1062601",
    "request_type": "Roads/Drainage",
    "request_reason": "Pothole",
    "date_created": "2024-01-21T13:35:53.000",
    "date_modified": "2024-01-21T13:35:53.000",
    "request_status": "Pending",
    "responsible_agency": "Department of Public Works",
    "final_address": "1503 Valence St",
    "address_councildis": "B",
    "status": "Pending",
    "rowid": "1062601",
    "final_x": "3669815.40481",
    "final_y": "520519.79692",
    "longitude": "-90.10533842228018",
    "latitude": "29.92559828720276",
    "geocoded_column": {
      "latitude": "29.92559828720276",
      "longitude": "-90.10533842228018"
    }
  },
  {
    "service_request": "2024-1062600",
    "request_type": "Trash/Recycling",
    "request_reason": "Request a Large Item Pick Up",
    "date_created": "2024-01-21T11:55:30.000",
    "date_modified": "2024-01-21T11:55:31.000",
    "request_status": "Pending",
    "responsible_agency": "Department of Sanitation",
    "final_address": "7408 Zimple St",
    "address_councildis": "A",
    "status": "Assigned to Contractor",
    "contractor": "Richards Disposal",
    "rowid": "1062600",
    "final_x": "3663395.86317",
    "final_y": "526548.00371",
    "longitude": "-90.12540244297541",
    "latitude": "29.942361560994343",
    "geocoded_column": {
      "latitude": "29.942361560994343",
      "longitude": "-90.12540244297541"
    }
  },
  {
    "service_request": "2024-1062599",
    "request_type": "Property Maintenance",
    "request_reason": "Property Maintenance",
    "date_created": "2024-01-21T11:38:16.000",
    "date_modified": "2024-01-21T11:38:16.000",
    "request_status": "Pending",
    "responsible_agency": "Department of Code Enforcement",
    "final_address": "2017 Dumaine St",
    "address_councildis": "D",
    "status": "Pending",
    "rowid": "1062599",
    "final_x": "3679256.59829",
    "final_y": "535963.853447",
    "longitude": "-90.07500007920878",
    "latitude": "29.96778269502809",
    "geocoded_column": {
      "latitude": "29.96778269502809",
      "longitude": "-90.07500007920878"
    }
  },
  {
    "service_request": "2024-1062598",
    "request_type": "Trash/Recycling",
    "request_reason": "Replace Trash Cart",
    "date_created": "2024-01-21T10:48:21.000",
    "date_modified": "2024-01-21T10:48:22.000",
    "request_status": "Pending",
    "responsible_agency": "Department of Sanitation",
    "final_address": "8617 Green St. New Orleans, La 70118",
    "address_councildis": "A",
    "status": "Assigned to Contractor",
    "contractor": "Richards Disposal",
    "rowid": "1062598",
    "final_x": "3661738.61741",
    "final_y": "530999.923522",
    "longitude": "-90.13048721658397",
    "latitude": "29.95465084852891",
    "geocoded_column": {
      "latitude": "29.95465084852891",
      "longitude": "-90.13048721658397"
    }
  },
  {
    "service_request": "2024-1062596",
    "request_type": "Trash/Recycling",
    "request_reason": "Request a Large Item Pick Up",
    "date_created": "2024-01-21T10:08:40.000",
    "date_modified": "2024-01-21T10:08:41.000",
    "request_status": "Pending",
    "responsible_agency": "Department of Sanitation",
    "final_address": "2244 Killdeer St",
    "address_councildis": "D",
    "status": "Assigned to Contractor",
    "contractor": "IV Waste",
    "rowid": "1062596",
    "final_x": "3684063.82626",
    "final_y": "557452.551451",
    "longitude": "-90.05906405841488",
    "latitude": "30.026722885274488",
    "geocoded_column": {
      "latitude": "30.026722885274488",
      "longitude": "-90.05906405841488"
    }
  },
  {
    "service_request": "2024-1062595",
    "request_type": "Trash/Recycling",
    "request_reason": "Replace Recycling Cart",
    "date_created": "2024-01-21T09:53:18.000",
    "date_modified": "2024-01-21T09:53:18.000",
    "request_status": "Pending",
    "responsible_agency": "Department of Sanitation",
    "final_address": "1535 Eleonore St",
    "address_councildis": "A",
    "status": "Pending",
    "rowid": "1062595",
    "final_x": "3665918.4144",
    "final_y": "521978.285498",
    "longitude": "-90.11759122912662",
    "latitude": "29.929722932149655",
    "geocoded_column": {
      "latitude": "29.929722932149655",
      "longitude": "-90.11759122912662"
    }
  },
  {
    "service_request": "2024-1062594",
    "request_type": "Traffic Signals/Signs/Striping/Streetlights",
    "request_reason": "Traffic Signal Malfunctioning/Damaged",
    "date_created": "2024-01-21T09:49:09.000",
    "date_modified": "2024-01-21T09:49:09.000",
    "request_status": "Pending",
    "responsible_agency": "Department of Public Works",
    "final_address": "1522 Felicity St",
    "address_councildis": "B",
    "status": "Pending",
    "rowid": "1062594",
    "final_x": "3678765.41243",
    "final_y": "524239.630268",
    "longitude": "-90.07695723016643",
    "latitude": "29.935559836098978",
    "geocoded_column": {
      "latitude": "29.935559836098978",
      "longitude": "-90.07695723016643"
    }
  },
  {
    "service_request": "2024-1062593",
    "request_type": "Trash/Recycling",
    "request_reason": "Order Recycling Cart",
    "date_created": "2024-01-21T09:32:43.000",
    "date_modified": "2024-01-21T09:32:43.000",
    "request_status": "Pending",
    "responsible_agency": "Department of Sanitation",
    "final_address": "315 Audubon St",
    "address_councildis": "A",
    "status": "Pending",
    "rowid": "1062593",
    "final_x": "3661649.84838",
    "final_y": "522136.685498",
    "longitude": "-90.13106116679486",
    "latitude": "29.93028232433891",
    "geocoded_column": {
      "latitude": "29.93028232433891",
      "longitude": "-90.13106116679486"
    }
  },
  {
    "service_request": "2024-1062592",
    "request_type": "Trash/Recycling",
    "request_reason": "Request a Large Item Pick Up",
    "date_created": "2024-01-21T09:31:41.000",
    "date_modified": "2024-01-21T09:31:42.000",
    "request_status": "Pending",
    "responsible_agency": "Department of Sanitation",
    "final_address": "815 Lyons St, New Orleans, Louisiana, 70115",
    "address_councildis": "B",
    "status": "Assigned to Contractor",
    "contractor": "Richards Disposal",
    "rowid": "1062592",
    "final_x": "3669314.99745",
    "final_y": "518367.630454",
    "longitude": "-90.10699077035073",
    "latitude": "29.91969524810978",
    "geocoded_column": {
      "latitude": "29.91969524810978",
      "longitude": "-90.10699077035073"
    }
  },
  {
    "service_request": "2024-1062590",
    "request_type": "Roads/Drainage",
    "request_reason": "Street Flooding / Drainage",
    "date_created": "2024-01-21T09:01:28.000",
    "date_modified": "2024-01-21T09:01:28.000",
    "request_status": "Pending",
    "responsible_agency": "Department of Public Works",
    "final_address": "1436 Nashville Ave",
    "address_councildis": "A",
    "status": "Pending",
    "rowid": "1062590",
    "final_x": "3665926.99981",
    "final_y": "521249.450873",
    "longitude": "-90.11758853810002",
    "latitude": "29.927718617023086",
    "geocoded_column": {
      "latitude": "29.927718617023086",
      "longitude": "-90.11758853810002"
    }
  },
  {
    "service_request": "2024-1062589",
    "request_type": "Roads/Drainage",
    "request_reason": "Damaged Sidewalk",
    "date_created": "2024-01-21T08:12:20.000",
    "date_modified": "2024-01-21T08:12:20.000",
    "request_status": "Pending",
    "responsible_agency": "Department of Public Works",
    "final_address": "4233 Erato St",
    "address_councildis": "B",
    "status": "Pending",
    "rowid": "1062589",
    "final_x": "3670926.78977",
    "final_y": "531507.190211",
    "longitude": "-90.10145723013032",
    "latitude": "29.955777252762",
    "geocoded_column": {
      "latitude": "29.955777252762",
      "longitude": "-90.10145723013032"
    }
  },
  {
    "service_request": "2024-1062588",
    "request_type": "Trash/Recycling",
    "request_reason": "Replace Trash Cart",
    "date_created": "2024-01-21T07:35:31.000",
    "date_modified": "2024-01-21T07:35:32.000",
    "request_status": "Pending",
    "responsible_agency": "Department of Sanitation",
    "final_address": "3611 Timber Bluff Ln",
    "address_councildis": "C",
    "status": "Assigned to Contractor",
    "contractor": "Richards Disposal",
    "rowid": "1062588",
    "final_x": "3704124.47018",
    "final_y": "511144.921008",
    "longitude": "-89.99738105178469",
    "latitude": "29.89876498070369",
    "geocoded_column": {
      "latitude": "29.89876498070369",
      "longitude": "-89.99738105178469"
    }
  },
  {
    "service_request": "2024-1062587",
    "request_type": "Abandoned Vehicles",
    "request_reason": "Vehicle Blocking Your Driveway",
    "date_created": "2024-01-21T07:23:59.000",
    "date_modified": "2024-01-21T07:23:59.000",
    "request_status": "Pending",
    "responsible_agency": "Department of Public Works",
    "final_address": "MIRABEAU AVE & DEMONTLUZIN ST",
    "address_councildis": "D",
    "status": "Pending",
    "rowid": "1062587",
    "final_x": "3687114.7",
    "final_y": "550968.18",
    "longitude": "-90.04965318782286",
    "latitude": "30.008799615435663",
    "geocoded_column": {
      "latitude": "30.008799615435663",
      "longitude": "-90.04965318782286"
    }
  },
  {
    "service_request": "2024-1062586",
    "request_type": "Traffic Signals/Signs/Striping/Streetlights",
    "request_reason": "Street Light Outage/Malfunction",
    "date_created": "2024-01-21T05:50:08.000",
    "date_modified": "2024-01-21T05:50:09.000",
    "request_status": "Pending",
    "responsible_agency": "Department of Public Works",
    "final_address": "4836 Elysian Fields Ave",
    "address_councildis": "D",
    "status": "Assigned to Contractor",
    "contractor": "Legacy Professional Services",
    "rowid": "1062586",
    "final_x": "3683754.79433",
    "final_y": "550605.360084",
    "longitude": "-90.06028095045576",
    "latitude": "30.007905063085374",
    "geocoded_column": {
      "latitude": "30.007905063085374",
      "longitude": "-90.06028095045576"
    }
  },
  {
    "service_request": "2024-1062585",
    "request_type": "Trash/Recycling",
    "request_reason": "Illegal Dumping",
    "date_created": "2024-01-21T04:39:35.000",
    "date_modified": "2024-01-21T04:39:35.000",
    "request_status": "Pending",
    "responsible_agency": "Department of Sanitation",
    "final_address": "12330 S Interstate 10 Service Rd",
    "address_councildis": "E",
    "status": "Pending",
    "rowid": "1062585",
    "final_x": "3717035.68165",
    "final_y": "566171.364003",
    "longitude": "-89.9545461761855",
    "latitude": "30.04964665808399",
    "geocoded_column": {
      "latitude": "30.04964665808399",
      "longitude": "-89.9545461761855"
    }
  },
  {
    "service_request": "2024-1062584",
    "request_type": "Health Related Request",
    "request_reason": "Noise Ordinance Complaint",
    "date_created": "2024-01-21T00:59:11.000",
    "date_modified": "2024-01-21T00:59:11.000",
    "request_status": "Pending",
    "responsible_agency": "Health Department",
    "final_address": "309 Decatur St, New Orleans, Louisiana, 70130",
    "address_councildis": "C",
    "status": "Pending",
    "rowid": "1062584",
    "final_x": "3682303.87119",
    "final_y": "530935.66509",
    "longitude": "-90.06555240294671",
    "latitude": "29.953864528206758",
    "geocoded_column": {
      "latitude": "29.953864528206758",
      "longitude": "-90.06555240294671"
    }
  },
  {
    "service_request": "2024-1062583",
    "request_type": "Roads/Drainage",
    "request_reason": "Pothole",
    "date_created": "2024-01-20T22:05:39.000",
    "date_modified": "2024-01-20T22:05:39.000",
    "request_status": "Pending",
    "responsible_agency": "Department of Public Works",
    "final_address": "1515 Dufossat St",
    "address_councildis": "B",
    "status": "Pending",
    "rowid": "1062583",
    "final_x": "3668192.20609",
    "final_y": "520568.892024",
    "longitude": "-90.11046072712098",
    "latitude": "29.925781016168",
    "geocoded_column": {
      "latitude": "29.925781016168",
      "longitude": "-90.11046072712098"
    }
  },
  {
    "service_request": "2024-1062582",
    "request_type": "Trash/Recycling",
    "request_reason": "Request a Large Item Pick Up",
    "date_created": "2024-01-20T20:05:59.000",
    "date_modified": "2024-01-20T20:06:00.000",
    "request_status": "Pending",
    "responsible_agency": "Department of Sanitation",
    "final_address": "0 BLK Grand Canyon Dr",
    "address_councildis": "C",
    "status": "Assigned to Contractor",
    "contractor": "Richards Disposal",
    "rowid": "1062582",
    "final_x": "3699685.4126",
    "final_y": "517012.200671",
    "longitude": "-90.01117629050734",
    "latitude": "29.915039587404035",
    "geocoded_column": {
      "latitude": "29.915039587404035",
      "longitude": "-90.01117629050734"
    }
  },
  {
    "service_request": "2024-1062581",
    "request_type": "Roads/Drainage",
    "request_reason": "Pothole",
    "date_created": "2024-01-20T19:21:32.000",
    "date_modified": "2024-01-20T19:21:32.000",
    "request_status": "Pending",
    "responsible_agency": "Department of Public Works",
    "final_address": "GENERAL MEYER AVE & WOODLAND DR & WOODLAND PL",
    "address_councildis": "C",
    "status": "Pending",
    "rowid": "1062581",
    "final_x": "3705605.3",
    "final_y": "521490.58",
    "longitude": "-89.99232571732016",
    "latitude": "29.92716442391466",
    "geocoded_column": {
      "latitude": "29.92716442391466",
      "longitude": "-89.99232571732016"
    }
  },
  {
    "service_request": "2024-1062580",
    "request_type": "Roads/Drainage",
    "request_reason": "Pothole",
    "date_created": "2024-01-20T19:19:45.000",
    "date_modified": "2024-01-20T19:19:45.000",
    "request_status": "Pending",
    "responsible_agency": "Department of Public Works",
    "final_address": "GENERAL MEYER AVE & WOODLAND DR & WOODLAND PL",
    "address_councildis": "C",
    "status": "Pending",
    "rowid": "1062580",
    "final_x": "3705605.3",
    "final_y": "521490.58",
    "longitude": "-89.99232571732016",
    "latitude": "29.92716442391466",
    "geocoded_column": {
      "latitude": "29.92716442391466",
      "longitude": "-89.99232571732016"
    }
  },
  {
    "service_request": "2024-1062579",
    "request_type": "Abandoned Vehicles",
    "request_reason": "Abandoned/Junk Vehicles",
    "date_created": "2024-01-20T19:12:58.000",
    "date_modified": "2024-01-20T19:12:58.000",
    "request_status": "Pending",
    "responsible_agency": "Department of Public Works",
    "final_address": "2120 Ellen Park Pl",
    "address_councildis": "C",
    "status": "Pending",
    "rowid": "1062579",
    "final_x": "3702999.51588",
    "final_y": "523029.118843",
    "longitude": "-90.00049495528856",
    "latitude": "29.931478467748363",
    "geocoded_column": {
      "latitude": "29.931478467748363",
      "longitude": "-90.00049495528856"
    }
  },
  {
    "service_request": "2024-1062577",
    "request_type": "Safety & Permits",
    "request_reason": "Healthy Homes",
    "date_created": "2024-01-20T18:32:04.000",
    "date_modified": "2024-01-20T18:32:04.000",
    "request_status": "Pending",
    "responsible_agency": "Safety and Permits",
    "final_address": "7530 Founders Ct",
    "address_councildis": "E",
    "status": "Pending",
    "rowid": "1062577",
    "final_x": "3725877.12025",
    "final_y": "570643.380135",
    "longitude": "-89.92642860569622",
    "latitude": "30.061647327998223",
    "geocoded_column": {
      "latitude": "30.061647327998223",
      "longitude": "-89.92642860569622"
    }
  },
  {
    "service_request": "2024-1062576",
    "request_type": "Trash/Recycling",
    "request_reason": "Request a Large Item Pick Up",
    "date_created": "2024-01-20T18:11:08.000",
    "date_modified": "2024-01-20T18:11:09.000",
    "request_status": "Pending",
    "responsible_agency": "Department of Sanitation",
    "final_address": "1717 Peniston St",
    "address_councildis": "B",
    "status": "Assigned to Contractor",
    "contractor": "Richards Disposal",
    "rowid": "1062576",
    "final_x": "3672793.1762",
    "final_y": "521679.761849",
    "longitude": "-90.09589894699923",
    "latitude": "29.928699732538934",
    "geocoded_column": {
      "latitude": "29.928699732538934",
      "longitude": "-90.09589894699923"
    }
  },
  {
    "service_request": "2024-1062575",
    "request_type": "Trash/Recycling",
    "request_reason": "Order Trash Cart",
    "date_created": "2024-01-20T17:07:02.000",
    "date_modified": "2024-01-20T17:07:03.000",
    "request_status": "Pending",
    "responsible_agency": "Department of Sanitation",
    "final_address": "1024 Pine St",
    "address_councildis": "A",
    "status": "Assigned to Contractor",
    "contractor": "Richards Disposal",
    "rowid": "1062575",
    "final_x": "3663638.57632",
    "final_y": "526303.220734",
    "longitude": "-90.12464429181775",
    "latitude": "29.941681448304323",
    "geocoded_column": {
      "latitude": "29.941681448304323",
      "longitude": "-90.12464429181775"
    }
  },
  {
    "service_request": "2024-1062574",
    "request_type": "Roads/Drainage",
    "request_reason": "Man hole cover issue",
    "date_created": "2024-01-20T16:42:57.000",
    "date_modified": "2024-01-20T16:42:57.000",
    "request_status": "Pending",
    "responsible_agency": "Department of Public Works",
    "final_address": "7546 Briarheath Dr",
    "address_councildis": "E",
    "status": "Pending",
    "rowid": "1062574",
    "final_x": "3715009.49739",
    "final_y": "566762.307619",
    "longitude": "-89.96092773515736",
    "latitude": "30.05133839428181",
    "geocoded_column": {
      "latitude": "30.05133839428181",
      "longitude": "-89.96092773515736"
    }
  },
  {
    "service_request": "2024-1062573",
    "request_type": "Health Related Request",
    "request_reason": "Noise Ordinance Complaint",
    "date_created": "2024-01-20T16:26:37.000",
    "date_modified": "2024-01-20T16:26:37.000",
    "request_status": "Pending",
    "responsible_agency": "Health Department",
    "final_address": "514 Wallace Dr",
    "address_councildis": "D",
    "status": "Pending",
    "rowid": "1062573",
    "final_x": "3681364.01576",
    "final_y": "548728.684371",
    "longitude": "-90.06789960802985",
    "latitude": "30.00281769827485",
    "geocoded_column": {
      "latitude": "30.00281769827485",
      "longitude": "-90.06789960802985"
    }
  },
  {
    "service_request": "2024-1062572",
    "request_type": "Trash/Recycling",
    "request_reason": "Request a Large Item Pick Up",
    "date_created": "2024-01-20T16:24:49.000",
    "date_modified": "2024-01-20T16:24:50.000",
    "request_status": "Pending",
    "responsible_agency": "Department of Sanitation",
    "final_address": "Pine St, New Orleans, Louisiana, 70125",
    "address_councildis": "A",
    "status": "Assigned to Contractor",
    "contractor": "Richards Disposal",
    "rowid": "1062572",
    "final_x": "3662241.92967",
    "final_y": "524231.90758",
    "longitude": "-90.12912253778647",
    "latitude": "29.936026429662054",
    "geocoded_column": {
      "latitude": "29.936026429662054",
      "longitude": "-90.12912253778647"
    }
  },
  {
    "service_request": "2024-1062571",
    "request_type": "Trash/Recycling",
    "request_reason": "Request a Large Item Pick Up",
    "date_created": "2024-01-20T16:19:08.000",
    "date_modified": "2024-01-20T16:19:09.000",
    "request_status": "Pending",
    "responsible_agency": "Department of Sanitation",
    "final_address": "Pine St, New Orleans, Louisiana, 70118",
    "address_councildis": "A",
    "status": "Assigned to Contractor",
    "contractor": "Richards Disposal",
    "rowid": "1062571",
    "final_x": "3662241.92967",
    "final_y": "524231.90758",
    "longitude": "-90.12912253778647",
    "latitude": "29.936026429662054",
    "geocoded_column": {
      "latitude": "29.936026429662054",
      "longitude": "-90.12912253778647"
    }
  },
  {
    "service_request": "2024-1062570",
    "request_type": "Trash/Recycling",
    "request_reason": "Request a Large Item Pick Up",
    "date_created": "2024-01-20T16:16:41.000",
    "date_modified": "2024-01-20T16:16:42.000",
    "request_status": "Pending",
    "responsible_agency": "Department of Sanitation",
    "final_address": "520 Octavia St",
    "address_councildis": "A",
    "status": "Assigned to Contractor",
    "contractor": "Richards Disposal",
    "rowid": "1062570",
    "final_x": "3666235.90804",
    "final_y": "518068.929718",
    "longitude": "-90.11671998769167",
    "latitude": "29.918964168887502",
    "geocoded_column": {
      "latitude": "29.918964168887502",
      "longitude": "-90.11671998769167"
    }
  },
  {
    "service_request": "2024-1062569",
    "request_type": "Trash/Recycling",
    "request_reason": "Request a Large Item Pick Up",
    "date_created": "2024-01-20T16:05:25.000",
    "date_modified": "2024-01-20T16:05:26.000",
    "request_status": "Pending",
    "responsible_agency": "Department of Sanitation",
    "final_address": "5557 Rosemary Pl",
    "address_councildis": "A",
    "status": "Assigned to Contractor",
    "contractor": "IV Waste",
    "rowid": "1062569",
    "final_x": "3667171.82433",
    "final_y": "544368.335951",
    "longitude": "-90.11288158022062",
    "latitude": "29.9912515699096",
    "geocoded_column": {
      "latitude": "29.9912515699096",
      "longitude": "-90.11288158022062"
    }
  },
  {
    "service_request": "2024-1062568",
    "request_type": "Roads/Drainage",
    "request_reason": "Man hole cover issue",
    "date_created": "2024-01-20T14:49:54.000",
    "date_modified": "2024-01-20T14:49:54.000",
    "request_status": "Pending",
    "responsible_agency": "Department of Public Works",
    "final_address": "6020 Garfield St",
    "address_councildis": "A",
    "status": "Pending",
    "rowid": "1062568",
    "final_x": "3665295.62516",
    "final_y": "521433.576185",
    "longitude": "-90.11957548844285",
    "latitude": "29.928243308316592",
    "geocoded_column": {
      "latitude": "29.928243308316592",
      "longitude": "-90.11957548844285"
    }
  },
  {
    "service_request": "2024-1062567",
    "request_type": "Roads/Drainage",
    "request_reason": "Pothole",
    "date_created": "2024-01-20T14:27:41.000",
    "date_modified": "2024-01-20T14:27:41.000",
    "request_status": "Pending",
    "responsible_agency": "Department of Public Works",
    "final_address": "6030 Chestnut St",
    "address_councildis": "A",
    "status": "Pending",
    "rowid": "1062567",
    "final_x": "3664661.37773",
    "final_y": "519852.51884",
    "longitude": "-90.1216304547064",
    "latitude": "29.923914355909606",
    "geocoded_column": {
      "latitude": "29.923914355909606",
      "longitude": "-90.1216304547064"
    }
  },
  {
    "service_request": "2024-1062566",
    "request_type": "Roads/Drainage",
    "request_reason": "Pothole",
    "date_created": "2024-01-20T14:20:07.000",
    "date_modified": "2024-01-20T14:20:07.000",
    "request_status": "Pending",
    "responsible_agency": "Department of Public Works",
    "final_address": "6070 Chestnut St",
    "address_councildis": "A",
    "status": "Pending",
    "rowid": "1062566",
    "final_x": "3664412.78983",
    "final_y": "519991.592952",
    "longitude": "-90.12241052146828",
    "latitude": "29.92430399204139",
    "geocoded_column": {
      "latitude": "29.92430399204139",
      "longitude": "-90.12241052146828"
    }
  },
  {
    "service_request": "2024-1062565",
    "request_type": "Trash/Recycling",
    "request_reason": "Request a Large Item Pick Up",
    "date_created": "2024-01-20T13:57:18.000",
    "date_modified": "2024-01-20T13:57:19.000",
    "request_status": "Pending",
    "responsible_agency": "Department of Sanitation",
    "final_address": "5023 Magazine St",
    "address_councildis": "B",
    "status": "Assigned to Contractor",
    "contractor": "Richards Disposal",
    "rowid": "1062565",
    "final_x": "3668462.75546",
    "final_y": "518680.070775",
    "longitude": "-90.10967035521091",
    "latitude": "29.920579413249044",
    "geocoded_column": {
      "latitude": "29.920579413249044",
      "longitude": "-90.10967035521091"
    }
  },
  {
    "service_request": "2024-1062564",
    "request_type": "Abandoned Vehicles",
    "request_reason": "Abandoned/Junk Vehicles",
    "date_created": "2024-01-20T13:41:21.000",
    "date_modified": "2024-01-20T13:41:21.000",
    "request_status": "Pending",
    "responsible_agency": "Department of Public Works",
    "final_address": "5000 BLK Iberville St",
    "address_councildis": "A",
    "status": "Pending",
    "rowid": "1062564",
    "final_x": "3668411.05586",
    "final_y": "540932.592791",
    "longitude": "-90.10908307203718",
    "latitude": "29.981768094874088",
    "geocoded_column": {
      "latitude": "29.981768094874088",
      "longitude": "-90.10908307203718"
    }
  },
  {
    "service_request": "2024-1062563",
    "request_type": "Property Maintenance",
    "request_reason": "Property Maintenance",
    "date_created": "2024-01-20T12:55:59.000",
    "date_modified": "2024-01-20T12:55:59.000",
    "request_status": "Pending",
    "responsible_agency": "Department of Code Enforcement",
    "final_address": "1618 Simon Bolivar Ave",
    "address_councildis": "B",
    "status": "Pending",
    "rowid": "1062563",
    "final_x": "3677122.41909",
    "final_y": "526286.850622",
    "longitude": "-90.08207360143598",
    "latitude": "29.941238451221214",
    "geocoded_column": {
      "latitude": "29.941238451221214",
      "longitude": "-90.08207360143598"
    }
  },
  {
    "service_request": "2024-1062562",
    "request_type": "Trash/Recycling",
    "request_reason": "Request a Large Item Pick Up",
    "date_created": "2024-01-20T12:46:54.000",
    "date_modified": "2024-01-20T12:46:55.000",
    "request_status": "Pending",
    "responsible_agency": "Department of Sanitation",
    "final_address": "6930 Louisville St",
    "address_councildis": "A",
    "status": "Assigned to Contractor",
    "contractor": "IV Waste",
    "rowid": "1062562",
    "final_x": "3668227.15188",
    "final_y": "553665.976023",
    "longitude": "-90.10923428054184",
    "latitude": "30.016785897302068",
    "geocoded_column": {
      "latitude": "30.016785897302068",
      "longitude": "-90.10923428054184"
    }
  },
  {
    "service_request": "2024-1062561",
    "request_type": "Traffic Signals/Signs/Striping/Streetlights",
    "request_reason": "Street Light Outage/Malfunction",
    "date_created": "2024-01-20T12:41:55.000",
    "date_modified": "2024-01-20T12:41:56.000",
    "request_status": "Pending",
    "responsible_agency": "Department of Public Works",
    "final_address": "5333 Danneel St",
    "address_councildis": "B",
    "status": "Assigned to Contractor",
    "contractor": "Legacy Professional Services",
    "rowid": "1062561",
    "final_x": "3667746.38266",
    "final_y": "522268.839418",
    "longitude": "-90.11181085607338",
    "latitude": "29.930468406888846",
    "geocoded_column": {
      "latitude": "29.930468406888846",
      "longitude": "-90.11181085607338"
    }
  },
  {
    "service_request": "2024-1062560",
    "request_type": "Abandoned Vehicles",
    "request_reason": "Abandoned/Junk Vehicles",
    "date_created": "2024-01-20T11:38:31.000",
    "date_modified": "2024-01-20T11:38:31.000",
    "request_status": "Pending",
    "responsible_agency": "Department of Public Works",
    "final_address": "1200 BLK Piety St",
    "address_councildis": "C",
    "status": "Pending",
    "rowid": "1062560",
    "final_x": "3689971.32737",
    "final_y": "536331.492413",
    "longitude": "-90.04114967534191",
    "latitude": "29.968465680605373",
    "geocoded_column": {
      "latitude": "29.968465680605373",
      "longitude": "-90.04114967534191"
    }
  },
  {
    "service_request": "2024-1062559",
    "request_type": "Abandoned Vehicles",
    "request_reason": "Abandoned/Junk Vehicles",
    "date_created": "2024-01-20T11:30:39.000",
    "date_modified": "2024-01-20T11:30:39.000",
    "request_status": "Pending",
    "responsible_agency": "Department of Public Works",
    "final_address": "1200 BLK Piety St",
    "address_councildis": "C",
    "status": "Pending",
    "rowid": "1062559",
    "final_x": "3689971.32737",
    "final_y": "536331.492413",
    "longitude": "-90.04114967534191",
    "latitude": "29.968465680605373",
    "geocoded_column": {
      "latitude": "29.968465680605373",
      "longitude": "-90.04114967534191"
    }
  },
  {
    "service_request": "2024-1062558",
    "request_type": "Trash/Recycling",
    "request_reason": "Return Trash Cart",
    "date_created": "2024-01-20T11:29:53.000",
    "date_modified": "2024-01-20T11:29:55.000",
    "request_status": "Pending",
    "responsible_agency": "Department of Sanitation",
    "final_address": "8018 Hampson St",
    "address_councildis": "A",
    "status": "Assigned to Contractor",
    "contractor": "Richards Disposal",
    "rowid": "1062558",
    "final_x": "3660987.67936",
    "final_y": "526874.986302",
    "longitude": "-90.13299484594656",
    "latitude": "29.94333024490152",
    "geocoded_column": {
      "latitude": "29.94333024490152",
      "longitude": "-90.13299484594656"
    }
  },
  {
    "service_request": "2024-1062557",
    "request_type": "Abandoned Vehicles",
    "request_reason": "Abandoned/Junk Vehicles",
    "date_created": "2024-01-20T11:25:20.000",
    "date_modified": "2024-01-20T11:25:20.000",
    "request_status": "Pending",
    "responsible_agency": "Department of Public Works",
    "final_address": "1200 BLK Piety St",
    "address_councildis": "C",
    "status": "Pending",
    "rowid": "1062557",
    "final_x": "3689971.32737",
    "final_y": "536331.492413",
    "longitude": "-90.04114967534191",
    "latitude": "29.968465680605373",
    "geocoded_column": {
      "latitude": "29.968465680605373",
      "longitude": "-90.04114967534191"
    }
  },
  {
    "service_request": "2024-1062556",
    "request_type": "Trash/Recycling",
    "request_reason": "Request a Large Item Pick Up",
    "date_created": "2024-01-20T11:25:14.000",
    "date_modified": "2024-01-20T11:25:15.000",
    "request_status": "Pending",
    "responsible_agency": "Department of Sanitation",
    "final_address": "8018 Hampson St",
    "address_councildis": "A",
    "status": "Assigned to Contractor",
    "contractor": "Richards Disposal",
    "rowid": "1062556",
    "final_x": "3660987.67936",
    "final_y": "526874.986302",
    "longitude": "-90.13299484594656",
    "latitude": "29.94333024490152",
    "geocoded_column": {
      "latitude": "29.94333024490152",
      "longitude": "-90.13299484594656"
    }
  },
  {
    "service_request": "2024-1062555",
    "request_type": "Roads/Drainage",
    "request_reason": "Man hole cover issue",
    "date_created": "2024-01-20T11:24:24.000",
    "date_modified": "2024-01-20T11:24:24.000",
    "request_status": "Pending",
    "responsible_agency": "Department of Public Works",
    "final_address": "6942 Argonne Blvd",
    "address_councildis": "A",
    "status": "Pending",
    "rowid": "1062555",
    "final_x": "3670673.50907",
    "final_y": "553540.415319",
    "longitude": "-90.10150906345078",
    "latitude": "30.016368562910554",
    "geocoded_column": {
      "latitude": "30.016368562910554",
      "longitude": "-90.10150906345078"
    }
  },
  {
    "service_request": "2024-1062554",
    "request_type": "Trash/Recycling",
    "request_reason": "Replace Trash Cart",
    "date_created": "2024-01-20T11:10:24.000",
    "date_modified": "2024-01-20T11:10:25.000",
    "request_status": "Pending",
    "responsible_agency": "Department of Sanitation",
    "final_address": "2110 Octavia St",
    "address_councildis": "A",
    "status": "Assigned to Contractor",
    "contractor": "Richards Disposal",
    "rowid": "1062554",
    "final_x": "3667412.88372",
    "final_y": "523503.218043",
    "longitude": "-90.1128221584101",
    "latitude": "29.93387232619676",
    "geocoded_column": {
      "latitude": "29.93387232619676",
      "longitude": "-90.1128221584101"
    }
  },
  {
    "service_request": "2024-1062553",
    "request_type": "Health Related Request",
    "request_reason": "Property Maintenance",
    "date_created": "2024-01-20T11:05:20.000",
    "date_modified": "2024-01-20T11:05:20.000",
    "request_status": "Pending",
    "responsible_agency": "Department of Code Enforcement",
    "final_address": "3443 Esplanade Ave Apt 310",
    "address_councildis": "A",
    "status": "Pending",
    "rowid": "1062553",
    "final_x": "3674931.91937",
    "final_y": "541776.568396",
    "longitude": "-90.0884581238336",
    "latitude": "29.983895554910674",
    "geocoded_column": {
      "latitude": "29.983895554910674",
      "longitude": "-90.0884581238336"
    }
  },
  {
    "service_request": "2024-1062552",
    "request_type": "Health Related Request",
    "request_reason": "Property Maintenance",
    "date_created": "2024-01-20T11:04:44.000",
    "date_modified": "2024-01-20T11:04:44.000",
    "request_status": "Pending",
    "responsible_agency": "Department of Code Enforcement",
    "final_address": "3443 Esplanade Ave Apt 310",
    "address_councildis": "A",
    "status": "Pending",
    "rowid": "1062552",
    "final_x": "3674931.91937",
    "final_y": "541776.568396",
    "longitude": "-90.0884581238336",
    "latitude": "29.983895554910674",
    "geocoded_column": {
      "latitude": "29.983895554910674",
      "longitude": "-90.0884581238336"
    }
  },
  {
    "service_request": "2024-1062551",
    "request_type": "Traffic Signals/Signs/Striping/Streetlights",
    "request_reason": "Traffic Sign Missing/Damaged",
    "date_created": "2024-01-20T10:57:04.000",
    "date_modified": "2024-01-20T10:57:04.000",
    "request_status": "Pending",
    "responsible_agency": "Department of Public Works",
    "final_address": "BIENVILLE ST & BURGUNDY ST",
    "address_councildis": "C",
    "status": "Pending",
    "rowid": "1062551",
    "final_x": "3680809.8",
    "final_y": "531953.38",
    "longitude": "-90.07023463856821",
    "latitude": "29.956708269071243",
    "geocoded_column": {
      "latitude": "29.956708269071243",
      "longitude": "-90.07023463856821"
    }
  },
  {
    "service_request": "2024-1062550",
    "request_type": "Traffic Signals/Signs/Striping/Streetlights",
    "request_reason": "Street Light Knocked Down/Leaning",
    "date_created": "2024-01-20T10:54:52.000",
    "date_modified": "2024-01-20T10:54:53.000",
    "request_status": "Pending",
    "responsible_agency": "Department of Public Works",
    "final_address": "HOMER ST & TECHE ST",
    "address_councildis": "C",
    "status": "Pending",
    "contractor": "Legacy Professional Services",
    "rowid": "1062550",
    "final_x": "3686542.7",
    "final_y": "528305.18",
    "longitude": "-90.05226081911",
    "latitude": "29.946501954119345",
    "geocoded_column": {
      "latitude": "29.946501954119345",
      "longitude": "-90.05226081911"
    }
  },
  {
    "service_request": "2024-1062549",
    "request_type": "Trash/Recycling",
    "request_reason": "Repair Recycling Cart",
    "date_created": "2024-01-20T10:47:48.000",
    "date_modified": "2024-01-20T10:47:48.000",
    "request_status": "Pending",
    "responsible_agency": "Department of Sanitation",
    "final_address": "5325 Burgundy St",
    "address_councildis": "E",
    "status": "Pending",
    "rowid": "1062549",
    "final_x": "3696810.88816",
    "final_y": "533274.210308",
    "longitude": "-90.0196608074561",
    "latitude": "29.959845385757728",
    "geocoded_column": {
      "latitude": "29.959845385757728",
      "longitude": "-90.0196608074561"
    }
  },
  {
    "service_request": "2024-1062548",
    "request_type": "Trash/Recycling",
    "request_reason": "Replace Trash Cart",
    "date_created": "2024-01-20T10:44:44.000",
    "date_modified": "2024-01-20T10:44:45.000",
    "request_status": "Pending",
    "responsible_agency": "Department of Sanitation",
    "final_address": "5325 Burgundy St",
    "address_councildis": "E",
    "status": "Assigned to Contractor",
    "contractor": "Waste Pro",
    "rowid": "1062548",
    "final_x": "3696810.88816",
    "final_y": "533274.210308",
    "longitude": "-90.0196608074561",
    "latitude": "29.959845385757728",
    "geocoded_column": {
      "latitude": "29.959845385757728",
      "longitude": "-90.0196608074561"
    }
  },
  {
    "service_request": "2024-1062547",
    "request_type": "Trash/Recycling",
    "request_reason": "Replace Trash Cart",
    "date_created": "2024-01-20T10:38:51.000",
    "date_modified": "2024-01-20T10:38:51.000",
    "request_status": "Pending",
    "responsible_agency": "Department of Sanitation",
    "final_address": "2511 Calhoun St",
    "address_councildis": "A",
    "status": "Assigned to Contractor",
    "contractor": "Richards Disposal",
    "rowid": "1062547",
    "final_x": "3666258.59508",
    "final_y": "526090.955134",
    "longitude": "-90.11637944678633",
    "latitude": "29.941021532678928",
    "geocoded_column": {
      "latitude": "29.941021532678928",
      "longitude": "-90.11637944678633"
    }
  },
  {
    "service_request": "2024-1062546",
    "request_type": "Trash/Recycling",
    "request_reason": "Repair Trash Cart",
    "date_created": "2024-01-20T10:34:00.000",
    "date_modified": "2024-01-20T10:34:01.000",
    "request_status": "Pending",
    "responsible_agency": "Department of Sanitation",
    "final_address": "1756 Holiday Dr",
    "address_councildis": "C",
    "status": "Assigned to Contractor",
    "contractor": "Richards Disposal",
    "rowid": "1062546",
    "final_x": "3699045.62372",
    "final_y": "524076.308348",
    "longitude": "-90.01293874771167",
    "latitude": "29.93448374614935",
    "geocoded_column": {
      "latitude": "29.93448374614935",
      "longitude": "-90.01293874771167"
    }
  },
  {
    "service_request": "2024-1062545",
    "request_type": "Property Maintenance",
    "request_reason": "Property Maintenance",
    "date_created": "2024-01-20T10:30:48.000",
    "date_modified": "2024-01-20T10:30:48.000",
    "request_status": "Pending",
    "responsible_agency": "Department of Code Enforcement",
    "final_address": "13116 Wales St",
    "address_councildis": "E",
    "status": "Pending",
    "rowid": "1062545",
    "final_x": "3716101.65503",
    "final_y": "570726.053479",
    "longitude": "-89.95732537375423",
    "latitude": "30.062201047333513",
    "geocoded_column": {
      "latitude": "30.062201047333513",
      "longitude": "-89.95732537375423"
    }
  },
  {
    "service_request": "2024-1062543",
    "request_type": "Trash/Recycling",
    "request_reason": "Replace Trash Cart",
    "date_created": "2024-01-20T09:59:26.000",
    "date_modified": "2024-01-20T09:59:28.000",
    "request_status": "Pending",
    "responsible_agency": "Department of Sanitation",
    "final_address": "100 BLK Pelican Ave",
    "address_councildis": "C",
    "status": "Assigned to Contractor",
    "contractor": "Richards Disposal",
    "rowid": "1062543",
    "final_x": "3685760.70128",
    "final_y": "529931.424505",
    "longitude": "-90.05467256390936",
    "latitude": "29.950997590293817",
    "geocoded_column": {
      "latitude": "29.950997590293817",
      "longitude": "-90.05467256390936"
    }
  },
  {
    "service_request": "2024-1062542",
    "request_type": "Trash/Recycling",
    "request_reason": "Request a Large Item Pick Up",
    "date_created": "2024-01-20T09:29:02.000",
    "date_modified": "2024-01-20T09:29:03.000",
    "request_status": "Pending",
    "responsible_agency": "Department of Sanitation",
    "final_address": "7441 Weaver Ave",
    "address_councildis": "E",
    "status": "Assigned to Contractor",
    "contractor": "Waste Pro",
    "rowid": "1062542",
    "final_x": "3707692.45841",
    "final_y": "563956.272929",
    "longitude": "-89.98415874154384",
    "latitude": "30.043861864173923",
    "geocoded_column": {
      "latitude": "30.043861864173923",
      "longitude": "-89.98415874154384"
    }
  },
  {
    "service_request": "2024-1062540",
    "request_type": "Trash/Recycling",
    "request_reason": "Request a Large Item Pick Up",
    "date_created": "2024-01-20T08:08:40.000",
    "date_modified": "2024-01-20T08:08:41.000",
    "request_status": "Pending",
    "responsible_agency": "Department of Sanitation",
    "final_address": "5438 N Prieur St",
    "address_councildis": "E",
    "status": "Assigned to Contractor",
    "contractor": "Waste Pro",
    "rowid": "1062540",
    "final_x": "3698340.99421",
    "final_y": "536837.69332",
    "longitude": "-90.01469960594203",
    "latitude": "29.96959536797665",
    "geocoded_column": {
      "latitude": "29.96959536797665",
      "longitude": "-90.01469960594203"
    }
  },
  {
    "service_request": "2024-1062539",
    "request_type": "Abandoned Vehicles",
    "request_reason": "Vehicle Blocking Your Driveway",
    "date_created": "2024-01-20T08:02:23.000",
    "date_modified": "2024-01-20T08:02:23.000",
    "request_status": "Pending",
    "responsible_agency": "Department of Public Works",
    "final_address": "919 Royal St",
    "address_councildis": "C",
    "status": "Pending",
    "rowid": "1062539",
    "final_x": "3683077.16258",
    "final_y": "533188.62842",
    "longitude": "-90.063031803583",
    "latitude": "29.960035860837817",
    "geocoded_column": {
      "latitude": "29.960035860837817",
      "longitude": "-90.063031803583"
    }
  },
  {
    "service_request": "2024-1062538",
    "request_type": "Trash/Recycling",
    "request_reason": "Replace Trash Cart",
    "date_created": "2024-01-20T07:59:04.000",
    "date_modified": "2024-01-20T07:59:05.000",
    "request_status": "Pending",
    "responsible_agency": "Department of Sanitation",
    "final_address": "1431 Bourbon St",
    "address_councildis": "C",
    "status": "Assigned to Contractor",
    "contractor": "IV Waste",
    "rowid": "1062538",
    "final_x": "3683958.57826",
    "final_y": "534847.768966",
    "longitude": "-90.0601902748932",
    "latitude": "29.96457102910484",
    "geocoded_column": {
      "latitude": "29.96457102910484",
      "longitude": "-90.0601902748932"
    }
  },
  {
    "service_request": "2024-1062537",
    "request_type": "Traffic Signals/Signs/Striping/Streetlights",
    "request_reason": "Street Name Sign Damaged or Missing",
    "date_created": "2024-01-20T07:36:05.000",
    "date_modified": "2024-01-20T07:36:05.000",
    "request_status": "Pending",
    "responsible_agency": "Department of Public Works",
    "final_address": "HALSEY AVE & MACARTHUR BLVD",
    "address_councildis": "C",
    "status": "Pending",
    "rowid": "1062537",
    "final_x": "3697633.8",
    "final_y": "520498.88",
    "longitude": "-90.01752550575183",
    "latitude": "29.924691704725014",
    "geocoded_column": {
      "latitude": "29.924691704725014",
      "longitude": "-90.01752550575183"
    }
  },
  {
    "service_request": "2024-1062536",
    "request_type": "Abandoned Vehicles",
    "request_reason": "Abandoned/Junk Vehicles",
    "date_created": "2024-01-20T07:30:41.000",
    "date_modified": "2024-01-20T07:30:41.000",
    "request_status": "Pending",
    "responsible_agency": "Department of Public Works",
    "final_address": "1735 Bordeaux St",
    "address_councildis": "B",
    "status": "Pending",
    "rowid": "1062536",
    "final_x": "3669447.04436",
    "final_y": "521383.391033",
    "longitude": "-90.10647203831908",
    "latitude": "29.927983745747884",
    "geocoded_column": {
      "latitude": "29.927983745747884",
      "longitude": "-90.10647203831908"
    }
  },
  {
    "service_request": "2024-1062534",
    "request_type": "Trash/Recycling",
    "request_reason": "Request a Large Item Pick Up",
    "date_created": "2024-01-20T04:53:43.000",
    "date_modified": "2024-01-20T04:53:44.000",
    "request_status": "Pending",
    "responsible_agency": "Department of Sanitation",
    "final_address": "6038 Magazine St, New Orleans, Louisiana, 70118",
    "address_councildis": "A",
    "status": "Assigned to Contractor",
    "contractor": "Richards Disposal",
    "rowid": "1062534",
    "final_x": "3664354.18554",
    "final_y": "519229.372919",
    "longitude": "-90.12262093858492",
    "latitude": "29.922209828453216",
    "geocoded_column": {
      "latitude": "29.922209828453216",
      "longitude": "-90.12262093858492"
    }
  },
  {
    "service_request": "2024-1062533",
    "request_type": "Roads/Drainage",
    "request_reason": "Pothole",
    "date_created": "2024-01-19T23:56:50.000",
    "date_modified": "2024-01-19T23:56:50.000",
    "request_status": "Pending",
    "responsible_agency": "Department of Public Works",
    "final_address": "1301 Constantinople St",
    "address_councildis": "B",
    "status": "Pending",
    "rowid": "1062533",
    "final_x": "3672430.66305",
    "final_y": "520250.7726",
    "longitude": "-90.09709199725775",
    "latitude": "29.924781230435865",
    "geocoded_column": {
      "latitude": "29.924781230435865",
      "longitude": "-90.09709199725775"
    }
  },
  {
    "service_request": "2024-1062532",
    "request_type": "Roads/Drainage",
    "request_reason": "Pothole",
    "date_created": "2024-01-19T23:19:26.000",
    "date_modified": "2024-01-19T23:19:26.000",
    "request_status": "Pending",
    "responsible_agency": "Department of Public Works",
    "final_address": "4216 Chestnut St",
    "address_councildis": "B",
    "status": "Pending",
    "rowid": "1062532",
    "final_x": "3671574.31393",
    "final_y": "519539.203703",
    "longitude": "-90.09981939416457",
    "latitude": "29.922850019854593",
    "geocoded_column": {
      "latitude": "29.922850019854593",
      "longitude": "-90.09981939416457"
    }
  },
  {
    "service_request": "2024-1062531",
    "request_type": "Roads/Drainage",
    "request_reason": "Pothole",
    "date_created": "2024-01-19T22:39:19.000",
    "date_modified": "2024-01-19T22:39:19.000",
    "request_status": "Pending",
    "responsible_agency": "Department of Public Works",
    "final_address": "6030 Chestnut St",
    "address_councildis": "A",
    "status": "Pending",
    "rowid": "1062531",
    "final_x": "3664661.37773",
    "final_y": "519852.51884",
    "longitude": "-90.1216304547064",
    "latitude": "29.923914355909606",
    "geocoded_column": {
      "latitude": "29.923914355909606",
      "longitude": "-90.1216304547064"
    }
  },
  {
    "service_request": "2024-1062530",
    "request_type": "Roads/Drainage",
    "request_reason": "Pothole",
    "date_created": "2024-01-19T22:34:44.000",
    "date_modified": "2024-01-19T22:34:44.000",
    "request_status": "Pending",
    "responsible_agency": "Department of Public Works",
    "final_address": "6045 Perrier St",
    "address_councildis": "A",
    "status": "Pending",
    "rowid": "1062530",
    "final_x": "3664786.61453",
    "final_y": "520670.932921",
    "longitude": "-90.12120779649221",
    "latitude": "29.926161095417385",
    "geocoded_column": {
      "latitude": "29.926161095417385",
      "longitude": "-90.12120779649221"
    }
  },
  {
    "service_request": "2024-1062529",
    "request_type": "Roads/Drainage",
    "request_reason": "Pothole",
    "date_created": "2024-01-19T21:50:57.000",
    "date_modified": "2024-01-19T21:50:57.000",
    "request_status": "Pending",
    "responsible_agency": "Department of Public Works",
    "final_address": "6027 Perrier St",
    "address_councildis": "A",
    "status": "Pending",
    "rowid": "1062529",
    "final_x": "3664977.04762",
    "final_y": "520660.648761",
    "longitude": "-90.12060699512413",
    "latitude": "29.926127276632457",
    "geocoded_column": {
      "latitude": "29.926127276632457",
      "longitude": "-90.12060699512413"
    }
  },
  {
    "service_request": "2024-1062528",
    "request_type": "Parks & Parkways",
    "request_reason": "Tree Stump (removal, grind)",
    "date_created": "2024-01-19T20:51:22.000",
    "date_modified": "2024-01-19T20:51:22.000",
    "request_status": "Pending",
    "responsible_agency": "Department of Parks & Parkway",
    "final_address": "1300 BLK Esplanade Ave",
    "address_councildis": "C",
    "status": "Pending",
    "rowid": "1062528",
    "final_x": "3681953.09669",
    "final_y": "536003.751927",
    "longitude": "-90.06648307383387",
    "latitude": "29.967810702998598",
    "geocoded_column": {
      "latitude": "29.967810702998598",
      "longitude": "-90.06648307383387"
    }
  },
  {
    "service_request": "2024-1062527",
    "request_type": "Trash/Recycling",
    "request_reason": "MIssed Recycling Pick-Up",
    "date_created": "2024-01-19T20:40:37.000",
    "date_modified": "2024-01-19T20:40:38.000",
    "request_status": "Pending",
    "responsible_agency": "Department of Sanitation",
    "final_address": "7710 Spruce St, New Orleans, Louisiana, 70118",
    "address_councildis": "A",
    "status": "Assigned to Contractor",
    "contractor": "Richards Disposal",
    "rowid": "1062527",
    "final_x": "3664840.9017",
    "final_y": "529502.147649",
    "longitude": "-90.12074141015833",
    "latitude": "29.95044253965382",
    "geocoded_column": {
      "latitude": "29.95044253965382",
      "longitude": "-90.12074141015833"
    }
  },
  {
    "service_request": "2024-1062526",
    "request_type": "Abandoned Vehicles",
    "request_reason": "Abandoned/Junk Vehicles",
    "date_created": "2024-01-19T20:37:12.000",
    "date_modified": "2024-01-19T20:37:12.000",
    "request_status": "Pending",
    "responsible_agency": "Department of Public Works",
    "final_address": "1735 Bordeaux St",
    "address_councildis": "B",
    "status": "Pending",
    "rowid": "1062526",
    "final_x": "3669447.04436",
    "final_y": "521383.391033",
    "longitude": "-90.10647203831908",
    "latitude": "29.927983745747884",
    "geocoded_column": {
      "latitude": "29.927983745747884",
      "longitude": "-90.10647203831908"
    }
  },
  {
    "service_request": "2024-1062525",
    "request_type": "Trash/Recycling",
    "request_reason": "Request a Large Item Pick Up",
    "date_created": "2024-01-19T19:27:17.000",
    "date_modified": "2024-01-19T19:27:18.000",
    "request_status": "Pending",
    "responsible_agency": "Department of Sanitation",
    "final_address": "125 S Murat St",
    "address_councildis": "A",
    "status": "Assigned to Contractor",
    "contractor": "Richards Disposal",
    "rowid": "1062525",
    "final_x": "3669510.47278",
    "final_y": "539212.832778",
    "longitude": "-90.10566878206552",
    "latitude": "29.977006992491603",
    "geocoded_column": {
      "latitude": "29.977006992491603",
      "longitude": "-90.10566878206552"
    }
  },
  {
    "service_request": "2024-1062524",
    "request_type": "Trash/Recycling",
    "request_reason": "Missed Trash Pick-Up",
    "date_created": "2024-01-19T18:43:48.000",
    "date_modified": "2024-01-19T18:43:50.000",
    "request_status": "Pending",
    "responsible_agency": "Department of Sanitation",
    "final_address": "5015 St Claude Ave",
    "address_councildis": "E",
    "status": "Assigned to Contractor",
    "contractor": "Waste Pro",
    "rowid": "1062524",
    "final_x": "3696113.05085",
    "final_y": "534351.361221",
    "longitude": "-90.02182547915295",
    "latitude": "29.962829149857008",
    "geocoded_column": {
      "latitude": "29.962829149857008",
      "longitude": "-90.02182547915295"
    }
  },
  {
    "service_request": "2024-1062523",
    "request_type": "Traffic Signals/Signs/Striping/Streetlights",
    "request_reason": "Traffic Sign Missing/Damaged",
    "date_created": "2024-01-19T17:15:40.000",
    "date_modified": "2024-01-19T17:15:40.000",
    "request_status": "Pending",
    "responsible_agency": "Department of Public Works",
    "final_address": "3900 BLK Hamilton St",
    "address_councildis": "A",
    "status": "Pending",
    "rowid": "1062523",
    "final_x": "3665933.75143",
    "final_y": "537973.97338",
    "longitude": "-90.11700679390185",
    "latitude": "29.973705428821617",
    "geocoded_column": {
      "latitude": "29.973705428821617",
      "longitude": "-90.11700679390185"
    }
  },
  {
    "service_request": "2024-1062522",
    "request_type": "Trash/Recycling",
    "request_reason": "Order Trash Cart",
    "date_created": "2024-01-19T17:14:38.000",
    "date_modified": "2024-01-19T17:14:39.000",
    "request_status": "Pending",
    "responsible_agency": "Department of Sanitation",
    "final_address": "617 Tupelo St",
    "address_councildis": "E",
    "status": "Assigned to Contractor",
    "contractor": "Waste Pro",
    "rowid": "1062522",
    "final_x": "3698901.86986",
    "final_y": "531683.166915",
    "longitude": "-90.01311588009155",
    "latitude": "29.955404499114536",
    "geocoded_column": {
      "latitude": "29.955404499114536",
      "longitude": "-90.01311588009155"
    }
  },
  {
    "service_request": "2024-1062521",
    "request_type": "Trash/Recycling",
    "request_reason": "Missed Trash Pick-Up",
    "date_created": "2024-01-19T17:13:30.000",
    "date_modified": "2024-01-19T17:13:32.000",
    "request_status": "Pending",
    "responsible_agency": "Department of Sanitation",
    "final_address": "7410 Fieldston Rd",
    "address_councildis": "E",
    "status": "Assigned to Contractor",
    "contractor": "Waste Pro",
    "rowid": "1062521",
    "final_x": "3700621.53962",
    "final_y": "559971.032349",
    "longitude": "-90.00665162519884",
    "latitude": "30.033131036466578",
    "geocoded_column": {
      "latitude": "30.033131036466578",
      "longitude": "-90.00665162519884"
    }
  },
  {
    "service_request": "2024-1062520",
    "request_type": "Trash/Recycling",
    "request_reason": "Replace Recycling Cart",
    "date_created": "2024-01-19T17:02:19.000",
    "date_modified": "2024-01-19T17:02:19.000",
    "request_status": "Pending",
    "responsible_agency": "Department of Sanitation",
    "final_address": "145 Middle Park Pl",
    "address_councildis": "A",
    "status": "Pending",
    "rowid": "1062520",
    "final_x": "3670188.51073",
    "final_y": "544418.320207",
    "longitude": "-90.10335083613147",
    "latitude": "29.991300314972996",
    "geocoded_column": {
      "latitude": "29.991300314972996",
      "longitude": "-90.10335083613147"
    }
  },
  {
    "service_request": "2024-1062519",
    "request_type": "Abandoned Vehicles",
    "request_reason": "Abandoned/Junk Vehicles",
    "date_created": "2024-01-19T16:56:46.000",
    "date_modified": "2024-01-19T16:56:46.000",
    "request_status": "Pending",
    "responsible_agency": "Department of Public Works",
    "final_address": "1859 Law St",
    "address_councildis": "D",
    "status": "Pending",
    "rowid": "1062519",
    "final_x": "3680929.87003",
    "final_y": "541575.08142",
    "longitude": "-90.06952039325519",
    "latitude": "29.98316099578617",
    "geocoded_column": {
      "latitude": "29.98316099578617",
      "longitude": "-90.06952039325519"
    }
  },
  {
    "service_request": "2024-1062518",
    "request_type": "Trash/Recycling",
    "request_reason": "Illegal Dumping",
    "date_created": "2024-01-19T16:56:23.000",
    "date_modified": "2024-01-19T16:56:23.000",
    "request_status": "Pending",
    "responsible_agency": "Department of Sanitation",
    "final_address": "6767 Bundy Rd",
    "address_councildis": "E",
    "status": "Pending",
    "rowid": "1062518",
    "final_x": "3707943.71448",
    "final_y": "559384.518173",
    "longitude": "-89.98353487492832",
    "latitude": "30.031283213315767",
    "geocoded_column": {
      "latitude": "30.031283213315767",
      "longitude": "-89.98353487492832"
    }
  },
  {
    "service_request": "2024-1062517",
    "request_type": "Trash/Recycling",
    "request_reason": "Missed Trash Pick-Up",
    "date_created": "2024-01-19T16:46:03.000",
    "date_modified": "2024-01-19T16:46:04.000",
    "request_status": "Pending",
    "responsible_agency": "Department of Sanitation",
    "final_address": "7410 Fieldston Rd",
    "address_councildis": "E",
    "status": "Assigned to Contractor",
    "contractor": "Waste Pro",
    "rowid": "1062517",
    "final_x": "3700621.53962",
    "final_y": "559971.032349",
    "longitude": "-90.00665162519884",
    "latitude": "30.033131036466578",
    "geocoded_column": {
      "latitude": "30.033131036466578",
      "longitude": "-90.00665162519884"
    }
  },
  {
    "service_request": "2024-1062516",
    "request_type": "Trash/Recycling",
    "request_reason": "Replace Trash Cart",
    "date_created": "2024-01-19T16:45:34.000",
    "date_modified": "2024-01-19T16:45:35.000",
    "request_status": "Pending",
    "responsible_agency": "Department of Sanitation",
    "final_address": "4414 Eden St",
    "address_councildis": "B",
    "status": "Assigned to Contractor",
    "contractor": "Richards Disposal",
    "rowid": "1062516",
    "final_x": "3669837.52871",
    "final_y": "530656.051394",
    "longitude": "-90.1049255563034",
    "latitude": "29.953469056113963",
    "geocoded_column": {
      "latitude": "29.953469056113963",
      "longitude": "-90.1049255563034"
    }
  },
  {
    "service_request": "2024-1062515",
    "request_type": "Trash/Recycling",
    "request_reason": "Illegal Dumping",
    "date_created": "2024-01-19T16:39:37.000",
    "date_modified": "2024-01-19T16:39:37.000",
    "request_status": "Pending",
    "responsible_agency": "Department of Sanitation",
    "final_address": "6767 Bundy Rd",
    "address_councildis": "E",
    "status": "Pending",
    "rowid": "1062515",
    "final_x": "3707943.71448",
    "final_y": "559384.518173",
    "longitude": "-89.98353487492832",
    "latitude": "30.031283213315767",
    "geocoded_column": {
      "latitude": "30.031283213315767",
      "longitude": "-89.98353487492832"
    }
  },
  {
    "service_request": "2024-1062514",
    "request_type": "Trash/Recycling",
    "request_reason": "Missed Trash Pick-Up",
    "date_created": "2024-01-19T16:36:49.000",
    "date_modified": "2024-01-19T16:36:51.000",
    "request_status": "Pending",
    "responsible_agency": "Department of Sanitation",
    "final_address": "7700 Allison Rd",
    "address_councildis": "E",
    "status": "Assigned to Contractor",
    "contractor": "Waste Pro",
    "rowid": "1062514",
    "final_x": "3699883.64695",
    "final_y": "560664.974494",
    "longitude": "-90.00895807754634",
    "latitude": "30.035062579185603",
    "geocoded_column": {
      "latitude": "30.035062579185603",
      "longitude": "-90.00895807754634"
    }
  },
  {
    "service_request": "2024-1062513",
    "request_type": "Trash/Recycling",
    "request_reason": "Illegal Dumping",
    "date_created": "2024-01-19T16:33:22.000",
    "date_modified": "2024-01-19T16:33:22.000",
    "request_status": "Pending",
    "responsible_agency": "Department of Sanitation",
    "final_address": "6767 Bundy Rd",
    "address_councildis": "E",
    "status": "Pending",
    "rowid": "1062513",
    "final_x": "3707943.71448",
    "final_y": "559384.518173",
    "longitude": "-89.98353487492832",
    "latitude": "30.031283213315767",
    "geocoded_column": {
      "latitude": "30.031283213315767",
      "longitude": "-89.98353487492832"
    }
  },
  {
    "service_request": "2024-1062512",
    "request_type": "Abandoned Vehicles",
    "request_reason": "Abandoned/Junk Vehicles",
    "date_created": "2024-01-19T16:21:19.000",
    "date_modified": "2024-01-19T16:21:19.000",
    "request_status": "Pending",
    "responsible_agency": "Department of Public Works",
    "final_address": "3101 Belfort St",
    "address_councildis": "A",
    "status": "Pending",
    "rowid": "1062512",
    "final_x": "3678500.25819",
    "final_y": "542559.978829",
    "longitude": "-90.07716025801146",
    "latitude": "29.985942581132964",
    "geocoded_column": {
      "latitude": "29.985942581132964",
      "longitude": "-90.07716025801146"
    }
  },
  {
    "service_request": "2024-1062511",
    "request_type": "Trash/Recycling",
    "request_reason": "Illegal Dumping",
    "date_created": "2024-01-19T16:18:25.000",
    "date_modified": "2024-01-19T16:18:27.000",
    "request_status": "Pending",
    "responsible_agency": "Department of Sanitation",
    "final_address": "ODEON ST & GENERAL MEYER AVE & SOCRATES ST",
    "address_councildis": "C",
    "status": "Pending",
    "rowid": "1062511",
    "final_x": "3695984.6",
    "final_y": "526251.38",
    "longitude": "-90.02252372114835",
    "latitude": "29.940561078378014",
    "geocoded_column": {
      "latitude": "29.940561078378014",
      "longitude": "-90.02252372114835"
    }
  },
  {
    "service_request": "2024-1062510",
    "request_type": "Trash/Recycling",
    "request_reason": "Illegal Dumping",
    "date_created": "2024-01-19T16:17:29.000",
    "date_modified": "2024-01-19T16:19:10.000",
    "request_status": "Pending",
    "responsible_agency": "Department of Sanitation",
    "final_address": "2300 BLK Elmwood Park Dr",
    "address_councildis": "C",
    "status": "Pending",
    "rowid": "1062510",
    "final_x": "3691546.04207",
    "final_y": "521417.695797",
    "longitude": "-90.0367096279935",
    "latitude": "29.927408958507023",
    "geocoded_column": {
      "latitude": "29.927408958507023",
      "longitude": "-90.0367096279935"
    }
  },
  {
    "service_request": "2024-1062509",
    "request_type": "Roads/Drainage",
    "request_reason": "Catch Basin - Clogged",
    "date_created": "2024-01-19T16:07:01.000",
    "date_modified": "2024-01-20T10:40:15.000",
    "request_status": "Pending",
    "responsible_agency": "Department of Public Works",
    "final_address": "900 BLK Andry St",
    "address_councildis": "E",
    "status": "Inspected",
    "rowid": "1062509",
    "final_x": "3696998.23195",
    "final_y": "533363.789031",
    "longitude": "-90.01906597622047",
    "latitude": "29.960085788377306",
    "geocoded_column": {
      "latitude": "29.960085788377306",
      "longitude": "-90.01906597622047"
    }
  },
  {
    "service_request": "2024-1062508",
    "request_type": "Health Related Request",
    "request_reason": "Noise Ordinance Complaint",
    "date_created": "2024-01-19T16:06:19.000",
    "date_modified": "2024-01-19T16:07:32.000",
    "request_status": "Pending",
    "responsible_agency": "Health Department",
    "final_address": "2025 Alvar St",
    "address_councildis": "D",
    "status": "Pending",
    "rowid": "1062508",
    "final_x": "3692446.18813",
    "final_y": "539010.54177",
    "longitude": "-90.03323797702913",
    "latitude": "29.97575514235341",
    "geocoded_column": {
      "latitude": "29.97575514235341",
      "longitude": "-90.03323797702913"
    }
  },
  {
    "service_request": "2024-1062507",
    "request_type": "Abandoned Vehicles",
    "request_reason": "Abandoned/Junk Vehicles",
    "date_created": "2024-01-19T16:03:00.000",
    "date_modified": "2024-01-19T16:03:02.000",
    "request_status": "Pending",
    "responsible_agency": "Department of Public Works",
    "final_address": "3521 Paris Ave",
    "address_councildis": "D",
    "status": "Pending",
    "rowid": "1062507",
    "final_x": "3679766.1037",
    "final_y": "545330.012239",
    "longitude": "-90.07306572275122",
    "latitude": "29.993520981512972",
    "geocoded_column": {
      "latitude": "29.993520981512972",
      "longitude": "-90.07306572275122"
    }
  },
  {
    "service_request": "2024-1062506",
    "request_type": "Abandoned Vehicles",
    "request_reason": "Abandoned/Junk Vehicles",
    "date_created": "2024-01-19T15:59:43.000",
    "date_modified": "2024-01-19T15:59:44.000",
    "request_status": "Pending",
    "responsible_agency": "Department of Public Works",
    "final_address": "3344 Somerset Dr",
    "address_councildis": "C",
    "status": "Pending",
    "rowid": "1062506",
    "final_x": "3702592.06717",
    "final_y": "518874.893239",
    "longitude": "-90.00193359390192",
    "latitude": "29.92006881097736",
    "geocoded_column": {
      "latitude": "29.92006881097736",
      "longitude": "-90.00193359390192"
    }
  },
  {
    "service_request": "2024-1062504",
    "request_type": "Traffic Signals/Signs/Striping/Streetlights",
    "request_reason": "Street Light Outage/Malfunction",
    "date_created": "2024-01-19T15:54:23.000",
    "date_modified": "2024-01-19T15:54:25.000",
    "request_status": "Pending",
    "responsible_agency": "Department of Public Works",
    "final_address": "1219 Dauphine St",
    "address_councildis": "C",
    "status": "Assigned to Contractor",
    "contractor": "Legacy Professional Services",
    "rowid": "1062504",
    "final_x": "3683085.55637",
    "final_y": "534665.182726",
    "longitude": "-90.06295360373826",
    "latitude": "29.964095622925846",
    "geocoded_column": {
      "latitude": "29.964095622925846",
      "longitude": "-90.06295360373826"
    }
  },
  {
    "service_request": "2024-1062503",
    "request_type": "Safety & Permits",
    "request_reason": "Licenses & Permits",
    "date_created": "2024-01-19T15:53:41.000",
    "date_modified": "2024-01-19T15:53:42.000",
    "request_status": "Pending",
    "responsible_agency": "Safety and Permits",
    "final_address": "432 Whitney Ave",
    "address_councildis": "C",
    "status": "Pending",
    "rowid": "1062503",
    "final_x": "3690337.63465",
    "final_y": "529948.501313",
    "longitude": "-90.04022034866914",
    "latitude": "29.950903313851782",
    "geocoded_column": {
      "latitude": "29.950903313851782",
      "longitude": "-90.04022034866914"
    }
  },
  {
    "service_request": "2024-1062502",
    "request_type": "Traffic Signals/Signs/Striping/Streetlights",
    "request_reason": "Request for Stop Sign",
    "date_created": "2024-01-19T15:44:18.000",
    "date_modified": "2024-01-19T15:44:20.000",
    "request_status": "Pending",
    "responsible_agency": "Department of Public Works",
    "final_address": "FARRAGUT ST & SHEPARD ST",
    "address_councildis": "C",
    "status": "Pending",
    "rowid": "1062502",
    "final_x": "3692277.9",
    "final_y": "524680.18",
    "longitude": "-90.03428258476742",
    "latitude": "29.93635689070182",
    "geocoded_column": {
      "latitude": "29.93635689070182",
      "longitude": "-90.03428258476742"
    }
  },
  {
    "service_request": "2024-1062501",
    "request_type": "Trash/Recycling",
    "request_reason": "Repair Trash Cart",
    "date_created": "2024-01-19T15:38:36.000",
    "date_modified": "2024-01-19T15:38:37.000",
    "request_status": "Pending",
    "responsible_agency": "Department of Sanitation",
    "final_address": "5240 Basinview Dr",
    "address_councildis": "E",
    "status": "Assigned to Contractor",
    "contractor": "Waste Pro",
    "rowid": "1062501",
    "final_x": "3698921.11434",
    "final_y": "556926.616858",
    "longitude": "-90.01213603292248",
    "latitude": "30.02481408907335",
    "geocoded_column": {
      "latitude": "30.02481408907335",
      "longitude": "-90.01213603292248"
    }
  },
  {
    "service_request": "2024-1062500",
    "request_type": "Traffic Signals/Signs/Striping/Streetlights",
    "request_reason": "Traffic Signal Malfunctioning/Damaged",
    "date_created": "2024-01-19T15:38:02.000",
    "date_modified": "2024-01-19T15:38:03.000",
    "request_status": "Pending",
    "responsible_agency": "Department of Public Works",
    "final_address": "6320 Hayne Blvd",
    "address_councildis": "E",
    "status": "Pending",
    "rowid": "1062500",
    "final_x": "3696154.03498",
    "final_y": "560460.184158",
    "longitude": "-90.0207515979252",
    "latitude": "30.034617485936124",
    "geocoded_column": {
      "latitude": "30.034617485936124",
      "longitude": "-90.0207515979252"
    }
  },
  {
    "service_request": "2024-1062499",
    "request_type": "Roads/Drainage",
    "request_reason": "Damaged Sidewalk",
    "date_created": "2024-01-19T15:37:23.000",
    "date_modified": "2024-01-19T15:37:23.000",
    "request_status": "Pending",
    "responsible_agency": "Department of Public Works",
    "final_address": "9215 Stroelitz St",
    "address_councildis": "A",
    "status": "Pending",
    "rowid": "1062499",
    "final_x": "3664986.79047",
    "final_y": "537753.59028",
    "longitude": "-90.12000488410222",
    "latitude": "29.973127054539724",
    "geocoded_column": {
      "latitude": "29.973127054539724",
      "longitude": "-90.12000488410222"
    }
  },
  {
    "service_request": "2024-1062498",
    "request_type": "Trash/Recycling",
    "request_reason": "Illegal Dumping",
    "date_created": "2024-01-19T15:28:35.000",
    "date_modified": "2024-01-19T15:28:35.000",
    "request_status": "Pending",
    "responsible_agency": "Department of Sanitation",
    "final_address": "1130 Baronne St",
    "address_councildis": "B",
    "status": "Pending",
    "rowid": "1062498",
    "final_x": "3679037.1165",
    "final_y": "526912.273726",
    "longitude": "-90.07600687284125",
    "latitude": "29.94290052675274",
    "geocoded_column": {
      "latitude": "29.94290052675274",
      "longitude": "-90.07600687284125"
    }
  },
  {
    "service_request": "2024-1062497",
    "request_type": "Trash/Recycling",
    "request_reason": "Return Recycling Cart",
    "date_created": "2024-01-19T15:23:41.000",
    "date_modified": "2024-01-19T15:23:42.000",
    "request_status": "Pending",
    "responsible_agency": "Department of Sanitation",
    "final_address": "3314 Grand-Route St John St",
    "address_councildis": "A",
    "status": "Pending",
    "rowid": "1062497",
    "final_x": "3675653.0811",
    "final_y": "540300.513931",
    "longitude": "-90.086231046",
    "latitude": "29.97981535079162",
    "geocoded_column": {
      "latitude": "29.97981535079162",
      "longitude": "-90.086231046"
    }
  },
  {
    "service_request": "2024-1062496",
    "request_type": "Trash/Recycling",
    "request_reason": "Request a Large Item Pick Up",
    "date_created": "2024-01-19T15:20:42.000",
    "date_modified": "2024-01-19T15:20:43.000",
    "request_status": "Pending",
    "responsible_agency": "Department of Sanitation",
    "final_address": "1807 N Dupre St",
    "address_councildis": "D",
    "status": "Assigned to Contractor",
    "contractor": "IV Waste",
    "rowid": "1062496",
    "final_x": "3679433.1748",
    "final_y": "541876.478604",
    "longitude": "-90.07423726741092",
    "latitude": "29.984035039116502",
    "geocoded_column": {
      "latitude": "29.984035039116502",
      "longitude": "-90.07423726741092"
    }
  },
  {
    "service_request": "2024-1062495",
    "request_type": "Traffic Signals/Signs/Striping/Streetlights",
    "request_reason": "Street Light Outage/Malfunction",
    "date_created": "2024-01-19T15:18:27.000",
    "date_modified": "2024-01-19T15:18:28.000",
    "request_status": "Pending",
    "responsible_agency": "Department of Public Works",
    "final_address": "DESOTO ST & N RENDON ST",
    "address_councildis": "A",
    "status": "Assigned to Contractor",
    "contractor": "Legacy Professional Services",
    "rowid": "1062495",
    "final_x": "3676065.6",
    "final_y": "539944.78",
    "longitude": "-90.08494038223117",
    "latitude": "29.978824853130867",
    "geocoded_column": {
      "latitude": "29.978824853130867",
      "longitude": "-90.08494038223117"
    }
  },
  {
    "service_request": "2024-1062494",
    "request_type": "Trash/Recycling",
    "request_reason": "Order Trash Cart",
    "date_created": "2024-01-19T15:15:56.000",
    "date_modified": "2024-01-19T15:15:57.000",
    "request_status": "Pending",
    "responsible_agency": "Department of Sanitation",
    "final_address": "4535 LaSalle St",
    "address_councildis": "B",
    "status": "Assigned to Contractor",
    "contractor": "Richards Disposal",
    "rowid": "1062494",
    "final_x": "3669877.05959",
    "final_y": "523673.428155",
    "longitude": "-90.10503708211353",
    "latitude": "29.934267946992573",
    "geocoded_column": {
      "latitude": "29.934267946992573",
      "longitude": "-90.10503708211353"
    }
  },
  {
    "service_request": "2024-1062493",
    "request_type": "Trash/Recycling",
    "request_reason": "Order Recycling Cart",
    "date_created": "2024-01-19T15:15:35.000",
    "date_modified": "2024-01-19T15:15:36.000",
    "request_status": "Pending",
    "responsible_agency": "Department of Sanitation",
    "final_address": "4535 LaSalle St",
    "address_councildis": "B",
    "status": "Pending",
    "rowid": "1062493",
    "final_x": "3669877.05959",
    "final_y": "523673.428155",
    "longitude": "-90.10503708211353",
    "latitude": "29.934267946992573",
    "geocoded_column": {
      "latitude": "29.934267946992573",
      "longitude": "-90.10503708211353"
    }
  },
  {
    "service_request": "2024-1062492",
    "request_type": "Trash/Recycling",
    "request_reason": "Repair Trash Cart",
    "date_created": "2024-01-19T15:13:55.000",
    "date_modified": "2024-01-19T15:13:57.000",
    "request_status": "Pending",
    "responsible_agency": "Department of Sanitation",
    "final_address": "8 Curtis Dr",
    "address_councildis": "E",
    "status": "Assigned to Contractor",
    "contractor": "Waste Pro",
    "rowid": "1062492",
    "final_x": "3697689.92637",
    "final_y": "560638.780766",
    "longitude": "-90.01589149649521",
    "latitude": "30.035060091539236",
    "geocoded_column": {
      "latitude": "30.035060091539236",
      "longitude": "-90.01589149649521"
    }
  },