[
  {
    "service_request": "2025-1202947",
    "request_type": "Trash/Recycling",
    "request_reason": "Return Trash Cart",
    "date_created": "2025-06-20T23:44:35.000",
    "date_modified": "2025-06-20T23:44:37.000",
    "request_status": "Pending",
    "responsible_agency": "Department of Sanitation",
    "final_address": "3411 Coliseum St",
    "address_councildis": "B",
    "status": "Assigned to Contractor",
    "contractor": "IV Waste",
    "rowid": "1202947",
    "final_x": "3674419.98766",
    "final_y": "520548.178488",
    "longitude": "-90.09080216983864",
    "latitude": "29.925539835465116",
    "geocoded_column": {
      "latitude": "29.925539835465116",
      "longitude": "-90.09080216983864"
    }
  },
  {
    "service_request": "2025-1202946",
    "request_type": "Streetlights",
    "request_reason": "Streetlight Outage/Malfunction",
    "date_created": "2025-06-20T23:13:50.000",
    "date_modified": "2025-06-20T23:13:52.000",
    "request_status": "Pending",
    "responsible_agency": "Department of Public Works",
    "final_address": "932 Harrison Ave",
    "address_councildis": "A",
    "status": "Pending",
    "contractor": "Legacy Professional Services",
    "rowid": "1202946",
    "final_x": "3670225.90574",
    "final_y": "549040.399251",
    "longitude": "-90.10307595606615",
    "latitude": "30.0040083261583",
    "geocoded_column": {
      "latitude": "30.0040083261583",
      "longitude": "-90.10307595606615"
    }
  },
  {
    "service_request": "2025-1202945",
    "request_type": "Mosquito, Termite & Rodent Control",
    "request_reason": "Rodent Complaint (Mice & Rats)",
    "date_created": "2025-06-20T21:44:14.000",
    "date_modified": "2025-06-20T21:44:16.000",
    "request_status": "Pending",
    "responsible_agency": "Mosquito, Termite & Rodent Control Board",
    "final_address": "5726 St Charles Ave",
    "address_councildis": "A",
    "status": "Pending",
    "rowid": "1202945",
    "final_x": "3666288.55757",
    "final_y": "522017.200314",
    "longitude": "-90.1164214428881",
    "latitude": "29.929819131740146",
    "geocoded_column": {
      "latitude": "29.929819131740146",
      "longitude": "-90.1164214428881"
    }
  },
  {
    "service_request": "2025-1202944",
    "request_type": "Streetlights",
    "request_reason": "Streetlight Outage/Malfunction",
    "date_created": "2025-06-20T21:25:40.000",
    "date_modified": "2025-06-20T21:25:47.000",
    "request_status": "Pending",
    "responsible_agency": "Department of Public Works",
    "final_address": "5019 St Bernard Ave",
    "address_councildis": "D",
    "status": "Pending",
    "contractor": "Legacy Professional Services",
    "rowid": "1202944",
    "final_x": "3676759.18984",
    "final_y": "550636.188372",
    "longitude": "-90.08238111036701",
    "latitude": "30.008201684103422",
    "geocoded_column": {
      "latitude": "30.008201684103422",
      "longitude": "-90.08238111036701"
    }
  },
  {
    "service_request": "2025-1202943",
    "request_type": "Streetlights",
    "request_reason": "New Streetlight Request",
    "date_created": "2025-06-20T21:16:19.000",
    "date_modified": "2025-06-20T21:16:21.000",
    "request_status": "Pending",
    "responsible_agency": "Department of Public Works",
    "final_address": "1410 Madrid St",
    "address_councildis": "D",
    "status": "Pending",
    "contractor": "Legacy Professional Services",
    "rowid": "1202943",
    "final_x": "3677578.97538",
    "final_y": "554471.530968",
    "longitude": "-90.07965858014333",
    "latitude": "30.018722863245213",
    "geocoded_column": {
      "latitude": "30.018722863245213",
      "longitude": "-90.07965858014333"
    }
  },
  {
    "service_request": "2025-1202942",
    "request_type": "Streetlights",
    "request_reason": "Streetlight Outage/Malfunction",
    "date_created": "2025-06-20T21:14:49.000",
    "date_modified": "2025-06-20T21:14:51.000",
    "request_status": "Pending",
    "responsible_agency": "Department of Public Works",
    "final_address": "1410 Madrid St",
    "address_councildis": "D",
    "status": "Pending",
    "contractor": "Legacy Professional Services",
    "rowid": "1202942",
    "final_x": "3677578.97538",
    "final_y": "554471.530968",
    "longitude": "-90.07965858014333",
    "latitude": "30.018722863245213",
    "geocoded_column": {
      "latitude": "30.018722863245213",
      "longitude": "-90.07965858014333"
    }
  },
  {
    "service_request": "2025-1202941",
    "request_type": "Trash/Recycling",
    "request_reason": "Replace Trash Cart",
    "date_created": "2025-06-20T20:29:14.000",
    "date_modified": "2025-06-20T20:29:15.000",
    "request_status": "Pending",
    "responsible_agency": "Department of Sanitation",
    "final_address": "1019 Dublin St",
    "address_councildis": "A",
    "status": "Assigned to Contractor",
    "contractor": "IV Waste",
    "rowid": "1202941",
    "final_x": "3661381.96832",
    "final_y": "528191.501504",
    "longitude": "-90.13170637909977",
    "latitude": "29.94693887888322",
    "geocoded_column": {
      "latitude": "29.94693887888322",
      "longitude": "-90.13170637909977"
    }
  },
  {
    "service_request": "2025-1202940",
    "request_type": "Abandoned Vehicles",
    "request_reason": "Abandoned/Junk Vehicles",
    "date_created": "2025-06-20T20:28:48.000",
    "date_modified": "2025-06-20T20:28:50.000",
    "request_status": "Pending",
    "responsible_agency": "Department of Public Works",
    "final_address": "2846 Annunciation St",
    "address_councildis": "B",
    "status": "Pending",
    "rowid": "1202940",
    "final_x": "3677351.95931",
    "final_y": "519651.531704",
    "longitude": "-90.08157775282899",
    "latitude": "29.922986599073017",
    "geocoded_column": {
      "latitude": "29.922986599073017",
      "longitude": "-90.08157775282899"
    }
  },
  {
    "service_request": "2025-1202939",
    "request_type": "Property Maintenance",
    "request_reason": "Property Maintenance",
    "date_created": "2025-06-20T20:21:07.000",
    "date_modified": "2025-06-20T20:21:08.000",
    "request_status": "Pending",
    "responsible_agency": "Department of Code Enforcement",
    "final_address": "9660 Lake Forest Blvd",
    "address_councildis": "E",
    "status": "Pending",
    "rowid": "1202939",
    "final_x": "3708821.22795",
    "final_y": "558477.50838",
    "longitude": "-89.98079575534882",
    "latitude": "30.028760841115314",
    "geocoded_column": {
      "latitude": "30.028760841115314",
      "longitude": "-89.98079575534882"
    }
  },
  {
    "service_request": "2025-1202938",
    "request_type": "Property Maintenance",
    "request_reason": "Property Maintenance",
    "date_created": "2025-06-20T20:19:26.000",
    "date_modified": "2025-06-20T20:19:27.000",
    "request_status": "Pending",
    "responsible_agency": "Department of Code Enforcement",
    "final_address": "9846 Lake Forest Blvd",
    "address_councildis": "E",
    "status": "Pending",
    "rowid": "1202938",
    "final_x": "3710268.27921",
    "final_y": "558973.237404",
    "longitude": "-89.9762046229437",
    "latitude": "30.030076855017164",
    "geocoded_column": {
      "latitude": "30.030076855017164",
      "longitude": "-89.9762046229437"
    }
  },
  {
    "service_request": "2025-1202937",
    "request_type": "Property Maintenance",
    "request_reason": "Property Maintenance",
    "date_created": "2025-06-20T20:18:20.000",
    "date_modified": "2025-06-20T20:18:22.000",
    "request_status": "Pending",
    "responsible_agency": "Department of Code Enforcement",
    "final_address": "9840 Lake Forest Blvd",
    "address_councildis": "E",
    "status": "Pending",
    "rowid": "1202937",
    "final_x": "3710038.07057",
    "final_y": "558962.820764",
    "longitude": "-89.97693246518647",
    "latitude": "30.03005570843192",
    "geocoded_column": {
      "latitude": "30.03005570843192",
      "longitude": "-89.97693246518647"
    }
  },
  {
    "service_request": "2025-1202936",
    "request_type": "Trash/Recycling",
    "request_reason": "Request a Large Item Pick Up",
    "date_created": "2025-06-20T19:22:21.000",
    "date_modified": "2025-06-20T19:22:23.000",
    "request_status": "Pending",
    "responsible_agency": "Department of Sanitation",
    "final_address": "7025 Queensway Dr",
    "address_councildis": "E",
    "status": "Assigned to Contractor",
    "contractor": "Waste Pro",
    "rowid": "1202936",
    "final_x": "3719276.56786",
    "final_y": "569404.311462",
    "longitude": "-89.94734007633944",
    "latitude": "30.05846159243496",
    "geocoded_column": {
      "latitude": "30.05846159243496",
      "longitude": "-89.94734007633944"
    }
  },
  {
    "service_request": "2025-1202935",
    "request_type": "Trash/Recycling",
    "request_reason": "Order Recycling Cart",
    "date_created": "2025-06-20T19:19:39.000",
    "date_modified": "2025-06-20T19:19:42.000",
    "request_status": "Pending",
    "responsible_agency": "Department of Sanitation",
    "final_address": "2604 S Carrollton Ave",
    "address_councildis": "A",
    "status": "Pending",
    "rowid": "1202935",
    "final_x": "3665388.1504",
    "final_y": "532153.551427",
    "longitude": "-90.11892474883905",
    "latitude": "29.957717101996074",
    "geocoded_column": {
      "latitude": "29.957717101996074",
      "longitude": "-90.11892474883905"
    }
  },
  {
    "service_request": "2025-1202934",
    "request_type": "Trash/Recycling",
    "request_reason": "Replace Trash Cart",
    "date_created": "2025-06-20T18:09:09.000",
    "date_modified": "2025-06-20T18:09:12.000",
    "request_status": "Pending",
    "responsible_agency": "Department of Sanitation",
    "final_address": "921 Pleasant St",
    "address_councildis": "B",
    "status": "Assigned to Contractor",
    "contractor": "IV Waste",
    "rowid": "1202934",
    "final_x": "3675830.36584",
    "final_y": "519383.921911",
    "longitude": "-90.08639003009367",
    "latitude": "29.92229637692488",
    "geocoded_column": {
      "latitude": "29.92229637692488",
      "longitude": "-90.08639003009367"
    }
  },
  {
    "service_request": "2025-1202933",
    "request_type": "Property Maintenance",
    "request_reason": "Property Maintenance",
    "date_created": "2025-06-20T18:02:50.000",
    "date_modified": "2025-06-20T18:02:51.000",
    "request_status": "Pending",
    "responsible_agency": "Department of Code Enforcement",
    "final_address": "1759 N Dorgenois St",
    "address_councildis": "D",
    "status": "Pending",
    "rowid": "1202933",
    "final_x": "3680269.93051",
    "final_y": "540818.054539",
    "longitude": "-90.07163115034743",
    "latitude": "29.981099433531917",
    "geocoded_column": {
      "latitude": "29.981099433531917",
      "longitude": "-90.07163115034743"
    }
  },
  {
    "service_request": "2025-1202932",
    "request_type": "Trash/Recycling",
    "request_reason": "Replace Recycling Cart",
    "date_created": "2025-06-20T18:02:35.000",
    "date_modified": "2025-06-20T18:02:37.000",
    "request_status": "Pending",
    "responsible_agency": "Department of Sanitation",
    "final_address": "921 Pleasant St",
    "address_councildis": "B",
    "status": "Pending",
    "rowid": "1202932",
    "final_x": "3675830.36584",
    "final_y": "519383.921911",
    "longitude": "-90.08639003009367",
    "latitude": "29.92229637692488",
    "geocoded_column": {
      "latitude": "29.92229637692488",
      "longitude": "-90.08639003009367"
    }
  },
  {
    "service_request": "2025-1202931",
    "request_type": "General Services",
    "request_reason": "General Service Request",
    "date_created": "2025-06-20T17:57:50.000",
    "date_modified": "2025-06-20T17:57:52.000",
    "request_status": "Pending",
    "responsible_agency": "Orleans Parish Communication District",
    "final_address": "7828 Mercier St",
    "address_councildis": "E",
    "status": "Pending",
    "rowid": "1202931",
    "final_x": "3710972.83921",
    "final_y": "567137.170212",
    "longitude": "-89.97367211454346",
    "latitude": "30.052501435261128",
    "geocoded_column": {
      "latitude": "30.052501435261128",
      "longitude": "-89.97367211454346"
    }
  },
  {
    "service_request": "2025-1202930",
    "request_type": "Street and Traffic Signs",
    "request_reason": "One Way Sign Missing or Damaged",
    "date_created": "2025-06-20T17:29:49.000",
    "date_modified": "2025-06-20T17:29:51.000",
    "request_status": "Pending",
    "responsible_agency": "Department of Public Works",
    "final_address": "ST PETER ST & ROYAL ST",
    "address_councildis": "C",
    "status": "Pending",
    "rowid": "1202930",
    "final_x": "3682539.0",
    "final_y": "532444.98",
    "longitude": "-90.06475720095425",
    "latitude": "29.95800747548533",
    "geocoded_column": {
      "latitude": "29.95800747548533",
      "longitude": "-90.06475720095425"
    }
  },
  {
    "service_request": "2025-1202929",
    "request_type": "Mosquito, Termite & Rodent Control",
    "request_reason": "Termite Complaint",
    "date_created": "2025-06-20T17:27:42.000",
    "date_modified": "2025-06-20T17:27:44.000",
    "request_status": "Pending",
    "responsible_agency": "Mosquito, Termite & Rodent Control Board",
    "final_address": "3140 New Orleans St",
    "address_councildis": "D",
    "status": "Pending",
    "rowid": "1202929",
    "final_x": "3681730.59848",
    "final_y": "544144.036814",
    "longitude": "-90.06690160168023",
    "latitude": "29.990200411421522",
    "geocoded_column": {
      "latitude": "29.990200411421522",
      "longitude": "-90.06690160168023"
    }
  },
  {
    "service_request": "2025-1202928",
    "request_type": "Trash/Recycling",
    "request_reason": "Replace Trash Cart",
    "date_created": "2025-06-20T17:22:33.000",
    "date_modified": "2025-06-20T17:22:35.000",
    "request_status": "Pending",
    "responsible_agency": "Department of Sanitation",
    "final_address": "5624 Abbey Dr",
    "address_councildis": "C",
    "status": "Assigned to Contractor",
    "contractor": "Richards Disposal",
    "rowid": "1202928",
    "final_x": "3704442.22174",
    "final_y": "521300.529337",
    "longitude": "-89.99600423040728",
    "latitude": "29.926679227476114",
    "geocoded_column": {
      "latitude": "29.926679227476114",
      "longitude": "-89.99600423040728"
    }
  },
  {
    "service_request": "2025-1202927",
    "request_type": "Trash/Recycling",
    "request_reason": "Repair Recycling Cart",
    "date_created": "2025-06-20T16:59:09.000",
    "date_modified": "2025-06-20T16:59:54.000",
    "request_status": "Pending",
    "responsible_agency": "Department of Sanitation",
    "final_address": "4 Marywood Ct",
    "address_councildis": "E",
    "status": "Pending",
    "rowid": "1202927",
    "final_x": "3712780.01995",
    "final_y": "566343.865315",
    "longitude": "-89.96799007405296",
    "latitude": "30.050261082756624",
    "geocoded_column": {
      "latitude": "30.050261082756624",
      "longitude": "-89.96799007405296"
    }
  },
  {
    "service_request": "2025-1202926",
    "request_type": "Street and Traffic Signs",
    "request_reason": "Disabled Parking Sign Missing or Damaged",
    "date_created": "2025-06-20T16:52:06.000",
    "date_modified": "2025-06-20T16:52:08.000",
    "request_status": "Pending",
    "responsible_agency": "Department of Public Works",
    "final_address": "1320 Feliciana St",
    "address_councildis": "C",
    "status": "Pending",
    "rowid": "1202926",
    "final_x": "3688931.55356",
    "final_y": "536985.068936",
    "longitude": "-90.04441010595113",
    "latitude": "29.970294987466694",
    "geocoded_column": {
      "latitude": "29.970294987466694",
      "longitude": "-90.04441010595113"
    }
  },
  {
    "service_request": "2025-1202925",
    "request_type": "Trash/Recycling",
    "request_reason": "Request a Large Item Pick Up",
    "date_created": "2025-06-20T16:51:32.000",
    "date_modified": "2025-06-20T16:51:34.000",
    "request_status": "Pending",
    "responsible_agency": "Department of Sanitation",
    "final_address": "3110 Cleveland Ave",
    "address_councildis": "B",
    "status": "Assigned to Contractor",
    "contractor": "IV Waste",
    "rowid": "1202925",
    "final_x": "3673704.57908",
    "final_y": "535777.075527",
    "longitude": "-90.09253993171296",
    "latitude": "29.967435599880453",
    "geocoded_column": {
      "latitude": "29.967435599880453",
      "longitude": "-90.09253993171296"
    }
  },
  {
    "service_request": "2025-1202924",
    "request_type": "Trash/Recycling",
    "request_reason": "Repair Recycling Cart",
    "date_created": "2025-06-20T16:49:00.000",
    "date_modified": "2025-06-20T16:49:02.000",
    "request_status": "Pending",
    "responsible_agency": "Department of Sanitation",
    "final_address": "1012 Pleasant St",
    "address_councildis": "B",
    "status": "Pending",
    "rowid": "1202924",
    "final_x": "3675621.63304",
    "final_y": "519620.735288",
    "longitude": "-90.08704078407096",
    "latitude": "29.92295378168961",
    "geocoded_column": {
      "latitude": "29.92295378168961",
      "longitude": "-90.08704078407096"
    }
  },
  {
    "service_request": "2025-1202923",
    "request_type": "Trash/Recycling",
    "request_reason": "Repair Trash Cart",
    "date_created": "2025-06-20T16:48:31.000",
    "date_modified": "2025-06-20T16:48:33.000",
    "request_status": "Pending",
    "responsible_agency": "Department of Sanitation",
    "final_address": "1012 Pleasant St",
    "address_councildis": "B",
    "status": "Assigned to Contractor",
    "contractor": "IV Waste",
    "rowid": "1202923",
    "final_x": "3675621.63304",
    "final_y": "519620.735288",
    "longitude": "-90.08704078407096",
    "latitude": "29.92295378168961",
    "geocoded_column": {
      "latitude": "29.92295378168961",
      "longitude": "-90.08704078407096"
    }
  },
  {
    "service_request": "2025-1202922",
    "request_type": "Trash/Recycling",
    "request_reason": "Replace Trash Cart",
    "date_created": "2025-06-20T16:48:00.000",
    "date_modified": "2025-06-20T16:48:03.000",
    "request_status": "Pending",
    "responsible_agency": "Department of Sanitation",
    "final_address": "1012 Pleasant St",
    "address_councildis": "B",
    "status": "Assigned to Contractor",
    "contractor": "IV Waste",
    "rowid": "1202922",
    "final_x": "3675621.63304",
    "final_y": "519620.735288",
    "longitude": "-90.08704078407096",
    "latitude": "29.92295378168961",
    "geocoded_column": {
      "latitude": "29.92295378168961",
      "longitude": "-90.08704078407096"
    }
  },
  {
    "service_request": "2025-1202921",
    "request_type": "Trash/Recycling",
    "request_reason": "Repair Trash Cart",
    "date_created": "2025-06-20T16:37:47.000",
    "date_modified": "2025-06-20T16:37:49.000",
    "request_status": "Pending",
    "responsible_agency": "Department of Sanitation",
    "final_address": "444 Pine St",
    "address_councildis": "A",
    "status": "Assigned to Contractor",
    "contractor": "IV Waste",
    "rowid": "1202921",
    "final_x": "3662132.08243",
    "final_y": "524146.605116",
    "longitude": "-90.12947215929879",
    "latitude": "29.93579504868476",
    "geocoded_column": {
      "latitude": "29.93579504868476",
      "longitude": "-90.12947215929879"
    }
  },
  {
    "service_request": "2025-1202920",
    "request_type": "Trash/Recycling",
    "request_reason": "Request a Large Item Pick Up",
    "date_created": "2025-06-20T16:34:39.000",
    "date_modified": "2025-06-20T16:34:41.000",
    "request_status": "Pending",
    "responsible_agency": "Department of Sanitation",
    "final_address": "8031 Arcadia Ln",
    "address_councildis": "E",
    "status": "Assigned to Contractor",
    "contractor": "Waste Pro",
    "rowid": "1202920",
    "final_x": "3711662.30891",
    "final_y": "568195.932261",
    "longitude": "-89.97145314776387",
    "latitude": "30.055390086442696",
    "geocoded_column": {
      "latitude": "30.055390086442696",
      "longitude": "-89.97145314776387"
    }
  },
  {
    "service_request": "2025-1202919",
    "request_type": "Trash/Recycling",
    "request_reason": "Request a Large Item Pick Up",
    "date_created": "2025-06-20T16:32:24.000",
    "date_modified": "2025-06-20T16:32:26.000",
    "request_status": "Pending",
    "responsible_agency": "Department of Sanitation",
    "final_address": "813 Desire St",
    "address_councildis": "C",
    "status": "Assigned to Contractor",
    "contractor": "IV Waste",
    "rowid": "1202919",
    "final_x": "3689957.83254",
    "final_y": "534657.172614",
    "longitude": "-90.04125191677429",
    "latitude": "29.963862306238205",
    "geocoded_column": {
      "latitude": "29.963862306238205",
      "longitude": "-90.04125191677429"
    }
  },
  {
    "service_request": "2025-1202918",
    "request_type": "Property Maintenance",
    "request_reason": "Property Maintenance",
    "date_created": "2025-06-20T16:24:57.000",
    "date_modified": "2025-06-20T16:26:38.000",
    "request_status": "Pending",
    "responsible_agency": "Department of Code Enforcement",
    "final_address": "7011 Coventry St",
    "address_councildis": "E",
    "status": "Pending",
    "rowid": "1202918",
    "final_x": "3699186.30212",
    "final_y": "559827.066077",
    "longitude": "-90.01119233808276",
    "latitude": "30.032780798712942",
    "geocoded_column": {
      "latitude": "30.032780798712942",
      "longitude": "-90.01119233808276"
    }
  },
  {
    "service_request": "2025-1202917",
    "request_type": "Trash/Recycling",
    "request_reason": "Request a Large Item Pick Up",
    "date_created": "2025-06-20T16:24:34.000",
    "date_modified": "2025-06-20T16:24:36.000",
    "request_status": "Pending",
    "responsible_agency": "Department of Sanitation",
    "final_address": "8031 Arcadia Ln",
    "address_councildis": "E",
    "status": "Assigned to Contractor",
    "contractor": "Waste Pro",
    "rowid": "1202917",
    "final_x": "3711662.30891",
    "final_y": "568195.932261",
    "longitude": "-89.97145314776387",
    "latitude": "30.055390086442696",
    "geocoded_column": {
      "latitude": "30.055390086442696",
      "longitude": "-89.97145314776387"
    }
  },
  {
    "service_request": "2025-1202916",
    "request_type": "Trash/Recycling",
    "request_reason": "Illegal Dumping",
    "date_created": "2025-06-20T16:23:17.000",
    "date_modified": "2025-06-20T16:23:19.000",
    "request_status": "Pending",
    "responsible_agency": "Department of Sanitation",
    "final_address": "2451 Law St",
    "address_councildis": "D",
    "status": "Pending",
    "rowid": "1202916",
    "final_x": "3685730.17545",
    "final_y": "541981.861836",
    "longitude": "-90.05434424311846",
    "latitude": "29.98413304365652",
    "geocoded_column": {
      "latitude": "29.98413304365652",
      "longitude": "-90.05434424311846"
    }
  },
  {
    "service_request": "2025-1202915",
    "request_type": "Trash/Recycling",
    "request_reason": "MIssed Recycling Pick-Up",
    "date_created": "2025-06-20T16:21:59.000",
    "date_modified": "2025-06-20T16:22:01.000",
    "request_status": "Pending",
    "responsible_agency": "Department of Sanitation",
    "final_address": "2118 Freret St",
    "address_councildis": "B",
    "status": "Assigned to Contractor",
    "contractor": "IV Waste",
    "rowid": "1202915",
    "final_x": "3675801.34357",
    "final_y": "526418.156094",
    "longitude": "-90.08623997872645",
    "latitude": "29.941639099133855",
    "geocoded_column": {
      "latitude": "29.941639099133855",
      "longitude": "-90.08623997872645"
    }
  },
  {
    "service_request": "2025-1202914",
    "request_type": "Trash/Recycling",
    "request_reason": "Request a Large Item Pick Up",
    "date_created": "2025-06-20T16:21:02.000",
    "date_modified": "2025-06-20T16:21:03.000",
    "request_status": "Pending",
    "responsible_agency": "Department of Sanitation",
    "final_address": "8023 Arcadia Ln",
    "address_councildis": "E",
    "status": "Assigned to Contractor",
    "contractor": "Waste Pro",
    "rowid": "1202914",
    "final_x": "3711681.85842",
    "final_y": "568166.063461",
    "longitude": "-89.97139247837278",
    "latitude": "30.055307320524985",
    "geocoded_column": {
      "latitude": "30.055307320524985",
      "longitude": "-89.97139247837278"
    }
  },
  {
    "service_request": "2025-1202913",
    "request_type": "Trash/Recycling",
    "request_reason": "Request a Large Item Pick Up",
    "date_created": "2025-06-20T16:19:49.000",
    "date_modified": "2025-06-20T16:19:51.000",
    "request_status": "Pending",
    "responsible_agency": "Department of Sanitation",
    "final_address": "1540 Lowerline St",
    "address_councildis": "A",
    "status": "Assigned to Contractor",
    "contractor": "IV Waste",
    "rowid": "1202913",
    "final_x": "3664423.98432",
    "final_y": "527994.472255",
    "longitude": "-90.1221081453061",
    "latitude": "29.94630904347983",
    "geocoded_column": {
      "latitude": "29.94630904347983",
      "longitude": "-90.1221081453061"
    }
  },
  {
    "service_request": "2025-1202912",
    "request_type": "Trash/Recycling",
    "request_reason": "Return Trash Cart",
    "date_created": "2025-06-20T16:17:05.000",
    "date_modified": "2025-06-20T16:17:08.000",
    "request_status": "Pending",
    "responsible_agency": "Department of Sanitation",
    "final_address": "2328 Martin Luther King, Jr. Blvd",
    "address_councildis": "B",
    "status": "Assigned to Contractor",
    "contractor": "IV Waste",
    "rowid": "1202912",
    "final_x": "3676723.53557",
    "final_y": "527012.697342",
    "longitude": "-90.08330795296357",
    "latitude": "29.943246261115338",
    "geocoded_column": {
      "latitude": "29.943246261115338",
      "longitude": "-90.08330795296357"
    }
  },
  {
    "service_request": "2025-1202911",
    "request_type": "Parks & Parkways",
    "request_reason": "Request Tree Service (Right of Way/Public Property)",
    "date_created": "2025-06-20T16:08:42.000",
    "date_modified": "2025-06-20T16:08:43.000",
    "request_status": "Pending",
    "responsible_agency": "Department of Parks & Parkway",
    "final_address": "1504 Marengo St",
    "address_councildis": "B",
    "status": "Pending",
    "rowid": "1202911",
    "final_x": "3671921.58177",
    "final_y": "520752.842105",
    "longitude": "-90.098681924465",
    "latitude": "29.926176853536266",
    "geocoded_column": {
      "latitude": "29.926176853536266",
      "longitude": "-90.098681924465"
    }
  },
  {
    "service_request": "2025-1202910",
    "request_type": "Streetlights",
    "request_reason": "Streetlight Outage/Malfunction",
    "date_created": "2025-06-20T16:04:39.000",
    "date_modified": "2025-06-20T16:04:41.000",
    "request_status": "Pending",
    "responsible_agency": "Department of Public Works",
    "final_address": "4412 S Tonti St",
    "address_councildis": "B",
    "status": "Pending",
    "contractor": "Legacy Professional Services",
    "rowid": "1202910",
    "final_x": "3669932.36398",
    "final_y": "528084.450239",
    "longitude": "-90.10471317245715",
    "latitude": "29.9463951990462",
    "geocoded_column": {
      "latitude": "29.9463951990462",
      "longitude": "-90.10471317245715"
    }
  },
  {
    "service_request": "2025-1202909",
    "request_type": "Trash/Recycling",
    "request_reason": "Illegal Dumping",
    "date_created": "2025-06-20T15:58:42.000",
    "date_modified": "2025-06-20T15:58:44.000",
    "request_status": "Pending",
    "responsible_agency": "Department of Sanitation",
    "final_address": "2413 Louisa St",
    "address_councildis": "D",
    "status": "Pending",
    "rowid": "1202909",
    "final_x": "3690861.1384",
    "final_y": "540892.922955",
    "longitude": "-90.03817679368704",
    "latitude": "29.980980375870242",
    "geocoded_column": {
      "latitude": "29.980980375870242",
      "longitude": "-90.03817679368704"
    }
  },
  {
    "service_request": "2025-1202908",
    "request_type": "Trash/Recycling",
    "request_reason": "Request a Large Item Pick Up",
    "date_created": "2025-06-20T15:53:20.000",
    "date_modified": "2025-06-20T15:53:23.000",
    "request_status": "Pending",
    "responsible_agency": "Department of Sanitation",
    "final_address": "4631 Bancroft Dr",
    "address_councildis": "D",
    "status": "Assigned to Contractor",
    "contractor": "IV Waste",
    "rowid": "1202908",
    "final_x": "3676240.78613",
    "final_y": "549351.198739",
    "longitude": "-90.08406317035319",
    "latitude": "30.004683970853247",
    "geocoded_column": {
      "latitude": "30.004683970853247",
      "longitude": "-90.08406317035319"
    }
  },
  {
    "service_request": "2025-1202907",
    "request_type": "Roads and Streets",
    "request_reason": "Pothole",
    "date_created": "2025-06-20T15:49:09.000",
    "date_modified": "2025-06-20T15:57:11.000",
    "request_status": "Pending",
    "responsible_agency": "Department of Public Works",
    "final_address": "13912 Linden St",
    "address_councildis": "E",
    "status": "Pending",
    "rowid": "1202907",
    "final_x": "3718123.25125",
    "final_y": "572149.565608",
    "longitude": "-89.95088085805945",
    "latitude": "30.066048204368066",
    "geocoded_column": {
      "latitude": "30.066048204368066",
      "longitude": "-89.95088085805945"
    }
  },
  {
    "service_request": "2025-1202906",
    "request_type": "Trash/Recycling",
    "request_reason": "Request a Large Item Pick Up",
    "date_created": "2025-06-20T15:48:50.000",
    "date_modified": "2025-06-20T15:48:52.000",
    "request_status": "Pending",
    "responsible_agency": "Department of Sanitation",
    "final_address": "4354 Genoa St",
    "address_councildis": "E",
    "status": "Assigned to Contractor",
    "contractor": "Waste Pro",
    "rowid": "1202906",
    "final_x": "3761046.48566",
    "final_y": "573772.161962",
    "longitude": "-89.81513014890166",
    "latitude": "30.069015793738373",
    "geocoded_column": {
      "latitude": "30.069015793738373",
      "longitude": "-89.81513014890166"
    }
  },
  {
    "service_request": "2025-1202905",
    "request_type": "Roads and Streets",
    "request_reason": "Street Subsidence (Sinking)",
    "date_created": "2025-06-20T15:46:41.000",
    "date_modified": "2025-06-20T15:46:43.000",
    "request_status": "Pending",
    "responsible_agency": "Department of Public Works",
    "final_address": "5873 Louisville St",
    "address_councildis": "A",
    "status": "Pending",
    "rowid": "1202905",
    "final_x": "3667727.81044",
    "final_y": "546585.489361",
    "longitude": "-90.11105063392672",
    "latitude": "29.99733168590407",
    "geocoded_column": {
      "latitude": "29.99733168590407",
      "longitude": "-90.11105063392672"
    }
  },
  {
    "service_request": "2025-1202904",
    "request_type": "Trash/Recycling",
    "request_reason": "Request a Large Item Pick Up",
    "date_created": "2025-06-20T15:44:18.000",
    "date_modified": "2025-06-20T15:44:20.000",
    "request_status": "Pending",
    "responsible_agency": "Department of Sanitation",
    "final_address": "1931 Orleans Ave",
    "address_councildis": "D",
    "status": "Assigned to Contractor",
    "contractor": "IV Waste",
    "rowid": "1202904",
    "final_x": "3679105.96098",
    "final_y": "535350.26855",
    "longitude": "-90.07549706731277",
    "latitude": "29.966100093909354",
    "geocoded_column": {
      "latitude": "29.966100093909354",
      "longitude": "-90.07549706731277"
    }
  },
  {
    "service_request": "2025-1202903",
    "request_type": "Trash/Recycling",
    "request_reason": "Request a Large Item Pick Up",
    "date_created": "2025-06-20T15:44:14.000",
    "date_modified": "2025-06-20T15:44:16.000",
    "request_status": "Pending",
    "responsible_agency": "Department of Sanitation",
    "final_address": "4404 Rhodes Dr",
    "address_councildis": "E",
    "status": "Assigned to Contractor",
    "contractor": "Waste Pro",
    "rowid": "1202903",
    "final_x": "3702608.19818",
    "final_y": "552862.174359",
    "longitude": "-90.00063491510917",
    "latitude": "30.01352101854222",
    "geocoded_column": {
      "latitude": "30.01352101854222",
      "longitude": "-90.00063491510917"
    }
  },
  {
    "service_request": "2025-1202902",
    "request_type": "Mosquito, Termite & Rodent Control",
    "request_reason": "Rodent Complaint (Mice & Rats)",
    "date_created": "2025-06-20T15:38:44.000",
    "date_modified": "2025-06-20T15:38:46.000",
    "request_status": "Pending",
    "responsible_agency": "Mosquito, Termite & Rodent Control Board",
    "final_address": "1507 N Villere St",
    "address_councildis": "C",
    "status": "Pending",
    "rowid": "1202902",
    "final_x": "3682302.06613",
    "final_y": "536843.313608",
    "longitude": "-90.06535167922632",
    "latitude": "29.97010859454838",
    "geocoded_column": {
      "latitude": "29.97010859454838",
      "longitude": "-90.06535167922632"
    }
  },
  {
    "service_request": "2025-1202901",
    "request_type": "Trash/Recycling",
    "request_reason": "Request a Large Item Pick Up",
    "date_created": "2025-06-20T15:38:41.000",
    "date_modified": "2025-06-20T15:38:49.000",
    "request_status": "Pending",
    "responsible_agency": "Department of Sanitation",
    "final_address": "5517 Mandeville St",
    "address_councildis": "D",
    "status": "Assigned to Contractor",
    "contractor": "IV Waste",
    "rowid": "1202901",
    "final_x": "3684468.20617",
    "final_y": "553256.172759",
    "longitude": "-90.05793385647728",
    "latitude": "30.01517201869307",
    "geocoded_column": {
      "latitude": "30.01517201869307",
      "longitude": "-90.05793385647728"
    }
  },
  {
    "service_request": "2025-1202900",
    "request_type": "Mosquito, Termite & Rodent Control",
    "request_reason": "Mosquito Complaint",
    "date_created": "2025-06-20T15:38:40.000",
    "date_modified": "2025-06-20T15:38:49.000",
    "request_status": "Pending",
    "responsible_agency": "Mosquito, Termite & Rodent Control Board",
    "final_address": "1558 N Rocheblave St",
    "address_councildis": "D",
    "status": "Pending",
    "rowid": "1202900",
    "final_x": "3679836.15343",
    "final_y": "539327.647178",
    "longitude": "-90.0730529886429",
    "latitude": "29.97701445666532",
    "geocoded_column": {
      "latitude": "29.97701445666532",
      "longitude": "-90.0730529886429"
    }
  },
  {
    "service_request": "2025-1202899",
    "request_type": "Drainage",
    "request_reason": "Catch Basin Clogged",
    "date_created": "2025-06-20T15:37:00.000",
    "date_modified": "2025-06-20T15:37:02.000",
    "request_status": "Pending",
    "responsible_agency": "Sewerage & Water Board",
    "final_address": "1441 State St",
    "address_councildis": "A",
    "status": "Pending",
    "rowid": "1202899",
    "final_x": "3665523.58208",
    "final_y": "521520.715833",
    "longitude": "-90.11885296057069",
    "latitude": "29.928476273247483",
    "geocoded_column": {
      "latitude": "29.928476273247483",
      "longitude": "-90.11885296057069"
    }
  },
  {
    "service_request": "2025-1202898",
    "request_type": "Trash/Recycling",
    "request_reason": "Illegal Dumping",
    "date_created": "2025-06-20T15:36:55.000",
    "date_modified": "2025-06-20T15:36:56.000",
    "request_status": "Pending",
    "responsible_agency": "Department of Sanitation",
    "final_address": "1910 Elysian Fields Ave",
    "address_councildis": "D",
    "status": "Pending",
    "rowid": "1202898",
    "final_x": "3684656.66197",
    "final_y": "539341.289226",
    "longitude": "-90.05782782127388",
    "latitude": "29.976905301609197",
    "geocoded_column": {
      "latitude": "29.976905301609197",
      "longitude": "-90.05782782127388"
    }
  },
  {
    "service_request": "2025-1202897",
    "request_type": "Property Maintenance",
    "request_reason": "Property Maintenance",
    "date_created": "2025-06-20T15:36:54.000",
    "date_modified": "2025-06-20T15:36:55.000",
    "request_status": "Pending",
    "responsible_agency": "Department of Code Enforcement",
    "final_address": "1507 N Villere St",
    "address_councildis": "C",
    "status": "Pending",
    "rowid": "1202897",
    "final_x": "3682302.06613",
    "final_y": "536843.313608",
    "longitude": "-90.06535167922632",
    "latitude": "29.97010859454838",
    "geocoded_column": {
      "latitude": "29.97010859454838",
      "longitude": "-90.06535167922632"
    }
  },
  {
    "service_request": "2025-1202896",
    "request_type": "Roads and Streets",
    "request_reason": "Pothole",
    "date_created": "2025-06-20T15:30:52.000",
    "date_modified": "2025-06-20T15:30:54.000",
    "request_status": "Pending",
    "responsible_agency": "Department of Public Works",
    "final_address": "1117 Eighth St",
    "address_councildis": "B",
    "status": "Pending",
    "rowid": "1202896",
    "final_x": "3676060.2891",
    "final_y": "520354.601976",
    "longitude": "-90.08563089175246",
    "latitude": "29.92495855181211",
    "geocoded_column": {
      "latitude": "29.92495855181211",
      "longitude": "-90.08563089175246"
    }
  },
  {
    "service_request": "2025-1202895",
    "request_type": "Streetlights",
    "request_reason": "Streetlight Outage/Malfunction",
    "date_created": "2025-06-20T15:30:03.000",
    "date_modified": "2025-06-20T15:30:05.000",
    "request_status": "Pending",
    "responsible_agency": "Department of Public Works",
    "final_address": "1117 Eighth St",
    "address_councildis": "B",
    "status": "Pending",
    "contractor": "Legacy Professional Services",
    "rowid": "1202895",
    "final_x": "3676060.2891",
    "final_y": "520354.601976",
    "longitude": "-90.08563089175246",
    "latitude": "29.92495855181211",
    "geocoded_column": {
      "latitude": "29.92495855181211",
      "longitude": "-90.08563089175246"
    }
  },
  {
    "service_request": "2025-1202894",
    "request_type": "Trash/Recycling",
    "request_reason": "Return Trash Cart",
    "date_created": "2025-06-20T15:28:47.000",
    "date_modified": "2025-06-20T15:28:48.000",
    "request_status": "Pending",
    "responsible_agency": "Department of Sanitation",
    "final_address": "823 Eleonore St",
    "address_councildis": "A",
    "status": "Assigned to Contractor",
    "contractor": "IV Waste",
    "rowid": "1202894",
    "final_x": "3665306.05754",
    "final_y": "519248.081655",
    "longitude": "-90.11961563380379",
    "latitude": "29.922233582058627",
    "geocoded_column": {
      "latitude": "29.922233582058627",
      "longitude": "-90.11961563380379"
    }
  },
  {
    "service_request": "2025-1202893",
    "request_type": "Trash/Recycling",
    "request_reason": "Replace Trash Cart",
    "date_created": "2025-06-20T15:28:22.000",
    "date_modified": "2025-06-20T15:28:23.000",
    "request_status": "Pending",
    "responsible_agency": "Department of Sanitation",
    "final_address": "10310 Chevy Chase Dr",
    "address_councildis": "E",
    "status": "Assigned to Contractor",
    "contractor": "Waste Pro",
    "rowid": "1202893",
    "final_x": "3710345.83525",
    "final_y": "563311.570656",
    "longitude": "-89.97579712943346",
    "latitude": "30.04200302002155",
    "geocoded_column": {
      "latitude": "30.04200302002155",
      "longitude": "-89.97579712943346"
    }
  },
  {
    "service_request": "2025-1202892",
    "request_type": "Parks & Parkways",
    "request_reason": "Request Tree Service (Right of Way/Public Property)",
    "date_created": "2025-06-20T15:27:13.000",
    "date_modified": "2025-06-20T15:27:15.000",
    "request_status": "Pending",
    "responsible_agency": "Department of Parks & Parkway",
    "final_address": "1117 Eighth St",
    "address_councildis": "B",
    "status": "Pending",
    "rowid": "1202892",
    "final_x": "3676060.2891",
    "final_y": "520354.601976",
    "longitude": "-90.08563089175246",
    "latitude": "29.92495855181211",
    "geocoded_column": {
      "latitude": "29.92495855181211",
      "longitude": "-90.08563089175246"
    }
  },
  {
    "service_request": "2025-1202891",
    "request_type": "Abandoned Vehicles",
    "request_reason": "Abandoned/Junk Vehicles",
    "date_created": "2025-06-20T15:18:21.000",
    "date_modified": "2025-06-20T15:18:23.000",
    "request_status": "Pending",
    "responsible_agency": "Department of Public Works",
    "final_address": "3401 Elysian Fields Ave",
    "address_councildis": "D",
    "status": "Pending",
    "rowid": "1202891",
    "final_x": "3684445.9453",
    "final_y": "545208.093519",
    "longitude": "-90.05828714445983",
    "latitude": "29.993043389030706",
    "geocoded_column": {
      "latitude": "29.993043389030706",
      "longitude": "-90.05828714445983"
    }
  },
  {
    "service_request": "2025-1202890",
    "request_type": "Trash/Recycling",
    "request_reason": "Request a Large Item Pick Up",
    "date_created": "2025-06-20T15:18:09.000",
    "date_modified": "2025-06-20T15:18:10.000",
    "request_status": "Pending",
    "responsible_agency": "Department of Sanitation",
    "final_address": "8017 Hickman St",
    "address_councildis": "E",
    "status": "Assigned to Contractor",
    "contractor": "Waste Pro",
    "rowid": "1202890",
    "final_x": "3705572.08459",
    "final_y": "564504.672801",
    "longitude": "-89.99083969071282",
    "latitude": "30.045438223547617",
    "geocoded_column": {
      "latitude": "30.045438223547617",
      "longitude": "-89.99083969071282"
    }
  },
  {
    "service_request": "2025-1202889",
    "request_type": "Trash/Recycling",
    "request_reason": "Repair Trash Cart",
    "date_created": "2025-06-20T15:16:33.000",
    "date_modified": "2025-06-20T15:16:35.000",
    "request_status": "Pending",
    "responsible_agency": "Department of Sanitation",
    "final_address": "6141 General Diaz St",
    "address_councildis": "A",
    "status": "Assigned to Contractor",
    "contractor": "IV Waste",
    "rowid": "1202889",
    "final_x": "3669654.24628",
    "final_y": "548151.636242",
    "longitude": "-90.10491203504593",
    "latitude": "30.001581401762344",
    "geocoded_column": {
      "latitude": "30.001581401762344",
      "longitude": "-90.10491203504593"
    }
  },
  {
    "service_request": "2025-1202888",
    "request_type": "Traffic Signals",
    "request_reason": "Traffic Signal Malfunctioning or Damaged",
    "date_created": "2025-06-20T15:16:04.000",
    "date_modified": "2025-06-20T15:16:06.000",
    "request_status": "Pending",
    "responsible_agency": "Department of Public Works",
    "final_address": "800 BLK Howard Ave",
    "address_councildis": "B",
    "status": "Pending",
    "rowid": "1202888",
    "final_x": "3679628.43533",
    "final_y": "527506.136048",
    "longitude": "-90.07411933195235",
    "latitude": "29.944515595831373",
    "geocoded_column": {
      "latitude": "29.944515595831373",
      "longitude": "-90.07411933195235"
    }
  },
  {
    "service_request": "2025-1202887",
    "request_type": "Trash/Recycling",
    "request_reason": "Order Trash Cart",
    "date_created": "2025-06-20T15:11:28.000",
    "date_modified": "2025-06-20T15:11:29.000",
    "request_status": "Pending",
    "responsible_agency": "Department of Sanitation",
    "final_address": "1117 Lizardi St",
    "address_councildis": "E",
    "status": "Assigned to Contractor",
    "contractor": "Waste Pro",
    "rowid": "1202887",
    "final_x": "3696682.4017",
    "final_y": "534336.690565",
    "longitude": "-90.02002808277547",
    "latitude": "29.962770879840868",
    "geocoded_column": {
      "latitude": "29.962770879840868",
      "longitude": "-90.02002808277547"
    }
  },
  {
    "service_request": "2025-1202886",
    "request_type": "Streetlights",
    "request_reason": "Streetlight Outage/Malfunction",
    "date_created": "2025-06-20T15:07:34.000",
    "date_modified": "2025-06-20T15:07:36.000",
    "request_status": "Pending",
    "responsible_agency": "Department of Public Works",
    "final_address": "2543 Bay St",
    "address_councildis": "D",
    "status": "Pending",
    "contractor": "Legacy Professional Services",
    "rowid": "1202886",
    "final_x": "3686964.50095",
    "final_y": "545208.728271",
    "longitude": "-90.05033145575449",
    "latitude": "29.992967833764617",
    "geocoded_column": {
      "latitude": "29.992967833764617",
      "longitude": "-90.05033145575449"
    }
  },
  {
    "service_request": "2025-1202885",
    "request_type": "Roads and Streets",
    "request_reason": "Street Subsidence (Sinking)",
    "date_created": "2025-06-20T15:04:25.000",
    "date_modified": "2025-06-20T15:04:28.000",
    "request_status": "Pending",
    "responsible_agency": "Department of Public Works",
    "final_address": "2561 Pressburg St",
    "address_councildis": "D",
    "status": "Pending",
    "rowid": "1202885",
    "final_x": "3686249.23286",
    "final_y": "554853.849624",
    "longitude": "-90.05225022563633",
    "latitude": "30.01951041230926",
    "geocoded_column": {
      "latitude": "30.01951041230926",
      "longitude": "-90.05225022563633"
    }
  },
  {
    "service_request": "2025-1202884",
    "request_type": "Trash/Recycling",
    "request_reason": "Order Trash Cart",
    "date_created": "2025-06-20T15:03:18.000",
    "date_modified": "2025-06-20T15:03:20.000",
    "request_status": "Pending",
    "responsible_agency": "Department of Sanitation",
    "final_address": "3631 Rue Michelle New Orleans La 70131",
    "address_councildis": "C",
    "status": "Assigned to Contractor",
    "contractor": "Richards Disposal",
    "rowid": "1202884",
    "final_x": "3703533.7315",
    "final_y": "517195.898485",
    "longitude": "-89.99902294954089",
    "latitude": "29.915422033877714",
    "geocoded_column": {
      "latitude": "29.915422033877714",
      "longitude": "-89.99902294954089"
    }
  },
  {
    "service_request": "2025-1202883",
    "request_type": "Abandoned Vehicles",
    "request_reason": "Abandoned/Junk Vehicles",
    "date_created": "2025-06-20T15:02:29.000",
    "date_modified": "2025-06-20T15:03:45.000",
    "request_status": "Pending",
    "responsible_agency": "Department of Public Works",
    "final_address": "9930 Chef Menteur Hwy",
    "address_councildis": "E",
    "status": "Pending",
    "rowid": "1202883",
    "final_x": "3712214.00082",
    "final_y": "554406.052504",
    "longitude": "-89.97022789155774",
    "latitude": "30.01745538692855",
    "geocoded_column": {
      "latitude": "30.01745538692855",
      "longitude": "-89.97022789155774"
    }
  },
  {
    "service_request": "2025-1202882",
    "request_type": "Trash/Recycling",
    "request_reason": "Repair Trash Cart",
    "date_created": "2025-06-20T15:02:19.000",
    "date_modified": "2025-06-20T15:02:21.000",
    "request_status": "Pending",
    "responsible_agency": "Department of Sanitation",
    "final_address": "2335 Madrid St",
    "address_councildis": "D",
    "status": "Assigned to Contractor",
    "contractor": "IV Waste",
    "rowid": "1202882",
    "final_x": "3684546.84649",
    "final_y": "555499.521817",
    "longitude": "-90.0576064767634",
    "latitude": "30.021337997449514",
    "geocoded_column": {
      "latitude": "30.021337997449514",
      "longitude": "-90.0576064767634"
    }
  },
  {
    "service_request": "2025-1202881",
    "request_type": "Trash/Recycling",
    "request_reason": "Request a Large Item Pick Up",
    "date_created": "2025-06-20T15:01:47.000",
    "date_modified": "2025-06-20T15:01:56.000",
    "request_status": "Pending",
    "responsible_agency": "Department of Sanitation",
    "final_address": "1911 Orleans Ave",
    "address_councildis": "D",
    "status": "Assigned to Contractor",
    "contractor": "IV Waste",
    "rowid": "1202881",
    "final_x": "3679224.03957",
    "final_y": "535260.512326",
    "longitude": "-90.07512729046336",
    "latitude": "29.965849730293527",
    "geocoded_column": {
      "latitude": "29.965849730293527",
      "longitude": "-90.07512729046336"
    }
  },
  {
    "service_request": "2025-1202880",
    "request_type": "Trash/Recycling",
    "request_reason": "Illegal Dumping",
    "date_created": "2025-06-20T15:00:57.000",
    "date_modified": "2025-06-20T15:00:59.000",
    "request_status": "Pending",
    "responsible_agency": "Department of Sanitation",
    "final_address": "LAW ST & ST ROCH AVE",
    "address_councildis": "D",
    "status": "Pending",
    "rowid": "1202880",
    "final_x": "3686016.5",
    "final_y": "541935.18",
    "longitude": "-90.05344152262006",
    "latitude": "29.98399589426497",
    "geocoded_column": {
      "latitude": "29.98399589426497",
      "longitude": "-90.05344152262006"
    }
  },
  {
    "service_request": "2025-1202879",
    "request_type": "Streetlights",
    "request_reason": "Streetlight Outage/Malfunction",
    "date_created": "2025-06-20T14:58:48.000",
    "date_modified": "2025-06-20T14:58:50.000",
    "request_status": "Pending",
    "responsible_agency": "Department of Public Works",
    "final_address": "200 BLK Baronne St",
    "address_councildis": "B",
    "status": "Pending",
    "contractor": "Legacy Professional Services",
    "rowid": "1202879",
    "final_x": "3680180.81545",
    "final_y": "530541.596513",
    "longitude": "-90.07226983122966",
    "latitude": "29.952845391071104",
    "geocoded_column": {
      "latitude": "29.952845391071104",
      "longitude": "-90.07226983122966"
    }
  },
  {
    "service_request": "2025-1202878",
    "request_type": "Trash/Recycling",
    "request_reason": "Return Trash Cart",
    "date_created": "2025-06-20T14:58:10.000",
    "date_modified": "2025-06-20T14:58:12.000",
    "request_status": "Pending",
    "responsible_agency": "Department of Sanitation",
    "final_address": "212 N Lopez St",
    "address_councildis": "B",
    "status": "Assigned to Contractor",
    "contractor": "IV Waste",
    "rowid": "1202878",
    "final_x": "3674233.30043",
    "final_y": "536646.874567",
    "longitude": "-90.09084043241627",
    "latitude": "29.96981149975265",
    "geocoded_column": {
      "latitude": "29.96981149975265",
      "longitude": "-90.09084043241627"
    }
  },
  {
    "service_request": "2025-1202877",
    "request_type": "Roads and Streets",
    "request_reason": "Sidewalk Damaged or Missing",
    "date_created": "2025-06-20T14:58:07.000",
    "date_modified": "2025-06-20T14:58:08.000",
    "request_status": "Pending",
    "responsible_agency": "Department of Public Works",
    "final_address": "4301 Randolph Ave",
    "address_councildis": "D",
    "status": "Pending",
    "rowid": "1202877",
    "final_x": "3677800.68648",
    "final_y": "548037.941266",
    "longitude": "-90.07918054581168",
    "latitude": "30.001026123545724",
    "geocoded_column": {
      "latitude": "30.001026123545724",
      "longitude": "-90.07918054581168"
    }
  },
  {
    "service_request": "2025-1202876",
    "request_type": "Streetlights",
    "request_reason": "Streetlight Outage/Malfunction",
    "date_created": "2025-06-20T14:57:29.000",
    "date_modified": "2025-06-20T14:57:31.000",
    "request_status": "Pending",
    "responsible_agency": "Department of Public Works",
    "final_address": "808 Baronne St",
    "address_councildis": "B",
    "status": "Pending",
    "contractor": "Legacy Professional Services",
    "rowid": "1202876",
    "final_x": "3679626.60456",
    "final_y": "528108.076415",
    "longitude": "-90.07410422653632",
    "latitude": "29.946170786311757",
    "geocoded_column": {
      "latitude": "29.946170786311757",
      "longitude": "-90.07410422653632"
    }
  },
  {
    "service_request": "2025-1202875",
    "request_type": "Trash/Recycling",
    "request_reason": "Request a Large Item Pick Up",
    "date_created": "2025-06-20T14:55:12.000",
    "date_modified": "2025-06-20T14:55:13.000",
    "request_status": "Pending",
    "responsible_agency": "Department of Sanitation",
    "final_address": "4929 Robin Hood Dr",
    "address_councildis": "E",
    "status": "Assigned to Contractor",
    "contractor": "Waste Pro",
    "rowid": "1202875",
    "final_x": "3717485.7484",
    "final_y": "557846.357659",
    "longitude": "-89.95344056933658",
    "latitude": "30.02674136520217",
    "geocoded_column": {
      "latitude": "30.02674136520217",
      "longitude": "-89.95344056933658"
    }
  },
  {
    "service_request": "2025-1202874",
    "request_type": "Trash/Recycling",
    "request_reason": "Request a Large Item Pick Up",
    "date_created": "2025-06-20T14:51:15.000",
    "date_modified": "2025-06-20T14:51:16.000",
    "request_status": "Pending",
    "responsible_agency": "Department of Sanitation",
    "final_address": "4515 Wilson Ave",
    "address_councildis": "E",
    "status": "Assigned to Contractor",
    "contractor": "Waste Pro",
    "rowid": "1202874",
    "final_x": "3703224.73028",
    "final_y": "553703.439831",
    "longitude": "-89.99865605086629",
    "latitude": "30.015814446008804",
    "geocoded_column": {
      "latitude": "30.015814446008804",
      "longitude": "-89.99865605086629"
    }
  },
  {
    "service_request": "2025-1202873",
    "request_type": "Trash/Recycling",
    "request_reason": "Request a Large Item Pick Up",
    "date_created": "2025-06-20T14:51:04.000",
    "date_modified": "2025-06-20T14:51:06.000",
    "request_status": "Pending",
    "responsible_agency": "Department of Sanitation",
    "final_address": "112 Sherwood Forest Dr",
    "address_councildis": "A",
    "status": "Assigned to Contractor",
    "contractor": "IV Waste",
    "rowid": "1202873",
    "final_x": "3673165.99412",
    "final_y": "541212.98542",
    "longitude": "-90.09405512990335",
    "latitude": "29.98239853048545",
    "geocoded_column": {
      "latitude": "29.98239853048545",
      "longitude": "-90.09405512990335"
    }
  },
  {
    "service_request": "2025-1202872",
    "request_type": "Abandoned Vehicles",
    "request_reason": "Abandoned/Junk Vehicles",
    "date_created": "2025-06-20T14:49:48.000",
    "date_modified": "2025-06-20T14:49:50.000",
    "request_status": "Pending",
    "responsible_agency": "Department of Public Works",
    "final_address": "7451 Crowder Blvd",
    "address_councildis": "E",
    "status": "Pending",
    "rowid": "1202872",
    "final_x": "3703647.45054",
    "final_y": "561568.208415",
    "longitude": "-89.99703066057539",
    "latitude": "30.037425966040214",
    "geocoded_column": {
      "latitude": "30.037425966040214",
      "longitude": "-89.99703066057539"
    }
  },
  {
    "service_request": "2025-1202871",
    "request_type": "Trash/Recycling",
    "request_reason": "Request a Large Item Pick Up",
    "date_created": "2025-06-20T14:46:03.000",
    "date_modified": "2025-06-20T14:46:04.000",
    "request_status": "Pending",
    "responsible_agency": "Department of Sanitation",
    "final_address": "3550 Desaix Blvd",
    "address_councildis": "A",
    "status": "Assigned to Contractor",
    "contractor": "IV Waste",
    "rowid": "1202871",
    "final_x": "3675912.01262",
    "final_y": "543589.852814",
    "longitude": "-90.08530007697497",
    "latitude": "29.988852143683395",
    "geocoded_column": {
      "latitude": "29.988852143683395",
      "longitude": "-90.08530007697497"
    }
  },
  {
    "service_request": "2025-1202870",
    "request_type": "Trash/Recycling",
    "request_reason": "Request a Large Item Pick Up",
    "date_created": "2025-06-20T14:46:01.000",
    "date_modified": "2025-06-20T14:46:03.000",
    "request_status": "Pending",
    "responsible_agency": "Department of Sanitation",
    "final_address": "7413 Canal Blvd",
    "address_councildis": "D",
    "status": "Assigned to Contractor",
    "contractor": "IV Waste",
    "rowid": "1202870",
    "final_x": "3669442.90734",
    "final_y": "556139.877338",
    "longitude": "-90.10530922099296",
    "latitude": "30.023552477956382",
    "geocoded_column": {
      "latitude": "30.023552477956382",
      "longitude": "-90.10530922099296"
    }
  },
  {
    "service_request": "2025-1202869",
    "request_type": "Trash/Recycling",
    "request_reason": "Request a Large Item Pick Up",
    "date_created": "2025-06-20T14:43:28.000",
    "date_modified": "2025-06-20T14:43:30.000",
    "request_status": "Pending",
    "responsible_agency": "Department of Sanitation",
    "final_address": "4126 St Peter St",
    "address_councildis": "A",
    "status": "Assigned to Contractor",
    "contractor": "IV Waste",
    "rowid": "1202869",
    "final_x": "3672328.19643",
    "final_y": "540062.503819",
    "longitude": "-90.09674052805214",
    "latitude": "29.97925998739931",
    "geocoded_column": {
      "latitude": "29.97925998739931",
      "longitude": "-90.09674052805214"
    }
  },
  {
    "service_request": "2025-1202868",
    "request_type": "Parks & Parkways",
    "request_reason": "Request Tree Service (Right of Way/Public Property)",
    "date_created": "2025-06-20T14:41:30.000",
    "date_modified": "2025-06-20T14:41:31.000",
    "request_status": "Pending",
    "responsible_agency": "Department of Parks & Parkway",
    "final_address": "5172 Wilton Dr",
    "address_councildis": "D",
    "status": "Pending",
    "rowid": "1202868",
    "final_x": "3681885.99042",
    "final_y": "551687.952981",
    "longitude": "-90.0661472316805",
    "latitude": "30.0109387602481",
    "geocoded_column": {
      "latitude": "30.0109387602481",
      "longitude": "-90.0661472316805"
    }
  },
  {
    "service_request": "2025-1202867",
    "request_type": "Trash/Recycling",
    "request_reason": "Request a Large Item Pick Up",
    "date_created": "2025-06-20T14:40:02.000",
    "date_modified": "2025-06-20T14:44:00.000",
    "request_status": "Pending",
    "responsible_agency": "Department of Sanitation",
    "final_address": "3826 Hamilton St",
    "address_councildis": "A",
    "status": "Assigned to Contractor",
    "contractor": "IV Waste",
    "rowid": "1202867",
    "final_x": "3665685.93319",
    "final_y": "537754.118088",
    "longitude": "-90.11779682648289",
    "latitude": "29.973108131005105",
    "geocoded_column": {
      "latitude": "29.973108131005105",
      "longitude": "-90.11779682648289"
    }
  },
  {
    "service_request": "2025-1202866",
    "request_type": "Trash/Recycling",
    "request_reason": "Order Trash Cart",
    "date_created": "2025-06-20T14:35:49.000",
    "date_modified": "2025-06-20T14:35:50.000",
    "request_status": "Pending",
    "responsible_agency": "Department of Sanitation",
    "final_address": "2644 Louisiana Ave",
    "address_councildis": "B",
    "status": "Assigned to Contractor",
    "contractor": "IV Waste",
    "rowid": "1202866",
    "final_x": "3672602.0891",
    "final_y": "525092.896509",
    "longitude": "-90.09638585785754",
    "latitude": "29.938090421732415",
    "geocoded_column": {
      "latitude": "29.938090421732415",
      "longitude": "-90.09638585785754"
    }
  },
  {
    "service_request": "2025-1202865",
    "request_type": "Trash/Recycling",
    "request_reason": "Request a Large Item Pick Up",
    "date_created": "2025-06-20T14:35:11.000",
    "date_modified": "2025-06-20T14:35:12.000",
    "request_status": "Pending",
    "responsible_agency": "Department of Sanitation",
    "final_address": "3611 Carondelet St",
    "address_councildis": "B",
    "status": "Assigned to Contractor",
    "contractor": "IV Waste",
    "rowid": "1202865",
    "final_x": "3673198.05972",
    "final_y": "521696.154425",
    "longitude": "-90.09462025210334",
    "latitude": "29.92873277772672",
    "geocoded_column": {
      "latitude": "29.92873277772672",
      "longitude": "-90.09462025210334"
    }
  },
  {
    "service_request": "2025-1202864",
    "request_type": "Trash/Recycling",
    "request_reason": "Request a Large Item Pick Up",
    "date_created": "2025-06-20T14:34:15.000",
    "date_modified": "2025-06-20T14:34:17.000",
    "request_status": "Pending",
    "responsible_agency": "Department of Sanitation",
    "final_address": "3015 Palmyra St",
    "address_councildis": "B",
    "status": "Assigned to Contractor",
    "contractor": "IV Waste",
    "rowid": "1202864",
    "final_x": "3673792.46676",
    "final_y": "535387.135878",
    "longitude": "-90.09227571807915",
    "latitude": "29.966360780137396",
    "geocoded_column": {
      "latitude": "29.966360780137396",
      "longitude": "-90.09227571807915"
    }
  },
  {
    "service_request": "2025-1202863",
    "request_type": "Trash/Recycling",
    "request_reason": "Request a Large Item Pick Up",
    "date_created": "2025-06-20T14:33:32.000",
    "date_modified": "2025-06-20T14:33:33.000",
    "request_status": "Pending",
    "responsible_agency": "Department of Sanitation",
    "final_address": "4695 Owens Blvd",
    "address_councildis": "D",
    "status": "Assigned to Contractor",
    "contractor": "IV Waste",
    "rowid": "1202863",
    "final_x": "3676562.23323",
    "final_y": "549423.654739",
    "longitude": "-90.08304515713209",
    "latitude": "30.004873558749196",
    "geocoded_column": {
      "latitude": "30.004873558749196",
      "longitude": "-90.08304515713209"
    }
  },
  {
    "service_request": "2025-1202862",
    "request_type": "Trash/Recycling",
    "request_reason": "Request a Large Item Pick Up",
    "date_created": "2025-06-20T14:31:38.000",
    "date_modified": "2025-06-20T14:31:40.000",
    "request_status": "Pending",
    "responsible_agency": "Department of Sanitation",
    "final_address": "111 Maryland Dr",
    "address_councildis": "A",
    "status": "Assigned to Contractor",
    "contractor": "IV Waste",
    "rowid": "1202862",
    "final_x": "3663771.76339",
    "final_y": "542172.709965",
    "longitude": "-90.12369486214116",
    "latitude": "29.98531347899699",
    "geocoded_column": {
      "latitude": "29.98531347899699",
      "longitude": "-90.12369486214116"
    }
  },
  {
    "service_request": "2025-1202861",
    "request_type": "Trash/Recycling",
    "request_reason": "Request a Large Item Pick Up",
    "date_created": "2025-06-20T14:30:37.000",
    "date_modified": "2025-06-20T14:30:39.000",
    "request_status": "Pending",
    "responsible_agency": "Department of Sanitation",
    "final_address": "4850 Galahad Dr",
    "address_councildis": "E",
    "status": "Assigned to Contractor",
    "contractor": "Waste Pro",
    "rowid": "1202861",
    "final_x": "3707054.93963",
    "final_y": "556307.877338",
    "longitude": "-89.98645769459517",
    "latitude": "30.022852411221074",
    "geocoded_column": {
      "latitude": "30.022852411221074",
      "longitude": "-89.98645769459517"
    }
  },
  {
    "service_request": "2025-1202860",
    "request_type": "Trash/Recycling",
    "request_reason": "Replace Trash Cart",
    "date_created": "2025-06-20T14:29:18.000",
    "date_modified": "2025-06-20T14:29:22.000",
    "request_status": "Pending",
    "responsible_agency": "Department of Sanitation",
    "final_address": "2437 Amelia St",
    "address_councildis": "B",
    "status": "Assigned to Contractor",
    "contractor": "IV Waste",
    "rowid": "1202860",
    "final_x": "3672404.31988",
    "final_y": "524241.897724",
    "longitude": "-90.09703922191478",
    "latitude": "29.935756320200912",
    "geocoded_column": {
      "latitude": "29.935756320200912",
      "longitude": "-90.09703922191478"
    }
  },
  {
    "service_request": "2025-1202859",
    "request_type": "Streetlights",
    "request_reason": "Streetlight Outage/Malfunction",
    "date_created": "2025-06-20T14:24:23.000",
    "date_modified": "2025-06-20T14:24:25.000",
    "request_status": "Pending",
    "responsible_agency": "Department of Public Works",
    "final_address": "2200 BLK Burdette St",
    "address_councildis": "A",
    "status": "Pending",
    "contractor": "Legacy Professional Services",
    "rowid": "1202859",
    "final_x": "3665279.97288",
    "final_y": "530342.948944",
    "longitude": "-90.1193269184264",
    "latitude": "29.95274168692515",
    "geocoded_column": {
      "latitude": "29.95274168692515",
      "longitude": "-90.1193269184264"
    }
  },
  {
    "service_request": "2025-1202858",
    "request_type": "Parks & Parkways",
    "request_reason": "Request Tree Service (Right of Way/Public Property)",
    "date_created": "2025-06-20T14:23:38.000",
    "date_modified": "2025-06-20T14:23:40.000",
    "request_status": "Pending",
    "responsible_agency": "Department of Parks & Parkway",
    "final_address": "7700 BLK S Claiborne Ave",
    "address_councildis": "A",
    "status": "Pending",
    "rowid": "1202858",
    "final_x": "3665769.68352",
    "final_y": "530621.99563",
    "longitude": "-90.11777127787359",
    "latitude": "29.953494698990408",
    "geocoded_column": {
      "latitude": "29.953494698990408",
      "longitude": "-90.11777127787359"
    }
  },
  {
    "service_request": "2025-1202857",
    "request_type": "Property Maintenance",
    "request_reason": "Property Maintenance",
    "date_created": "2025-06-20T14:21:21.000",
    "date_modified": "2025-06-20T14:21:22.000",
    "request_status": "Pending",
    "responsible_agency": "Department of Code Enforcement",
    "final_address": "4470 Spain St",
    "address_councildis": "D",
    "status": "Pending",
    "rowid": "1202857",
    "final_x": "3684984.61673",
    "final_y": "549456.614355",
    "longitude": "-90.05643602379241",
    "latitude": "30.00470880156233",
    "geocoded_column": {
      "latitude": "30.00470880156233",
      "longitude": "-90.05643602379241"
    }
  },
  {
    "service_request": "2025-1202856",
    "request_type": "Trash/Recycling",
    "request_reason": "Request a Large Item Pick Up",
    "date_created": "2025-06-20T14:20:04.000",
    "date_modified": "2025-06-20T14:22:24.000",
    "request_status": "Pending",
    "responsible_agency": "Department of Sanitation",
    "final_address": "8008 Berg Rd",
    "address_councildis": "E",
    "status": "Assigned to Contractor",
    "contractor": "Waste Pro",
    "rowid": "1202856",
    "final_x": "3711184.69189",
    "final_y": "567803.96778",
    "longitude": "-89.97297749485845",
    "latitude": "30.054327943717645",
    "geocoded_column": {
      "latitude": "30.054327943717645",
      "longitude": "-89.97297749485845"
    }
  },
  {
    "service_request": "2025-1202855",
    "request_type": "Trash/Recycling",
    "request_reason": "Request a Large Item Pick Up",
    "date_created": "2025-06-20T14:19:44.000",
    "date_modified": "2025-06-20T14:19:46.000",
    "request_status": "Pending",
    "responsible_agency": "Department of Sanitation",
    "final_address": "3016 Carondelet St",
    "address_councildis": "B",
    "status": "Assigned to Contractor",
    "contractor": "IV Waste",
    "rowid": "1202855",
    "final_x": "3674919.28501",
    "final_y": "522296.511226",
    "longitude": "-90.0891661142654",
    "latitude": "29.930332288110137",
    "geocoded_column": {
      "latitude": "29.930332288110137",
      "longitude": "-90.0891661142654"
    }
  },
  {
    "service_request": "2025-1202854",
    "request_type": "Abandoned Vehicles",
    "request_reason": "Abandoned/Junk Vehicles",
    "date_created": "2025-06-20T14:18:40.000",
    "date_modified": "2025-06-20T14:18:42.000",
    "request_status": "Pending",
    "responsible_agency": "Department of Public Works",
    "final_address": "2920 Powhatan St",
    "address_councildis": "D",
    "status": "Pending",
    "rowid": "1202854",
    "final_x": "3689301.54134",
    "final_y": "547772.243986",
    "longitude": "-90.04285797638403",
    "latitude": "29.999944414279827",
    "geocoded_column": {
      "latitude": "29.999944414279827",
      "longitude": "-90.04285797638403"
    }
  },
  {
    "service_request": "2025-1202853",
    "request_type": "Property Maintenance",
    "request_reason": "Property Maintenance",
    "date_created": "2025-06-20T14:16:21.000",
    "date_modified": "2025-06-20T14:16:23.000",
    "request_status": "Pending",
    "responsible_agency": "Department of Code Enforcement",
    "final_address": "3395 Desaix Blvd",
    "address_councildis": "D",
    "status": "Pending",
    "rowid": "1202853",
    "final_x": "3676877.6845",
    "final_y": "543749.969358",
    "longitude": "-90.08224428907556",
    "latitude": "29.989263452308567",
    "geocoded_column": {
      "latitude": "29.989263452308567",
      "longitude": "-90.08224428907556"
    }
  },
  {
    "service_request": "2025-1202852",
    "request_type": "Mosquito, Termite & Rodent Control",
    "request_reason": "Rodent Complaint (Mice & Rats)",
    "date_created": "2025-06-20T14:13:00.000",
    "date_modified": "2025-06-20T14:13:01.000",
    "request_status": "Pending",
    "responsible_agency": "Mosquito, Termite & Rodent Control Board",
    "final_address": "1324 Congress St",
    "address_councildis": "C",
    "status": "Pending",
    "rowid": "1202852",
    "final_x": "3690919.26204",
    "final_y": "536505.301703",
    "longitude": "-90.03814985632181",
    "latitude": "29.96891416703007",
    "geocoded_column": {
      "latitude": "29.96891416703007",
      "longitude": "-90.03814985632181"
    }
  },
  {
    "service_request": "2025-1202851",
    "request_type": "Trash/Recycling",
    "request_reason": "Request a Large Item Pick Up",
    "date_created": "2025-06-20T14:12:19.000",
    "date_modified": "2025-06-20T14:12:21.000",
    "request_status": "Pending",
    "responsible_agency": "Department of Sanitation",
    "final_address": "2435 Dumaine St",
    "address_councildis": "D",
    "status": "Assigned to Contractor",
    "contractor": "IV Waste",
    "rowid": "1202851",
    "final_x": "3678028.86018",
    "final_y": "536907.432328",
    "longitude": "-90.07884468881451",
    "latitude": "29.970414230465323",
    "geocoded_column": {
      "latitude": "29.970414230465323",
      "longitude": "-90.07884468881451"
    }
  },
  {
    "service_request": "2025-1202850",
    "request_type": "Abandoned Vehicles",
    "request_reason": "Abandoned/Junk Vehicles",
    "date_created": "2025-06-20T14:10:50.000",
    "date_modified": "2025-06-20T14:14:58.000",
    "request_status": "Pending",
    "responsible_agency": "Department of Public Works",
    "final_address": "S WHITE ST & WASHINGTON AVE",
    "address_councildis": "B",
    "status": "Pending",
    "rowid": "1202850",
    "final_x": "3671097.4",
    "final_y": "530020.58",
    "longitude": "-90.10096898824528",
    "latitude": "29.951684520434593",
    "geocoded_column": {
      "latitude": "29.951684520434593",
      "longitude": "-90.10096898824528"
    }
  },
  {
    "service_request": "2025-1202849",
    "request_type": "Abandoned Vehicles",
    "request_reason": "Abandoned/Junk Vehicles",
    "date_created": "2025-06-20T14:09:03.000",
    "date_modified": "2025-06-20T14:09:06.000",
    "request_status": "Pending",
    "responsible_agency": "Department of Public Works",
    "final_address": "2920 Powhatan St",
    "address_councildis": "D",
    "status": "Pending",
    "rowid": "1202849",
    "final_x": "3689301.54134",
    "final_y": "547772.243986",
    "longitude": "-90.04285797638403",
    "latitude": "29.999944414279827",
    "geocoded_column": {
      "latitude": "29.999944414279827",
      "longitude": "-90.04285797638403"
    }
  },
  {
    "service_request": "2025-1202848",
    "request_type": "Trash/Recycling",
    "request_reason": "Request a Large Item Pick Up",
    "date_created": "2025-06-20T14:07:15.000",
    "date_modified": "2025-06-20T14:07:17.000",
    "request_status": "Pending",
    "responsible_agency": "Department of Sanitation",
    "final_address": "20520 E Alba Rd",
    "address_councildis": "E",
    "status": "Assigned to Contractor",
    "contractor": "Waste Pro",
    "rowid": "1202848",
    "final_x": "3761903.36438",
    "final_y": "573175.801897",
    "longitude": "-89.81244645079275",
    "latitude": "30.06734483398873",
    "geocoded_column": {
      "latitude": "30.06734483398873",
      "longitude": "-89.81244645079275"
    }
  },
  {
    "service_request": "2025-1202847",
    "request_type": "Trash/Recycling",
    "request_reason": "Illegal Dumping",
    "date_created": "2025-06-20T14:05:37.000",
    "date_modified": "2025-06-20T14:05:39.000",
    "request_status": "Pending",
    "responsible_agency": "Department of Sanitation",
    "final_address": "724 Evelina St",
    "address_councildis": "C",
    "status": "Pending",
    "rowid": "1202847",
    "final_x": "3687712.863",
    "final_y": "529546.164929",
    "longitude": "-90.04852227392078",
    "latitude": "29.94987821405223",
    "geocoded_column": {
      "latitude": "29.94987821405223",
      "longitude": "-90.04852227392078"
    }
  },
  {
    "service_request": "2025-1202846",
    "request_type": "Abandoned Vehicles",
    "request_reason": "Abandoned/Junk Vehicles",
    "date_created": "2025-06-20T14:03:54.000",
    "date_modified": "2025-06-20T14:07:16.000",
    "request_status": "Pending",
    "responsible_agency": "Department of Public Works",
    "final_address": "4601 Press Dr",
    "address_councildis": "D",
    "status": "Pending",
    "rowid": "1202846",
    "final_x": "3689867.80208",
    "final_y": "550137.867924",
    "longitude": "-90.0409848517303",
    "latitude": "30.006431468065326",
    "geocoded_column": {
      "latitude": "30.006431468065326",
      "longitude": "-90.0409848517303"
    }
  },
  {
    "service_request": "2025-1202845",
    "request_type": "Trash/Recycling",
    "request_reason": "Request a Large Item Pick Up",
    "date_created": "2025-06-20T14:03:01.000",
    "date_modified": "2025-06-20T14:03:04.000",
    "request_status": "Pending",
    "responsible_agency": "Department of Sanitation",
    "final_address": "156 Middle Park Pl",
    "address_councildis": "A",
    "status": "Assigned to Contractor",
    "contractor": "IV Waste",
    "rowid": "1202845",
    "final_x": "3669962.70983",
    "final_y": "544586.880399",
    "longitude": "-90.10405837979879",
    "latitude": "29.991770460258177",
    "geocoded_column": {
      "latitude": "29.991770460258177",
      "longitude": "-90.10405837979879"
    }
  },
  {
    "service_request": "2025-1202844",
    "request_type": "Trash/Recycling",
    "request_reason": "Request a Large Item Pick Up",
    "date_created": "2025-06-20T14:00:49.000",
    "date_modified": "2025-06-20T14:00:50.000",
    "request_status": "Pending",
    "responsible_agency": "Department of Sanitation",
    "final_address": "15001 Emory Rd",
    "address_councildis": "E",
    "status": "Assigned to Contractor",
    "contractor": "Waste Pro",
    "rowid": "1202844",
    "final_x": "3720915.04601",
    "final_y": "574138.401898",
    "longitude": "-89.94197937600815",
    "latitude": "30.071423753550658",
    "geocoded_column": {
      "latitude": "30.071423753550658",
      "longitude": "-89.94197937600815"
    }
  },
  {
    "service_request": "2025-1202843",
    "request_type": "Street and Traffic Signs",
    "request_reason": "Additional Signage Request",
    "date_created": "2025-06-20T14:00:44.000",
    "date_modified": "2025-06-20T14:44:53.000",
    "request_status": "Pending",
    "responsible_agency": "Department of Public Works",
    "final_address": "6017 Tullis Dr",
    "address_councildis": "C",
    "status": "Pending",
    "rowid": "1202843",
    "final_x": "3706682.07691",
    "final_y": "513870.72165",
    "longitude": "-89.98920880085456",
    "latitude": "29.906177759542356",
    "geocoded_column": {
      "latitude": "29.906177759542356",
      "longitude": "-89.98920880085456"
    }
  },
  {
    "service_request": "2025-1202842",
    "request_type": "Trash/Recycling",
    "request_reason": "Order Trash Cart",
    "date_created": "2025-06-20T13:58:28.000",
    "date_modified": "2025-06-20T13:58:29.000",
    "request_status": "Pending",
    "responsible_agency": "Department of Sanitation",
    "final_address": "4909 St Claude Ave",
    "address_councildis": "E",
    "status": "Assigned to Contractor",
    "contractor": "Waste Pro",
    "rowid": "1202842",
    "final_x": "3695516.3464",
    "final_y": "534493.739141",
    "longitude": "-90.02370464712493",
    "latitude": "29.96323940476458",
    "geocoded_column": {
      "latitude": "29.96323940476458",
      "longitude": "-90.02370464712493"
    }
  },
  {
    "service_request": "2025-1202841",
    "request_type": "Trash/Recycling",
    "request_reason": "Request a Large Item Pick Up",
    "date_created": "2025-06-20T13:58:24.000",
    "date_modified": "2025-06-20T13:58:25.000",
    "request_status": "Pending",
    "responsible_agency": "Department of Sanitation",
    "final_address": "3064 St Philip St",
    "address_councildis": "A",
    "status": "Assigned to Contractor",
    "contractor": "IV Waste",
    "rowid": "1202841",
    "final_x": "3675949.30261",
    "final_y": "538879.550537",
    "longitude": "-90.0853443369946",
    "latitude": "29.975899320997936",
    "geocoded_column": {
      "latitude": "29.975899320997936",
      "longitude": "-90.0853443369946"
    }
  },
  {
    "service_request": "2025-1202840",
    "request_type": "Abandoned Vehicles",
    "request_reason": "Abandoned/Junk Vehicles",
    "date_created": "2025-06-20T13:57:35.000",
    "date_modified": "2025-06-20T13:57:37.000",
    "request_status": "Pending",
    "responsible_agency": "Department of Public Works",
    "final_address": "1508 Pauger St",
    "address_councildis": "C",
    "status": "Pending",
    "rowid": "1202840",
    "final_x": "3683916.55785",
    "final_y": "535218.121286",
    "longitude": "-90.06030997850291",
    "latitude": "29.96559065399639",
    "geocoded_column": {
      "latitude": "29.96559065399639",
      "longitude": "-90.06030997850291"
    }
  },
  {
    "service_request": "2025-1202839",
    "request_type": "Trash/Recycling",
    "request_reason": "Request a Large Item Pick Up",
    "date_created": "2025-06-20T13:56:27.000",
    "date_modified": "2025-06-20T13:56:28.000",
    "request_status": "Pending",
    "responsible_agency": "Department of Sanitation",
    "final_address": "1320 Calhoun St",
    "address_councildis": "A",
    "status": "Assigned to Contractor",
    "contractor": "IV Waste",
    "rowid": "1202839",
    "final_x": "3664131.74164",
    "final_y": "521473.305401",
    "longitude": "-90.12324830209855",
    "latitude": "29.92838639979688",
    "geocoded_column": {
      "latitude": "29.92838639979688",
      "longitude": "-90.12324830209855"
    }
  },
  {
    "service_request": "2025-1202838",
    "request_type": "Trash/Recycling",
    "request_reason": "Order Trash Cart",
    "date_created": "2025-06-20T13:55:27.000",
    "date_modified": "2025-06-20T13:55:29.000",
    "request_status": "Pending",
    "responsible_agency": "Department of Sanitation",
    "final_address": "4909 St Claude Ave",
    "address_councildis": "E",
    "status": "Assigned to Contractor",
    "contractor": "Waste Pro",
    "rowid": "1202838",
    "final_x": "3695516.3464",
    "final_y": "534493.739141",
    "longitude": "-90.02370464712493",
    "latitude": "29.96323940476458",
    "geocoded_column": {
      "latitude": "29.96323940476458",
      "longitude": "-90.02370464712493"
    }
  },
  {
    "service_request": "2025-1202837",
    "request_type": "Roads and Streets",
    "request_reason": "ADA Ramps Damaged or Missing",
    "date_created": "2025-06-20T13:53:27.000",
    "date_modified": "2025-06-20T13:56:59.000",
    "request_status": "Pending",
    "responsible_agency": "Department of Public Works",
    "final_address": "MAPLE ST & S CARROLLTON AVE",
    "address_councildis": "A",
    "status": "Pending",
    "rowid": "1202837",
    "final_x": "3661040.4",
    "final_y": "527309.98",
    "longitude": "-90.13281400328965",
    "latitude": "29.944524820534618",
    "geocoded_column": {
      "latitude": "29.944524820534618",
      "longitude": "-90.13281400328965"
    }
  },
  {
    "service_request": "2025-1202836",
    "request_type": "Trash/Recycling",
    "request_reason": "Illegal Dumping",
    "date_created": "2025-06-20T13:52:30.000",
    "date_modified": "2025-06-20T13:52:31.000",
    "request_status": "Pending",
    "responsible_agency": "Department of Sanitation",
    "final_address": "1037 Poland Ave",
    "address_councildis": "C",
    "status": "Pending",
    "rowid": "1202836",
    "final_x": "3693062.23216",
    "final_y": "534809.35207",
    "longitude": "-90.03144310043672",
    "latitude": "29.964184126339873",
    "geocoded_column": {
      "latitude": "29.964184126339873",
      "longitude": "-90.03144310043672"
    }
  },
  {
    "service_request": "2025-1202835",
    "request_type": "Trash/Recycling",
    "request_reason": "Request a Large Item Pick Up",
    "date_created": "2025-06-20T13:52:19.000",
    "date_modified": "2025-06-20T13:52:27.000",
    "request_status": "Pending",
    "responsible_agency": "Department of Sanitation",
    "final_address": "13726 N Lemans St",
    "address_councildis": "E",
    "status": "Assigned to Contractor",
    "contractor": "Waste Pro",
    "rowid": "1202835",
    "final_x": "3726788.91181",
    "final_y": "563566.63056",
    "longitude": "-89.92382164443553",
    "latitude": "30.042158425147097",
    "geocoded_column": {
      "latitude": "30.042158425147097",
      "longitude": "-89.92382164443553"
    }
  },
  {
    "service_request": "2025-1202834",
    "request_type": "Trash/Recycling",
    "request_reason": "Order Second Trash Cart",
    "date_created": "2025-06-20T13:51:42.000",
    "date_modified": "2025-06-20T13:51:44.000",
    "request_status": "Pending",
    "responsible_agency": "Department of Sanitation",
    "final_address": "3215 Canal St",
    "address_councildis": "B",
    "status": "Assigned to Contractor",
    "contractor": "IV Waste",
    "rowid": "1202834",
    "final_x": "3673831.49883",
    "final_y": "536406.892679",
    "longitude": "-90.09211757095103",
    "latitude": "29.969163604691754",
    "geocoded_column": {
      "latitude": "29.969163604691754",
      "longitude": "-90.09211757095103"
    }
  },
  {
    "service_request": "2025-1202833",
    "request_type": "Trash/Recycling",
    "request_reason": "Order Second Trash Cart",
    "date_created": "2025-06-20T13:50:12.000",
    "date_modified": "2025-06-20T13:50:14.000",
    "request_status": "Pending",
    "responsible_agency": "Department of Sanitation",
    "final_address": "2722 Banks St",
    "address_councildis": "B",
    "status": "Assigned to Contractor",
    "contractor": "IV Waste",
    "rowid": "1202833",
    "final_x": "3674397.71912",
    "final_y": "534232.450245",
    "longitude": "-90.09040389273228",
    "latitude": "29.963167744302833",
    "geocoded_column": {
      "latitude": "29.963167744302833",
      "longitude": "-90.09040389273228"
    }
  },
  {
    "service_request": "2025-1202832",
    "request_type": "Abandoned Vehicles",
    "request_reason": "Abandoned/Junk Vehicles",
    "date_created": "2025-06-20T13:47:12.000",
    "date_modified": "2025-06-20T13:47:13.000",
    "request_status": "Pending",
    "responsible_agency": "Department of Public Works",
    "final_address": "1620 Simon Bolivar Ave",
    "address_councildis": "B",
    "status": "Pending",
    "rowid": "1202832",
    "final_x": "3677115.85211",
    "final_y": "526274.553598",
    "longitude": "-90.08209475859704",
    "latitude": "29.941204835645156",
    "geocoded_column": {
      "latitude": "29.941204835645156",
      "longitude": "-90.08209475859704"
    }
  },
  {
    "service_request": "2025-1202831",
    "request_type": "Mosquito, Termite & Rodent Control",
    "request_reason": "Mosquito Complaint",
    "date_created": "2025-06-20T13:46:53.000",
    "date_modified": "2025-06-20T13:46:54.000",
    "request_status": "Pending",
    "responsible_agency": "Mosquito, Termite & Rodent Control Board",
    "final_address": "1810 Valence St",
    "address_councildis": "B",
    "status": "Pending",
    "rowid": "1202831",
    "final_x": "3669578.80071",
    "final_y": "521581.831289",
    "longitude": "-90.1060494031195",
    "latitude": "29.928525513425203",
    "geocoded_column": {
      "latitude": "29.928525513425203",
      "longitude": "-90.1060494031195"
    }
  },
  {
    "service_request": "2025-1202830",
    "request_type": "Property Maintenance",
    "request_reason": "Property Maintenance",
    "date_created": "2025-06-20T13:46:45.000",
    "date_modified": "2025-06-20T13:46:47.000",
    "request_status": "Pending",
    "responsible_agency": "Department of Code Enforcement",
    "final_address": "5909 Dauphine St",
    "address_councildis": "E",
    "status": "Pending",
    "rowid": "1202830",
    "final_x": "3698701.2584",
    "final_y": "532407.539203",
    "longitude": "-90.01372299267838",
    "latitude": "29.95740262044336",
    "geocoded_column": {
      "latitude": "29.95740262044336",
      "longitude": "-90.01372299267838"
    }
  },
  {
    "service_request": "2025-1202829",
    "request_type": "Property Maintenance",
    "request_reason": "Property Maintenance",
    "date_created": "2025-06-20T13:44:58.000",
    "date_modified": "2025-06-20T13:45:00.000",
    "request_status": "Pending",
    "responsible_agency": "Department of Code Enforcement",
    "final_address": "5909 Dauphine St",
    "address_councildis": "E",
    "status": "Pending",
    "rowid": "1202829",
    "final_x": "3698701.2584",
    "final_y": "532407.539203",
    "longitude": "-90.01372299267838",
    "latitude": "29.95740262044336",
    "geocoded_column": {
      "latitude": "29.95740262044336",
      "longitude": "-90.01372299267838"
    }
  },
  {
    "service_request": "2025-1202828",
    "request_type": "Parks & Parkways",
    "request_reason": "Request Tree Service (Right of Way/Public Property)",
    "date_created": "2025-06-20T13:40:58.000",
    "date_modified": "2025-06-20T13:41:00.000",
    "request_status": "Pending",
    "responsible_agency": "Department of Parks & Parkway",
    "final_address": "7022 Wuerpel St",
    "address_councildis": "A",
    "status": "Pending",
    "rowid": "1202828",
    "final_x": "3667331.98759",
    "final_y": "554369.124568",
    "longitude": "-90.1120389545582",
    "latitude": "30.018745572142976",
    "geocoded_column": {
      "latitude": "30.018745572142976",
      "longitude": "-90.1120389545582"
    }
  },
  {
    "service_request": "2025-1202827",
    "request_type": "Parks & Parkways",
    "request_reason": "Request Tree Service (Right of Way/Public Property)",
    "date_created": "2025-06-20T13:38:11.000",
    "date_modified": "2025-06-20T13:38:13.000",
    "request_status": "Pending",
    "responsible_agency": "Department of Parks & Parkway",
    "final_address": "4424 Fontainebleau Dr",
    "address_councildis": "A",
    "status": "Pending",
    "rowid": "1202827",
    "final_x": "3668990.63214",
    "final_y": "529566.680001",
    "longitude": "-90.10763649959173",
    "latitude": "29.950498579154726",
    "geocoded_column": {
      "latitude": "29.950498579154726",
      "longitude": "-90.10763649959173"
    }
  },
  {
    "service_request": "2025-1202826",
    "request_type": "Parks & Parkways",
    "request_reason": "Request Tree Service (Right of Way/Public Property)",
    "date_created": "2025-06-20T13:35:58.000",
    "date_modified": "2025-06-20T13:36:00.000",
    "request_status": "Pending",
    "responsible_agency": "Department of Parks & Parkway",
    "final_address": "7022 Wuerpel St",
    "address_councildis": "A",
    "status": "Pending",
    "rowid": "1202826",
    "final_x": "3667331.98759",
    "final_y": "554369.124568",
    "longitude": "-90.1120389545582",
    "latitude": "30.018745572142976",
    "geocoded_column": {
      "latitude": "30.018745572142976",
      "longitude": "-90.1120389545582"
    }
  },
  {
    "service_request": "2025-1202825",
    "request_type": "Drainage",
    "request_reason": "Catch Basin Clogged",
    "date_created": "2025-06-20T13:34:15.000",
    "date_modified": "2025-06-20T13:34:18.000",
    "request_status": "Pending",
    "responsible_agency": "Sewerage & Water Board",
    "final_address": "8700 Apricot St",
    "address_councildis": "A",
    "status": "Pending",
    "rowid": "1202825",
    "final_x": "3664170.33543",
    "final_y": "534074.321477",
    "longitude": "-90.1227061909471",
    "latitude": "29.963034025438528",
    "geocoded_column": {
      "latitude": "29.963034025438528",
      "longitude": "-90.1227061909471"
    }
  },
  {
    "service_request": "2025-1202824",
    "request_type": "Mosquito, Termite & Rodent Control",
    "request_reason": "Rodent Complaint (Mice & Rats)",
    "date_created": "2025-06-20T13:31:28.000",
    "date_modified": "2025-06-20T13:31:30.000",
    "request_status": "Pending",
    "responsible_agency": "Mosquito, Termite & Rodent Control Board",
    "final_address": "5958 Vienna Ct",
    "address_councildis": "D",
    "status": "Pending",
    "rowid": "1202824",
    "final_x": "3688390.37475",
    "final_y": "555401.874393",
    "longitude": "-90.04546548790701",
    "latitude": "30.020951280676186",
    "geocoded_column": {
      "latitude": "30.020951280676186",
      "longitude": "-90.04546548790701"
    }
  },
  {
    "service_request": "2025-1202823",
    "request_type": "Trash/Recycling",
    "request_reason": "Request a Large Item Pick Up",
    "date_created": "2025-06-20T13:29:26.000",
    "date_modified": "2025-06-20T13:29:31.000",
    "request_status": "Pending",
    "responsible_agency": "Department of Sanitation",
    "final_address": "11276 Waverly Dr",
    "address_councildis": "E",
    "status": "Assigned to Contractor",
    "contractor": "Waste Pro",
    "rowid": "1202823",
    "final_x": "3717614.17701",
    "final_y": "560210.778781",
    "longitude": "-89.95294474693365",
    "latitude": "30.033238320507976",
    "geocoded_column": {
      "latitude": "30.033238320507976",
      "longitude": "-89.95294474693365"
    }
  },
  {
    "service_request": "2025-1202822",
    "request_type": "Property Maintenance",
    "request_reason": "Property Maintenance",
    "date_created": "2025-06-20T13:25:25.000",
    "date_modified": "2025-06-20T13:25:27.000",
    "request_status": "Pending",
    "responsible_agency": "Department of Code Enforcement",
    "final_address": "3125 N Claiborne Ave",
    "address_councildis": "D",
    "status": "Pending",
    "rowid": "1202822",
    "final_x": "3689669.80675",
    "final_y": "537853.282953",
    "longitude": "-90.04204773045547",
    "latitude": "29.97265941533431",
    "geocoded_column": {
      "latitude": "29.97265941533431",
      "longitude": "-90.04204773045547"
    }
  },
  {
    "service_request": "2025-1202821",
    "request_type": "Streetlights",
    "request_reason": "Streetlight Outage/Malfunction",
    "date_created": "2025-06-20T13:25:25.000",
    "date_modified": "2025-06-20T13:25:27.000",
    "request_status": "Pending",
    "responsible_agency": "Department of Public Works",
    "final_address": "2008 Marigny St",
    "address_councildis": "D",
    "status": "Pending",
    "contractor": "Legacy Professional Services",
    "rowid": "1202821",
    "final_x": "3685103.16354",
    "final_y": "539750.796362",
    "longitude": "-90.05640321691683",
    "latitude": "29.978017628497213",
    "geocoded_column": {
      "latitude": "29.978017628497213",
      "longitude": "-90.05640321691683"
    }
  },
  {
    "service_request": "2025-1202820",
    "request_type": "Streetlights",
    "request_reason": "Streetlight Outage/Malfunction",
    "date_created": "2025-06-20T13:23:59.000",
    "date_modified": "2025-06-20T13:24:01.000",
    "request_status": "Pending",
    "responsible_agency": "Department of Public Works",
    "final_address": "2001 Marigny St",
    "address_councildis": "D",
    "status": "Pending",
    "contractor": "Legacy Professional Services",
    "rowid": "1202820",
    "final_x": "3685181.49167",
    "final_y": "539685.063562",
    "longitude": "-90.05615814353727",
    "latitude": "29.977834485985184",
    "geocoded_column": {
      "latitude": "29.977834485985184",
      "longitude": "-90.05615814353727"
    }
  },
  {
    "service_request": "2025-1202819",
    "request_type": "Trash/Recycling",
    "request_reason": "Order Second Trash Cart",
    "date_created": "2025-06-20T13:22:47.000",
    "date_modified": "2025-06-20T13:22:48.000",
    "request_status": "Pending",
    "responsible_agency": "Department of Sanitation",
    "final_address": "6527 Pauline Dr",
    "address_councildis": "D",
    "status": "Assigned to Contractor",
    "contractor": "IV Waste",
    "rowid": "1202819",
    "final_x": "3691051.63299",
    "final_y": "557801.343835",
    "longitude": "-90.03697093229633",
    "latitude": "30.027466407291982",
    "geocoded_column": {
      "latitude": "30.027466407291982",
      "longitude": "-90.03697093229633"
    }
  },
  {
    "service_request": "2025-1202818",
    "request_type": "Trash/Recycling",
    "request_reason": "Request a Large Item Pick Up",
    "date_created": "2025-06-20T13:22:09.000",
    "date_modified": "2025-06-20T13:22:11.000",
    "request_status": "Pending",
    "responsible_agency": "Department of Sanitation",
    "final_address": "3018 Fern St",
    "address_councildis": "B",
    "status": "Assigned to Contractor",
    "contractor": "IV Waste",
    "rowid": "1202818",
    "final_x": "3666911.08205",
    "final_y": "532799.320324",
    "longitude": "-90.1140940566914",
    "latitude": "29.959448285204",
    "geocoded_column": {
      "latitude": "29.959448285204",
      "longitude": "-90.1140940566914"
    }
  },
  {
    "service_request": "2025-1202817",
    "request_type": "Trash/Recycling",
    "request_reason": "Request a Large Item Pick Up",
    "date_created": "2025-06-20T13:17:14.000",
    "date_modified": "2025-06-20T13:17:15.000",
    "request_status": "Pending",
    "responsible_agency": "Department of Sanitation",
    "final_address": "4854 Rosemont Pl",
    "address_councildis": "E",
    "status": "Assigned to Contractor",
    "contractor": "Waste Pro",
    "rowid": "1202817",
    "final_x": "3702573.23063",
    "final_y": "555563.483737",
    "longitude": "-90.00064612929299",
    "latitude": "30.020949704392105",
    "geocoded_column": {
      "latitude": "30.020949704392105",
      "longitude": "-90.00064612929299"
    }
  },
  {
    "service_request": "2025-1202816",
    "request_type": "Drainage",
    "request_reason": "Catch Basin Clogged",
    "date_created": "2025-06-20T13:16:33.000",
    "date_modified": "2025-06-20T13:16:35.000",
    "request_status": "Pending",
    "responsible_agency": "Sewerage & Water Board",
    "final_address": "500 S Gayoso St",
    "address_councildis": "B",
    "status": "Pending",
    "rowid": "1202816",
    "final_x": "3673379.19099",
    "final_y": "534541.839493",
    "longitude": "-90.09360972003024",
    "latitude": "29.96404880070456",
    "geocoded_column": {
      "latitude": "29.96404880070456",
      "longitude": "-90.09360972003024"
    }
  },
  {
    "service_request": "2025-1202815",
    "request_type": "Trash/Recycling",
    "request_reason": "Illegal Dumping",
    "date_created": "2025-06-20T13:14:57.000",
    "date_modified": "2025-06-20T13:14:58.000",
    "request_status": "Pending",
    "responsible_agency": "Department of Sanitation",
    "final_address": "NO HAMMOND HWY & BELLAIRE DR",
    "address_councildis": "A",
    "status": "Pending",
    "rowid": "1202815",
    "final_x": "3664702.0",
    "final_y": "554729.58",
    "longitude": "-90.12033675428565",
    "latitude": "30.01981351285139",
    "geocoded_column": {
      "latitude": "30.01981351285139",
      "longitude": "-90.12033675428565"
    }
  },
  {
    "service_request": "2025-1202814",
    "request_type": "Trash/Recycling",
    "request_reason": "Return Trash Cart",
    "date_created": "2025-06-20T13:14:39.000",
    "date_modified": "2025-06-20T13:14:40.000",
    "request_status": "Pending",
    "responsible_agency": "Department of Sanitation",
    "final_address": "3220 Chestnut St",
    "address_councildis": "B",
    "status": "Assigned to Contractor",
    "contractor": "IV Waste",
    "rowid": "1202814",
    "final_x": "3675320.22005",
    "final_y": "520541.424504",
    "longitude": "-90.08796064153837",
    "latitude": "29.925494391230455",
    "geocoded_column": {
      "latitude": "29.925494391230455",
      "longitude": "-90.08796064153837"
    }
  },
  {
    "service_request": "2025-1202813",
    "request_type": "Trash/Recycling",
    "request_reason": "Repair Trash Cart",
    "date_created": "2025-06-20T13:14:10.000",
    "date_modified": "2025-06-20T13:14:11.000",
    "request_status": "Pending",
    "responsible_agency": "Department of Sanitation",
    "final_address": "2739 Ap Tureaud Ave",
    "address_councildis": "D",
    "status": "Assigned to Contractor",
    "contractor": "IV Waste",
    "rowid": "1202813",
    "final_x": "3681571.97832",
    "final_y": "542595.909773",
    "longitude": "-90.06745666499296",
    "latitude": "29.985948426674693",
    "geocoded_column": {
      "latitude": "29.985948426674693",
      "longitude": "-90.06745666499296"
    }
  },
  {
    "service_request": "2025-1202812",
    "request_type": "Trash/Recycling",
    "request_reason": "Replace Trash Cart",
    "date_created": "2025-06-20T13:12:02.000",
    "date_modified": "2025-06-20T13:12:04.000",
    "request_status": "Pending",
    "responsible_agency": "Department of Sanitation",
    "final_address": "576 Lakeshore Prkwy",
    "address_councildis": "D",
    "status": "Assigned to Contractor",
    "contractor": "IV Waste",
    "rowid": "1202812",
    "final_x": "3668880.31822",
    "final_y": "556988.385754",
    "longitude": "-90.10705819942028",
    "latitude": "30.025902139655276",
    "geocoded_column": {
      "latitude": "30.025902139655276",
      "longitude": "-90.10705819942028"
    }
  },
  {
    "service_request": "2025-1202811",
    "request_type": "Trash/Recycling",
    "request_reason": "Repair Trash Cart",
    "date_created": "2025-06-20T13:11:39.000",
    "date_modified": "2025-06-20T13:11:41.000",
    "request_status": "Pending",
    "responsible_agency": "Department of Sanitation",
    "final_address": "576 Lakeshore Prkwy",
    "address_councildis": "D",
    "status": "Assigned to Contractor",
    "contractor": "IV Waste",
    "rowid": "1202811",
    "final_x": "3668880.31822",
    "final_y": "556988.385754",
    "longitude": "-90.10705819942028",
    "latitude": "30.025902139655276",
    "geocoded_column": {
      "latitude": "30.025902139655276",
      "longitude": "-90.10705819942028"
    }
  },
  {
    "service_request": "2025-1202810",
    "request_type": "Trash/Recycling",
    "request_reason": "Request a Large Item Pick Up",
    "date_created": "2025-06-20T13:05:55.000",
    "date_modified": "2025-06-20T13:06:08.000",
    "request_status": "Pending",
    "responsible_agency": "Department of Sanitation",
    "final_address": "2020 Marais St",
    "address_councildis": "C",
    "status": "Assigned to Contractor",
    "contractor": "IV Waste",
    "rowid": "1202810",
    "final_x": "3684382.84956",
    "final_y": "536589.267783",
    "longitude": "-90.05878928675388",
    "latitude": "29.969346579460158",
    "geocoded_column": {
      "latitude": "29.969346579460158",
      "longitude": "-90.05878928675388"
    }
  },