[
  {
    "service_request": "2022-904260",
    "request_type": "Traffic Signals/Signs/Striping/Streetlights",
    "request_reason": "Street Light Outage/Malfunction",
    "date_created": "2022-07-28T02:06:47.000",
    "date_modified": "2022-07-28T02:06:48.000",
    "request_status": "Pending",
    "responsible_agency": "Department of Public Works",
    "final_address": "3300 Lamarque St",
    "address_councildis": "C",
    "status": "Pending",
    "contractor": "Royal Engineering",
    "rowid": "904260",
    "final_x": "3696403.43453",
    "final_y": "526672.414142",
    "longitude": "-90.0211861754145",
    "latitude": "29.941705595191593",
    "geocoded_column": {
      "latitude": "29.941705595191593",
      "longitude": "-90.0211861754145"
    }
  },
  {
    "service_request": "2022-904259",
    "request_type": "Property Maintenance",
    "request_reason": "Property Maintenance",
    "date_created": "2022-07-28T01:15:39.000",
    "date_modified": "2022-07-28T01:15:39.000",
    "request_status": "Pending",
    "responsible_agency": "Department of Code Enforcement",
    "final_address": "3210 Toledano St",
    "address_councildis": "B",
    "status": "Pending",
    "rowid": "904259",
    "final_x": "3672087.54446",
    "final_y": "527432.341247",
    "longitude": "-90.09793069328155",
    "latitude": "29.944538395412817",
    "geocoded_column": {
      "latitude": "29.944538395412817",
      "longitude": "-90.09793069328155"
    }
  },
  {
    "service_request": "2022-904258",
    "request_type": "Property Maintenance",
    "request_reason": "Property Maintenance",
    "date_created": "2022-07-28T01:13:43.000",
    "date_modified": "2022-07-28T01:13:43.000",
    "request_status": "Pending",
    "responsible_agency": "Department of Code Enforcement",
    "final_address": "3725 Delachaise St",
    "address_councildis": "B",
    "status": "Pending",
    "rowid": "904258",
    "final_x": "3671182.29607",
    "final_y": "528535.110528",
    "longitude": "-90.10075138133209",
    "latitude": "29.947597456209472",
    "geocoded_column": {
      "latitude": "29.947597456209472",
      "longitude": "-90.10075138133209"
    }
  },
  {
    "service_request": "2022-904257",
    "request_type": "Property Maintenance",
    "request_reason": "Property Maintenance",
    "date_created": "2022-07-28T01:12:41.000",
    "date_modified": "2022-07-28T01:12:41.000",
    "request_status": "Pending",
    "responsible_agency": "Department of Code Enforcement",
    "final_address": "3412 Robert St",
    "address_councildis": "B",
    "status": "Pending",
    "rowid": "904257",
    "final_x": "3668860.0201",
    "final_y": "527418.099583",
    "longitude": "-90.10812144640931",
    "latitude": "29.944594523744946",
    "geocoded_column": {
      "latitude": "29.944594523744946",
      "longitude": "-90.10812144640931"
    }
  },
  {
    "service_request": "2022-904256",
    "request_type": "Property Maintenance",
    "request_reason": "Property Maintenance",
    "date_created": "2022-07-28T01:11:34.000",
    "date_modified": "2022-07-28T01:11:34.000",
    "request_status": "Pending",
    "responsible_agency": "Department of Code Enforcement",
    "final_address": "3520 S Tonti St",
    "address_councildis": "B",
    "status": "Pending",
    "rowid": "904256",
    "final_x": "3671051.14267",
    "final_y": "528213.922304",
    "longitude": "-90.10117638988926",
    "latitude": "29.946718172345868",
    "geocoded_column": {
      "latitude": "29.946718172345868",
      "longitude": "-90.10117638988926"
    }
  },
  {
    "service_request": "2022-904255",
    "request_type": "Property Maintenance",
    "request_reason": "Property Maintenance",
    "date_created": "2022-07-28T01:09:04.000",
    "date_modified": "2022-07-28T01:09:04.000",
    "request_status": "Pending",
    "responsible_agency": "Department of Code Enforcement",
    "final_address": "3712 S Rocheblave St",
    "address_councildis": "B",
    "status": "Pending",
    "rowid": "904255",
    "final_x": "3671015.96436",
    "final_y": "528536.374912",
    "longitude": "-90.10127651377437",
    "latitude": "29.947605851597906",
    "geocoded_column": {
      "latitude": "29.947605851597906",
      "longitude": "-90.10127651377437"
    }
  },
  {
    "service_request": "2022-904254",
    "request_type": "Trash/Recycling",
    "request_reason": "Request a Large Item Pick Up",
    "date_created": "2022-07-28T01:02:13.000",
    "date_modified": "2022-07-28T01:02:14.000",
    "request_status": "Pending",
    "responsible_agency": "Department of Sanitation",
    "final_address": "7602 Sycamore St",
    "address_councildis": "A",
    "status": "Assigned to Contractor",
    "contractor": "Richards Disposal",
    "rowid": "904254",
    "final_x": "3665568.20135",
    "final_y": "529728.284801",
    "longitude": "-90.11843739617154",
    "latitude": "29.951043160126638",
    "geocoded_column": {
      "latitude": "29.951043160126638",
      "longitude": "-90.11843739617154"
    }
  },
  {
    "service_request": "2022-904253",
    "request_type": "Traffic Signals/Signs/Striping/Streetlights",
    "request_reason": "Traffic Sign Missing/Damaged",
    "date_created": "2022-07-28T01:00:25.000",
    "date_modified": "2022-07-28T01:00:25.000",
    "request_status": "Pending",
    "responsible_agency": "Department of Public Works",
    "final_address": "918 Melpomene St",
    "address_councildis": "B",
    "status": "Pending",
    "rowid": "904253",
    "final_x": "3681078.88059",
    "final_y": "524700.809212",
    "longitude": "-90.06963753700248",
    "latitude": "29.936757973332778",
    "geocoded_column": {
      "latitude": "29.936757973332778",
      "longitude": "-90.06963753700248"
    }
  },
  {
    "service_request": "2022-904251",
    "request_type": "Abandoned Vehicles",
    "request_reason": "Abandoned/Junk Vehicles",
    "date_created": "2022-07-27T23:50:06.000",
    "date_modified": "2022-07-27T23:50:06.000",
    "request_status": "Pending",
    "responsible_agency": "Department of Public Works",
    "final_address": "122 Huntlee Dr",
    "address_councildis": "C",
    "status": "Pending",
    "rowid": "904251",
    "final_x": "3702491.19793",
    "final_y": "524060.124412",
    "longitude": "-90.0020618278109",
    "latitude": "29.934329621861657",
    "geocoded_column": {
      "latitude": "29.934329621861657",
      "longitude": "-90.0020618278109"
    }
  },
  {
    "service_request": "2022-904250",
    "request_type": "Traffic Signals/Signs/Striping/Streetlights",
    "request_reason": "Street Light Outage/Malfunction",
    "date_created": "2022-07-27T23:40:13.000",
    "date_modified": "2022-07-27T23:40:13.000",
    "request_status": "Pending",
    "responsible_agency": "Department of Public Works",
    "final_address": "3700 Red Oak Ct",
    "address_councildis": "C",
    "status": "Pending",
    "contractor": "Royal Engineering",
    "rowid": "904250",
    "final_x": "3703184.79646",
    "final_y": "514105.619634",
    "longitude": "-90.00023779095375",
    "latitude": "29.90693599060036",
    "geocoded_column": {
      "latitude": "29.90693599060036",
      "longitude": "-90.00023779095375"
    }
  },
  {
    "service_request": "2022-904249",
    "request_type": "Property Maintenance",
    "request_reason": "Property Maintenance",
    "date_created": "2022-07-27T23:00:33.000",
    "date_modified": "2022-07-27T23:00:33.000",
    "request_status": "Pending",
    "responsible_agency": "Department of Code Enforcement",
    "final_address": "7310 Beauvoir Ct",
    "address_councildis": "E",
    "status": "Pending",
    "rowid": "904249",
    "final_x": "3716072.59384",
    "final_y": "567768.2801",
    "longitude": "-89.95752949510504",
    "latitude": "30.054069351924312",
    "geocoded_column": {
      "latitude": "30.054069351924312",
      "longitude": "-89.95752949510504"
    }
  },
  {
    "service_request": "2022-904248",
    "request_type": "Trash/Recycling",
    "request_reason": "MIssed Recycling Pick-Up",
    "date_created": "2022-07-27T22:58:17.000",
    "date_modified": "2022-07-27T22:58:18.000",
    "request_status": "Pending",
    "responsible_agency": "Department of Sanitation",
    "final_address": "1528 St Philip St",
    "address_councildis": "C",
    "status": "Assigned to Contractor",
    "contractor": "Richards Disposal",
    "rowid": "904248",
    "final_x": "3680772.24552",
    "final_y": "535182.214022",
    "longitude": "-90.07024083428946",
    "latitude": "29.96558760095176",
    "geocoded_column": {
      "latitude": "29.96558760095176",
      "longitude": "-90.07024083428946"
    }
  },
  {
    "service_request": "2022-904247",
    "request_type": "Abandoned Vehicles",
    "request_reason": "Abandoned/Junk Vehicles",
    "date_created": "2022-07-27T22:47:29.000",
    "date_modified": "2022-07-27T22:47:29.000",
    "request_status": "Pending",
    "responsible_agency": "Department of Public Works",
    "final_address": "122 Huntlee Dr",
    "address_councildis": "C",
    "status": "Pending",
    "rowid": "904247",
    "final_x": "3702491.19793",
    "final_y": "524060.124412",
    "longitude": "-90.0020618278109",
    "latitude": "29.934329621861657",
    "geocoded_column": {
      "latitude": "29.934329621861657",
      "longitude": "-90.0020618278109"
    }
  },
  {
    "service_request": "2022-904246",
    "request_type": "Traffic Signals/Signs/Striping/Streetlights",
    "request_reason": "Street Light Outage/Malfunction",
    "date_created": "2022-07-27T22:21:36.000",
    "date_modified": "2022-07-27T22:21:37.000",
    "request_status": "Pending",
    "responsible_agency": "Department of Public Works",
    "final_address": "6309 Franklin Ave",
    "address_councildis": "D",
    "status": "Pending",
    "contractor": "Royal Engineering",
    "rowid": "904246",
    "final_x": "3686412.98492",
    "final_y": "556481.809498",
    "longitude": "-90.05167528977196",
    "latitude": "30.023981663832885",
    "geocoded_column": {
      "latitude": "30.023981663832885",
      "longitude": "-90.05167528977196"
    }
  },
  {
    "service_request": "2022-904245",
    "request_type": "Trash/Recycling",
    "request_reason": "Missed Trash Pick-Up",
    "date_created": "2022-07-27T22:20:28.000",
    "date_modified": "2022-07-27T22:20:29.000",
    "request_status": "Pending",
    "responsible_agency": "Department of Sanitation",
    "final_address": "1137 N White St",
    "address_councildis": "A",
    "status": "Assigned to Contractor",
    "contractor": "Richards Disposal",
    "rowid": "904245",
    "final_x": "3677303.9156",
    "final_y": "539090.394122",
    "longitude": "-90.08105880221716",
    "latitude": "29.976438431181467",
    "geocoded_column": {
      "latitude": "29.976438431181467",
      "longitude": "-90.08105880221716"
    }
  },
  {
    "service_request": "2022-904244",
    "request_type": "Traffic Signals/Signs/Striping/Streetlights",
    "request_reason": "Street Light Outage/Malfunction",
    "date_created": "2022-07-27T22:16:21.000",
    "date_modified": "2022-07-27T22:16:22.000",
    "request_status": "Pending",
    "responsible_agency": "Department of Public Works",
    "final_address": "2500 Myrtle St",
    "address_councildis": "D",
    "status": "Pending",
    "contractor": "Royal Engineering",
    "rowid": "904244",
    "final_x": "3686499.2077",
    "final_y": "545953.07848",
    "longitude": "-90.05177493524461",
    "latitude": "29.99502884704932",
    "geocoded_column": {
      "latitude": "29.99502884704932",
      "longitude": "-90.05177493524461"
    }
  },
  {
    "service_request": "2022-904243",
    "request_type": "Trash/Recycling",
    "request_reason": "Missed Trash Pick-Up",
    "date_created": "2022-07-27T22:08:09.000",
    "date_modified": "2022-07-27T22:08:09.000",
    "request_status": "Pending",
    "responsible_agency": "Department of Sanitation",
    "final_address": "1716 Peniston St",
    "address_councildis": "B",
    "status": "Assigned to Contractor",
    "contractor": "Richards Disposal",
    "rowid": "904243",
    "final_x": "3672703.25512",
    "final_y": "521676.042169",
    "longitude": "-90.09618293650352",
    "latitude": "29.928692174491566",
    "geocoded_column": {
      "latitude": "29.928692174491566",
      "longitude": "-90.09618293650352"
    }
  },
  {
    "service_request": "2022-904242",
    "request_type": "Traffic Signals/Signs/Striping/Streetlights",
    "request_reason": "Street Light Outage/Malfunction",
    "date_created": "2022-07-27T22:05:15.000",
    "date_modified": "2022-07-27T22:05:16.000",
    "request_status": "Pending",
    "responsible_agency": "Department of Public Works",
    "final_address": "FORTIN ST & MYSTERY ST",
    "address_councildis": "A",
    "status": "Pending",
    "contractor": "Royal Engineering",
    "rowid": "904242",
    "final_x": "3676112.6",
    "final_y": "540963.98",
    "longitude": "-90.08475686194268",
    "latitude": "29.981625894098187",
    "geocoded_column": {
      "latitude": "29.981625894098187",
      "longitude": "-90.08475686194268"
    }
  },
  {
    "service_request": "2022-904241",
    "request_type": "Property Maintenance",
    "request_reason": "Property Maintenance",
    "date_created": "2022-07-27T22:03:50.000",
    "date_modified": "2022-07-27T22:03:50.000",
    "request_status": "Pending",
    "responsible_agency": "Department of Code Enforcement",
    "final_address": "5436 Burgundy St",
    "address_councildis": "E",
    "status": "Pending",
    "rowid": "904241",
    "final_x": "3697193.15978",
    "final_y": "533087.91066",
    "longitude": "-90.01846043619516",
    "latitude": "29.959321071415825",
    "geocoded_column": {
      "latitude": "29.959321071415825",
      "longitude": "-90.01846043619516"
    }
  },
  {
    "service_request": "2022-904240",
    "request_type": "Property Maintenance",
    "request_reason": "Property Maintenance",
    "date_created": "2022-07-27T21:31:44.000",
    "date_modified": "2022-07-27T21:31:44.000",
    "request_status": "Pending",
    "responsible_agency": "Department of Code Enforcement",
    "final_address": "11110 Lake Forest Blvd",
    "address_councildis": "E",
    "status": "Pending",
    "rowid": "904240",
    "final_x": "3715747.04415",
    "final_y": "560729.799262",
    "longitude": "-89.9588253336553",
    "latitude": "30.03472713407765",
    "geocoded_column": {
      "latitude": "30.03472713407765",
      "longitude": "-89.9588253336553"
    }
  },
  {
    "service_request": "2022-904238",
    "request_type": "Traffic Signals/Signs/Striping/Streetlights",
    "request_reason": "Street Light Outage/Malfunction",
    "date_created": "2022-07-27T21:17:23.000",
    "date_modified": "2022-07-27T21:17:24.000",
    "request_status": "Pending",
    "responsible_agency": "Department of Public Works",
    "final_address": "3 Grand Canyon Ct",
    "address_councildis": "C",
    "status": "Pending",
    "contractor": "Royal Engineering",
    "rowid": "904238",
    "final_x": "3699417.76042",
    "final_y": "517268.744437",
    "longitude": "-90.012011754422",
    "latitude": "29.91575348490815",
    "geocoded_column": {
      "latitude": "29.91575348490815",
      "longitude": "-90.012011754422"
    }
  },
  {
    "service_request": "2022-904237",
    "request_type": "Roads/Drainage",
    "request_reason": "Catch Basin - Clogged",
    "date_created": "2022-07-27T21:14:28.000",
    "date_modified": "2022-07-27T21:14:28.000",
    "request_status": "Pending",
    "responsible_agency": "Department of Public Works",
    "final_address": "1700 Fern St",
    "address_councildis": "A",
    "status": "Pending",
    "rowid": "904237",
    "final_x": "3663710.84243",
    "final_y": "529199.635968",
    "longitude": "-90.12431964450678",
    "latitude": "29.949643564749703",
    "geocoded_column": {
      "latitude": "29.949643564749703",
      "longitude": "-90.12431964450678"
    }
  },
  {
    "service_request": "2022-904236",
    "request_type": "Trash/Recycling",
    "request_reason": "Missed Trash Pick-Up",
    "date_created": "2022-07-27T21:13:15.000",
    "date_modified": "2022-07-27T21:20:21.000",
    "request_status": "Pending",
    "responsible_agency": "Department of Sanitation",
    "final_address": "New Orleans,LA",
    "status": "Assigned to Contractor",
    "rowid": "904236",
    "longitude": "0.0",
    "latitude": "0.0",
    "geocoded_column": {
      "latitude": "0.0",
      "longitude": "0.0"
    }
  },
  {
    "service_request": "2022-904234",
    "request_type": "Trash/Recycling",
    "request_reason": "Missed Trash Pick-Up",
    "date_created": "2022-07-27T20:37:56.000",
    "date_modified": "2022-07-27T20:37:57.000",
    "request_status": "Pending",
    "responsible_agency": "Department of Sanitation",
    "final_address": "7432 Hurst St",
    "address_councildis": "A",
    "status": "Assigned to Contractor",
    "contractor": "Richards Disposal",
    "rowid": "904234",
    "final_x": "3661462.61306",
    "final_y": "524033.978172",
    "longitude": "-90.13158942548503",
    "latitude": "29.935504683472388",
    "geocoded_column": {
      "latitude": "29.935504683472388",
      "longitude": "-90.13158942548503"
    }
  },
  {
    "service_request": "2022-904233",
    "request_type": "Trash/Recycling",
    "request_reason": "Repair Trash Cart",
    "date_created": "2022-07-27T20:20:13.000",
    "date_modified": "2022-07-27T20:20:15.000",
    "request_status": "Pending",
    "responsible_agency": "Department of Sanitation",
    "final_address": "38 Newcomb Blvd, New Orleans, Louisiana, 70118",
    "address_councildis": "A",
    "status": "Assigned to Contractor",
    "contractor": "Richards Disposal",
    "rowid": "904233",
    "final_x": "3664023.11296",
    "final_y": "525562.426173",
    "longitude": "-90.12345492170233",
    "latitude": "29.939633340663864",
    "geocoded_column": {
      "latitude": "29.939633340663864",
      "longitude": "-90.12345492170233"
    }
  },
  {
    "service_request": "2022-904232",
    "request_type": "Property Maintenance",
    "request_reason": "Property Maintenance",
    "date_created": "2022-07-27T20:10:23.000",
    "date_modified": "2022-07-27T20:10:23.000",
    "request_status": "Pending",
    "responsible_agency": "Department of Code Enforcement",
    "final_address": "3519 S Miro St",
    "address_councildis": "B",
    "status": "Pending",
    "rowid": "904232",
    "final_x": "3671131.99271",
    "final_y": "527999.026879",
    "longitude": "-90.10092841403116",
    "latitude": "29.946124889391342",
    "geocoded_column": {
      "latitude": "29.946124889391342",
      "longitude": "-90.10092841403116"
    }
  },
  {
    "service_request": "2022-904231",
    "request_type": "Trash/Recycling",
    "request_reason": "Replace Trash Cart",
    "date_created": "2022-07-27T20:08:08.000",
    "date_modified": "2022-07-27T20:08:09.000",
    "request_status": "Pending",
    "responsible_agency": "Department of Sanitation",
    "final_address": "625 Lowerline St",
    "address_councildis": "A",
    "status": "Assigned to Contractor",
    "contractor": "Richards Disposal",
    "rowid": "904231",
    "final_x": "3662696.29882",
    "final_y": "525189.753853",
    "longitude": "-90.12765625785514",
    "latitude": "29.938647065437827",
    "geocoded_column": {
      "latitude": "29.938647065437827",
      "longitude": "-90.12765625785514"
    }
  },
  {
    "service_request": "2022-904230",
    "request_type": "Trash/Recycling",
    "request_reason": "Request a Large Item Pick Up",
    "date_created": "2022-07-27T20:00:52.000",
    "date_modified": "2022-07-27T20:00:53.000",
    "request_status": "Pending",
    "responsible_agency": "Department of Sanitation",
    "final_address": "5141 Carlisle Ct",
    "address_councildis": "C",
    "status": "Assigned to Contractor",
    "contractor": "Richards Disposal",
    "rowid": "904230",
    "final_x": "3703174.63895",
    "final_y": "516472.027317",
    "longitude": "-90.0001829538753",
    "latitude": "29.91344312926251",
    "geocoded_column": {
      "latitude": "29.91344312926251",
      "longitude": "-90.0001829538753"
    }
  },
  {
    "service_request": "2022-904229",
    "request_type": "Property Maintenance",
    "request_reason": "Property Maintenance",
    "date_created": "2022-07-27T19:52:57.000",
    "date_modified": "2022-07-27T19:52:57.000",
    "request_status": "Pending",
    "responsible_agency": "Department of Code Enforcement",
    "final_address": "2727 Milan St",
    "address_councildis": "B",
    "status": "Pending",
    "rowid": "904229",
    "final_x": "3671231.74817",
    "final_y": "525040.022333",
    "longitude": "-90.10071395255096",
    "latitude": "29.937985639587758",
    "geocoded_column": {
      "latitude": "29.937985639587758",
      "longitude": "-90.10071395255096"
    }
  },
  {
    "service_request": "2022-904228",
    "request_type": "Abandoned Vehicles",
    "request_reason": "Abandoned/Junk Vehicles",
    "date_created": "2022-07-27T19:52:02.000",
    "date_modified": "2022-07-27T19:52:02.000",
    "request_status": "Pending",
    "responsible_agency": "Department of Public Works",
    "final_address": "424 Pine St, New Orleans, Louisiana, 70118",
    "address_councildis": "A",
    "status": "Pending",
    "rowid": "904228",
    "final_x": "3662004.01101",
    "final_y": "523955.918588",
    "longitude": "-90.12988280765293",
    "latitude": "29.9352744201736",
    "geocoded_column": {
      "latitude": "29.9352744201736",
      "longitude": "-90.12988280765293"
    }
  },
  {
    "service_request": "2022-904227",
    "request_type": "Trash/Recycling",
    "request_reason": "MIssed Recycling Pick-Up",
    "date_created": "2022-07-27T19:51:58.000",
    "date_modified": "2022-07-27T19:51:59.000",
    "request_status": "Pending",
    "responsible_agency": "Department of Sanitation",
    "final_address": "1301 General Taylor St",
    "address_councildis": "B",
    "status": "Assigned to Contractor",
    "contractor": "Richards Disposal",
    "rowid": "904227",
    "final_x": "3672844.37032",
    "final_y": "520291.135864",
    "longitude": "-90.09578468200387",
    "latitude": "29.924879936904606",
    "geocoded_column": {
      "latitude": "29.924879936904606",
      "longitude": "-90.09578468200387"
    }
  },
  {
    "service_request": "2022-904226",
    "request_type": "Property Maintenance",
    "request_reason": "Property Maintenance",
    "date_created": "2022-07-27T19:45:58.000",
    "date_modified": "2022-07-27T19:45:58.000",
    "request_status": "Pending",
    "responsible_agency": "Department of Code Enforcement",
    "final_address": "8000 Pompano St",
    "address_councildis": "E",
    "status": "Pending",
    "rowid": "904226",
    "final_x": "3700059.88509",
    "final_y": "561733.103903",
    "longitude": "-90.00836210911521",
    "latitude": "30.037993917648755",
    "geocoded_column": {
      "latitude": "30.037993917648755",
      "longitude": "-90.00836210911521"
    }
  },
  {
    "service_request": "2022-904225",
    "request_type": "Abandoned Vehicles",
    "request_reason": "Abandoned/Junk Vehicles",
    "date_created": "2022-07-27T19:42:27.000",
    "date_modified": "2022-07-27T19:42:27.000",
    "case_close_date": "2022-07-26T19:00:00.000",
    "request_status": "Pending",
    "responsible_agency": "Department of Public Works",
    "final_address": "1555 Poydras St",
    "address_councildis": "B",
    "status": "Pending",
    "rowid": "904225",
    "final_x": "3677963.7917",
    "final_y": "530354.310466",
    "longitude": "-90.079276682772",
    "latitude": "29.95239732174202",
    "geocoded_column": {
      "latitude": "29.95239732174202",
      "longitude": "-90.079276682772"
    }
  },
  {
    "service_request": "2022-904224",
    "request_type": "Property Maintenance",
    "request_reason": "Property Maintenance",
    "date_created": "2022-07-27T19:40:11.000",
    "date_modified": "2022-07-27T19:40:11.000",
    "request_status": "Pending",
    "responsible_agency": "Department of Code Enforcement",
    "final_address": "8258 Lake Forest Blvd",
    "address_councildis": "E",
    "status": "Pending",
    "rowid": "904224",
    "final_x": "3705238.57553",
    "final_y": "557036.30601",
    "longitude": "-89.99217000523349",
    "latitude": "30.02491388822137",
    "geocoded_column": {
      "latitude": "30.02491388822137",
      "longitude": "-89.99217000523349"
    }
  },
  {
    "service_request": "2022-904223",
    "request_type": "Roads/Drainage",
    "request_reason": "Accessibility Ramps, Curbs and Sidewalk Repair",
    "date_created": "2022-07-27T19:39:59.000",
    "date_modified": "2022-07-27T19:39:59.000",
    "request_status": "Pending",
    "responsible_agency": "Department of Public Works",
    "final_address": "4574 Bonita Dr",
    "address_councildis": "E",
    "status": "Pending",
    "rowid": "904223",
    "final_x": "3704538.04958",
    "final_y": "554240.64636",
    "longitude": "-89.99448675398978",
    "latitude": "30.01724942967518",
    "geocoded_column": {
      "latitude": "30.01724942967518",
      "longitude": "-89.99448675398978"
    }
  },
  {
    "service_request": "2022-904222",
    "request_type": "Trash/Recycling",
    "request_reason": "Missed Trash Pick-Up",
    "date_created": "2022-07-27T19:24:39.000",
    "date_modified": "2022-07-27T19:24:40.000",
    "request_status": "Pending",
    "responsible_agency": "Department of Sanitation",
    "final_address": "1724 Clio St",
    "address_councildis": "B",
    "status": "Assigned to Contractor",
    "contractor": "Richards Disposal",
    "rowid": "904222",
    "final_x": "3679138.50799",
    "final_y": "526693.81171",
    "longitude": "-90.0756943257652",
    "latitude": "29.942296769216746",
    "geocoded_column": {
      "latitude": "29.942296769216746",
      "longitude": "-90.0756943257652"
    }
  },
  {
    "service_request": "2022-904221",
    "request_type": "Roads/Drainage",
    "request_reason": "Catch Basin - Clogged",
    "date_created": "2022-07-27T19:14:57.000",
    "date_modified": "2022-07-27T19:14:57.000",
    "request_status": "Pending",
    "responsible_agency": "Department of Public Works",
    "final_address": "1603 Fern St",
    "address_councildis": "A",
    "status": "Pending",
    "rowid": "904221",
    "final_x": "3663547.74976",
    "final_y": "528898.162624",
    "longitude": "-90.12484464396324",
    "latitude": "29.948819340876643",
    "geocoded_column": {
      "latitude": "29.948819340876643",
      "longitude": "-90.12484464396324"
    }
  },
  {
    "service_request": "2022-904220",
    "request_type": "Trash/Recycling",
    "request_reason": "Request a Large Item Pick Up",
    "date_created": "2022-07-27T18:58:00.000",
    "date_modified": "2022-07-27T18:58:01.000",
    "request_status": "Pending",
    "responsible_agency": "Department of Sanitation",
    "final_address": "1137 Deslonde St",
    "address_councildis": "E",
    "status": "Assigned to Contractor",
    "contractor": "Metro Disposal",
    "rowid": "904220",
    "final_x": "3695536.56861",
    "final_y": "534687.248006",
    "longitude": "-90.0236338033958",
    "latitude": "29.963770850077932",
    "geocoded_column": {
      "latitude": "29.963770850077932",
      "longitude": "-90.0236338033958"
    }
  },
  {
    "service_request": "2022-904219",
    "request_type": "Trash/Recycling",
    "request_reason": "Request a Large Item Pick Up",
    "date_created": "2022-07-27T18:45:56.000",
    "date_modified": "2022-07-27T18:45:57.000",
    "request_status": "Pending",
    "responsible_agency": "Department of Sanitation",
    "final_address": "2225 Painters St",
    "address_councildis": "D",
    "status": "Assigned to Contractor",
    "contractor": "Metro Disposal",
    "rowid": "904219",
    "final_x": "3687301.0991",
    "final_y": "540781.316747",
    "longitude": "-90.04942490920642",
    "latitude": "29.980783662639954",
    "geocoded_column": {
      "latitude": "29.980783662639954",
      "longitude": "-90.04942490920642"
    }
  },
  {
    "service_request": "2022-904218",
    "request_type": "Trash/Recycling",
    "request_reason": "Request a Large Item Pick Up",
    "date_created": "2022-07-27T18:36:05.000",
    "date_modified": "2022-07-27T18:36:06.000",
    "request_status": "Pending",
    "responsible_agency": "Department of Sanitation",
    "final_address": "2335 St Roch Ave",
    "address_councildis": "D",
    "status": "Assigned to Contractor",
    "contractor": "Metro Disposal",
    "rowid": "904218",
    "final_x": "3686190.62524",
    "final_y": "541127.909708",
    "longitude": "-90.0529200344699",
    "latitude": "29.98177083749868",
    "geocoded_column": {
      "latitude": "29.98177083749868",
      "longitude": "-90.0529200344699"
    }
  },
  {
    "service_request": "2022-904217",
    "request_type": "Trash/Recycling",
    "request_reason": "MIssed Recycling Pick-Up",
    "date_created": "2022-07-27T18:35:35.000",
    "date_modified": "2022-07-27T18:35:35.000",
    "request_status": "Pending",
    "responsible_agency": "Department of Sanitation",
    "final_address": "814 Ida St",
    "address_councildis": "A",
    "status": "Assigned to Contractor",
    "contractor": "Richards Disposal",
    "rowid": "904217",
    "final_x": "3673125.75246",
    "final_y": "540045.191691",
    "longitude": "-90.0942221201511",
    "latitude": "29.97918869391846",
    "geocoded_column": {
      "latitude": "29.97918869391846",
      "longitude": "-90.0942221201511"
    }
  },
  {
    "service_request": "2022-904216",
    "request_type": "Trash/Recycling",
    "request_reason": "Missed Trash Pick-Up",
    "date_created": "2022-07-27T18:34:50.000",
    "date_modified": "2022-07-27T18:34:51.000",
    "request_status": "Pending",
    "responsible_agency": "Department of Sanitation",
    "final_address": "3405 Burgundy St, New Orleans, Louisiana, 70117",
    "address_councildis": "C",
    "status": "Assigned to Contractor",
    "contractor": "Metro Disposal",
    "rowid": "904216",
    "final_x": "3690052.35996",
    "final_y": "534930.72103",
    "longitude": "-90.04094366597847",
    "latitude": "29.96461153747796",
    "geocoded_column": {
      "latitude": "29.96461153747796",
      "longitude": "-90.04094366597847"
    }
  },
  {
    "service_request": "2022-904215",
    "request_type": "Trash/Recycling",
    "request_reason": "Request a Large Item Pick Up",
    "date_created": "2022-07-27T18:32:46.000",
    "date_modified": "2022-07-27T18:32:47.000",
    "request_status": "Pending",
    "responsible_agency": "Department of Sanitation",
    "final_address": "3223 Nashville Ave, New Orleans, Louisiana, 70125",
    "address_councildis": "A",
    "status": "Assigned to Contractor",
    "contractor": "Richards Disposal",
    "rowid": "904215",
    "final_x": "3667977.27521",
    "final_y": "527640.435711",
    "longitude": "-90.11090105273765",
    "latitude": "29.94523180046127",
    "geocoded_column": {
      "latitude": "29.94523180046127",
      "longitude": "-90.11090105273765"
    }
  },
  {
    "service_request": "2022-904214",
    "request_type": "Trash/Recycling",
    "request_reason": "Request a Large Item Pick Up",
    "date_created": "2022-07-27T18:17:40.000",
    "date_modified": "2022-07-27T18:17:40.000",
    "request_status": "Pending",
    "responsible_agency": "Department of Sanitation",
    "final_address": "3248 Constance St",
    "address_councildis": "B",
    "status": "Assigned to Contractor",
    "contractor": "Richards Disposal",
    "rowid": "904214",
    "final_x": "3675596.49083",
    "final_y": "519439.706295",
    "longitude": "-90.08712636323988",
    "latitude": "29.922456762174193",
    "geocoded_column": {
      "latitude": "29.922456762174193",
      "longitude": "-90.08712636323988"
    }
  },
  {
    "service_request": "2022-904213",
    "request_type": "Trash/Recycling",
    "request_reason": "MIssed Recycling Pick-Up",
    "date_created": "2022-07-27T18:15:52.000",
    "date_modified": "2022-07-27T18:15:53.000",
    "request_status": "Pending",
    "responsible_agency": "Department of Sanitation",
    "final_address": "1212 N Gayoso St",
    "address_councildis": "A",
    "status": "Assigned to Contractor",
    "contractor": "Richards Disposal",
    "rowid": "904213",
    "final_x": "3676763.55048",
    "final_y": "539421.960906",
    "longitude": "-90.08275401098841",
    "latitude": "29.977366353180507",
    "geocoded_column": {
      "latitude": "29.977366353180507",
      "longitude": "-90.08275401098841"
    }
  },
  {
    "service_request": "2022-904211",
    "request_type": "Abandoned Vehicles",
    "request_reason": "Abandoned/Junk Vehicles",
    "date_created": "2022-07-27T18:01:13.000",
    "date_modified": "2022-07-27T18:01:13.000",
    "request_status": "Pending",
    "responsible_agency": "Department of Public Works",
    "final_address": "1535 Music St",
    "address_councildis": "C",
    "status": "Pending",
    "rowid": "904211",
    "final_x": "3686740.60278",
    "final_y": "538196.041481",
    "longitude": "-90.05128655985968",
    "latitude": "29.973692322579144",
    "geocoded_column": {
      "latitude": "29.973692322579144",
      "longitude": "-90.05128655985968"
    }
  },
  {
    "service_request": "2022-904210",
    "request_type": "Trash/Recycling",
    "request_reason": "MIssed Recycling Pick-Up",
    "date_created": "2022-07-27T17:50:12.000",
    "date_modified": "2022-07-27T17:50:12.000",
    "request_status": "Pending",
    "responsible_agency": "Department of Sanitation",
    "final_address": "3151 Chippewa St",
    "address_councildis": "B",
    "status": "Assigned to Contractor",
    "contractor": "Richards Disposal",
    "rowid": "904210",
    "final_x": "3676551.3179",
    "final_y": "518743.805879",
    "longitude": "-90.08413630679688",
    "latitude": "29.92051467152263",
    "geocoded_column": {
      "latitude": "29.92051467152263",
      "longitude": "-90.08413630679688"
    }
  },
  {
    "service_request": "2022-904209",
    "request_type": "Safety & Permits",
    "request_reason": "Licenses & Permits",
    "date_created": "2022-07-27T17:46:50.000",
    "date_modified": "2022-07-27T17:46:50.000",
    "request_status": "Pending",
    "responsible_agency": "Safety and Permits",
    "final_address": "8618 Plum St",
    "address_councildis": "A",
    "status": "Pending",
    "rowid": "904209",
    "final_x": "3660737.59949",
    "final_y": "529907.853825",
    "longitude": "-90.13368416395556",
    "latitude": "29.951676863774907",
    "geocoded_column": {
      "latitude": "29.951676863774907",
      "longitude": "-90.13368416395556"
    }
  },
  {
    "service_request": "2022-904208",
    "request_type": "Trash/Recycling",
    "request_reason": "MIssed Recycling Pick-Up",
    "date_created": "2022-07-27T17:42:52.000",
    "date_modified": "2022-07-27T17:42:52.000",
    "request_status": "Pending",
    "responsible_agency": "Department of Sanitation",
    "final_address": "747 S Genois St",
    "address_councildis": "B",
    "status": "Assigned to Contractor",
    "contractor": "Richards Disposal",
    "rowid": "904208",
    "final_x": "3670901.85537",
    "final_y": "535018.57031",
    "longitude": "-90.10141675811427",
    "latitude": "29.965433118263814",
    "geocoded_column": {
      "latitude": "29.965433118263814",
      "longitude": "-90.10141675811427"
    }
  },
  {
    "service_request": "2022-904207",
    "request_type": "Property Maintenance",
    "request_reason": "Property Maintenance",
    "date_created": "2022-07-27T17:41:29.000",
    "date_modified": "2022-07-27T17:41:29.000",
    "request_status": "Pending",
    "responsible_agency": "Department of Code Enforcement",
    "final_address": "1914 Stephen Girard St",
    "address_councildis": "D",
    "status": "Pending",
    "rowid": "904207",
    "final_x": "3681976.77576",
    "final_y": "548621.380691",
    "longitude": "-90.06596756568922",
    "latitude": "30.00250403014837",
    "geocoded_column": {
      "latitude": "30.00250403014837",
      "longitude": "-90.06596756568922"
    }
  },
  {
    "service_request": "2022-904206",
    "request_type": "Trash/Recycling",
    "request_reason": "MIssed Recycling Pick-Up",
    "date_created": "2022-07-27T17:41:21.000",
    "date_modified": "2022-07-27T17:41:22.000",
    "request_status": "Pending",
    "responsible_agency": "Department of Sanitation",
    "final_address": "745 S Genois St",
    "address_councildis": "B",
    "status": "Assigned to Contractor",
    "contractor": "Richards Disposal",
    "rowid": "904206",
    "final_x": "3670907.48359",
    "final_y": "535033.38247",
    "longitude": "-90.1013984815006",
    "latitude": "29.965473680370117",
    "geocoded_column": {
      "latitude": "29.965473680370117",
      "longitude": "-90.1013984815006"
    }
  },
  {
    "service_request": "2022-904205",
    "request_type": "Trash/Recycling",
    "request_reason": "MIssed Recycling Pick-Up",
    "date_created": "2022-07-27T17:40:02.000",
    "date_modified": "2022-07-27T17:40:02.000",
    "request_status": "Pending",
    "responsible_agency": "Department of Sanitation",
    "final_address": "1028 Constantinople St",
    "address_councildis": "B",
    "status": "Assigned to Contractor",
    "contractor": "Richards Disposal",
    "rowid": "904205",
    "final_x": "3672414.91598",
    "final_y": "519535.825079",
    "longitude": "-90.09716605325552",
    "latitude": "29.922815820570698",
    "geocoded_column": {
      "latitude": "29.922815820570698",
      "longitude": "-90.09716605325552"
    }
  },
  {
    "service_request": "2022-904204",
    "request_type": "Abandoned Vehicles",
    "request_reason": "Abandoned/Junk Vehicles",
    "date_created": "2022-07-27T17:36:26.000",
    "date_modified": "2022-07-27T17:36:26.000",
    "request_status": "Pending",
    "responsible_agency": "Department of Public Works",
    "final_address": "508 Natchez St",
    "address_councildis": "B",
    "status": "Pending",
    "rowid": "904204",
    "final_x": "3681486.2998",
    "final_y": "529400.876929",
    "longitude": "-90.06818746321454",
    "latitude": "29.949669226492283",
    "geocoded_column": {
      "latitude": "29.949669226492283",
      "longitude": "-90.06818746321454"
    }
  },
  {
    "service_request": "2022-904203",
    "request_type": "Trash/Recycling",
    "request_reason": "Missed Trash Pick-Up",
    "date_created": "2022-07-27T17:35:21.000",
    "date_modified": "2022-07-27T17:35:22.000",
    "request_status": "Pending",
    "responsible_agency": "Department of Sanitation",
    "final_address": "2901 Banks St",
    "address_councildis": "B",
    "status": "Assigned to Contractor",
    "contractor": "Richards Disposal",
    "rowid": "904203",
    "final_x": "3673893.7316",
    "final_y": "534779.933254",
    "longitude": "-90.0919766986624",
    "latitude": "29.96468816113384",
    "geocoded_column": {
      "latitude": "29.96468816113384",
      "longitude": "-90.0919766986624"
    }
  },
  {
    "service_request": "2022-904202",
    "request_type": "Trash/Recycling",
    "request_reason": "MIssed Recycling Pick-Up",
    "date_created": "2022-07-27T17:34:00.000",
    "date_modified": "2022-07-27T17:34:01.000",
    "request_status": "Pending",
    "responsible_agency": "Department of Sanitation",
    "final_address": "4108 S Inwood Ave",
    "address_councildis": "C",
    "status": "Assigned to Contractor",
    "contractor": "Richards Disposal",
    "rowid": "904202",
    "final_x": "3704824.06315",
    "final_y": "512760.010865",
    "longitude": "-89.99511373475958",
    "latitude": "29.903183482795136",
    "geocoded_column": {
      "latitude": "29.903183482795136",
      "longitude": "-89.99511373475958"
    }
  },
  {
    "service_request": "2022-904201",
    "request_type": "Trash/Recycling",
    "request_reason": "Repair Trash Cart",
    "date_created": "2022-07-27T17:33:41.000",
    "date_modified": "2022-07-27T17:33:41.000",
    "request_status": "Pending",
    "responsible_agency": "Department of Sanitation",
    "final_address": "4108 S Inwood Ave",
    "address_councildis": "C",
    "status": "Assigned to Contractor",
    "contractor": "Richards Disposal",
    "rowid": "904201",
    "final_x": "3704824.06315",
    "final_y": "512760.010865",
    "longitude": "-89.99511373475958",
    "latitude": "29.903183482795136",
    "geocoded_column": {
      "latitude": "29.903183482795136",
      "longitude": "-89.99511373475958"
    }
  },
  {
    "service_request": "2022-904200",
    "request_type": "Trash/Recycling",
    "request_reason": "Missed Trash Pick-Up",
    "date_created": "2022-07-27T17:33:19.000",
    "date_modified": "2022-07-27T17:33:19.000",
    "request_status": "Pending",
    "responsible_agency": "Department of Sanitation",
    "final_address": "4108 S Inwood Ave",
    "address_councildis": "C",
    "status": "Assigned to Contractor",
    "contractor": "Richards Disposal",
    "rowid": "904200",
    "final_x": "3704824.06315",
    "final_y": "512760.010865",
    "longitude": "-89.99511373475958",
    "latitude": "29.903183482795136",
    "geocoded_column": {
      "latitude": "29.903183482795136",
      "longitude": "-89.99511373475958"
    }
  },
  {
    "service_request": "2022-904199",
    "request_type": "Property Maintenance",
    "request_reason": "Property Maintenance",
    "date_created": "2022-07-27T17:26:58.000",
    "date_modified": "2022-07-27T18:22:52.000",
    "request_status": "Pending",
    "responsible_agency": "Department of Code Enforcement",
    "final_address": "New Orleans,LA",
    "address_councildis": "A",
    "rowid": "904199",
    "final_x": "3660479.97658",
    "final_y": "526999.853182",
    "longitude": "-90.13459367758568",
    "latitude": "29.94368820355176",
    "geocoded_column": {
      "latitude": "29.94368820355176",
      "longitude": "-90.13459367758568"
    }
  },
  {
    "service_request": "2022-904197",
    "request_type": "Trash/Recycling",
    "request_reason": "Request a Large Item Pick Up",
    "date_created": "2022-07-27T17:20:17.000",
    "date_modified": "2022-07-27T17:20:17.000",
    "request_status": "Pending",
    "responsible_agency": "Department of Sanitation",
    "final_address": "3131 Louisiana Avenue Prkwy",
    "address_councildis": "B",
    "status": "Assigned to Contractor",
    "contractor": "Richards Disposal",
    "rowid": "904197",
    "final_x": "3672055.55828",
    "final_y": "526832.297598",
    "longitude": "-90.09805210719875",
    "latitude": "29.942889419703075",
    "geocoded_column": {
      "latitude": "29.942889419703075",
      "longitude": "-90.09805210719875"
    }
  },
  {
    "service_request": "2022-904196",
    "request_type": "Trash/Recycling",
    "request_reason": "MIssed Recycling Pick-Up",
    "date_created": "2022-07-27T17:18:39.000",
    "date_modified": "2022-07-27T17:18:40.000",
    "request_status": "Pending",
    "responsible_agency": "Department of Sanitation",
    "final_address": "2300 BLK Magazine St",
    "address_councildis": "B",
    "status": "Assigned to Contractor",
    "contractor": "Richards Disposal",
    "rowid": "904196",
    "final_x": "3678317.4993",
    "final_y": "521665.311116",
    "longitude": "-90.07846030134293",
    "latitude": "29.92849479859743",
    "geocoded_column": {
      "latitude": "29.92849479859743",
      "longitude": "-90.07846030134293"
    }
  },
  {
    "service_request": "2022-904195",
    "request_type": "Trash/Recycling",
    "request_reason": "Repair Trash Cart",
    "date_created": "2022-07-27T17:18:17.000",
    "date_modified": "2022-07-27T17:18:18.000",
    "request_status": "Pending",
    "responsible_agency": "Department of Sanitation",
    "final_address": "1637 Touro St",
    "address_councildis": "D",
    "status": "Assigned to Contractor",
    "contractor": "Metro Disposal",
    "rowid": "904195",
    "final_x": "3684095.07772",
    "final_y": "538389.096585",
    "longitude": "-90.05963490894574",
    "latitude": "29.97430428136028",
    "geocoded_column": {
      "latitude": "29.97430428136028",
      "longitude": "-90.05963490894574"
    }
  },
  {
    "service_request": "2022-904194",
    "request_type": "Trash/Recycling",
    "request_reason": "Order Trash Cart",
    "date_created": "2022-07-27T17:17:05.000",
    "date_modified": "2022-07-27T17:17:06.000",
    "request_status": "Pending",
    "responsible_agency": "Department of Sanitation",
    "final_address": "509 S Murat St",
    "address_councildis": "A",
    "status": "Assigned to Contractor",
    "contractor": "Richards Disposal",
    "rowid": "904194",
    "final_x": "3668647.78849",
    "final_y": "538066.839497",
    "longitude": "-90.10843211581962",
    "latitude": "29.973881282938475",
    "geocoded_column": {
      "latitude": "29.973881282938475",
      "longitude": "-90.10843211581962"
    }
  },
  {
    "service_request": "2022-904193",
    "request_type": "Property Maintenance",
    "request_reason": "Property Maintenance",
    "date_created": "2022-07-27T17:15:32.000",
    "date_modified": "2022-07-27T17:15:32.000",
    "request_status": "Pending",
    "responsible_agency": "Department of Code Enforcement",
    "final_address": "4151 De Ment St",
    "address_councildis": "D",
    "status": "Pending",
    "rowid": "904193",
    "final_x": "3689596.48495",
    "final_y": "550072.327124",
    "longitude": "-90.04184434208247",
    "latitude": "30.006259666211065",
    "geocoded_column": {
      "latitude": "30.006259666211065",
      "longitude": "-90.04184434208247"
    }
  },
  {
    "service_request": "2022-904192",
    "request_type": "Trash/Recycling",
    "request_reason": "Missed Trash Pick-Up",
    "date_created": "2022-07-27T17:14:05.000",
    "date_modified": "2022-07-27T17:14:07.000",
    "request_status": "Pending",
    "responsible_agency": "Department of Sanitation",
    "final_address": "1821 Peniston St",
    "address_councildis": "B",
    "status": "Assigned to Contractor",
    "contractor": "Richards Disposal",
    "rowid": "904192",
    "final_x": "3672707.13064",
    "final_y": "522013.60537",
    "longitude": "-90.09615919670226",
    "latitude": "29.92962024954036",
    "geocoded_column": {
      "latitude": "29.92962024954036",
      "longitude": "-90.09615919670226"
    }
  },
  {
    "service_request": "2022-904191",
    "request_type": "Trash/Recycling",
    "request_reason": "Missed Trash Pick-Up",
    "date_created": "2022-07-27T17:13:36.000",
    "date_modified": "2022-07-27T17:13:37.000",
    "request_status": "Pending",
    "responsible_agency": "Department of Sanitation",
    "final_address": "6444 Orleans Ave, New Orleans, Louisiana, 70124",
    "address_councildis": "A",
    "status": "Assigned to Contractor",
    "contractor": "Metro Disposal",
    "rowid": "904191",
    "final_x": "3671121.04167",
    "final_y": "550241.212372",
    "longitude": "-90.10020723196149",
    "latitude": "30.00728368428354",
    "geocoded_column": {
      "latitude": "30.00728368428354",
      "longitude": "-90.10020723196149"
    }
  },
  {
    "service_request": "2022-904190",
    "request_type": "Traffic Signals/Signs/Striping/Streetlights",
    "request_reason": "Street Light Knocked Down/Leaning",
    "date_created": "2022-07-27T17:13:04.000",
    "date_modified": "2022-07-27T17:13:04.000",
    "request_status": "Pending",
    "responsible_agency": "Department of Public Works",
    "final_address": "7272 Endston Ct",
    "address_councildis": "E",
    "status": "Pending",
    "contractor": "Royal Engineering",
    "rowid": "904190",
    "final_x": "3711908.50949",
    "final_y": "564766.369954",
    "longitude": "-89.9708038651153",
    "latitude": "30.045952133714387",
    "geocoded_column": {
      "latitude": "30.045952133714387",
      "longitude": "-89.9708038651153"
    }
  },
  {
    "service_request": "2022-904189",
    "request_type": "Trash/Recycling",
    "request_reason": "Missed Trash Pick-Up",
    "date_created": "2022-07-27T17:11:08.000",
    "date_modified": "2022-07-27T17:11:09.000",
    "request_status": "Pending",
    "responsible_agency": "Department of Sanitation",
    "final_address": "11 Yellowstone Dr",
    "address_councildis": "C",
    "status": "Assigned to Contractor",
    "contractor": "Richards Disposal",
    "rowid": "904189",
    "final_x": "3699631.11754",
    "final_y": "517949.467766",
    "longitude": "-90.01131353211062",
    "latitude": "29.917618475588664",
    "geocoded_column": {
      "latitude": "29.917618475588664",
      "longitude": "-90.01131353211062"
    }
  },
  {
    "service_request": "2022-904188",
    "request_type": "Trash/Recycling",
    "request_reason": "Request a Large Item Pick Up",
    "date_created": "2022-07-27T17:07:50.000",
    "date_modified": "2022-07-27T17:07:51.000",
    "request_status": "Pending",
    "responsible_agency": "Department of Sanitation",
    "final_address": "935 Barracks St",
    "address_councildis": "C",
    "status": "Assigned to Contractor",
    "contractor": "Empire Services",
    "rowid": "904188",
    "final_x": "3683086.21858",
    "final_y": "534841.932102",
    "longitude": "-90.06294532425949",
    "latitude": "29.96458160274991",
    "geocoded_column": {
      "latitude": "29.96458160274991",
      "longitude": "-90.06294532425949"
    }
  },
  {
    "service_request": "2022-904187",
    "request_type": "Trash/Recycling",
    "request_reason": "Request a Large Item Pick Up",
    "date_created": "2022-07-27T17:06:48.000",
    "date_modified": "2022-07-27T17:06:49.000",
    "request_status": "Pending",
    "responsible_agency": "Department of Sanitation",
    "final_address": "4113 Carondelet St",
    "address_councildis": "B",
    "status": "Assigned to Contractor",
    "contractor": "Richards Disposal",
    "rowid": "904187",
    "final_x": "3671768.13166",
    "final_y": "521379.821049",
    "longitude": "-90.0991450054662",
    "latitude": "29.927905390220314",
    "geocoded_column": {
      "latitude": "29.927905390220314",
      "longitude": "-90.0991450054662"
    }
  },
  {
    "service_request": "2022-904186",
    "request_type": "Roads/Drainage",
    "request_reason": "Catch Basin - Clogged",
    "date_created": "2022-07-27T17:05:16.000",
    "date_modified": "2022-07-27T17:05:18.000",
    "request_status": "Pending",
    "responsible_agency": "Department of Public Works",
    "final_address": "900 BLK Royal St",
    "address_councildis": "C",
    "status": "Pending",
    "rowid": "904186",
    "final_x": "3683110.10815",
    "final_y": "533193.437338",
    "longitude": "-90.06292760036362",
    "latitude": "29.960048079386702",
    "geocoded_column": {
      "latitude": "29.960048079386702",
      "longitude": "-90.06292760036362"
    }
  },
  {
    "service_request": "2022-904185",
    "request_type": "Roads/Drainage",
    "request_reason": "Catch Basin - Clogged",
    "date_created": "2022-07-27T17:03:37.000",
    "date_modified": "2022-07-27T17:03:37.000",
    "request_status": "Pending",
    "responsible_agency": "Department of Public Works",
    "final_address": "1400 Athis St, New Orleans, Louisiana, 70122",
    "address_councildis": "D",
    "status": "Pending",
    "rowid": "904185",
    "final_x": "3677569.37429",
    "final_y": "553626.796055",
    "longitude": "-90.07971811721414",
    "latitude": "30.016400436198932",
    "geocoded_column": {
      "latitude": "30.016400436198932",
      "longitude": "-90.07971811721414"
    }
  },
  {
    "service_request": "2022-904184",
    "request_type": "Roads/Drainage",
    "request_reason": "Ditch Issue",
    "date_created": "2022-07-27T17:03:03.000",
    "date_modified": "2022-07-27T17:03:05.000",
    "request_status": "Pending",
    "responsible_agency": "Department of Public Works",
    "final_address": "9625 River Rd",
    "address_councildis": "C",
    "status": "Pending",
    "rowid": "904184",
    "final_x": "3720590.4695",
    "final_y": "518380.233782",
    "longitude": "-89.94514095031987",
    "latitude": "29.918121366497743",
    "geocoded_column": {
      "latitude": "29.918121366497743",
      "longitude": "-89.94514095031987"
    }
  },
  {
    "service_request": "2022-904183",
    "request_type": "Trash/Recycling",
    "request_reason": "Missed Trash Pick-Up",
    "date_created": "2022-07-27T17:02:07.000",
    "date_modified": "2022-07-27T17:02:09.000",
    "request_status": "Pending",
    "responsible_agency": "Department of Sanitation",
    "final_address": "2100 Camp St, New Orleans, Louisiana, 70130",
    "address_councildis": "B",
    "status": "Assigned to Contractor",
    "contractor": "Richards Disposal",
    "rowid": "904183",
    "final_x": "3678893.94773",
    "final_y": "522516.354106",
    "longitude": "-90.07661111160074",
    "latitude": "29.930817517003458",
    "geocoded_column": {
      "latitude": "29.930817517003458",
      "longitude": "-90.07661111160074"
    }
  },
  {
    "service_request": "2022-904182",
    "request_type": "Trash/Recycling",
    "request_reason": "Missed Trash Pick-Up",
    "date_created": "2022-07-27T17:01:33.000",
    "date_modified": "2022-07-27T17:01:34.000",
    "request_status": "Pending",
    "responsible_agency": "Department of Sanitation",
    "final_address": "1138 Josephine St, New Orleans, Louisiana, 70130",
    "address_councildis": "B",
    "status": "Assigned to Contractor",
    "contractor": "Richards Disposal",
    "rowid": "904182",
    "final_x": "3678939.07432",
    "final_y": "522549.966266",
    "longitude": "-90.0764674893942",
    "latitude": "29.930908578442235",
    "geocoded_column": {
      "latitude": "29.930908578442235",
      "longitude": "-90.0764674893942"
    }
  },
  {
    "service_request": "2022-904181",
    "request_type": "Trash/Recycling",
    "request_reason": "Repair Trash Cart",
    "date_created": "2022-07-27T16:58:16.000",
    "date_modified": "2022-07-27T16:58:17.000",
    "request_status": "Pending",
    "responsible_agency": "Department of Sanitation",
    "final_address": "2944 St Bernard Ave",
    "address_councildis": "D",
    "status": "Assigned to Contractor",
    "contractor": "Metro Disposal",
    "rowid": "904181",
    "final_x": "3679342.53115",
    "final_y": "543040.829581",
    "longitude": "-90.07448316562862",
    "latitude": "29.987239336117092",
    "geocoded_column": {
      "latitude": "29.987239336117092",
      "longitude": "-90.07448316562862"
    }
  },
  {
    "service_request": "2022-904180",
    "request_type": "Trash/Recycling",
    "request_reason": "Repair Trash Cart",
    "date_created": "2022-07-27T16:54:17.000",
    "date_modified": "2022-07-27T16:54:18.000",
    "request_status": "Pending",
    "responsible_agency": "Department of Sanitation",
    "final_address": "1011 First St",
    "address_councildis": "B",
    "status": "Assigned to Contractor",
    "contractor": "Richards Disposal",
    "rowid": "904180",
    "final_x": "3678250.62837",
    "final_y": "521291.191225",
    "longitude": "-90.07868433025878",
    "latitude": "29.927468104443342",
    "geocoded_column": {
      "latitude": "29.927468104443342",
      "longitude": "-90.07868433025878"
    }
  },
  {
    "service_request": "2022-904179",
    "request_type": "Mosquito, Termite & Rodent Control",
    "request_reason": "Rodent Complaint (Rats)",
    "date_created": "2022-07-27T16:53:31.000",
    "date_modified": "2022-07-27T16:53:32.000",
    "request_status": "Pending",
    "responsible_agency": "Mosquito, Termite & Rodent Control Board",
    "final_address": "4842 Good Dr",
    "address_councildis": "E",
    "status": "Pending",
    "rowid": "904179",
    "final_x": "3714671.33432",
    "final_y": "557262.867227",
    "longitude": "-89.96235578509851",
    "latitude": "30.02522989073152",
    "geocoded_column": {
      "latitude": "30.02522989073152",
      "longitude": "-89.96235578509851"
    }
  },
  {
    "service_request": "2022-904178",
    "request_type": "Trash/Recycling",
    "request_reason": "Request a Large Item Pick Up",
    "date_created": "2022-07-27T16:51:57.000",
    "date_modified": "2022-07-27T16:51:58.000",
    "request_status": "Pending",
    "responsible_agency": "Department of Sanitation",
    "final_address": "1011 First St",
    "address_councildis": "B",
    "status": "Assigned to Contractor",
    "contractor": "Richards Disposal",
    "rowid": "904178",
    "final_x": "3678250.62837",
    "final_y": "521291.191225",
    "longitude": "-90.07868433025878",
    "latitude": "29.927468104443342",
    "geocoded_column": {
      "latitude": "29.927468104443342",
      "longitude": "-90.07868433025878"
    }
  },
  {
    "service_request": "2022-904177",
    "request_type": "Trash/Recycling",
    "request_reason": "MIssed Recycling Pick-Up",
    "date_created": "2022-07-27T16:48:34.000",
    "date_modified": "2022-07-27T16:48:35.000",
    "request_status": "Pending",
    "responsible_agency": "Department of Sanitation",
    "final_address": "4331 Macarthur Blvd",
    "address_councildis": "C",
    "status": "Assigned to Contractor",
    "contractor": "Richards Disposal",
    "rowid": "904177",
    "final_x": "3699936.69021",
    "final_y": "520265.416632",
    "longitude": "-90.01026460785995",
    "latitude": "29.923976845103358",
    "geocoded_column": {
      "latitude": "29.923976845103358",
      "longitude": "-90.01026460785995"
    }
  },
  {
    "service_request": "2022-904175",
    "request_type": "Trash/Recycling",
    "request_reason": "Repair Trash Cart",
    "date_created": "2022-07-27T16:47:52.000",
    "date_modified": "2022-07-27T16:47:52.000",
    "request_status": "Pending",
    "responsible_agency": "Department of Sanitation",
    "final_address": "5770 Eastover Dr",
    "address_councildis": "E",
    "status": "Assigned to Contractor",
    "contractor": "Metro Disposal",
    "rowid": "904175",
    "final_x": "3719411.05049",
    "final_y": "563382.668768",
    "longitude": "-89.9471452573668",
    "latitude": "30.041900085148544",
    "geocoded_column": {
      "latitude": "30.041900085148544",
      "longitude": "-89.9471452573668"
    }
  },
  {
    "service_request": "2022-904174",
    "request_type": "Trash/Recycling",
    "request_reason": "Request a Large Item Pick Up",
    "date_created": "2022-07-27T16:46:58.000",
    "date_modified": "2022-07-27T16:46:58.000",
    "request_status": "Pending",
    "responsible_agency": "Department of Sanitation",
    "final_address": "1836 Baronne St",
    "address_councildis": "B",
    "status": "Assigned to Contractor",
    "contractor": "Richards Disposal",
    "rowid": "904174",
    "final_x": "3677699.42216",
    "final_y": "524925.198524",
    "longitude": "-90.08029890460413",
    "latitude": "29.937477019124707",
    "geocoded_column": {
      "latitude": "29.937477019124707",
      "longitude": "-90.08029890460413"
    }
  },
  {
    "service_request": "2022-904173",
    "request_type": "Trash/Recycling",
    "request_reason": "MIssed Recycling Pick-Up",
    "date_created": "2022-07-27T16:43:28.000",
    "date_modified": "2022-07-27T16:43:29.000",
    "request_status": "Pending",
    "responsible_agency": "Department of Sanitation",
    "final_address": "3213 Chippewa St",
    "address_councildis": "B",
    "status": "Assigned to Contractor",
    "contractor": "Richards Disposal",
    "rowid": "904173",
    "final_x": "3676364.32021",
    "final_y": "518616.406647",
    "longitude": "-90.08473095381645",
    "latitude": "29.920169968947743",
    "geocoded_column": {
      "latitude": "29.920169968947743",
      "longitude": "-90.08473095381645"
    }
  },
  {
    "service_request": "2022-904172",
    "request_type": "Trash/Recycling",
    "request_reason": "Missed Trash Pick-Up",
    "date_created": "2022-07-27T16:42:52.000",
    "date_modified": "2022-07-27T16:42:53.000",
    "request_status": "Pending",
    "responsible_agency": "Department of Sanitation",
    "final_address": "921 Pontalba St",
    "address_councildis": "A",
    "status": "Assigned to Contractor",
    "contractor": "Metro Disposal",
    "rowid": "904172",
    "final_x": "3669741.40494",
    "final_y": "544387.671951",
    "longitude": "-90.10476418392832",
    "latitude": "29.99122923184299",
    "geocoded_column": {
      "latitude": "29.99122923184299",
      "longitude": "-90.10476418392832"
    }
  },
  {
    "service_request": "2022-904171",
    "request_type": "Roads/Drainage",
    "request_reason": "Street Subsidence (Sinking)",
    "date_created": "2022-07-27T16:37:41.000",
    "date_modified": "2022-07-27T16:37:41.000",
    "request_status": "Pending",
    "responsible_agency": "Department of Public Works",
    "final_address": "928 Felicity St",
    "address_councildis": "B",
    "status": "Pending",
    "rowid": "904171",
    "final_x": "3680343.27963",
    "final_y": "522629.571962",
    "longitude": "-90.0720318420857",
    "latitude": "29.93108504100539",
    "geocoded_column": {
      "latitude": "29.93108504100539",
      "longitude": "-90.0720318420857"
    }
  },
  {
    "service_request": "2022-904170",
    "request_type": "Trash/Recycling",
    "request_reason": "Missed Trash Pick-Up",
    "date_created": "2022-07-27T16:37:11.000",
    "date_modified": "2022-07-27T16:37:12.000",
    "request_status": "Pending",
    "responsible_agency": "Department of Sanitation",
    "final_address": "734 Hidalgo St",
    "address_councildis": "A",
    "status": "Assigned to Contractor",
    "contractor": "Metro Disposal",
    "rowid": "904170",
    "final_x": "3668610.10702",
    "final_y": "544081.395278",
    "longitude": "-90.10834804908575",
    "latitude": "29.99042038002538",
    "geocoded_column": {
      "latitude": "29.99042038002538",
      "longitude": "-90.10834804908575"
    }
  },
  {
    "service_request": "2022-904168",
    "request_type": "Trash/Recycling",
    "request_reason": "Order Trash Cart",
    "date_created": "2022-07-27T16:35:34.000",
    "date_modified": "2022-07-27T16:35:34.000",
    "case_close_date": "2022-07-04T19:00:00.000",
    "request_status": "Pending",
    "responsible_agency": "Department of Sanitation",
    "final_address": "1235 Monroe St",
    "address_councildis": "A",
    "status": "Assigned to Contractor",
    "contractor": "Richards Disposal",
    "rowid": "904168",
    "final_x": "3660580.04525",
    "final_y": "529966.218625",
    "longitude": "-90.13417971858343",
    "latitude": "29.951841882983945",
    "geocoded_column": {
      "latitude": "29.951841882983945",
      "longitude": "-90.13417971858343"
    }
  },
  {
    "service_request": "2022-904167",
    "request_type": "Property Maintenance",
    "request_reason": "Property Maintenance",
    "date_created": "2022-07-27T16:34:32.000",
    "date_modified": "2022-07-27T16:34:32.000",
    "request_status": "Pending",
    "responsible_agency": "Department of Code Enforcement",
    "final_address": "13000 Chateau Ct",
    "address_councildis": "E",
    "status": "Pending",
    "rowid": "904167",
    "final_x": "3724454.28102",
    "final_y": "562233.852575",
    "longitude": "-89.93125140834094",
    "latitude": "30.03857259384478",
    "geocoded_column": {
      "latitude": "30.03857259384478",
      "longitude": "-89.93125140834094"
    }
  },
  {
    "service_request": "2022-904166",
    "request_type": "Trash/Recycling",
    "request_reason": "Missed Trash Pick-Up",
    "date_created": "2022-07-27T16:33:44.000",
    "date_modified": "2022-07-27T16:33:44.000",
    "request_status": "Pending",
    "responsible_agency": "Department of Sanitation",
    "final_address": "115 Central Park Pl, New Orleans, Louisiana, 70124",
    "address_councildis": "A",
    "status": "Assigned to Contractor",
    "contractor": "Metro Disposal",
    "rowid": "904166",
    "final_x": "3670584.59751",
    "final_y": "544315.078991",
    "longitude": "-90.1021031887763",
    "latitude": "29.991004740466163",
    "geocoded_column": {
      "latitude": "29.991004740466163",
      "longitude": "-90.1021031887763"
    }
  },
  {
    "service_request": "2022-904165",
    "request_type": "Trash/Recycling",
    "request_reason": "MIssed Recycling Pick-Up",
    "date_created": "2022-07-27T16:31:59.000",
    "date_modified": "2022-07-27T16:32:00.000",
    "request_status": "Pending",
    "responsible_agency": "Department of Sanitation",
    "final_address": "635 S Alexander St",
    "address_councildis": "A",
    "status": "Assigned to Contractor",
    "contractor": "Richards Disposal",
    "rowid": "904165",
    "final_x": "3668609.60929",
    "final_y": "537400.123528",
    "longitude": "-90.1085752011929",
    "latitude": "29.972049159742397",
    "geocoded_column": {
      "latitude": "29.972049159742397",
      "longitude": "-90.1085752011929"
    }
  },
  {
    "service_request": "2022-904164",
    "request_type": "Safety & Permits",
    "request_reason": "Construction permit",
    "date_created": "2022-07-27T16:31:29.000",
    "date_modified": "2022-07-27T16:31:29.000",
    "request_status": "Pending",
    "responsible_agency": "Department of Code Enforcement",
    "final_address": "1440 Henriette Delille St",
    "address_councildis": "C",
    "status": "Pending",
    "rowid": "904164",
    "final_x": "3682855.74997",
    "final_y": "535846.919687",
    "longitude": "-90.06363795936943",
    "latitude": "29.967351996512807",
    "geocoded_column": {
      "latitude": "29.967351996512807",
      "longitude": "-90.06363795936943"
    }
  },
  {
    "service_request": "2022-904163",
    "request_type": "Trash/Recycling",
    "request_reason": "Order Recycling Cart",
    "date_created": "2022-07-27T16:31:19.000",
    "date_modified": "2022-07-27T16:31:19.000",
    "request_status": "Pending",
    "responsible_agency": "Department of Sanitation",
    "final_address": "1401 State St",
    "address_councildis": "A",
    "status": "Pending",
    "rowid": "904163",
    "final_x": "3665428.29716",
    "final_y": "521162.099129",
    "longitude": "-90.11916575166714",
    "latitude": "29.92749296715368",
    "geocoded_column": {
      "latitude": "29.92749296715368",
      "longitude": "-90.11916575166714"
    }
  },
  {
    "service_request": "2022-904162",
    "request_type": "Trash/Recycling",
    "request_reason": "Repair Trash Cart",
    "date_created": "2022-07-27T16:29:42.000",
    "date_modified": "2022-07-27T16:29:43.000",
    "request_status": "Pending",
    "responsible_agency": "Department of Sanitation",
    "final_address": "7160 E Tamaron Blvd, New Orleans, Louisiana, 70128",
    "address_councildis": "E",
    "status": "Assigned to Contractor",
    "contractor": "Metro Disposal",
    "rowid": "904162",
    "final_x": "3718289.69036",
    "final_y": "569196.475238",
    "longitude": "-89.9504673882969",
    "latitude": "30.05792291461093",
    "geocoded_column": {
      "latitude": "30.05792291461093",
      "longitude": "-89.9504673882969"
    }
  },
  {
    "service_request": "2022-904161",
    "request_type": "Trash/Recycling",
    "request_reason": "MIssed Recycling Pick-Up",
    "date_created": "2022-07-27T16:28:20.000",
    "date_modified": "2022-07-27T16:28:21.000",
    "request_status": "Pending",
    "responsible_agency": "Department of Sanitation",
    "final_address": "2716 Magazine St",
    "address_councildis": "B",
    "status": "Assigned to Contractor",
    "contractor": "Richards Disposal",
    "rowid": "904161",
    "final_x": "3677218.3396",
    "final_y": "520856.278713",
    "longitude": "-90.08195800683177",
    "latitude": "29.926303275937578",
    "geocoded_column": {
      "latitude": "29.926303275937578",
      "longitude": "-90.08195800683177"
    }
  },
  {
    "service_request": "2022-904160",
    "request_type": "Trash/Recycling",
    "request_reason": "Missed Trash Pick-Up",
    "date_created": "2022-07-27T16:28:12.000",
    "date_modified": "2022-07-27T16:28:12.000",
    "request_status": "Pending",
    "responsible_agency": "Department of Sanitation",
    "final_address": "408 S Dupre St",
    "address_councildis": "B",
    "status": "Assigned to Contractor",
    "contractor": "Richards Disposal",
    "rowid": "904160",
    "final_x": "3673813.9172",
    "final_y": "534551.877573",
    "longitude": "-90.09223654797233",
    "latitude": "29.964063461997096",
    "geocoded_column": {
      "latitude": "29.964063461997096",
      "longitude": "-90.09223654797233"
    }
  },
  {
    "service_request": "2022-904159",
    "request_type": "Trash/Recycling",
    "request_reason": "Missed Trash Pick-Up",
    "date_created": "2022-07-27T16:27:17.000",
    "date_modified": "2022-07-27T16:27:18.000",
    "request_status": "Pending",
    "responsible_agency": "Department of Sanitation",
    "final_address": "925 Polk St, New Orleans, Louisiana, 70124",
    "address_councildis": "A",
    "status": "Assigned to Contractor",
    "contractor": "Metro Disposal",
    "rowid": "904159",
    "final_x": "3670029.71553",
    "final_y": "547219.511761",
    "longitude": "-90.1037574859959",
    "latitude": "29.999007309988126",
    "geocoded_column": {
      "latitude": "29.999007309988126",
      "longitude": "-90.1037574859959"
    }
  },
  {
    "service_request": "2022-904158",
    "request_type": "Trash/Recycling",
    "request_reason": "Missed Trash Pick-Up",
    "date_created": "2022-07-27T16:26:29.000",
    "date_modified": "2022-07-27T16:26:30.000",
    "request_status": "Pending",
    "responsible_agency": "Department of Sanitation",
    "final_address": "700 Calhoun St",
    "address_councildis": "A",
    "status": "Assigned to Contractor",
    "contractor": "Richards Disposal",
    "rowid": "904158",
    "final_x": "3663306.47725",
    "final_y": "519527.386231",
    "longitude": "-90.12591822401103",
    "latitude": "29.9230596701041",
    "geocoded_column": {
      "latitude": "29.9230596701041",
      "longitude": "-90.12591822401103"
    }
  },
  {
    "service_request": "2022-904156",
    "request_type": "Traffic Signals/Signs/Striping/Streetlights",
    "request_reason": "Street Light Outage/Malfunction",
    "date_created": "2022-07-27T16:15:06.000",
    "date_modified": "2022-07-27T16:15:07.000",
    "request_status": "Pending",
    "responsible_agency": "Department of Public Works",
    "final_address": "2659 Mexico St",
    "address_councildis": "D",
    "status": "Pending",
    "contractor": "Royal Engineering",
    "rowid": "904156",
    "final_x": "3686873.66748",
    "final_y": "556469.137754",
    "longitude": "-90.05022007294737",
    "latitude": "30.023932644683235",
    "geocoded_column": {
      "latitude": "30.023932644683235",
      "longitude": "-90.05022007294737"
    }
  },
  {
    "service_request": "2022-904155",
    "request_type": "Trash/Recycling",
    "request_reason": "Request a Large Item Pick Up",
    "date_created": "2022-07-27T16:13:35.000",
    "date_modified": "2022-07-27T16:13:35.000",
    "request_status": "Pending",
    "responsible_agency": "Department of Sanitation",
    "final_address": "1719 Toledano St",
    "address_councildis": "B",
    "status": "Assigned to Contractor",
    "contractor": "Richards Disposal",
    "rowid": "904155",
    "final_x": "3674403.64788",
    "final_y": "522246.697082",
    "longitude": "-90.09079560780958",
    "latitude": "29.930210700280217",
    "geocoded_column": {
      "latitude": "29.930210700280217",
      "longitude": "-90.09079560780958"
    }
  },
  {
    "service_request": "2022-904154",
    "request_type": "Roads/Drainage",
    "request_reason": "Catch Basin - Clogged",
    "date_created": "2022-07-27T16:13:12.000",
    "date_modified": "2022-07-27T16:13:13.000",
    "request_status": "Pending",
    "responsible_agency": "Department of Public Works",
    "final_address": "79 Fontainebleau Dr",
    "address_councildis": "A",
    "status": "Pending",
    "rowid": "904154",
    "final_x": "3666846.74906",
    "final_y": "530933.521922",
    "longitude": "-90.11435988390477",
    "latitude": "29.954319832890135",
    "geocoded_column": {
      "latitude": "29.954319832890135",
      "longitude": "-90.11435988390477"
    }
  },
  {
    "service_request": "2022-904153",
    "request_type": "Trash/Recycling",
    "request_reason": "MIssed Recycling Pick-Up",
    "date_created": "2022-07-27T16:11:43.000",
    "date_modified": "2022-07-27T16:11:44.000",
    "request_status": "Pending",
    "responsible_agency": "Department of Sanitation",
    "final_address": "1719 Toledano St",
    "address_councildis": "B",
    "status": "Assigned to Contractor",
    "contractor": "Richards Disposal",
    "rowid": "904153",
    "final_x": "3674403.64788",
    "final_y": "522246.697082",
    "longitude": "-90.09079560780958",
    "latitude": "29.930210700280217",
    "geocoded_column": {
      "latitude": "29.930210700280217",
      "longitude": "-90.09079560780958"
    }
  },
  {
    "service_request": "2022-904152",
    "request_type": "Trash/Recycling",
    "request_reason": "Request a Large Item Pick Up",
    "date_created": "2022-07-27T16:08:39.000",
    "date_modified": "2022-07-27T16:08:40.000",
    "request_status": "Pending",
    "responsible_agency": "Department of Sanitation",
    "final_address": "79 Fontainebleau Dr",
    "address_councildis": "A",
    "status": "Assigned to Contractor",
    "contractor": "Richards Disposal",
    "rowid": "904152",
    "final_x": "3666846.74906",
    "final_y": "530933.521922",
    "longitude": "-90.11435988390477",
    "latitude": "29.954319832890135",
    "geocoded_column": {
      "latitude": "29.954319832890135",
      "longitude": "-90.11435988390477"
    }
  },
  {
    "service_request": "2022-904151",
    "request_type": "Trash/Recycling",
    "request_reason": "Request a Large Item Pick Up",
    "date_created": "2022-07-27T16:04:52.000",
    "date_modified": "2022-07-27T16:04:53.000",
    "request_status": "Pending",
    "responsible_agency": "Department of Sanitation",
    "final_address": "2900 General Taylor St",
    "address_councildis": "B",
    "status": "Assigned to Contractor",
    "contractor": "Richards Disposal",
    "rowid": "904151",
    "final_x": "3671530.52206",
    "final_y": "525588.273021",
    "longitude": "-90.09975206138267",
    "latitude": "29.939484310192746",
    "geocoded_column": {
      "latitude": "29.939484310192746",
      "longitude": "-90.09975206138267"
    }
  },
  {
    "service_request": "2022-904150",
    "request_type": "Trash/Recycling",
    "request_reason": "Illegal Dumping",
    "date_created": "2022-07-27T16:03:37.000",
    "date_modified": "2022-07-27T16:03:37.000",
    "request_status": "Pending",
    "responsible_agency": "Department of Sanitation",
    "final_address": "510 Belleville St",
    "address_councildis": "C",
    "status": "Pending",
    "rowid": "904150",
    "final_x": "3687894.4575",
    "final_y": "529809.701185",
    "longitude": "-90.04793956320039",
    "latitude": "29.950597248424806",
    "geocoded_column": {
      "latitude": "29.950597248424806",
      "longitude": "-90.04793956320039"
    }
  },
  {
    "service_request": "2022-904149",
    "request_type": "Property Maintenance",
    "request_reason": "Property Maintenance",
    "date_created": "2022-07-27T16:02:08.000",
    "date_modified": "2022-07-27T16:02:09.000",
    "request_status": "Pending",
    "responsible_agency": "Department of Code Enforcement",
    "final_address": "GANNON RD & WALES ST",
    "address_councildis": "E",
    "status": "Pending",
    "rowid": "904149",
    "final_x": "3715846.0",
    "final_y": "570610.68",
    "longitude": "-89.9581378719321",
    "latitude": "30.061892257176982",
    "geocoded_column": {
      "latitude": "30.061892257176982",
      "longitude": "-89.9581378719321"
    }
  },
  {
    "service_request": "2022-904148",
    "request_type": "Traffic Signals/Signs/Striping/Streetlights",
    "request_reason": "Street Light Outage/Malfunction",
    "date_created": "2022-07-27T15:57:28.000",
    "date_modified": "2022-07-27T15:57:29.000",
    "request_status": "Pending",
    "responsible_agency": "Department of Public Works",
    "final_address": "1721 Killdeer St",
    "address_councildis": "D",
    "status": "Pending",
    "contractor": "Royal Engineering",
    "rowid": "904148",
    "final_x": "3678869.52066",
    "final_y": "557727.738715",
    "longitude": "-90.07546797584249",
    "latitude": "30.02763735890572",
    "geocoded_column": {
      "latitude": "30.02763735890572",
      "longitude": "-90.07546797584249"
    }
  },
  {
    "service_request": "2022-904147",
    "request_type": "Roads/Drainage",
    "request_reason": "Street Flooding / Drainage",
    "date_created": "2022-07-27T15:57:06.000",
    "date_modified": "2022-07-27T15:57:06.000",
    "request_status": "Pending",
    "responsible_agency": "Department of Public Works",
    "final_address": "8020 Cohn St",
    "address_councildis": "A",
    "status": "Pending",
    "rowid": "904147",
    "final_x": "3663836.62957",
    "final_y": "529933.476737",
    "longitude": "-90.12389801878",
    "latitude": "29.951657739976092",
    "geocoded_column": {
      "latitude": "29.951657739976092",
      "longitude": "-90.12389801878"
    }
  },
  {
    "service_request": "2022-904145",
    "request_type": "Property Maintenance",
    "request_reason": "Property Maintenance",
    "date_created": "2022-07-27T15:40:23.000",
    "date_modified": "2022-07-27T15:40:23.000",
    "request_status": "Pending",
    "responsible_agency": "Department of Code Enforcement",
    "final_address": "2518 Deers St",
    "address_councildis": "D",
    "status": "Pending",
    "rowid": "904145",
    "final_x": "3688111.64214",
    "final_y": "541913.442956",
    "longitude": "-90.04682471720041",
    "latitude": "29.98387161005336",
    "geocoded_column": {
      "latitude": "29.98387161005336",
      "longitude": "-90.04682471720041"
    }
  },
  {
    "service_request": "2022-904143",
    "request_type": "Property Maintenance",
    "request_reason": "Property Maintenance",
    "date_created": "2022-07-27T15:39:36.000",
    "date_modified": "2022-07-27T15:39:36.000",
    "request_status": "Pending",
    "responsible_agency": "Department of Code Enforcement",
    "final_address": "8500 Lake Forest Blvd",
    "address_councildis": "E",
    "status": "Pending",
    "rowid": "904143",
    "final_x": "3705935.25847",
    "final_y": "557946.256603",
    "longitude": "-89.98993490824265",
    "latitude": "30.02739345806355",
    "geocoded_column": {
      "latitude": "30.02739345806355",
      "longitude": "-89.98993490824265"
    }
  },
  {
    "service_request": "2022-904142",
    "request_type": "Trash/Recycling",
    "request_reason": "Illegal Dumping",
    "date_created": "2022-07-27T15:37:55.000",
    "date_modified": "2022-07-27T15:37:57.000",
    "request_status": "Pending",
    "responsible_agency": "Department of Code Enforcement",
    "final_address": "3403 Boyd St",
    "address_councildis": "C",
    "status": "Pending",
    "rowid": "904142",
    "final_x": "3707950.97169",
    "final_y": "518390.471606",
    "longitude": "-89.9850362528141",
    "latitude": "29.918564518172108",
    "geocoded_column": {
      "latitude": "29.918564518172108",
      "longitude": "-89.9850362528141"
    }
  },
  {
    "service_request": "2022-904141",
    "request_type": "Trash/Recycling",
    "request_reason": "Illegal Dumping",
    "date_created": "2022-07-27T15:36:36.000",
    "date_modified": "2022-07-27T15:36:36.000",
    "request_status": "Pending",
    "responsible_agency": "Department of Sanitation",
    "final_address": "6800 Tara Ln",
    "address_councildis": "E",
    "status": "Pending",
    "rowid": "904141",
    "final_x": "3707263.52107",
    "final_y": "559205.585628",
    "longitude": "-89.98569094436137",
    "latitude": "30.030813233368477",
    "geocoded_column": {
      "latitude": "30.030813233368477",
      "longitude": "-89.98569094436137"
    }
  },
  {
    "service_request": "2022-904140",
    "request_type": "Roads/Drainage",
    "request_reason": "Pothole",
    "date_created": "2022-07-27T15:34:54.000",
    "date_modified": "2022-07-27T15:34:54.000",
    "request_status": "Pending",
    "responsible_agency": "Department of Public Works",
    "final_address": "2100 BLK N Miro St",
    "address_councildis": "D",
    "status": "Pending",
    "rowid": "904140",
    "final_x": "3684086.952",
    "final_y": "540308.706572",
    "longitude": "-90.05959317897442",
    "latitude": "29.97958278595583",
    "geocoded_column": {
      "latitude": "29.97958278595583",
      "longitude": "-90.05959317897442"
    }
  },
  {
    "service_request": "2022-904139",
    "request_type": "Trash/Recycling",
    "request_reason": "Illegal Dumping",
    "date_created": "2022-07-27T15:34:23.000",
    "date_modified": "2022-07-27T15:34:23.000",
    "request_status": "Pending",
    "responsible_agency": "Department of Sanitation",
    "final_address": "6768 Tara Ln",
    "address_councildis": "E",
    "status": "Pending",
    "rowid": "904139",
    "final_x": "3707307.77297",
    "final_y": "559119.521948",
    "longitude": "-89.98555430741305",
    "latitude": "30.030575160910317",
    "geocoded_column": {
      "latitude": "30.030575160910317",
      "longitude": "-89.98555430741305"
    }
  },
  {
    "service_request": "2022-904138",
    "request_type": "Property Maintenance",
    "request_reason": "Property Maintenance",
    "date_created": "2022-07-27T15:34:12.000",
    "date_modified": "2022-07-27T15:44:13.000",
    "case_close_date": "2022-07-27T10:44:13.000",
    "request_status": "Closed",
    "responsible_agency": "Department of Code Enforcement",
    "final_address": "3219 Boyd St",
    "address_councildis": "C",
    "status": "Referred to Code Enforcement",
    "rowid": "904138",
    "final_x": "3707993.31371",
    "final_y": "518770.502455",
    "longitude": "-89.98488848608092",
    "latitude": "29.919608100494344",
    "geocoded_column": {
      "latitude": "29.919608100494344",
      "longitude": "-89.98488848608092"
    }
  },
  {
    "service_request": "2022-904137",
    "request_type": "Roads/Drainage",
    "request_reason": "Pothole",
    "date_created": "2022-07-27T15:33:08.000",
    "date_modified": "2022-07-27T15:33:08.000",
    "request_status": "Pending",
    "responsible_agency": "Department of Public Works",
    "final_address": "2100 BLK N Galvez St",
    "address_councildis": "D",
    "status": "Pending",
    "rowid": "904137",
    "final_x": "3684483.08113",
    "final_y": "539970.291566",
    "longitude": "-90.05835393897873",
    "latitude": "29.978640149516664",
    "geocoded_column": {
      "latitude": "29.978640149516664",
      "longitude": "-90.05835393897873"
    }
  },
  {
    "service_request": "2022-904136",
    "request_type": "Trash/Recycling",
    "request_reason": "Illegal Dumping",
    "date_created": "2022-07-27T15:32:47.000",
    "date_modified": "2022-07-27T15:32:47.000",
    "request_status": "Pending",
    "responsible_agency": "Department of Sanitation",
    "final_address": "6751 Cindy Pl",
    "address_councildis": "E",
    "status": "Pending",
    "rowid": "904136",
    "final_x": "3707213.76843",
    "final_y": "558933.492572",
    "longitude": "-89.98585827377242",
    "latitude": "30.030066693082198",
    "geocoded_column": {
      "latitude": "30.030066693082198",
      "longitude": "-89.98585827377242"
    }
  },
  {
    "service_request": "2022-904135",
    "request_type": "Roads/Drainage",
    "request_reason": "Pothole",
    "date_created": "2022-07-27T15:30:53.000",
    "date_modified": "2022-07-27T15:30:53.000",
    "request_status": "Pending",
    "responsible_agency": "Department of Public Works",
    "final_address": "2261 Marais St",
    "address_councildis": "C",
    "status": "Pending",
    "rowid": "904135",
    "final_x": "3685574.42806",
    "final_y": "536749.999176",
    "longitude": "-90.0550205330924",
    "latitude": "29.96975203658534",
    "geocoded_column": {
      "latitude": "29.96975203658534",
      "longitude": "-90.0550205330924"
    }
  },
  {
    "service_request": "2022-904134",
    "request_type": "Trash/Recycling",
    "request_reason": "Illegal Dumping",
    "date_created": "2022-07-27T15:29:03.000",
    "date_modified": "2022-07-27T15:29:03.000",
    "request_status": "Pending",
    "responsible_agency": "Department of Sanitation",
    "final_address": "6767 Cindy Pl",
    "address_councildis": "E",
    "status": "Pending",
    "rowid": "904134",
    "final_x": "3707153.72964",
    "final_y": "559011.4751",
    "longitude": "-89.98604509728212",
    "latitude": "30.03028305565097",
    "geocoded_column": {
      "latitude": "30.03028305565097",
      "longitude": "-89.98604509728212"
    }
  },
  {
    "service_request": "2022-904133",
    "request_type": "Roads/Drainage",
    "request_reason": "Street Flooding / Drainage",
    "date_created": "2022-07-27T15:28:26.000",
    "date_modified": "2022-07-27T15:28:26.000",
    "request_status": "Pending",
    "responsible_agency": "Department of Public Works",
    "final_address": "1128 Robert St",
    "address_councildis": "B",
    "status": "Pending",
    "rowid": "904133",
    "final_x": "3668629.96404",
    "final_y": "519599.577592",
    "longitude": "-90.10911154371004",
    "latitude": "29.923102855346073",
    "geocoded_column": {
      "latitude": "29.923102855346073",
      "longitude": "-90.10911154371004"
    }
  },
  {
    "service_request": "2022-904132",
    "request_type": "Property Maintenance",
    "request_reason": "Property Maintenance",
    "date_created": "2022-07-27T15:27:40.000",
    "date_modified": "2022-07-27T15:29:58.000",
    "case_close_date": "2022-07-27T10:29:58.000",
    "request_status": "Closed",
    "responsible_agency": "Department of Code Enforcement",
    "final_address": "6801 Cindy Pl",
    "address_councildis": "E",
    "status": "Referred to Code Enforcement",
    "rowid": "904132",
    "final_x": "3707084.85835",
    "final_y": "559238.987804",
    "longitude": "-89.9862542771697",
    "latitude": "30.03091085276869",
    "geocoded_column": {
      "latitude": "30.03091085276869",
      "longitude": "-89.9862542771697"
    }
  },
  {
    "service_request": "2022-904131",
    "request_type": "Property Maintenance",
    "request_reason": "Property Maintenance",
    "date_created": "2022-07-27T15:27:27.000",
    "date_modified": "2022-07-27T15:37:46.000",
    "case_close_date": "2022-07-27T10:37:46.000",
    "request_status": "Closed",
    "responsible_agency": "Department of Code Enforcement",
    "final_address": "2722 Benefit St",
    "address_councildis": "D",
    "status": "Referred to Code Enforcement",
    "rowid": "904131",
    "final_x": "3688199.63299",
    "final_y": "544674.569423",
    "longitude": "-90.04644884936266",
    "latitude": "29.991461003970304",
    "geocoded_column": {
      "latitude": "29.991461003970304",
      "longitude": "-90.04644884936266"
    }
  },
  {
    "service_request": "2022-904130",
    "request_type": "Property Maintenance",
    "request_reason": "Property Maintenance",
    "date_created": "2022-07-27T15:26:40.000",
    "date_modified": "2022-07-27T15:26:40.000",
    "request_status": "Pending",
    "responsible_agency": "Department of Code Enforcement",
    "final_address": "6800 Cindy Pl",
    "address_councildis": "E",
    "status": "Pending",
    "rowid": "904130",
    "final_x": "3706924.09099",
    "final_y": "559171.067932",
    "longitude": "-89.98676482436909",
    "latitude": "30.030729295635762",
    "geocoded_column": {
      "latitude": "30.030729295635762",
      "longitude": "-89.98676482436909"
    }
  },
  {
    "service_request": "2022-904129",
    "request_type": "Abandoned Vehicles",
    "request_reason": "Abandoned/Junk Vehicles",
    "date_created": "2022-07-27T15:25:11.000",
    "date_modified": "2022-07-27T15:25:11.000",
    "request_status": "Pending",
    "responsible_agency": "Department of Public Works",
    "final_address": "2600 BLK N Peters St",
    "address_councildis": "C",
    "status": "Pending",
    "rowid": "904129",
    "final_x": "3686650.45475",
    "final_y": "534003.938341",
    "longitude": "-90.05171934959338",
    "latitude": "29.96216827196874",
    "geocoded_column": {
      "latitude": "29.96216827196874",
      "longitude": "-90.05171934959338"
    }
  },
  {
    "service_request": "2022-904128",
    "request_type": "Property Maintenance",
    "request_reason": "Property Maintenance",
    "date_created": "2022-07-27T15:25:01.000",
    "date_modified": "2022-07-27T15:25:01.000",
    "request_status": "Pending",
    "responsible_agency": "Department of Code Enforcement",
    "final_address": "1329 Mandolin St",
    "address_councildis": "D",
    "status": "Pending",
    "rowid": "904128",
    "final_x": "3677456.01672",
    "final_y": "548108.25301",
    "longitude": "-90.08026695708274",
    "latitude": "30.00122982448429",
    "geocoded_column": {
      "latitude": "30.00122982448429",
      "longitude": "-90.08026695708274"
    }
  },
  {
    "service_request": "2022-904127",
    "request_type": "Trash/Recycling",
    "request_reason": "Illegal Dumping",
    "date_created": "2022-07-27T15:24:20.000",
    "date_modified": "2022-07-27T15:24:20.000",
    "request_status": "Pending",
    "responsible_agency": "Department of Sanitation",
    "final_address": "6701 Cindy Pl",
    "address_councildis": "E",
    "status": "Pending",
    "rowid": "904127",
    "final_x": "3707368.9404",
    "final_y": "558680.943068",
    "longitude": "-89.98537732273275",
    "latitude": "30.02936726263741",
    "geocoded_column": {
      "latitude": "30.02936726263741",
      "longitude": "-89.98537732273275"
    }
  },
  {
    "service_request": "2022-904126",
    "request_type": "Abandoned Vehicles",
    "request_reason": "Abandoned/Junk Vehicles",
    "date_created": "2022-07-27T15:23:40.000",
    "date_modified": "2022-07-27T15:23:40.000",
    "request_status": "Pending",
    "responsible_agency": "Department of Public Works",
    "final_address": "2600 BLK N Peters St",
    "address_councildis": "C",
    "status": "Pending",
    "rowid": "904126",
    "final_x": "3686650.45475",
    "final_y": "534003.938341",
    "longitude": "-90.05171934959338",
    "latitude": "29.96216827196874",
    "geocoded_column": {
      "latitude": "29.96216827196874",
      "longitude": "-90.05171934959338"
    }
  },
  {
    "service_request": "2022-904125",
    "request_type": "Trash/Recycling",
    "request_reason": "Missed Trash Pick-Up",
    "date_created": "2022-07-27T15:23:21.000",
    "date_modified": "2022-07-27T15:23:22.000",
    "request_status": "Pending",
    "responsible_agency": "Department of Sanitation",
    "final_address": "3120 Dumaine St",
    "address_councildis": "A",
    "status": "Assigned to Contractor",
    "contractor": "Richards Disposal",
    "rowid": "904125",
    "final_x": "3675531.95969",
    "final_y": "538719.029897",
    "longitude": "-90.0866679423964",
    "latitude": "29.97547043604384",
    "geocoded_column": {
      "latitude": "29.97547043604384",
      "longitude": "-90.0866679423964"
    }
  },
  {
    "service_request": "2022-904124",
    "request_type": "Roads/Drainage",
    "request_reason": "Catch Basin - Clogged",
    "date_created": "2022-07-27T15:23:04.000",
    "date_modified": "2022-07-27T15:23:04.000",
    "request_status": "Pending",
    "responsible_agency": "Department of Public Works",
    "final_address": "209 Audubon St",
    "address_councildis": "A",
    "status": "Pending",
    "rowid": "904124",
    "final_x": "3661065.22355",
    "final_y": "521258.085369",
    "longitude": "-90.13293580177289",
    "latitude": "29.92788330267892",
    "geocoded_column": {
      "latitude": "29.92788330267892",
      "longitude": "-90.13293580177289"
    }
  },
  {
    "service_request": "2022-904123",
    "request_type": "Trash/Recycling",
    "request_reason": "Start Trash Service",
    "date_created": "2022-07-27T15:22:21.000",
    "date_modified": "2022-07-27T15:22:23.000",
    "request_status": "Pending",
    "responsible_agency": "Department of Sanitation",
    "final_address": "4107 Hollygrove St",
    "address_councildis": "A",
    "status": "Assigned to Contractor",
    "contractor": "Richards Disposal",
    "rowid": "904123",
    "final_x": "3666625.50593",
    "final_y": "538152.034889",
    "longitude": "-90.1148160951996",
    "latitude": "29.974174829396524",
    "geocoded_column": {
      "latitude": "29.974174829396524",
      "longitude": "-90.1148160951996"
    }
  },
  {
    "service_request": "2022-904122",
    "request_type": "Trash/Recycling",
    "request_reason": "Order Recycling Cart",
    "date_created": "2022-07-27T15:20:26.000",
    "date_modified": "2022-07-27T15:20:26.000",
    "request_status": "Pending",
    "responsible_agency": "Department of Sanitation",
    "final_address": "4300 Fields St",
    "address_councildis": "C",
    "status": "Pending",
    "rowid": "904122",
    "final_x": "3708012.38315",
    "final_y": "514921.038387",
    "longitude": "-89.98497127795275",
    "latitude": "29.909022792677938",
    "geocoded_column": {
      "latitude": "29.909022792677938",
      "longitude": "-89.98497127795275"
    }
  },
  {
    "service_request": "2022-904121",
    "request_type": "Abandoned Vehicles",
    "request_reason": "Abandoned/Junk Vehicles",
    "date_created": "2022-07-27T15:20:00.000",
    "date_modified": "2022-07-27T15:20:00.000",
    "request_status": "Pending",
    "responsible_agency": "Department of Public Works",
    "final_address": "1400 Spain St",
    "address_councildis": "C",
    "status": "Pending",
    "rowid": "904121",
    "final_x": "3686011.41698",
    "final_y": "537545.945544",
    "longitude": "-90.05361241148962",
    "latitude": "29.9719271993494",
    "geocoded_column": {
      "latitude": "29.9719271993494",
      "longitude": "-90.05361241148962"
    }
  },
  {
    "service_request": "2022-904120",
    "request_type": "Roads/Drainage",
    "request_reason": "Street Flooding / Drainage",
    "date_created": "2022-07-27T15:18:39.000",
    "date_modified": "2022-07-27T15:18:39.000",
    "request_status": "Pending",
    "responsible_agency": "Department of Public Works",
    "final_address": "2214 Marigny St",
    "address_councildis": "D",
    "status": "Pending",
    "rowid": "904120",
    "final_x": "3685050.52924",
    "final_y": "540507.931787",
    "longitude": "-90.05654280846159",
    "latitude": "29.98010109763921",
    "geocoded_column": {
      "latitude": "29.98010109763921",
      "longitude": "-90.05654280846159"
    }
  },
  {
    "service_request": "2022-904119",
    "request_type": "Trash/Recycling",
    "request_reason": "Order Trash Cart",
    "date_created": "2022-07-27T15:18:19.000",
    "date_modified": "2022-07-27T15:18:20.000",
    "request_status": "Pending",
    "responsible_agency": "Department of Sanitation",
    "final_address": "1318 Moss St, New Orleans, Louisiana, 70119",
    "address_councildis": "A",
    "status": "Assigned to Contractor",
    "contractor": "Richards Disposal",
    "rowid": "904119",
    "final_x": "3675479.70421",
    "final_y": "540559.819531",
    "longitude": "-90.08676973198817",
    "latitude": "29.980533539469263",
    "geocoded_column": {
      "latitude": "29.980533539469263",
      "longitude": "-90.08676973198817"
    }
  },
  {
    "service_request": "2022-904118",
    "request_type": "Property Maintenance",
    "request_reason": "Property Maintenance",
    "date_created": "2022-07-27T15:18:03.000",
    "date_modified": "2022-07-27T15:21:31.000",
    "case_close_date": "2022-07-27T10:21:30.000",
    "request_status": "Closed",
    "responsible_agency": "Department of Code Enforcement",
    "final_address": "WILSON AVE & PRENTISS AVE",
    "address_councildis": "E",
    "status": "Referred to Code Enforcement",
    "rowid": "904118",
    "final_x": "3702968.6",
    "final_y": "555145.38",
    "longitude": "-89.9994122643868",
    "latitude": "30.019787429911187",
    "geocoded_column": {
      "latitude": "30.019787429911187",
      "longitude": "-89.9994122643868"
    }
  },
  {
    "service_request": "2022-904117",
    "request_type": "Property Maintenance",
    "request_reason": "Property Maintenance",
    "date_created": "2022-07-27T15:17:23.000",
    "date_modified": "2022-07-27T15:28:00.000",
    "case_close_date": "2022-07-27T10:28:00.000",
    "request_status": "Closed",
    "responsible_agency": "Department of Code Enforcement",
    "final_address": "1329 Mandolin St",
    "address_councildis": "D",
    "status": "Referred to Code Enforcement",
    "rowid": "904117",
    "final_x": "3677456.01672",
    "final_y": "548108.25301",
    "longitude": "-90.08026695708274",
    "latitude": "30.00122982448429",
    "geocoded_column": {
      "latitude": "30.00122982448429",
      "longitude": "-90.08026695708274"
    }
  },
  {
    "service_request": "2022-904116",
    "request_type": "Property Maintenance",
    "request_reason": "Property Maintenance",
    "date_created": "2022-07-27T15:13:10.000",
    "date_modified": "2022-07-27T15:13:10.000",
    "request_status": "Pending",
    "responsible_agency": "Department of Code Enforcement",
    "final_address": "4708 Camelot Dr",
    "address_councildis": "E",
    "status": "Pending",
    "rowid": "904116",
    "final_x": "3708326.56644",
    "final_y": "555343.455897",
    "longitude": "-89.98247560561732",
    "latitude": "30.020159467006703",
    "geocoded_column": {
      "latitude": "30.020159467006703",
      "longitude": "-89.98247560561732"
    }
  },
  {
    "service_request": "2022-904115",
    "request_type": "Abandoned Vehicles",
    "request_reason": "Abandoned/Junk Vehicles",
    "date_created": "2022-07-27T15:09:07.000",
    "date_modified": "2022-07-27T15:09:07.000",
    "request_status": "Pending",
    "responsible_agency": "Department of Public Works",
    "final_address": "401 Mandeville St",
    "address_councildis": "C",
    "status": "Pending",
    "rowid": "904115",
    "final_x": "3686120.00828",
    "final_y": "534142.812613",
    "longitude": "-90.05338951830682",
    "latitude": "29.962566431290647",
    "geocoded_column": {
      "latitude": "29.962566431290647",
      "longitude": "-90.05338951830682"
    }
  },
  {
    "service_request": "2022-904114",
    "request_type": "Trash/Recycling",
    "request_reason": "Order Trash Cart",
    "date_created": "2022-07-27T15:07:03.000",
    "date_modified": "2022-07-27T15:07:03.000",
    "request_status": "Pending",
    "responsible_agency": "Department of Sanitation",
    "final_address": "4412 Eden St",
    "address_councildis": "B",
    "status": "Assigned to Contractor",
    "contractor": "Richards Disposal",
    "rowid": "904114",
    "final_x": "3669850.37594",
    "final_y": "530647.023618",
    "longitude": "-90.1048852956977",
    "latitude": "29.953443853980122",
    "geocoded_column": {
      "latitude": "29.953443853980122",
      "longitude": "-90.1048852956977"
    }
  },
  {
    "service_request": "2022-904113",
    "request_type": "Traffic Signals/Signs/Striping/Streetlights",
    "request_reason": "Street Name Sign Damaged or Missing",
    "date_created": "2022-07-27T15:06:29.000",
    "date_modified": "2022-07-27T15:06:30.000",
    "request_status": "Pending",
    "responsible_agency": "Department of Public Works",
    "final_address": "1403 Octavia St",
    "address_councildis": "A",
    "status": "Pending",
    "rowid": "904113",
    "final_x": "3666945.09549",
    "final_y": "520956.923257",
    "longitude": "-90.11438446496794",
    "latitude": "29.926884517259424",
    "geocoded_column": {
      "latitude": "29.926884517259424",
      "longitude": "-90.11438446496794"
    }
  },