[
  {
    "service_request": "2025-1213795",
    "request_type": "Trash/Recycling",
    "request_reason": "Request a Large Item Pick Up",
    "date_created": "2025-07-29T23:26:47.000",
    "date_modified": "2025-07-29T23:26:51.000",
    "request_status": "Pending",
    "responsible_agency": "Department of Sanitation",
    "final_address": "2410 Octavia St",
    "address_councildis": "A",
    "status": "Assigned to Contractor",
    "contractor": "IV Waste",
    "rowid": "1213795",
    "final_x": "3667641.17831",
    "final_y": "524516.435388",
    "longitude": "-90.11206734757236",
    "latitude": "29.93665166115158",
    "geocoded_column": {
      "latitude": "29.93665166115158",
      "longitude": "-90.11206734757236"
    }
  },
  {
    "service_request": "2025-1213794",
    "request_type": "Trash/Recycling",
    "request_reason": "Request a Large Item Pick Up",
    "date_created": "2025-07-29T23:25:03.000",
    "date_modified": "2025-07-29T23:25:05.000",
    "request_status": "Pending",
    "responsible_agency": "Department of Sanitation",
    "final_address": "7812 Dominican St",
    "address_councildis": "A",
    "status": "Assigned to Contractor",
    "contractor": "IV Waste",
    "rowid": "1213794",
    "final_x": "3660785.47181",
    "final_y": "525602.692669",
    "longitude": "-90.13367532653018",
    "latitude": "29.93983766360776",
    "geocoded_column": {
      "latitude": "29.93983766360776",
      "longitude": "-90.13367532653018"
    }
  },
  {
    "service_request": "2025-1213793",
    "request_type": "Property Maintenance",
    "request_reason": "Property Maintenance",
    "date_created": "2025-07-29T22:18:18.000",
    "date_modified": "2025-07-29T22:18:20.000",
    "request_status": "Pending",
    "responsible_agency": "Department of Code Enforcement",
    "final_address": "5108 Sandhurst Dr",
    "address_councildis": "E",
    "status": "Pending",
    "rowid": "1213793",
    "final_x": "3705097.04369",
    "final_y": "556725.911706",
    "longitude": "-89.9926286951745",
    "latitude": "30.024064978491367",
    "geocoded_column": {
      "latitude": "30.024064978491367",
      "longitude": "-89.9926286951745"
    }
  },
  {
    "service_request": "2025-1213792",
    "request_type": "Property Maintenance",
    "request_reason": "Property Maintenance",
    "date_created": "2025-07-29T22:09:06.000",
    "date_modified": "2025-07-29T22:09:08.000",
    "request_status": "Pending",
    "responsible_agency": "Department of Code Enforcement",
    "final_address": "5101 Sandhurst Dr",
    "address_councildis": "E",
    "status": "Pending",
    "rowid": "1213792",
    "final_x": "3705272.05028",
    "final_y": "556679.877082",
    "longitude": "-89.99207741461058",
    "latitude": "30.023932769594037",
    "geocoded_column": {
      "latitude": "30.023932769594037",
      "longitude": "-89.99207741461058"
    }
  },
  {
    "service_request": "2025-1213791",
    "request_type": "Trash/Recycling",
    "request_reason": "Replace Trash Cart",
    "date_created": "2025-07-29T21:54:12.000",
    "date_modified": "2025-07-29T21:54:14.000",
    "request_status": "Pending",
    "responsible_agency": "Department of Sanitation",
    "final_address": "3361 State Street Dr",
    "address_councildis": "A",
    "status": "Assigned to Contractor",
    "contractor": "IV Waste",
    "rowid": "1213791",
    "final_x": "3667829.02599",
    "final_y": "528715.129728",
    "longitude": "-90.11133293701378",
    "latitude": "29.948191208272558",
    "geocoded_column": {
      "latitude": "29.948191208272558",
      "longitude": "-90.11133293701378"
    }
  },
  {
    "service_request": "2025-1213790",
    "request_type": "Trash/Recycling",
    "request_reason": "Replace Trash Cart",
    "date_created": "2025-07-29T20:55:10.000",
    "date_modified": "2025-07-29T20:55:12.000",
    "request_status": "Pending",
    "responsible_agency": "Department of Sanitation",
    "final_address": "1447 Webster St",
    "address_councildis": "A",
    "status": "Assigned to Contractor",
    "contractor": "IV Waste",
    "rowid": "1213790",
    "final_x": "3665046.52685",
    "final_y": "521764.514426",
    "longitude": "-90.12035078061919",
    "latitude": "29.929160537054795",
    "geocoded_column": {
      "latitude": "29.929160537054795",
      "longitude": "-90.12035078061919"
    }
  },
  {
    "service_request": "2025-1213789",
    "request_type": "General Services",
    "request_reason": "General Service Request",
    "date_created": "2025-07-29T20:42:10.000",
    "date_modified": "2025-07-29T20:42:11.000",
    "request_status": "Pending",
    "responsible_agency": "Orleans Parish Communication District",
    "final_address": "409 S Alexander St",
    "address_councildis": "A",
    "status": "Pending",
    "rowid": "1213789",
    "final_x": "3669154.82593",
    "final_y": "538147.293577",
    "longitude": "-90.10682805454235",
    "latitude": "29.974087591118334",
    "geocoded_column": {
      "latitude": "29.974087591118334",
      "longitude": "-90.10682805454235"
    }
  },
  {
    "service_request": "2025-1213788",
    "request_type": "Roads and Streets",
    "request_reason": "Sidewalk Damaged or Missing",
    "date_created": "2025-07-29T20:41:31.000",
    "date_modified": "2025-07-29T20:41:33.000",
    "request_status": "Pending",
    "responsible_agency": "Department of Public Works",
    "final_address": "1507 N Miro St",
    "address_councildis": "D",
    "status": "Pending",
    "rowid": "1213788",
    "final_x": "3680032.04623",
    "final_y": "538605.750665",
    "longitude": "-90.07245938519726",
    "latitude": "29.975023565167284",
    "geocoded_column": {
      "latitude": "29.975023565167284",
      "longitude": "-90.07245938519726"
    }
  },
  {
    "service_request": "2025-1213787",
    "request_type": "Streetlights",
    "request_reason": "Streetlight Outage/Malfunction",
    "date_created": "2025-07-29T20:39:41.000",
    "date_modified": "2025-07-29T20:39:44.000",
    "request_status": "Pending",
    "responsible_agency": "Department of Public Works",
    "final_address": "6314 York St",
    "address_councildis": "A",
    "status": "Pending",
    "contractor": "Legacy Professional Services",
    "rowid": "1213787",
    "final_x": "3667423.3129",
    "final_y": "529127.68",
    "longitude": "-90.11260006629487",
    "latitude": "29.949337478475517",
    "geocoded_column": {
      "latitude": "29.949337478475517",
      "longitude": "-90.11260006629487"
    }
  },
  {
    "service_request": "2025-1213786",
    "request_type": "Abandoned Vehicles",
    "request_reason": "Abandoned/Junk Vehicles",
    "date_created": "2025-07-29T20:34:38.000",
    "date_modified": "2025-07-29T20:34:40.000",
    "request_status": "Pending",
    "responsible_agency": "Department of Public Works",
    "final_address": "1215 Ursulines Ave",
    "address_councildis": "C",
    "status": "Pending",
    "rowid": "1213786",
    "final_x": "3681850.69416",
    "final_y": "534906.35239",
    "longitude": "-90.0668447690184",
    "latitude": "29.964796343985576",
    "geocoded_column": {
      "latitude": "29.964796343985576",
      "longitude": "-90.0668447690184"
    }
  },
  {
    "service_request": "2025-1213785",
    "request_type": "Trash/Recycling",
    "request_reason": "Return Trash Cart",
    "date_created": "2025-07-29T20:28:51.000",
    "date_modified": "2025-07-29T20:28:54.000",
    "request_status": "Pending",
    "responsible_agency": "Department of Sanitation",
    "final_address": "5700 Annunciation St",
    "address_councildis": "A",
    "status": "Assigned to Contractor",
    "contractor": "IV Waste",
    "rowid": "1213785",
    "final_x": "3665481.69965",
    "final_y": "517524.606006",
    "longitude": "-90.11911885120603",
    "latitude": "29.91748944632555",
    "geocoded_column": {
      "latitude": "29.91748944632555",
      "longitude": "-90.11911885120603"
    }
  },
  {
    "service_request": "2025-1213784",
    "request_type": "Trash/Recycling",
    "request_reason": "Repair Recycling Cart",
    "date_created": "2025-07-29T20:25:30.000",
    "date_modified": "2025-07-29T20:25:31.000",
    "request_status": "Pending",
    "responsible_agency": "Department of Sanitation",
    "final_address": "5700 Annunciation St",
    "address_councildis": "A",
    "status": "Pending",
    "rowid": "1213784",
    "final_x": "3665481.69965",
    "final_y": "517524.606006",
    "longitude": "-90.11911885120603",
    "latitude": "29.91748944632555",
    "geocoded_column": {
      "latitude": "29.91748944632555",
      "longitude": "-90.11911885120603"
    }
  },
  {
    "service_request": "2025-1213783",
    "request_type": "Streetlights",
    "request_reason": "Streetlight Outage/Malfunction",
    "date_created": "2025-07-29T20:25:00.000",
    "date_modified": "2025-07-29T20:25:01.000",
    "request_status": "Pending",
    "responsible_agency": "Department of Public Works",
    "final_address": "5200 Kim Dr",
    "address_councildis": "E",
    "status": "Pending",
    "contractor": "Legacy Professional Services",
    "rowid": "1213783",
    "final_x": "3727586.10963",
    "final_y": "564040.173665",
    "longitude": "-89.92128378943437",
    "latitude": "30.043433483449313",
    "geocoded_column": {
      "latitude": "30.043433483449313",
      "longitude": "-89.92128378943437"
    }
  },
  {
    "service_request": "2025-1213782",
    "request_type": "Streetlights",
    "request_reason": "Streetlight Outage/Malfunction",
    "date_created": "2025-07-29T20:21:26.000",
    "date_modified": "2025-07-29T20:21:28.000",
    "request_status": "Pending",
    "responsible_agency": "Department of Public Works",
    "final_address": "5200 Kim Dr",
    "address_councildis": "E",
    "status": "Pending",
    "contractor": "Legacy Professional Services",
    "rowid": "1213782",
    "final_x": "3727586.10963",
    "final_y": "564040.173665",
    "longitude": "-89.92128378943437",
    "latitude": "30.043433483449313",
    "geocoded_column": {
      "latitude": "30.043433483449313",
      "longitude": "-89.92128378943437"
    }
  },
  {
    "service_request": "2025-1213781",
    "request_type": "Trash/Recycling",
    "request_reason": "Order Second Trash Cart",
    "date_created": "2025-07-29T20:11:04.000",
    "date_modified": "2025-07-29T20:11:07.000",
    "request_status": "Pending",
    "responsible_agency": "Department of Sanitation",
    "final_address": "4816 Coliseum St",
    "address_councildis": "B",
    "status": "Assigned to Contractor",
    "contractor": "IV Waste",
    "rowid": "1213781",
    "final_x": "3669328.24039",
    "final_y": "519615.026936",
    "longitude": "-90.10690682543013",
    "latitude": "29.923124803926513",
    "geocoded_column": {
      "latitude": "29.923124803926513",
      "longitude": "-90.10690682543013"
    }
  },
  {
    "service_request": "2025-1213780",
    "request_type": "Abandoned Vehicles",
    "request_reason": "Abandoned/Junk Vehicles",
    "date_created": "2025-07-29T19:23:10.000",
    "date_modified": "2025-07-29T19:23:11.000",
    "request_status": "Pending",
    "responsible_agency": "Department of Public Works",
    "final_address": "2004 Elysian Fields Ave",
    "address_councildis": "D",
    "status": "Pending",
    "rowid": "1213780",
    "final_x": "3684634.21852",
    "final_y": "539663.717002",
    "longitude": "-90.05788736958246",
    "latitude": "29.977792551981274",
    "geocoded_column": {
      "latitude": "29.977792551981274",
      "longitude": "-90.05788736958246"
    }
  },
  {
    "service_request": "2025-1213779",
    "request_type": "Trash/Recycling",
    "request_reason": "Replace Trash Cart",
    "date_created": "2025-07-29T19:20:15.000",
    "date_modified": "2025-07-29T19:20:17.000",
    "request_status": "Pending",
    "responsible_agency": "Department of Sanitation",
    "final_address": "2114 Pleasure St",
    "address_councildis": "D",
    "status": "Assigned to Contractor",
    "contractor": "IV Waste",
    "rowid": "1213779",
    "final_x": "3683663.01033",
    "final_y": "545044.397391",
    "longitude": "-90.06076604108772",
    "latitude": "29.992617215138274",
    "geocoded_column": {
      "latitude": "29.992617215138274",
      "longitude": "-90.06076604108772"
    }
  },
  {
    "service_request": "2025-1213778",
    "request_type": "Trash/Recycling",
    "request_reason": "Repair Trash Cart",
    "date_created": "2025-07-29T19:18:11.000",
    "date_modified": "2025-07-29T19:18:14.000",
    "request_status": "Pending",
    "responsible_agency": "Department of Sanitation",
    "final_address": "1617 Duels St",
    "address_councildis": "D",
    "status": "Assigned to Contractor",
    "contractor": "IV Waste",
    "rowid": "1213778",
    "final_x": "3680129.60239",
    "final_y": "542253.405197",
    "longitude": "-90.07202446630043",
    "latitude": "29.985050395097968",
    "geocoded_column": {
      "latitude": "29.985050395097968",
      "longitude": "-90.07202446630043"
    }
  },
  {
    "service_request": "2025-1213776",
    "request_type": "Trash/Recycling",
    "request_reason": "Illegal Dumping",
    "date_created": "2025-07-29T19:14:48.000",
    "date_modified": "2025-07-29T19:14:50.000",
    "request_status": "Pending",
    "responsible_agency": "Department of Sanitation",
    "final_address": "1012 Verret St",
    "address_councildis": "C",
    "status": "Pending",
    "rowid": "1213776",
    "final_x": "3687279.59369",
    "final_y": "527823.287807",
    "longitude": "-90.0499512309903",
    "latitude": "29.945154240563205",
    "geocoded_column": {
      "latitude": "29.945154240563205",
      "longitude": "-90.0499512309903"
    }
  },
  {
    "service_request": "2025-1213775",
    "request_type": "Roads and Streets",
    "request_reason": "Pothole",
    "date_created": "2025-07-29T19:07:19.000",
    "date_modified": "2025-07-29T19:07:20.000",
    "request_status": "Pending",
    "responsible_agency": "Department of Public Works",
    "final_address": "1126 Frenchmen St",
    "address_councildis": "C",
    "status": "Pending",
    "rowid": "1213775",
    "final_x": "3684524.91004",
    "final_y": "536488.893447",
    "longitude": "-90.0583441765534",
    "latitude": "29.96906623917138",
    "geocoded_column": {
      "latitude": "29.96906623917138",
      "longitude": "-90.0583441765534"
    }
  },
  {
    "service_request": "2025-1213774",
    "request_type": "Trash/Recycling",
    "request_reason": "Illegal Dumping",
    "date_created": "2025-07-29T19:05:25.000",
    "date_modified": "2025-07-29T19:05:27.000",
    "request_status": "Pending",
    "responsible_agency": "Department of Sanitation",
    "final_address": "2730 Edge St",
    "address_councildis": "D",
    "status": "Pending",
    "rowid": "1213774",
    "final_x": "3688109.53948",
    "final_y": "545064.713807",
    "longitude": "-90.04671959617546",
    "latitude": "29.99253654275702",
    "geocoded_column": {
      "latitude": "29.99253654275702",
      "longitude": "-90.04671959617546"
    }
  },
  {
    "service_request": "2025-1213773",
    "request_type": "Property Maintenance",
    "request_reason": "Property Maintenance",
    "date_created": "2025-07-29T18:56:40.000",
    "date_modified": "2025-07-29T18:56:41.000",
    "request_status": "Pending",
    "responsible_agency": "Department of Code Enforcement",
    "final_address": "5336 Perrier St",
    "address_councildis": "B",
    "status": "Pending",
    "rowid": "1213773",
    "final_x": "3667459.53229",
    "final_y": "519926.407224",
    "longitude": "-90.1127951700752",
    "latitude": "29.924035866343655",
    "geocoded_column": {
      "latitude": "29.924035866343655",
      "longitude": "-90.1127951700752"
    }
  },
  {
    "service_request": "2025-1213772",
    "request_type": "Property Maintenance",
    "request_reason": "Property Maintenance",
    "date_created": "2025-07-29T18:56:38.000",
    "date_modified": "2025-07-29T18:56:39.000",
    "request_status": "Pending",
    "responsible_agency": "Department of Code Enforcement",
    "final_address": "5336 Perrier St",
    "address_councildis": "B",
    "status": "Pending",
    "rowid": "1213772",
    "final_x": "3667459.53229",
    "final_y": "519926.407224",
    "longitude": "-90.1127951700752",
    "latitude": "29.924035866343655",
    "geocoded_column": {
      "latitude": "29.924035866343655",
      "longitude": "-90.1127951700752"
    }
  },
  {
    "service_request": "2025-1213771",
    "request_type": "Street and Traffic Signs",
    "request_reason": "Crosswalk Signage Damaged or Missing",
    "date_created": "2025-07-29T18:55:49.000",
    "date_modified": "2025-07-29T18:55:51.000",
    "request_status": "Pending",
    "responsible_agency": "Department of Public Works",
    "final_address": "1126 Frenchmen St",
    "address_councildis": "C",
    "status": "Pending",
    "rowid": "1213771",
    "final_x": "3684524.91004",
    "final_y": "536488.893447",
    "longitude": "-90.0583441765534",
    "latitude": "29.96906623917138",
    "geocoded_column": {
      "latitude": "29.96906623917138",
      "longitude": "-90.0583441765534"
    }
  },
  {
    "service_request": "2025-1213770",
    "request_type": "Property Maintenance",
    "request_reason": "Property Maintenance",
    "date_created": "2025-07-29T18:54:08.000",
    "date_modified": "2025-07-29T18:54:10.000",
    "request_status": "Pending",
    "responsible_agency": "Department of Code Enforcement",
    "final_address": "6315 Douglass St",
    "address_councildis": "E",
    "status": "Pending",
    "rowid": "1213770",
    "final_x": "3699450.74308",
    "final_y": "530967.120962",
    "longitude": "-90.01140883320718",
    "latitude": "29.953418225932786",
    "geocoded_column": {
      "latitude": "29.953418225932786",
      "longitude": "-90.01140883320718"
    }
  },
  {
    "service_request": "2025-1213769",
    "request_type": "Trash/Recycling",
    "request_reason": "Order Recycling Cart",
    "date_created": "2025-07-29T18:50:46.000",
    "date_modified": "2025-07-29T18:50:48.000",
    "request_status": "Pending",
    "responsible_agency": "Department of Sanitation",
    "final_address": "825 Piety St",
    "address_councildis": "C",
    "status": "Pending",
    "rowid": "1213769",
    "final_x": "3689637.8031",
    "final_y": "534841.482374",
    "longitude": "-90.0422559779447",
    "latitude": "29.9643790126155",
    "geocoded_column": {
      "latitude": "29.9643790126155",
      "longitude": "-90.0422559779447"
    }
  },
  {
    "service_request": "2025-1213768",
    "request_type": "Street and Traffic Signs",
    "request_reason": "Street Name Sign Damaged or Missing",
    "date_created": "2025-07-29T18:44:47.000",
    "date_modified": "2025-07-29T18:44:49.000",
    "request_status": "Pending",
    "responsible_agency": "Department of Public Works",
    "final_address": "TCHOUPITOULAS ST & JULIA ST",
    "address_councildis": "B",
    "status": "Pending",
    "rowid": "1213768",
    "final_x": "3681734.0",
    "final_y": "527692.08",
    "longitude": "-90.06746496771191",
    "latitude": "29.944963086978756",
    "geocoded_column": {
      "latitude": "29.944963086978756",
      "longitude": "-90.06746496771191"
    }
  },
  {
    "service_request": "2025-1213767",
    "request_type": "Street and Traffic Signs",
    "request_reason": "Stop Sign Missing or Damaged",
    "date_created": "2025-07-29T18:38:39.000",
    "date_modified": "2025-07-29T18:38:41.000",
    "request_status": "Pending",
    "responsible_agency": "Department of Public Works",
    "final_address": "GRAVIER ST & MAGAZINE ST",
    "address_councildis": "B",
    "status": "Pending",
    "rowid": "1213767",
    "final_x": "3681650.3",
    "final_y": "529719.38",
    "longitude": "-90.06765853192746",
    "latitude": "29.950540022553064",
    "geocoded_column": {
      "latitude": "29.950540022553064",
      "longitude": "-90.06765853192746"
    }
  },
  {
    "service_request": "2025-1213766",
    "request_type": "Streetlights",
    "request_reason": "Streetlight Outage/Malfunction",
    "date_created": "2025-07-29T18:36:48.000",
    "date_modified": "2025-07-29T18:36:50.000",
    "request_status": "Pending",
    "responsible_agency": "Department of Public Works",
    "final_address": "6501 Bellaire Dr",
    "address_councildis": "A",
    "status": "Pending",
    "contractor": "Legacy Professional Services",
    "rowid": "1213766",
    "final_x": "3664577.71034",
    "final_y": "551274.184533",
    "longitude": "-90.12084500099812",
    "latitude": "30.01031600031203",
    "geocoded_column": {
      "latitude": "30.01031600031203",
      "longitude": "-90.12084500099812"
    }
  },
  {
    "service_request": "2025-1213765",
    "request_type": "General Services",
    "request_reason": "General Service Request",
    "date_created": "2025-07-29T18:26:36.000",
    "date_modified": "2025-07-29T18:26:37.000",
    "request_status": "Pending",
    "responsible_agency": "Orleans Parish Communication District",
    "final_address": "3900 BLK Tchoupitoulas St",
    "address_councildis": "B",
    "status": "Pending",
    "rowid": "1213765",
    "final_x": "3672826.06803",
    "final_y": "517627.150885",
    "longitude": "-90.09593326930225",
    "latitude": "29.917555372251954",
    "geocoded_column": {
      "latitude": "29.917555372251954",
      "longitude": "-90.09593326930225"
    }
  },
  {
    "service_request": "2025-1213764",
    "request_type": "Streetlights",
    "request_reason": "Streetlight Outage/Malfunction",
    "date_created": "2025-07-29T18:22:49.000",
    "date_modified": "2025-07-29T18:22:51.000",
    "request_status": "Pending",
    "responsible_agency": "Department of Public Works",
    "final_address": "6566 General Haig St",
    "address_councildis": "A",
    "status": "Pending",
    "contractor": "Legacy Professional Services",
    "rowid": "1213764",
    "final_x": "3670834.01025",
    "final_y": "550982.483541",
    "longitude": "-90.10108886189863",
    "latitude": "30.009330409734932",
    "geocoded_column": {
      "latitude": "30.009330409734932",
      "longitude": "-90.10108886189863"
    }
  },
  {
    "service_request": "2025-1213763",
    "request_type": "Trash/Recycling",
    "request_reason": "Request a Large Item Pick Up",
    "date_created": "2025-07-29T18:17:06.000",
    "date_modified": "2025-07-29T18:17:08.000",
    "request_status": "Pending",
    "responsible_agency": "Department of Sanitation",
    "final_address": "13221 Curran Rd",
    "address_councildis": "E",
    "status": "Assigned to Contractor",
    "contractor": "Waste Pro",
    "rowid": "1213763",
    "final_x": "3715824.27698",
    "final_y": "570042.661223",
    "longitude": "-89.95822808540883",
    "latitude": "30.060331157689074",
    "geocoded_column": {
      "latitude": "30.060331157689074",
      "longitude": "-89.95822808540883"
    }
  },
  {
    "service_request": "2025-1213762",
    "request_type": "Trash/Recycling",
    "request_reason": "MIssed Recycling Pick-Up",
    "date_created": "2025-07-29T17:48:25.000",
    "date_modified": "2025-07-29T17:48:27.000",
    "request_status": "Pending",
    "responsible_agency": "Department of Sanitation",
    "final_address": "6245 Paris Ave",
    "address_councildis": "D",
    "status": "Assigned to Contractor",
    "contractor": "IV Waste",
    "rowid": "1213762",
    "final_x": "3678892.28354",
    "final_y": "556234.70697",
    "longitude": "-90.0754478388618",
    "latitude": "30.023531380698778",
    "geocoded_column": {
      "latitude": "30.023531380698778",
      "longitude": "-90.0754478388618"
    }
  },
  {
    "service_request": "2025-1213761",
    "request_type": "Property Maintenance",
    "request_reason": "Property Maintenance",
    "date_created": "2025-07-29T17:46:35.000",
    "date_modified": "2025-07-29T17:46:38.000",
    "request_status": "Pending",
    "responsible_agency": "Department of Code Enforcement",
    "final_address": "4928 Cartier Ave",
    "address_councildis": "D",
    "status": "Pending",
    "rowid": "1213761",
    "final_x": "3677673.11438",
    "final_y": "550467.417812",
    "longitude": "-90.07949957400453",
    "latitude": "30.007710158796847",
    "geocoded_column": {
      "latitude": "30.007710158796847",
      "longitude": "-90.07949957400453"
    }
  },
  {
    "service_request": "2025-1213760",
    "request_type": "Trash/Recycling",
    "request_reason": "Missed Trash Pick-Up",
    "date_created": "2025-07-29T17:46:08.000",
    "date_modified": "2025-07-29T17:46:11.000",
    "request_status": "Pending",
    "responsible_agency": "Department of Sanitation",
    "final_address": "11413 Campbell Ln",
    "address_councildis": "E",
    "status": "Assigned to Contractor",
    "contractor": "Waste Pro",
    "rowid": "1213760",
    "final_x": "3717945.89017",
    "final_y": "561396.461726",
    "longitude": "-89.9518513384824",
    "latitude": "30.036487477477632",
    "geocoded_column": {
      "latitude": "30.036487477477632",
      "longitude": "-89.9518513384824"
    }
  },
  {
    "service_request": "2025-1213759",
    "request_type": "Trash/Recycling",
    "request_reason": "Repair Recycling Cart",
    "date_created": "2025-07-29T17:31:38.000",
    "date_modified": "2025-07-29T17:31:40.000",
    "request_status": "Pending",
    "responsible_agency": "Department of Sanitation",
    "final_address": "1401 State St",
    "address_councildis": "A",
    "status": "Pending",
    "rowid": "1213759",
    "final_x": "3665428.29716",
    "final_y": "521162.099129",
    "longitude": "-90.11916575166714",
    "latitude": "29.92749296715368",
    "geocoded_column": {
      "latitude": "29.92749296715368",
      "longitude": "-90.11916575166714"
    }
  },
  {
    "service_request": "2025-1213758",
    "request_type": "Trash/Recycling",
    "request_reason": "Request a Large Item Pick Up",
    "date_created": "2025-07-29T17:28:23.000",
    "date_modified": "2025-07-29T17:28:25.000",
    "request_status": "Pending",
    "responsible_agency": "Department of Sanitation",
    "final_address": "3425 S Liberty St",
    "address_councildis": "B",
    "status": "Assigned to Contractor",
    "contractor": "IV Waste",
    "rowid": "1213758",
    "final_x": "3672963.63681",
    "final_y": "523764.787067",
    "longitude": "-90.09528972092338",
    "latitude": "29.934427815361854",
    "geocoded_column": {
      "latitude": "29.934427815361854",
      "longitude": "-90.09528972092338"
    }
  },
  {
    "service_request": "2025-1213757",
    "request_type": "Trash/Recycling",
    "request_reason": "Illegal Dumping",
    "date_created": "2025-07-29T17:10:37.000",
    "date_modified": "2025-07-29T17:10:39.000",
    "request_status": "Pending",
    "responsible_agency": "Department of Sanitation",
    "final_address": "513 S Murat St",
    "address_councildis": "A",
    "status": "Pending",
    "rowid": "1213757",
    "final_x": "3668628.30471",
    "final_y": "538046.049033",
    "longitude": "-90.10849435199056",
    "latitude": "29.97382468882882",
    "geocoded_column": {
      "latitude": "29.97382468882882",
      "longitude": "-90.10849435199056"
    }
  },
  {
    "service_request": "2025-1213756",
    "request_type": "Trash/Recycling",
    "request_reason": "Order Trash Cart",
    "date_created": "2025-07-29T17:03:34.000",
    "date_modified": "2025-07-29T17:03:36.000",
    "request_status": "Pending",
    "responsible_agency": "Department of Sanitation",
    "final_address": "932 Chapelle St",
    "address_councildis": "A",
    "status": "Assigned to Contractor",
    "contractor": "IV Waste",
    "rowid": "1213756",
    "final_x": "3670785.60955",
    "final_y": "552471.409366",
    "longitude": "-90.10119119346867",
    "latitude": "30.0134258613389",
    "geocoded_column": {
      "latitude": "30.0134258613389",
      "longitude": "-90.10119119346867"
    }
  },
  {
    "service_request": "2025-1213755",
    "request_type": "Roads and Streets",
    "request_reason": "Pothole",
    "date_created": "2025-07-29T16:59:35.000",
    "date_modified": "2025-07-29T16:59:36.000",
    "request_status": "Pending",
    "responsible_agency": "Department of Public Works",
    "final_address": "6224 Loyola Ave",
    "address_councildis": "A",
    "status": "Pending",
    "rowid": "1213755",
    "final_x": "3665389.63143",
    "final_y": "523664.025211",
    "longitude": "-90.11920412364634",
    "latitude": "29.934373597992316",
    "geocoded_column": {
      "latitude": "29.934373597992316",
      "longitude": "-90.11920412364634"
    }
  },
  {
    "service_request": "2025-1213754",
    "request_type": "Trash/Recycling",
    "request_reason": "Request a Large Item Pick Up",
    "date_created": "2025-07-29T16:59:26.000",
    "date_modified": "2025-07-29T16:59:28.000",
    "request_status": "Pending",
    "responsible_agency": "Department of Sanitation",
    "final_address": "7518 Malvern Dr",
    "address_councildis": "E",
    "status": "Assigned to Contractor",
    "contractor": "Waste Pro",
    "rowid": "1213754",
    "final_x": "3702439.67818",
    "final_y": "561359.51011",
    "longitude": "-90.00085514629983",
    "latitude": "30.03689080125491",
    "geocoded_column": {
      "latitude": "30.03689080125491",
      "longitude": "-90.00085514629983"
    }
  },
  {
    "service_request": "2025-1213753",
    "request_type": "Roads and Streets",
    "request_reason": "Push-up/Pavement Expansion",
    "date_created": "2025-07-29T16:58:12.000",
    "date_modified": "2025-07-29T16:58:13.000",
    "request_status": "Pending",
    "responsible_agency": "Department of Public Works",
    "final_address": "8435 Burthe St",
    "address_councildis": "A",
    "status": "Pending",
    "rowid": "1213753",
    "final_x": "3660285.22752",
    "final_y": "528528.228992",
    "longitude": "-90.13515809670336",
    "latitude": "29.947896351557315",
    "geocoded_column": {
      "latitude": "29.947896351557315",
      "longitude": "-90.13515809670336"
    }
  },
  {
    "service_request": "2025-1213752",
    "request_type": "Trash/Recycling",
    "request_reason": "Request a Large Item Pick Up",
    "date_created": "2025-07-29T16:55:35.000",
    "date_modified": "2025-07-29T16:55:36.000",
    "request_status": "Pending",
    "responsible_agency": "Department of Sanitation",
    "final_address": "5430 Berkley Dr",
    "address_councildis": "C",
    "status": "Assigned to Contractor",
    "contractor": "Richards Disposal",
    "rowid": "1213752",
    "final_x": "3704130.04062",
    "final_y": "518230.31487",
    "longitude": "-89.9971027155176",
    "latitude": "29.918247215804985",
    "geocoded_column": {
      "latitude": "29.918247215804985",
      "longitude": "-89.9971027155176"
    }
  },
  {
    "service_request": "2025-1213751",
    "request_type": "Utility Poles",
    "request_reason": "Wires Sagging/Hanging Low",
    "date_created": "2025-07-29T16:55:07.000",
    "date_modified": "2025-07-29T16:55:10.000",
    "request_status": "Pending",
    "responsible_agency": "Utility Company Collective",
    "final_address": "2021 Jackson Ave",
    "address_councildis": "B",
    "status": "Pending",
    "rowid": "1213751",
    "final_x": "3676569.82427",
    "final_y": "525134.460349",
    "longitude": "-90.08385792283492",
    "latitude": "29.938086338016117",
    "geocoded_column": {
      "latitude": "29.938086338016117",
      "longitude": "-90.08385792283492"
    }
  },
  {
    "service_request": "2025-1213750",
    "request_type": "Traffic Signals",
    "request_reason": "Traffic Signal Malfunctioning or Damaged",
    "date_created": "2025-07-29T16:54:02.000",
    "date_modified": "2025-07-29T16:54:04.000",
    "request_status": "Pending",
    "responsible_agency": "Department of Public Works",
    "final_address": "3200 BLK Saint Bernard Ave",
    "address_councildis": "D",
    "status": "Pending",
    "rowid": "1213750",
    "final_x": "3678732.11461",
    "final_y": "544484.364559",
    "longitude": "-90.0763612364439",
    "latitude": "29.991226977373046",
    "geocoded_column": {
      "latitude": "29.991226977373046",
      "longitude": "-90.0763612364439"
    }
  },
  {
    "service_request": "2025-1213749",
    "request_type": "Trash/Recycling",
    "request_reason": "Repair Trash Cart",
    "date_created": "2025-07-29T16:48:56.000",
    "date_modified": "2025-07-29T16:48:59.000",
    "request_status": "Pending",
    "responsible_agency": "Department of Sanitation",
    "final_address": "3136 Laurel St",
    "address_councildis": "B",
    "status": "Assigned to Contractor",
    "contractor": "IV Waste",
    "rowid": "1213749",
    "final_x": "3676243.2459",
    "final_y": "519376.049655",
    "longitude": "-90.08508700665216",
    "latitude": "29.922262369723384",
    "geocoded_column": {
      "latitude": "29.922262369723384",
      "longitude": "-90.08508700665216"
    }
  },
  {
    "service_request": "2025-1213748",
    "request_type": "Trash/Recycling",
    "request_reason": "Request a Large Item Pick Up",
    "date_created": "2025-07-29T16:44:26.000",
    "date_modified": "2025-07-29T16:44:28.000",
    "request_status": "Pending",
    "responsible_agency": "Department of Sanitation",
    "final_address": "5761 E Louis Prima Dr",
    "address_councildis": "E",
    "status": "Assigned to Contractor",
    "contractor": "Waste Pro",
    "rowid": "1213748",
    "final_x": "3716080.08108",
    "final_y": "562488.682719",
    "longitude": "-89.95770616993272",
    "latitude": "30.039552365134035",
    "geocoded_column": {
      "latitude": "30.039552365134035",
      "longitude": "-89.95770616993272"
    }
  },
  {
    "service_request": "2025-1213747",
    "request_type": "Property Maintenance",
    "request_reason": "Property Maintenance",
    "date_created": "2025-07-29T16:43:22.000",
    "date_modified": "2025-07-29T16:44:28.000",
    "request_status": "Pending",
    "responsible_agency": "Department of Code Enforcement",
    "final_address": "6658 Argonne Blvd",
    "address_councildis": "A",
    "status": "Pending",
    "rowid": "1213747",
    "final_x": "3670517.3307",
    "final_y": "551691.012181",
    "longitude": "-90.10206531043362",
    "latitude": "30.011287974258824",
    "geocoded_column": {
      "latitude": "30.011287974258824",
      "longitude": "-90.10206531043362"
    }
  },
  {
    "service_request": "2025-1213746",
    "request_type": "Trash/Recycling",
    "request_reason": "Request a Large Item Pick Up",
    "date_created": "2025-07-29T16:40:48.000",
    "date_modified": "2025-07-29T16:40:50.000",
    "request_status": "Pending",
    "responsible_agency": "Department of Sanitation",
    "final_address": "4931 Painters St",
    "address_councildis": "D",
    "status": "Assigned to Contractor",
    "contractor": "IV Waste",
    "rowid": "1213746",
    "final_x": "3686243.06236",
    "final_y": "551153.520021",
    "longitude": "-90.05240042473638",
    "latitude": "30.009336054081757",
    "geocoded_column": {
      "latitude": "30.009336054081757",
      "longitude": "-90.05240042473638"
    }
  },
  {
    "service_request": "2025-1213745",
    "request_type": "Trash/Recycling",
    "request_reason": "Order Trash Cart",
    "date_created": "2025-07-29T16:40:45.000",
    "date_modified": "2025-07-29T16:40:46.000",
    "request_status": "Pending",
    "responsible_agency": "Department of Sanitation",
    "final_address": "3620 Danneel St",
    "address_councildis": "B",
    "status": "Assigned to Contractor",
    "contractor": "IV Waste",
    "rowid": "1213745",
    "final_x": "3672876.32276",
    "final_y": "522509.312634",
    "longitude": "-90.09560818292567",
    "latitude": "29.930978260482284",
    "geocoded_column": {
      "latitude": "29.930978260482284",
      "longitude": "-90.09560818292567"
    }
  },
  {
    "service_request": "2025-1213744",
    "request_type": "Trash/Recycling",
    "request_reason": "Request a Large Item Pick Up",
    "date_created": "2025-07-29T16:39:38.000",
    "date_modified": "2025-07-29T16:39:40.000",
    "request_status": "Pending",
    "responsible_agency": "Department of Sanitation",
    "final_address": "1442 St Maurice Ave",
    "address_councildis": "E",
    "status": "Assigned to Contractor",
    "contractor": "Waste Pro",
    "rowid": "1213744",
    "final_x": "3700338.47268",
    "final_y": "534532.696069",
    "longitude": "-90.00847560467865",
    "latitude": "29.96319409662935",
    "geocoded_column": {
      "latitude": "29.96319409662935",
      "longitude": "-90.00847560467865"
    }
  },
  {
    "service_request": "2025-1213743",
    "request_type": "Trash/Recycling",
    "request_reason": "Request a Large Item Pick Up",
    "date_created": "2025-07-29T16:38:45.000",
    "date_modified": "2025-07-29T16:38:47.000",
    "request_status": "Pending",
    "responsible_agency": "Department of Sanitation",
    "final_address": "2224 Odin St",
    "address_councildis": "D",
    "status": "Assigned to Contractor",
    "contractor": "IV Waste",
    "rowid": "1213743",
    "final_x": "3683940.46332",
    "final_y": "553013.649367",
    "longitude": "-90.05960979083996",
    "latitude": "30.014521309175315",
    "geocoded_column": {
      "latitude": "30.014521309175315",
      "longitude": "-90.05960979083996"
    }
  },
  {
    "service_request": "2025-1213742",
    "request_type": "Abandoned Vehicles",
    "request_reason": "Abandoned/Junk Vehicles",
    "date_created": "2025-07-29T16:37:45.000",
    "date_modified": "2025-07-29T16:37:48.000",
    "request_status": "Pending",
    "responsible_agency": "Department of Public Works",
    "final_address": "2018 Columbus St",
    "address_councildis": "D",
    "status": "Pending",
    "rowid": "1213742",
    "final_x": "3680446.68226",
    "final_y": "538128.408457",
    "longitude": "-90.07116646435763",
    "latitude": "29.973698486901483",
    "geocoded_column": {
      "latitude": "29.973698486901483",
      "longitude": "-90.07116646435763"
    }
  },
  {
    "service_request": "2025-1213741",
    "request_type": "Abandoned Vehicles",
    "request_reason": "Abandoned/Junk Vehicles",
    "date_created": "2025-07-29T16:33:36.000",
    "date_modified": "2025-07-29T16:33:38.000",
    "request_status": "Pending",
    "responsible_agency": "Department of Public Works",
    "final_address": "4130 Constance St",
    "address_councildis": "B",
    "status": "Pending",
    "rowid": "1213741",
    "final_x": "3671933.85204",
    "final_y": "518469.691318",
    "longitude": "-90.09872084691982",
    "latitude": "29.91989855406527",
    "geocoded_column": {
      "latitude": "29.91989855406527",
      "longitude": "-90.09872084691982"
    }
  },
  {
    "service_request": "2025-1213740",
    "request_type": "Drainage",
    "request_reason": "Drainage Manhole Cover Missing or Damaged",
    "date_created": "2025-07-29T16:31:17.000",
    "date_modified": "2025-07-29T16:31:19.000",
    "request_status": "Pending",
    "responsible_agency": "Sewerage & Water Board",
    "final_address": "9301 Lake Forest Blvd",
    "address_councildis": "E",
    "status": "Pending",
    "rowid": "1213740",
    "final_x": "3708380.86315",
    "final_y": "558701.173596",
    "longitude": "-89.98217894354795",
    "latitude": "30.0293901178376",
    "geocoded_column": {
      "latitude": "30.0293901178376",
      "longitude": "-89.98217894354795"
    }
  },
  {
    "service_request": "2025-1213739",
    "request_type": "Trash/Recycling",
    "request_reason": "Repair Trash Cart",
    "date_created": "2025-07-29T16:29:46.000",
    "date_modified": "2025-07-29T16:29:48.000",
    "request_status": "Pending",
    "responsible_agency": "Department of Sanitation",
    "final_address": "416 Ptolemy St",
    "address_councildis": "C",
    "status": "Assigned to Contractor",
    "contractor": "Richards Disposal",
    "rowid": "1213739",
    "final_x": "3686863.38716",
    "final_y": "526079.92435",
    "longitude": "-90.05132690657088",
    "latitude": "29.94037339313308",
    "geocoded_column": {
      "latitude": "29.94037339313308",
      "longitude": "-90.05132690657088"
    }
  },
  {
    "service_request": "2025-1213738",
    "request_type": "Roads and Streets",
    "request_reason": "Pothole",
    "date_created": "2025-07-29T16:26:15.000",
    "date_modified": "2025-07-29T16:26:16.000",
    "request_status": "Pending",
    "responsible_agency": "Department of Public Works",
    "final_address": "9011 Dwyer Rd",
    "address_councildis": "E",
    "status": "Pending",
    "rowid": "1213738",
    "final_x": "3708189.82782",
    "final_y": "557108.29609",
    "longitude": "-89.98284193018978",
    "latitude": "30.02501652141594",
    "geocoded_column": {
      "latitude": "30.02501652141594",
      "longitude": "-89.98284193018978"
    }
  },
  {
    "service_request": "2025-1213736",
    "request_type": "Drainage",
    "request_reason": "Drainage Manhole Cover Missing or Damaged",
    "date_created": "2025-07-29T16:24:26.000",
    "date_modified": "2025-07-29T16:24:28.000",
    "request_status": "Pending",
    "responsible_agency": "Sewerage & Water Board",
    "final_address": "DAUPHINE ST & ESPLANADE AVE",
    "address_councildis": "C",
    "status": "Pending",
    "rowid": "1213736",
    "final_x": "3683488.2",
    "final_y": "534888.38",
    "longitude": "-90.06167426991615",
    "latitude": "29.964697057818046",
    "geocoded_column": {
      "latitude": "29.964697057818046",
      "longitude": "-90.06167426991615"
    }
  },
  {
    "service_request": "2025-1213735",
    "request_type": "General Services",
    "request_reason": "General Service Request",
    "date_created": "2025-07-29T16:24:24.000",
    "date_modified": "2025-07-29T16:26:57.000",
    "case_close_date": "2025-07-29T11:26:54.000",
    "request_status": "Closed",
    "responsible_agency": "Orleans Parish Communication District",
    "final_address": "9011 Dwyer Rd",
    "address_councildis": "E",
    "status": "Referred to Risk Management",
    "rowid": "1213735",
    "final_x": "3708189.82782",
    "final_y": "557108.29609",
    "longitude": "-89.98284193018978",
    "latitude": "30.02501652141594",
    "geocoded_column": {
      "latitude": "30.02501652141594",
      "longitude": "-89.98284193018978"
    }
  },
  {
    "service_request": "2025-1213734",
    "request_type": "Trash/Recycling",
    "request_reason": "Request a Large Item Pick Up",
    "date_created": "2025-07-29T16:21:57.000",
    "date_modified": "2025-07-29T16:21:59.000",
    "request_status": "Pending",
    "responsible_agency": "Department of Sanitation",
    "final_address": "2200 BLK Saint Nick Dr",
    "address_councildis": "C",
    "status": "Assigned to Contractor",
    "contractor": "Richards Disposal",
    "rowid": "1213734",
    "final_x": "3699670.26237",
    "final_y": "522570.368689",
    "longitude": "-90.01102165549528",
    "latitude": "29.93032312642262",
    "geocoded_column": {
      "latitude": "29.93032312642262",
      "longitude": "-90.01102165549528"
    }
  },
  {
    "service_request": "2025-1213733",
    "request_type": "Trash/Recycling",
    "request_reason": "Order Recycling Cart",
    "date_created": "2025-07-29T16:20:34.000",
    "date_modified": "2025-07-29T16:20:36.000",
    "request_status": "Pending",
    "responsible_agency": "Department of Sanitation",
    "final_address": "BULLARD AVE & N OAKRIDGE CT",
    "address_councildis": "E",
    "status": "Pending",
    "rowid": "1213733",
    "final_x": "3713021.1",
    "final_y": "567601.88",
    "longitude": "-89.96718070852187",
    "latitude": "30.053712209757233",
    "geocoded_column": {
      "latitude": "30.053712209757233",
      "longitude": "-89.96718070852187"
    }
  },
  {
    "service_request": "2025-1213732",
    "request_type": "Abandoned Vehicles",
    "request_reason": "Abandoned/Junk Vehicles",
    "date_created": "2025-07-29T16:18:17.000",
    "date_modified": "2025-07-29T16:18:19.000",
    "request_status": "Pending",
    "responsible_agency": "Department of Public Works",
    "final_address": "2514 Cambronne St",
    "address_councildis": "A",
    "status": "Pending",
    "rowid": "1213732",
    "final_x": "3664380.24896",
    "final_y": "532691.168772",
    "longitude": "-90.12208947807493",
    "latitude": "29.959224708177018",
    "geocoded_column": {
      "latitude": "29.959224708177018",
      "longitude": "-90.12208947807493"
    }
  },
  {
    "service_request": "2025-1213731",
    "request_type": "Trash/Recycling",
    "request_reason": "Request a Large Item Pick Up",
    "date_created": "2025-07-29T16:08:20.000",
    "date_modified": "2025-07-29T16:08:21.000",
    "request_status": "Pending",
    "responsible_agency": "Department of Sanitation",
    "final_address": "10921 Willowbrae Dr",
    "address_councildis": "E",
    "status": "Assigned to Contractor",
    "contractor": "Waste Pro",
    "rowid": "1213731",
    "final_x": "3711219.65752",
    "final_y": "564499.065761",
    "longitude": "-89.97299099263039",
    "latitude": "30.04523965953626",
    "geocoded_column": {
      "latitude": "30.04523965953626",
      "longitude": "-89.97299099263039"
    }
  },
  {
    "service_request": "2025-1213730",
    "request_type": "Healthy Homes",
    "request_reason": "Healthy Homes",
    "date_created": "2025-07-29T16:08:10.000",
    "date_modified": "2025-07-29T16:08:11.000",
    "request_status": "Pending",
    "responsible_agency": "Department of Code Enforcement",
    "final_address": "4518 Laurel St",
    "address_councildis": "B",
    "status": "Pending",
    "rowid": "1213730",
    "final_x": "3670575.10414",
    "final_y": "517959.093686",
    "longitude": "-90.10302706990281",
    "latitude": "29.918534758062385",
    "geocoded_column": {
      "latitude": "29.918534758062385",
      "longitude": "-90.10302706990281"
    }
  },
  {
    "service_request": "2025-1213729",
    "request_type": "Trash/Recycling",
    "request_reason": "Repair Recycling Cart",
    "date_created": "2025-07-29T16:07:55.000",
    "date_modified": "2025-07-29T16:07:57.000",
    "request_status": "Pending",
    "responsible_agency": "Department of Sanitation",
    "final_address": "12 Marlborough Gate Pl",
    "address_councildis": "B",
    "status": "Pending",
    "rowid": "1213729",
    "final_x": "3668859.14823",
    "final_y": "523689.053115",
    "longitude": "-90.1082500786226",
    "latitude": "29.934340874743356",
    "geocoded_column": {
      "latitude": "29.934340874743356",
      "longitude": "-90.1082500786226"
    }
  },
  {
    "service_request": "2025-1213728",
    "request_type": "Trash/Recycling",
    "request_reason": "Replace Trash Cart",
    "date_created": "2025-07-29T16:06:16.000",
    "date_modified": "2025-07-29T16:06:19.000",
    "request_status": "Pending",
    "responsible_agency": "Department of Sanitation",
    "final_address": "319 Audubon St",
    "address_councildis": "A",
    "status": "Assigned to Contractor",
    "contractor": "IV Waste",
    "rowid": "1213728",
    "final_x": "3661668.4848",
    "final_y": "522164.060282",
    "longitude": "-90.13100142746481",
    "latitude": "29.93035705872044",
    "geocoded_column": {
      "latitude": "29.93035705872044",
      "longitude": "-90.13100142746481"
    }
  },
  {
    "service_request": "2025-1213727",
    "request_type": "Trash/Recycling",
    "request_reason": "Repair Trash Cart",
    "date_created": "2025-07-29T16:05:00.000",
    "date_modified": "2025-07-29T16:05:03.000",
    "request_status": "Pending",
    "responsible_agency": "Department of Sanitation",
    "final_address": "12 Marlborough Gate Pl",
    "address_councildis": "B",
    "status": "Assigned to Contractor",
    "contractor": "IV Waste",
    "rowid": "1213727",
    "final_x": "3668859.14823",
    "final_y": "523689.053115",
    "longitude": "-90.1082500786226",
    "latitude": "29.934340874743356",
    "geocoded_column": {
      "latitude": "29.934340874743356",
      "longitude": "-90.1082500786226"
    }
  },
  {
    "service_request": "2025-1213726",
    "request_type": "Trash/Recycling",
    "request_reason": "Request a Large Item Pick Up",
    "date_created": "2025-07-29T16:04:48.000",
    "date_modified": "2025-07-29T16:04:51.000",
    "request_status": "Pending",
    "responsible_agency": "Department of Sanitation",
    "final_address": "7001 Bamberry St",
    "address_councildis": "E",
    "status": "Assigned to Contractor",
    "contractor": "Waste Pro",
    "rowid": "1213726",
    "final_x": "3699258.42295",
    "final_y": "559283.198237",
    "longitude": "-90.01098426553757",
    "latitude": "30.031283083770287",
    "geocoded_column": {
      "latitude": "30.031283083770287",
      "longitude": "-90.01098426553757"
    }
  },
  {
    "service_request": "2025-1213725",
    "request_type": "Trash/Recycling",
    "request_reason": "Request a Large Item Pick Up",
    "date_created": "2025-07-29T16:04:01.000",
    "date_modified": "2025-07-29T16:04:04.000",
    "request_status": "Pending",
    "responsible_agency": "Department of Sanitation",
    "final_address": "910 City Park Ave",
    "address_councildis": "A",
    "status": "Assigned to Contractor",
    "contractor": "IV Waste",
    "rowid": "1213725",
    "final_x": "3671974.38433",
    "final_y": "541578.168076",
    "longitude": "-90.0978063902259",
    "latitude": "29.983438041059625",
    "geocoded_column": {
      "latitude": "29.983438041059625",
      "longitude": "-90.0978063902259"
    }
  },
  {
    "service_request": "2025-1213724",
    "request_type": "Tax and Revenue",
    "request_reason": "Occupational License Tax",
    "date_created": "2025-07-29T16:01:30.000",
    "date_modified": "2025-07-29T16:01:32.000",
    "request_status": "Pending",
    "responsible_agency": "Bureau of Revenue",
    "final_address": "21135 Chef Menteur Hwy",
    "address_councildis": "E",
    "status": "Pending",
    "rowid": "1213724",
    "final_x": "3765454.31888",
    "final_y": "574701.902955",
    "longitude": "-89.80115705151728",
    "latitude": "30.071410828363792",
    "geocoded_column": {
      "latitude": "30.071410828363792",
      "longitude": "-89.80115705151728"
    }
  },
  {
    "service_request": "2025-1213723",
    "request_type": "Trash/Recycling",
    "request_reason": "Request a Large Item Pick Up",
    "date_created": "2025-07-29T16:00:18.000",
    "date_modified": "2025-07-29T16:00:20.000",
    "request_status": "Pending",
    "responsible_agency": "Department of Sanitation",
    "final_address": "211 S Lopez St",
    "address_councildis": "B",
    "status": "Assigned to Contractor",
    "contractor": "IV Waste",
    "rowid": "1213723",
    "final_x": "3673360.46548",
    "final_y": "535848.656455",
    "longitude": "-90.09362420474805",
    "latitude": "29.967642664863284",
    "geocoded_column": {
      "latitude": "29.967642664863284",
      "longitude": "-90.09362420474805"
    }
  },
  {
    "service_request": "2025-1213721",
    "request_type": "Trash/Recycling",
    "request_reason": "Replace Trash Cart",
    "date_created": "2025-07-29T16:00:06.000",
    "date_modified": "2025-07-29T16:00:08.000",
    "request_status": "Pending",
    "responsible_agency": "Department of Sanitation",
    "final_address": "228 28Th St",
    "address_councildis": "A",
    "status": "Assigned to Contractor",
    "contractor": "IV Waste",
    "rowid": "1213721",
    "final_x": "3665596.43431",
    "final_y": "550165.686548",
    "longitude": "-90.11766361239219",
    "latitude": "30.007238336296737",
    "geocoded_column": {
      "latitude": "30.007238336296737",
      "longitude": "-90.11766361239219"
    }
  },
  {
    "service_request": "2025-1213722",
    "request_type": "Trash/Recycling",
    "request_reason": "Request a Large Item Pick Up",
    "date_created": "2025-07-29T16:00:06.000",
    "date_modified": "2025-07-29T16:00:08.000",
    "request_status": "Pending",
    "responsible_agency": "Department of Sanitation",
    "final_address": "8004 Lucerne St",
    "address_councildis": "E",
    "status": "Assigned to Contractor",
    "contractor": "Waste Pro",
    "rowid": "1213722",
    "final_x": "3710015.53297",
    "final_y": "567021.734308",
    "longitude": "-89.97670217456282",
    "latitude": "30.052215232613424",
    "geocoded_column": {
      "latitude": "30.052215232613424",
      "longitude": "-89.97670217456282"
    }
  },
  {
    "service_request": "2025-1213720",
    "request_type": "Roads and Streets",
    "request_reason": "Pothole",
    "date_created": "2025-07-29T15:58:34.000",
    "date_modified": "2025-07-29T15:58:36.000",
    "request_status": "Pending",
    "responsible_agency": "Department of Public Works",
    "final_address": "3000 BLK Castiglione St",
    "address_councildis": "A",
    "status": "Pending",
    "rowid": "1213720",
    "final_x": "3678708.26099",
    "final_y": "542765.235779",
    "longitude": "-90.0764961482444",
    "latitude": "29.986500694421323",
    "geocoded_column": {
      "latitude": "29.986500694421323",
      "longitude": "-90.0764961482444"
    }
  },
  {
    "service_request": "2025-1213719",
    "request_type": "Street and Traffic Signs",
    "request_reason": "Stop Sign Missing or Damaged",
    "date_created": "2025-07-29T15:58:33.000",
    "date_modified": "2025-07-29T15:58:34.000",
    "request_status": "Pending",
    "responsible_agency": "Department of Public Works",
    "final_address": "ODEON ST & LAWRENCE ST",
    "address_councildis": "C",
    "status": "Pending",
    "rowid": "1213719",
    "final_x": "3695951.1",
    "final_y": "525494.18",
    "longitude": "-90.02265683076662",
    "latitude": "29.93848009360758",
    "geocoded_column": {
      "latitude": "29.93848009360758",
      "longitude": "-90.02265683076662"
    }
  },
  {
    "service_request": "2025-1213718",
    "request_type": "Trash/Recycling",
    "request_reason": "Request a Large Item Pick Up",
    "date_created": "2025-07-29T15:58:13.000",
    "date_modified": "2025-07-29T15:58:14.000",
    "request_status": "Pending",
    "responsible_agency": "Department of Sanitation",
    "final_address": "2921 Preston Pl",
    "address_councildis": "C",
    "status": "Assigned to Contractor",
    "contractor": "Richards Disposal",
    "rowid": "1213718",
    "final_x": "3708574.12868",
    "final_y": "519060.175031",
    "longitude": "-89.9830443827841",
    "latitude": "29.920385791750356",
    "geocoded_column": {
      "latitude": "29.920385791750356",
      "longitude": "-89.9830443827841"
    }
  },
  {
    "service_request": "2025-1213717",
    "request_type": "Trash/Recycling",
    "request_reason": "Request a Large Item Pick Up",
    "date_created": "2025-07-29T15:56:33.000",
    "date_modified": "2025-07-29T15:56:35.000",
    "request_status": "Pending",
    "responsible_agency": "Department of Sanitation",
    "final_address": "3639 Octavia St",
    "address_councildis": "A",
    "status": "Assigned to Contractor",
    "contractor": "IV Waste",
    "rowid": "1213717",
    "final_x": "3668725.94388",
    "final_y": "528950.131456",
    "longitude": "-90.10849306017788",
    "latitude": "29.948811054478792",
    "geocoded_column": {
      "latitude": "29.948811054478792",
      "longitude": "-90.10849306017788"
    }
  },
  {
    "service_request": "2025-1213716",
    "request_type": "Property Maintenance",
    "request_reason": "Property Maintenance",
    "date_created": "2025-07-29T15:56:32.000",
    "date_modified": "2025-07-29T15:56:34.000",
    "request_status": "Pending",
    "responsible_agency": "Department of Code Enforcement",
    "final_address": "1803 Henriette Delille St",
    "address_councildis": "C",
    "status": "Pending",
    "rowid": "1213716",
    "final_x": "3683548.6045",
    "final_y": "536212.037831",
    "longitude": "-90.06143711823294",
    "latitude": "29.96833481666031",
    "geocoded_column": {
      "latitude": "29.96833481666031",
      "longitude": "-90.06143711823294"
    }
  },
  {
    "service_request": "2025-1213715",
    "request_type": "Trash/Recycling",
    "request_reason": "Repair Trash Cart",
    "date_created": "2025-07-29T15:55:12.000",
    "date_modified": "2025-07-29T15:55:15.000",
    "request_status": "Pending",
    "responsible_agency": "Department of Sanitation",
    "final_address": "4334 Mithra St",
    "address_councildis": "D",
    "status": "Assigned to Contractor",
    "contractor": "IV Waste",
    "rowid": "1213715",
    "final_x": "3690031.96144",
    "final_y": "553150.487831",
    "longitude": "-90.04035883515036",
    "latitude": "30.01470997014009",
    "geocoded_column": {
      "latitude": "30.01470997014009",
      "longitude": "-90.04035883515036"
    }
  },
  {
    "service_request": "2025-1213714",
    "request_type": "Trash/Recycling",
    "request_reason": "Illegal Dumping",
    "date_created": "2025-07-29T15:53:14.000",
    "date_modified": "2025-07-29T15:53:15.000",
    "request_status": "Pending",
    "responsible_agency": "Department of Sanitation",
    "final_address": "6877 Mayo Rd",
    "address_councildis": "E",
    "status": "Pending",
    "rowid": "1213714",
    "final_x": "3701980.90628",
    "final_y": "557792.707419",
    "longitude": "-90.00243587785255",
    "latitude": "30.02709814065389",
    "geocoded_column": {
      "latitude": "30.02709814065389",
      "longitude": "-90.00243587785255"
    }
  },
  {
    "service_request": "2025-1213713",
    "request_type": "Trash/Recycling",
    "request_reason": "Request a Large Item Pick Up",
    "date_created": "2025-07-29T15:53:05.000",
    "date_modified": "2025-07-29T15:53:07.000",
    "request_status": "Pending",
    "responsible_agency": "Department of Sanitation",
    "final_address": "3605 Timber Wolf Ln",
    "address_councildis": "C",
    "status": "Assigned to Contractor",
    "contractor": "Richards Disposal",
    "rowid": "1213713",
    "final_x": "3704342.61892",
    "final_y": "511060.337008",
    "longitude": "-89.99669572718392",
    "latitude": "29.898525407912008",
    "geocoded_column": {
      "latitude": "29.898525407912008",
      "longitude": "-89.99669572718392"
    }
  },
  {
    "service_request": "2025-1213712",
    "request_type": "Trash/Recycling",
    "request_reason": "Return Trash Cart",
    "date_created": "2025-07-29T15:52:15.000",
    "date_modified": "2025-07-29T15:52:17.000",
    "request_status": "Pending",
    "responsible_agency": "Department of Sanitation",
    "final_address": "7400 Dartmoor Dr",
    "address_councildis": "E",
    "status": "Assigned to Contractor",
    "contractor": "Waste Pro",
    "rowid": "1213712",
    "final_x": "3704943.01841",
    "final_y": "561888.866847",
    "longitude": "-89.99292454113606",
    "latitude": "30.038266042314778",
    "geocoded_column": {
      "latitude": "30.038266042314778",
      "longitude": "-89.99292454113606"
    }
  },
  {
    "service_request": "2025-1213711",
    "request_type": "Safety & Permits",
    "request_reason": "Licenses & Permits",
    "date_created": "2025-07-29T15:51:49.000",
    "date_modified": "2025-07-29T15:51:50.000",
    "request_status": "Pending",
    "responsible_agency": "Safety and Permits",
    "final_address": "1223 Pauline St",
    "address_councildis": "D",
    "status": "Pending",
    "rowid": "1213711",
    "final_x": "3691394.6134",
    "final_y": "535996.397383",
    "longitude": "-90.03666685865622",
    "latitude": "29.967500076863146",
    "geocoded_column": {
      "latitude": "29.967500076863146",
      "longitude": "-90.03666685865622"
    }
  },
  {
    "service_request": "2025-1213710",
    "request_type": "Property Maintenance",
    "request_reason": "Property Maintenance",
    "date_created": "2025-07-29T15:50:14.000",
    "date_modified": "2025-07-29T15:50:16.000",
    "request_status": "Pending",
    "responsible_agency": "Department of Code Enforcement",
    "final_address": "6880 Parc Brittany Blvd",
    "address_councildis": "E",
    "status": "Pending",
    "rowid": "1213710",
    "final_x": "3702661.06884",
    "final_y": "557779.036635",
    "longitude": "-90.00028714562029",
    "latitude": "30.02703881139196",
    "geocoded_column": {
      "latitude": "30.02703881139196",
      "longitude": "-90.00028714562029"
    }
  },
  {
    "service_request": "2025-1213709",
    "request_type": "Trash/Recycling",
    "request_reason": "Change Size of Trash Cart",
    "date_created": "2025-07-29T15:49:56.000",
    "date_modified": "2025-07-29T15:49:59.000",
    "request_status": "Pending",
    "responsible_agency": "Department of Sanitation",
    "final_address": "5601 Brighton Pl",
    "address_councildis": "C",
    "status": "Assigned to Contractor",
    "contractor": "Richards Disposal",
    "rowid": "1213709",
    "final_x": "3704251.10007",
    "final_y": "520380.716152",
    "longitude": "-89.99664141705443",
    "latitude": "29.92415619291044",
    "geocoded_column": {
      "latitude": "29.92415619291044",
      "longitude": "-89.99664141705443"
    }
  },
  {
    "service_request": "2025-1213708",
    "request_type": "Safety & Permits",
    "request_reason": "Zoning Enforcement",
    "date_created": "2025-07-29T15:49:17.000",
    "date_modified": "2025-07-29T15:49:19.000",
    "request_status": "Pending",
    "responsible_agency": "Safety and Permits",
    "final_address": "2420 Philip St",
    "address_councildis": "B",
    "status": "Pending",
    "rowid": "1213708",
    "final_x": "3675378.48437",
    "final_y": "525949.826557",
    "longitude": "-90.0875911072389",
    "latitude": "29.94036399467193",
    "geocoded_column": {
      "latitude": "29.94036399467193",
      "longitude": "-90.0875911072389"
    }
  },
  {
    "service_request": "2025-1213707",
    "request_type": "Trash/Recycling",
    "request_reason": "Request a Large Item Pick Up",
    "date_created": "2025-07-29T15:48:32.000",
    "date_modified": "2025-07-29T15:48:34.000",
    "request_status": "Pending",
    "responsible_agency": "Department of Sanitation",
    "final_address": "541 Atlantic Ave",
    "address_councildis": "C",
    "status": "Assigned to Contractor",
    "contractor": "Richards Disposal",
    "rowid": "1213707",
    "final_x": "3688742.24412",
    "final_y": "529556.869889",
    "longitude": "-90.04527167150971",
    "latitude": "29.949875871524508",
    "geocoded_column": {
      "latitude": "29.949875871524508",
      "longitude": "-90.04527167150971"
    }
  },
  {
    "service_request": "2025-1213706",
    "request_type": "Abandoned Vehicles",
    "request_reason": "Abandoned/Junk Vehicles",
    "date_created": "2025-07-29T15:47:58.000",
    "date_modified": "2025-07-29T15:48:01.000",
    "request_status": "Pending",
    "responsible_agency": "Department of Public Works",
    "final_address": "3200 BLK Clouet St",
    "address_councildis": "D",
    "status": "Pending",
    "rowid": "1213706",
    "final_x": "3691135.36605",
    "final_y": "544488.318619",
    "longitude": "-90.0371822084723",
    "latitude": "29.990857896396932",
    "geocoded_column": {
      "latitude": "29.990857896396932",
      "longitude": "-90.0371822084723"
    }
  },
  {
    "service_request": "2025-1213705",
    "request_type": "Parks & Parkways",
    "request_reason": "Request Grass Cutting Service (City Owned Property)",
    "date_created": "2025-07-29T15:47:11.000",
    "date_modified": "2025-07-29T15:47:14.000",
    "request_status": "Pending",
    "responsible_agency": "Department of Parks & Parkway",
    "final_address": "ST CLAUDE AVE & DELERY ST",
    "address_councildis": "E",
    "status": "Pending",
    "rowid": "1213705",
    "final_x": "3700423.0",
    "final_y": "532925.78",
    "longitude": "-90.00826736057257",
    "latitude": "29.958772964167427",
    "geocoded_column": {
      "latitude": "29.958772964167427",
      "longitude": "-90.00826736057257"
    }
  },
  {
    "service_request": "2025-1213704",
    "request_type": "Property Maintenance",
    "request_reason": "Property Maintenance",
    "date_created": "2025-07-29T15:46:50.000",
    "date_modified": "2025-07-29T15:46:52.000",
    "request_status": "Pending",
    "responsible_agency": "Department of Code Enforcement",
    "final_address": "6661 Dwyer Rd",
    "address_councildis": "E",
    "status": "Pending",
    "rowid": "1213704",
    "final_x": "3699426.11792",
    "final_y": "555611.884185",
    "longitude": "-90.01058827218168",
    "latitude": "30.0211830563107",
    "geocoded_column": {
      "latitude": "30.0211830563107",
      "longitude": "-90.01058827218168"
    }
  },
  {
    "service_request": "2025-1213703",
    "request_type": "Streetlights",
    "request_reason": "Streetlight Outage/Malfunction",
    "date_created": "2025-07-29T15:46:04.000",
    "date_modified": "2025-07-29T15:46:05.000",
    "request_status": "Pending",
    "responsible_agency": "Department of Public Works",
    "final_address": "37 Morrison Ct",
    "address_councildis": "E",
    "status": "Pending",
    "contractor": "Legacy Professional Services",
    "rowid": "1213703",
    "final_x": "3704193.7585",
    "final_y": "561390.665694",
    "longitude": "-89.99531076464017",
    "latitude": "30.036920263702637",
    "geocoded_column": {
      "latitude": "30.036920263702637",
      "longitude": "-89.99531076464017"
    }
  },
  {
    "service_request": "2025-1213702",
    "request_type": "Property Maintenance",
    "request_reason": "Property Maintenance",
    "date_created": "2025-07-29T15:43:56.000",
    "date_modified": "2025-07-29T15:44:00.000",
    "request_status": "Pending",
    "responsible_agency": "Department of Code Enforcement",
    "final_address": "4744 Pecan St",
    "address_councildis": "E",
    "status": "Pending",
    "rowid": "1213702",
    "final_x": "3701747.6282",
    "final_y": "554291.441048",
    "longitude": "-90.00330143084952",
    "latitude": "30.017478450604212",
    "geocoded_column": {
      "latitude": "30.017478450604212",
      "longitude": "-90.00330143084952"
    }
  },
  {
    "service_request": "2025-1213701",
    "request_type": "Trash/Recycling",
    "request_reason": "Request a Large Item Pick Up",
    "date_created": "2025-07-29T15:43:41.000",
    "date_modified": "2025-07-29T15:43:42.000",
    "request_status": "Pending",
    "responsible_agency": "Department of Sanitation",
    "final_address": "6561 Dwyer Rd",
    "address_councildis": "E",
    "status": "Assigned to Contractor",
    "contractor": "Waste Pro",
    "rowid": "1213701",
    "final_x": "3698889.36292",
    "final_y": "555554.424537",
    "longitude": "-90.0122863503374",
    "latitude": "30.02104209060819",
    "geocoded_column": {
      "latitude": "30.02104209060819",
      "longitude": "-90.0122863503374"
    }
  },
  {
    "service_request": "2025-1213700",
    "request_type": "Abandoned Vehicles",
    "request_reason": "Abandoned/Junk Vehicles",
    "date_created": "2025-07-29T15:43:38.000",
    "date_modified": "2025-07-29T15:43:40.000",
    "request_status": "Pending",
    "responsible_agency": "Department of Public Works",
    "final_address": "3200 BLK Montegut St",
    "address_councildis": "D",
    "status": "Pending",
    "rowid": "1213700",
    "final_x": "3690567.53582",
    "final_y": "544627.93481",
    "longitude": "-90.03897085940719",
    "latitude": "29.991259439775355",
    "geocoded_column": {
      "latitude": "29.991259439775355",
      "longitude": "-90.03897085940719"
    }
  },
  {
    "service_request": "2025-1213699",
    "request_type": "Trash/Recycling",
    "request_reason": "MIssed Recycling Pick-Up",
    "date_created": "2025-07-29T15:30:18.000",
    "date_modified": "2025-07-29T15:30:21.000",
    "request_status": "Pending",
    "responsible_agency": "Department of Sanitation",
    "final_address": "8603 Chase St",
    "address_councildis": "E",
    "status": "Assigned to Contractor",
    "contractor": "Waste Pro",
    "rowid": "1213699",
    "final_x": "3703605.4275",
    "final_y": "563465.13264",
    "longitude": "-89.99709355396725",
    "latitude": "30.042643108635783",
    "geocoded_column": {
      "latitude": "30.042643108635783",
      "longitude": "-89.99709355396725"
    }
  },
  {
    "service_request": "2025-1213698",
    "request_type": "Trash/Recycling",
    "request_reason": "Request a Large Item Pick Up",
    "date_created": "2025-07-29T15:30:06.000",
    "date_modified": "2025-07-29T15:30:08.000",
    "request_status": "Pending",
    "responsible_agency": "Department of Sanitation",
    "final_address": "1210 N Gayoso St",
    "address_councildis": "A",
    "status": "Assigned to Contractor",
    "contractor": "IV Waste",
    "rowid": "1213698",
    "final_x": "3676727.35553",
    "final_y": "539398.561162",
    "longitude": "-90.08286913326694",
    "latitude": "29.977303098085574",
    "geocoded_column": {
      "latitude": "29.977303098085574",
      "longitude": "-90.08286913326694"
    }
  },
  {
    "service_request": "2025-1213697",
    "request_type": "Trash/Recycling",
    "request_reason": "Request a Large Item Pick Up",
    "date_created": "2025-07-29T15:28:03.000",
    "date_modified": "2025-07-29T15:28:05.000",
    "request_status": "Pending",
    "responsible_agency": "Department of Sanitation",
    "final_address": "7813 Shamrock Dr",
    "address_councildis": "E",
    "status": "Assigned to Contractor",
    "contractor": "Waste Pro",
    "rowid": "1213697",
    "final_x": "3718789.30316",
    "final_y": "572621.253929",
    "longitude": "-89.94875738273981",
    "latitude": "30.067323036971608",
    "geocoded_column": {
      "latitude": "30.067323036971608",
      "longitude": "-89.94875738273981"
    }
  },
  {
    "service_request": "2025-1213696",
    "request_type": "Trash/Recycling",
    "request_reason": "Repair Recycling Cart",
    "date_created": "2025-07-29T15:27:10.000",
    "date_modified": "2025-07-29T15:27:12.000",
    "request_status": "Pending",
    "responsible_agency": "Department of Sanitation",
    "final_address": "1430 N Miro St",
    "address_councildis": "D",
    "status": "Pending",
    "rowid": "1213696",
    "final_x": "3679800.58587",
    "final_y": "538085.569033",
    "longitude": "-90.07320846382706",
    "latitude": "29.973600246417842",
    "geocoded_column": {
      "latitude": "29.973600246417842",
      "longitude": "-90.07320846382706"
    }
  },
  {
    "service_request": "2025-1213695",
    "request_type": "Trash/Recycling",
    "request_reason": "Order Trash Cart",
    "date_created": "2025-07-29T15:26:56.000",
    "date_modified": "2025-07-29T15:26:58.000",
    "request_status": "Pending",
    "responsible_agency": "Department of Sanitation",
    "final_address": "7813 Shamrock Dr",
    "address_councildis": "E",
    "status": "Assigned to Contractor",
    "contractor": "Waste Pro",
    "rowid": "1213695",
    "final_x": "3718789.30316",
    "final_y": "572621.253929",
    "longitude": "-89.94875738273981",
    "latitude": "30.067323036971608",
    "geocoded_column": {
      "latitude": "30.067323036971608",
      "longitude": "-89.94875738273981"
    }
  },
  {
    "service_request": "2025-1213694",
    "request_type": "Trash/Recycling",
    "request_reason": "Order Recycling Cart",
    "date_created": "2025-07-29T15:25:58.000",
    "date_modified": "2025-07-29T15:25:59.000",
    "request_status": "Pending",
    "responsible_agency": "Department of Sanitation",
    "final_address": "707 Sumner St",
    "address_councildis": "C",
    "status": "Pending",
    "rowid": "1213694",
    "final_x": "3691130.91427",
    "final_y": "528842.172736",
    "longitude": "-90.03775507886056",
    "latitude": "29.947836651977987",
    "geocoded_column": {
      "latitude": "29.947836651977987",
      "longitude": "-90.03775507886056"
    }
  },
  {
    "service_request": "2025-1213693",
    "request_type": "Trash/Recycling",
    "request_reason": "Order Recycling Cart",
    "date_created": "2025-07-29T15:25:28.000",
    "date_modified": "2025-07-29T15:25:30.000",
    "request_status": "Pending",
    "responsible_agency": "Department of Sanitation",
    "final_address": "2005 Clouet St",
    "address_councildis": "D",
    "status": "Pending",
    "rowid": "1213693",
    "final_x": "3689941.03683",
    "final_y": "539429.81889",
    "longitude": "-90.04113498955452",
    "latitude": "29.976985924079482",
    "geocoded_column": {
      "latitude": "29.976985924079482",
      "longitude": "-90.04113498955452"
    }
  },
  {
    "service_request": "2025-1213692",
    "request_type": "Trash/Recycling",
    "request_reason": "Missed Trash Pick-Up",
    "date_created": "2025-07-29T15:25:22.000",
    "date_modified": "2025-07-29T16:55:17.000",
    "case_close_date": "2025-07-29T11:55:16.000",
    "request_status": "Closed",
    "responsible_agency": "Department of Sanitation",
    "final_address": "121 Sherwood Forest Dr",
    "address_councildis": "A",
    "status": "Invalid Request",
    "contractor": "IV Waste",
    "contractor_action": "Invalid Request",
    "rowid": "1213692",
    "final_x": "3673251.68046",
    "final_y": "541138.594572",
    "longitude": "-90.09378703163449",
    "latitude": "29.98219143267326",
    "geocoded_column": {
      "latitude": "29.98219143267326",
      "longitude": "-90.09378703163449"
    }
  },
  {
    "service_request": "2025-1213691",
    "request_type": "Trash/Recycling",
    "request_reason": "Replace Trash Cart",
    "date_created": "2025-07-29T15:25:00.000",
    "date_modified": "2025-07-29T15:25:02.000",
    "request_status": "Pending",
    "responsible_agency": "Department of Sanitation",
    "final_address": "2567 Lavender St",
    "address_councildis": "D",
    "status": "Assigned to Contractor",
    "contractor": "IV Waste",
    "rowid": "1213691",
    "final_x": "3686901.7078",
    "final_y": "546950.292625",
    "longitude": "-90.05046821628564",
    "latitude": "29.997758442617826",
    "geocoded_column": {
      "latitude": "29.997758442617826",
      "longitude": "-90.05046821628564"
    }
  },
  {
    "service_request": "2025-1213690",
    "request_type": "Parks & Parkways",
    "request_reason": "Request Tree Service (Right of Way/Public Property)",
    "date_created": "2025-07-29T15:24:58.000",
    "date_modified": "2025-07-29T15:25:00.000",
    "request_status": "Pending",
    "responsible_agency": "Department of Parks & Parkway",
    "final_address": "1437 N Derbigny St",
    "address_councildis": "D",
    "status": "Pending",
    "rowid": "1213690",
    "final_x": "3681150.26613",
    "final_y": "537118.165768",
    "longitude": "-90.06897960146306",
    "latitude": "29.970899339466794",
    "geocoded_column": {
      "latitude": "29.970899339466794",
      "longitude": "-90.06897960146306"
    }
  },
  {
    "service_request": "2025-1213689",
    "request_type": "Trash/Recycling",
    "request_reason": "Request a Large Item Pick Up",
    "date_created": "2025-07-29T15:23:03.000",
    "date_modified": "2025-07-29T15:23:05.000",
    "request_status": "Pending",
    "responsible_agency": "Department of Sanitation",
    "final_address": "1832 Mandeville St",
    "address_councildis": "D",
    "status": "Assigned to Contractor",
    "contractor": "IV Waste",
    "rowid": "1213689",
    "final_x": "3685506.99586",
    "final_y": "539211.96833",
    "longitude": "-90.05514675816536",
    "latitude": "29.976523660021083",
    "geocoded_column": {
      "latitude": "29.976523660021083",
      "longitude": "-90.05514675816536"
    }
  },
  {
    "service_request": "2025-1213688",
    "request_type": "Abandoned Vehicles",
    "request_reason": "Abandoned/Junk Vehicles",
    "date_created": "2025-07-29T15:22:57.000",
    "date_modified": "2025-07-29T15:22:59.000",
    "request_status": "Pending",
    "responsible_agency": "Department of Public Works",
    "final_address": "8606 Marks St",
    "address_councildis": "A",
    "status": "Pending",
    "rowid": "1213688",
    "final_x": "3667487.03732",
    "final_y": "537206.794696",
    "longitude": "-90.11212698693564",
    "latitude": "29.971550515067626",
    "geocoded_column": {
      "latitude": "29.971550515067626",
      "longitude": "-90.11212698693564"
    }
  },
  {
    "service_request": "2025-1213687",
    "request_type": "Trash/Recycling",
    "request_reason": "Replace Trash Cart",
    "date_created": "2025-07-29T15:20:23.000",
    "date_modified": "2025-07-29T15:20:25.000",
    "request_status": "Pending",
    "responsible_agency": "Department of Sanitation",
    "final_address": "3303 St Claude Ave",
    "address_councildis": "C",
    "status": "Assigned to Contractor",
    "contractor": "IV Waste",
    "rowid": "1213687",
    "final_x": "3689922.75228",
    "final_y": "535971.571271",
    "longitude": "-90.04131589393833",
    "latitude": "29.96747752995863",
    "geocoded_column": {
      "latitude": "29.96747752995863",
      "longitude": "-90.04131589393833"
    }
  },
  {
    "service_request": "2025-1213686",
    "request_type": "Trash/Recycling",
    "request_reason": "Request a Large Item Pick Up",
    "date_created": "2025-07-29T15:17:00.000",
    "date_modified": "2025-07-29T15:17:01.000",
    "request_status": "Pending",
    "responsible_agency": "Department of Sanitation",
    "final_address": "3507 Nashville Ave",
    "address_councildis": "A",
    "status": "Assigned to Contractor",
    "contractor": "IV Waste",
    "rowid": "1213686",
    "final_x": "3668279.3778",
    "final_y": "528505.468224",
    "longitude": "-90.10991805566245",
    "latitude": "29.94760149341001",
    "geocoded_column": {
      "latitude": "29.94760149341001",
      "longitude": "-90.10991805566245"
    }
  },
  {
    "service_request": "2025-1213685",
    "request_type": "Trash/Recycling",
    "request_reason": "Request a Large Item Pick Up",
    "date_created": "2025-07-29T15:16:38.000",
    "date_modified": "2025-07-29T15:16:40.000",
    "request_status": "Pending",
    "responsible_agency": "Department of Sanitation",
    "final_address": "4429 Chestnut St",
    "address_councildis": "B",
    "status": "Assigned to Contractor",
    "contractor": "IV Waste",
    "rowid": "1213685",
    "final_x": "3670682.73294",
    "final_y": "519528.900151",
    "longitude": "-90.10263412172787",
    "latitude": "29.92284804965455",
    "geocoded_column": {
      "latitude": "29.92284804965455",
      "longitude": "-90.10263412172787"
    }
  },
  {
    "service_request": "2025-1213684",
    "request_type": "Trash/Recycling",
    "request_reason": "Repair Trash Cart",
    "date_created": "2025-07-29T15:15:38.000",
    "date_modified": "2025-07-29T15:15:40.000",
    "request_status": "Pending",
    "responsible_agency": "Department of Sanitation",
    "final_address": "707 Sumner St",
    "address_councildis": "C",
    "status": "Assigned to Contractor",
    "contractor": "Richards Disposal",
    "rowid": "1213684",
    "final_x": "3691130.91427",
    "final_y": "528842.172736",
    "longitude": "-90.03775507886056",
    "latitude": "29.947836651977987",
    "geocoded_column": {
      "latitude": "29.947836651977987",
      "longitude": "-90.03775507886056"
    }
  },
  {
    "service_request": "2025-1213683",
    "request_type": "Trash/Recycling",
    "request_reason": "Request a Large Item Pick Up",
    "date_created": "2025-07-29T15:15:38.000",
    "date_modified": "2025-07-29T15:15:39.000",
    "request_status": "Pending",
    "responsible_agency": "Department of Sanitation",
    "final_address": "6030 Perrier St",
    "address_councildis": "A",
    "status": "Assigned to Contractor",
    "contractor": "IV Waste",
    "rowid": "1213683",
    "final_x": "3664864.0137",
    "final_y": "520542.62348",
    "longitude": "-90.12096775408406",
    "latitude": "29.92580603324055",
    "geocoded_column": {
      "latitude": "29.92580603324055",
      "longitude": "-90.12096775408406"
    }
  },
  {
    "service_request": "2025-1213682",
    "request_type": "Trash/Recycling",
    "request_reason": "Request a Large Item Pick Up",
    "date_created": "2025-07-29T15:15:08.000",
    "date_modified": "2025-07-29T15:15:10.000",
    "request_status": "Pending",
    "responsible_agency": "Department of Sanitation",
    "final_address": "3304 Nashville Ave",
    "address_councildis": "A",
    "status": "Assigned to Contractor",
    "contractor": "IV Waste",
    "rowid": "1213682",
    "final_x": "3667901.75802",
    "final_y": "527888.080191",
    "longitude": "-90.11113114511261",
    "latitude": "29.945914957566234",
    "geocoded_column": {
      "latitude": "29.945914957566234",
      "longitude": "-90.11113114511261"
    }
  },
  {
    "service_request": "2025-1213681",
    "request_type": "Trash/Recycling",
    "request_reason": "Repair Trash Cart",
    "date_created": "2025-07-29T15:15:02.000",
    "date_modified": "2025-07-29T15:15:04.000",
    "request_status": "Pending",
    "responsible_agency": "Department of Sanitation",
    "final_address": "7531 Weaver Ave",
    "address_councildis": "E",
    "status": "Assigned to Contractor",
    "contractor": "Waste Pro",
    "rowid": "1213681",
    "final_x": "3707577.09931",
    "final_y": "564162.690529",
    "longitude": "-89.98451564432159",
    "latitude": "30.044433164528996",
    "geocoded_column": {
      "latitude": "30.044433164528996",
      "longitude": "-89.98451564432159"
    }
  },
  {
    "service_request": "2025-1213680",
    "request_type": "Trash/Recycling",
    "request_reason": "Repair Trash Cart",
    "date_created": "2025-07-29T15:11:36.000",
    "date_modified": "2025-07-29T15:11:37.000",
    "request_status": "Pending",
    "responsible_agency": "Department of Sanitation",
    "final_address": "705 Sumner St",
    "address_councildis": "C",
    "status": "Assigned to Contractor",
    "contractor": "Richards Disposal",
    "rowid": "1213680",
    "final_x": "3691133.04931",
    "final_y": "528881.335232",
    "longitude": "-90.03774693960519",
    "latitude": "29.947944268978205",
    "geocoded_column": {
      "latitude": "29.947944268978205",
      "longitude": "-90.03774693960519"
    }
  },
  {
    "service_request": "2025-1213679",
    "request_type": "Roads and Streets",
    "request_reason": "Street Subsidence (Sinking)",
    "date_created": "2025-07-29T15:10:11.000",
    "date_modified": "2025-07-29T15:10:15.000",
    "request_status": "Pending",
    "responsible_agency": "Department of Public Works",
    "final_address": "2900 Feliciana St",
    "address_councildis": "D",
    "status": "Pending",
    "rowid": "1213679",
    "final_x": "3690404.05264",
    "final_y": "543076.186701",
    "longitude": "-90.03954260877461",
    "latitude": "29.986997767941457",
    "geocoded_column": {
      "latitude": "29.986997767941457",
      "longitude": "-90.03954260877461"
    }
  },
  {
    "service_request": "2025-1213678",
    "request_type": "Trash/Recycling",
    "request_reason": "Order Trash Cart",
    "date_created": "2025-07-29T15:08:47.000",
    "date_modified": "2025-07-29T15:08:49.000",
    "request_status": "Pending",
    "responsible_agency": "Department of Sanitation",
    "final_address": "2621 S Johnson St",
    "address_councildis": "B",
    "status": "Assigned to Contractor",
    "contractor": "IV Waste",
    "rowid": "1213678",
    "final_x": "3672740.02856",
    "final_y": "528128.373247",
    "longitude": "-90.09584687221165",
    "latitude": "29.946432895478143",
    "geocoded_column": {
      "latitude": "29.946432895478143",
      "longitude": "-90.09584687221165"
    }
  },
  {
    "service_request": "2025-1213677",
    "request_type": "Parks & Parkways",
    "request_reason": "Request Tree Service (Right of Way/Public Property)",
    "date_created": "2025-07-29T15:07:33.000",
    "date_modified": "2025-07-29T15:07:34.000",
    "request_status": "Pending",
    "responsible_agency": "Department of Parks & Parkway",
    "final_address": "3541 Rue Denise",
    "address_councildis": "C",
    "status": "Pending",
    "rowid": "1213677",
    "final_x": "3704217.3809",
    "final_y": "517550.019318",
    "longitude": "-89.996852077261",
    "latitude": "29.91637383656582",
    "geocoded_column": {
      "latitude": "29.91637383656582",
      "longitude": "-89.996852077261"
    }
  },
  {
    "service_request": "2025-1213676",
    "request_type": "Property Maintenance",
    "request_reason": "Property Maintenance",
    "date_created": "2025-07-29T15:04:42.000",
    "date_modified": "2025-07-29T15:04:43.000",
    "request_status": "Pending",
    "responsible_agency": "Department of Code Enforcement",
    "final_address": "2945 Feliciana St",
    "address_councildis": "D",
    "status": "Pending",
    "rowid": "1213676",
    "final_x": "3690691.72105",
    "final_y": "543550.464782",
    "longitude": "-90.03861704479766",
    "latitude": "29.98829292778422",
    "geocoded_column": {
      "latitude": "29.98829292778422",
      "longitude": "-90.03861704479766"
    }
  },
  {
    "service_request": "2025-1213675",
    "request_type": "Trash/Recycling",
    "request_reason": "Request a Large Item Pick Up",
    "date_created": "2025-07-29T15:02:53.000",
    "date_modified": "2025-07-29T15:07:05.000",
    "request_status": "Pending",
    "responsible_agency": "Department of Sanitation",
    "final_address": "5321 Carlisle Ct",
    "address_councildis": "C",
    "status": "Assigned to Contractor",
    "contractor": "Richards Disposal",
    "rowid": "1213675",
    "final_x": "3703477.67153",
    "final_y": "516537.390901",
    "longitude": "-89.99922409433543",
    "latitude": "29.913613158753872",
    "geocoded_column": {
      "latitude": "29.913613158753872",
      "longitude": "-89.99922409433543"
    }
  },
  {
    "service_request": "2025-1213674",
    "request_type": "Property Maintenance",
    "request_reason": "Property Maintenance",
    "date_created": "2025-07-29T15:01:23.000",
    "date_modified": "2025-07-29T15:03:37.000",
    "request_status": "Pending",
    "responsible_agency": "Department of Code Enforcement",
    "final_address": "2933 Feliciana St",
    "address_councildis": "D",
    "status": "Pending",
    "rowid": "1213674",
    "final_x": "3690670.44316",
    "final_y": "543466.275726",
    "longitude": "-90.03868725916882",
    "latitude": "29.988062099239055",
    "geocoded_column": {
      "latitude": "29.988062099239055",
      "longitude": "-90.03868725916882"
    }
  },
  {
    "service_request": "2025-1213673",
    "request_type": "Trash/Recycling",
    "request_reason": "Request a Large Item Pick Up",
    "date_created": "2025-07-29T14:59:33.000",
    "date_modified": "2025-07-29T14:59:34.000",
    "request_status": "Pending",
    "responsible_agency": "Department of Sanitation",
    "final_address": "3615 Loyola Ave",
    "address_councildis": "B",
    "status": "Assigned to Contractor",
    "contractor": "IV Waste",
    "rowid": "1213673",
    "final_x": "3672650.69659",
    "final_y": "523296.203707",
    "longitude": "-90.09629363729205",
    "latitude": "29.93314865630751",
    "geocoded_column": {
      "latitude": "29.93314865630751",
      "longitude": "-90.09629363729205"
    }
  },
  {
    "service_request": "2025-1213672",
    "request_type": "Parks & Parkways",
    "request_reason": "Request Tree Service (Right of Way/Public Property)",
    "date_created": "2025-07-29T14:55:53.000",
    "date_modified": "2025-07-29T14:55:56.000",
    "request_status": "Pending",
    "responsible_agency": "Department of Parks & Parkway",
    "final_address": "1227 Saint Roch Ave, New Orleans, Louisiana, 70117",
    "status": "Pending",
    "rowid": "1213672",
    "longitude": "0.0",
    "latitude": "0.0",
    "geocoded_column": {
      "latitude": "0.0",
      "longitude": "0.0"
    }
  },
  {
    "service_request": "2025-1213671",
    "request_type": "Trash/Recycling",
    "request_reason": "Request a Large Item Pick Up",
    "date_created": "2025-07-29T14:54:49.000",
    "date_modified": "2025-07-29T14:54:52.000",
    "request_status": "Pending",
    "responsible_agency": "Department of Sanitation",
    "final_address": "1824 Robert St",
    "address_councildis": "B",
    "status": "Assigned to Contractor",
    "contractor": "IV Waste",
    "rowid": "1213671",
    "final_x": "3668703.02375",
    "final_y": "522342.411898",
    "longitude": "-90.1087883937907",
    "latitude": "29.93064263113856",
    "geocoded_column": {
      "latitude": "29.93064263113856",
      "longitude": "-90.1087883937907"
    }
  },
  {
    "service_request": "2025-1213670",
    "request_type": "Parks & Parkways",
    "request_reason": "Request Tree Service (Right of Way/Public Property)",
    "date_created": "2025-07-29T14:53:03.000",
    "date_modified": "2025-07-29T14:53:04.000",
    "request_status": "Pending",
    "responsible_agency": "Department of Parks & Parkway",
    "final_address": "1231 Saint Roch Ave, New Orleans, Louisiana, 70117",
    "status": "Pending",
    "rowid": "1213670",
    "longitude": "0.0",
    "latitude": "0.0",
    "geocoded_column": {
      "latitude": "0.0",
      "longitude": "0.0"
    }
  },
  {
    "service_request": "2025-1213669",
    "request_type": "Trash/Recycling",
    "request_reason": "Request a Large Item Pick Up",
    "date_created": "2025-07-29T14:51:50.000",
    "date_modified": "2025-07-29T14:51:51.000",
    "request_status": "Pending",
    "responsible_agency": "Department of Sanitation",
    "final_address": "6156 Catina St",
    "address_councildis": "A",
    "status": "Assigned to Contractor",
    "contractor": "IV Waste",
    "rowid": "1213669",
    "final_x": "3666763.53889",
    "final_y": "548804.096787",
    "longitude": "-90.11402216558369",
    "latitude": "30.00346033851419",
    "geocoded_column": {
      "latitude": "30.00346033851419",
      "longitude": "-90.11402216558369"
    }
  },
  {
    "service_request": "2025-1213668",
    "request_type": "Trash/Recycling",
    "request_reason": "Request a Large Item Pick Up",
    "date_created": "2025-07-29T14:51:25.000",
    "date_modified": "2025-07-29T14:51:27.000",
    "request_status": "Pending",
    "responsible_agency": "Department of Sanitation",
    "final_address": "4024 S Pin Oak Ave",
    "address_councildis": "C",
    "status": "Assigned to Contractor",
    "contractor": "Richards Disposal",
    "rowid": "1213668",
    "final_x": "3704940.06974",
    "final_y": "513201.72133",
    "longitude": "-89.99473133716256",
    "latitude": "29.90439431028646",
    "geocoded_column": {
      "latitude": "29.90439431028646",
      "longitude": "-89.99473133716256"
    }
  },
  {
    "service_request": "2025-1213667",
    "request_type": "Trash/Recycling",
    "request_reason": "Request a Large Item Pick Up",
    "date_created": "2025-07-29T14:50:05.000",
    "date_modified": "2025-07-29T14:50:07.000",
    "request_status": "Pending",
    "responsible_agency": "Department of Sanitation",
    "final_address": "3639 Octavia St",
    "address_councildis": "A",
    "status": "Assigned to Contractor",
    "contractor": "IV Waste",
    "rowid": "1213667",
    "final_x": "3668725.94388",
    "final_y": "528950.131456",
    "longitude": "-90.10849306017788",
    "latitude": "29.948811054478792",
    "geocoded_column": {
      "latitude": "29.948811054478792",
      "longitude": "-90.10849306017788"
    }
  },
  {
    "service_request": "2025-1213666",
    "request_type": "Trash/Recycling",
    "request_reason": "Illegal Dumping",
    "date_created": "2025-07-29T14:49:34.000",
    "date_modified": "2025-07-29T14:49:36.000",
    "request_status": "Pending",
    "responsible_agency": "Department of Sanitation",
    "final_address": "DWYER BLVD & ALCEE FORTIER BLVD",
    "address_councildis": "E",
    "status": "Pending",
    "rowid": "1213666",
    "final_x": "3729969.2",
    "final_y": "563405.18",
    "longitude": "-89.91377719699892",
    "latitude": "30.041606552301847",
    "geocoded_column": {
      "latitude": "30.041606552301847",
      "longitude": "-89.91377719699892"
    }
  },
  {
    "service_request": "2025-1213665",
    "request_type": "Trash/Recycling",
    "request_reason": "Request a Large Item Pick Up",
    "date_created": "2025-07-29T14:49:10.000",
    "date_modified": "2025-07-29T14:49:12.000",
    "request_status": "Pending",
    "responsible_agency": "Department of Sanitation",
    "final_address": "8123 Oak St",
    "address_councildis": "A",
    "status": "Assigned to Contractor",
    "contractor": "IV Waste",
    "rowid": "1213665",
    "final_x": "3661828.92525",
    "final_y": "528544.344832",
    "longitude": "-90.13028346699865",
    "latitude": "29.947896189383744",
    "geocoded_column": {
      "latitude": "29.947896189383744",
      "longitude": "-90.13028346699865"
    }
  },
  {
    "service_request": "2025-1213664",
    "request_type": "Property Maintenance",
    "request_reason": "Property Maintenance",
    "date_created": "2025-07-29T14:48:13.000",
    "date_modified": "2025-07-29T14:48:14.000",
    "request_status": "Pending",
    "responsible_agency": "Department of Code Enforcement",
    "final_address": "8607 Apple St",
    "address_councildis": "A",
    "status": "Pending",
    "rowid": "1213664",
    "final_x": "3664004.32282",
    "final_y": "533380.843972",
    "longitude": "-90.12325356790173",
    "latitude": "29.96113201111841",
    "geocoded_column": {
      "latitude": "29.96113201111841",
      "longitude": "-90.12325356790173"
    }
  },
  {
    "service_request": "2025-1213663",
    "request_type": "Trash/Recycling",
    "request_reason": "Request a Large Item Pick Up",
    "date_created": "2025-07-29T14:46:32.000",
    "date_modified": "2025-07-29T14:46:35.000",
    "request_status": "Pending",
    "responsible_agency": "Department of Sanitation",
    "final_address": "3800 Clermont Dr",
    "address_councildis": "D",
    "status": "Assigned to Contractor",
    "contractor": "IV Waste",
    "rowid": "1213663",
    "final_x": "3685299.9622",
    "final_y": "546565.602705",
    "longitude": "-90.05554163721142",
    "latitude": "29.99674989528421",
    "geocoded_column": {
      "latitude": "29.99674989528421",
      "longitude": "-90.05554163721142"
    }
  },
  {
    "service_request": "2025-1213662",
    "request_type": "Trash/Recycling",
    "request_reason": "Request a Large Item Pick Up",
    "date_created": "2025-07-29T14:41:15.000",
    "date_modified": "2025-07-29T14:41:19.000",
    "request_status": "Pending",
    "responsible_agency": "Department of Sanitation",
    "final_address": "6561 Dwyer Rd",
    "address_councildis": "E",
    "status": "Assigned to Contractor",
    "contractor": "Waste Pro",
    "rowid": "1213662",
    "final_x": "3698889.36292",
    "final_y": "555554.424537",
    "longitude": "-90.0122863503374",
    "latitude": "30.02104209060819",
    "geocoded_column": {
      "latitude": "30.02104209060819",
      "longitude": "-90.0122863503374"
    }
  },
  {
    "service_request": "2025-1213661",
    "request_type": "Parks & Parkways",
    "request_reason": "Request Grass Cutting Service (City Owned Property)",
    "date_created": "2025-07-29T14:40:09.000",
    "date_modified": "2025-07-29T14:40:11.000",
    "request_status": "Pending",
    "responsible_agency": "Department of Parks & Parkway",
    "final_address": "READ BLVD & MORRISON RD",
    "address_councildis": "E",
    "status": "Pending",
    "rowid": "1213661",
    "final_x": "3708914.1",
    "final_y": "563743.38",
    "longitude": "-89.98030579953361",
    "latitude": "30.0432368859138",
    "geocoded_column": {
      "latitude": "30.0432368859138",
      "longitude": "-89.98030579953361"
    }
  },
  {
    "service_request": "2025-1213660",
    "request_type": "Property Maintenance",
    "request_reason": "Property Maintenance",
    "date_created": "2025-07-29T14:37:00.000",
    "date_modified": "2025-07-29T14:37:02.000",
    "request_status": "Pending",
    "responsible_agency": "Department of Code Enforcement",
    "final_address": "8607 Apple St",
    "address_councildis": "A",
    "status": "Pending",
    "rowid": "1213660",
    "final_x": "3664004.32282",
    "final_y": "533380.843972",
    "longitude": "-90.12325356790173",
    "latitude": "29.96113201111841",
    "geocoded_column": {
      "latitude": "29.96113201111841",
      "longitude": "-90.12325356790173"
    }
  },
  {
    "service_request": "2025-1213659",
    "request_type": "Trash/Recycling",
    "request_reason": "Replace Trash Cart",
    "date_created": "2025-07-29T14:31:12.000",
    "date_modified": "2025-07-29T14:31:14.000",
    "request_status": "Pending",
    "responsible_agency": "Department of Sanitation",
    "final_address": "4024 Vincennes Pl",
    "address_councildis": "B",
    "status": "Assigned to Contractor",
    "contractor": "IV Waste",
    "rowid": "1213659",
    "final_x": "3668419.72922",
    "final_y": "530224.119553",
    "longitude": "-90.10941694795295",
    "latitude": "29.95232310270868",
    "geocoded_column": {
      "latitude": "29.95232310270868",
      "longitude": "-90.10941694795295"
    }
  },
  {
    "service_request": "2025-1213658",
    "request_type": "Trash/Recycling",
    "request_reason": "Request a Large Item Pick Up",
    "date_created": "2025-07-29T14:27:31.000",
    "date_modified": "2025-07-29T14:27:33.000",
    "request_status": "Pending",
    "responsible_agency": "Department of Sanitation",
    "final_address": "5470 Stillwater Dr",
    "address_councildis": "E",
    "status": "Assigned to Contractor",
    "contractor": "Waste Pro",
    "rowid": "1213658",
    "final_x": "3716601.62776",
    "final_y": "560582.610014",
    "longitude": "-89.956130344825",
    "latitude": "30.034294208137506",
    "geocoded_column": {
      "latitude": "30.034294208137506",
      "longitude": "-89.956130344825"
    }
  },
  {
    "service_request": "2025-1213657",
    "request_type": "Trash/Recycling",
    "request_reason": "Request a Large Item Pick Up",
    "date_created": "2025-07-29T14:25:15.000",
    "date_modified": "2025-07-29T14:25:17.000",
    "request_status": "Pending",
    "responsible_agency": "Department of Sanitation",
    "final_address": "2512 Magazine St",
    "address_councildis": "B",
    "status": "Assigned to Contractor",
    "contractor": "IV Waste",
    "rowid": "1213657",
    "final_x": "3677742.47938",
    "final_y": "521227.996665",
    "longitude": "-90.08029061351739",
    "latitude": "29.92730962944909",
    "geocoded_column": {
      "latitude": "29.92730962944909",
      "longitude": "-90.08029061351739"
    }
  },
  {
    "service_request": "2025-1213656",
    "request_type": "Trash/Recycling",
    "request_reason": "Illegal Dumping",
    "date_created": "2025-07-29T14:24:00.000",
    "date_modified": "2025-07-29T14:24:01.000",
    "request_status": "Pending",
    "responsible_agency": "Department of Sanitation",
    "final_address": "5700 BLK N Rampart St",
    "address_councildis": "E",
    "status": "Pending",
    "rowid": "1213656",
    "final_x": "3698377.95852",
    "final_y": "533208.711914",
    "longitude": "-90.01471475743335",
    "latitude": "29.959615795066153",
    "geocoded_column": {
      "latitude": "29.959615795066153",
      "longitude": "-90.01471475743335"
    }
  },
  {
    "service_request": "2025-1213655",
    "request_type": "Trash/Recycling",
    "request_reason": "Illegal Dumping",
    "date_created": "2025-07-29T14:23:23.000",
    "date_modified": "2025-07-29T14:23:25.000",
    "request_status": "Pending",
    "responsible_agency": "Department of Sanitation",
    "final_address": "3036 Fern St",
    "address_councildis": "B",
    "status": "Pending",
    "rowid": "1213655",
    "final_x": "3667057.37933",
    "final_y": "532861.239108",
    "longitude": "-90.11363000130208",
    "latitude": "29.959614260327633",
    "geocoded_column": {
      "latitude": "29.959614260327633",
      "longitude": "-90.11363000130208"
    }
  },