[
  {
    "service_request": "2025-1222460",
    "request_type": "Trash/Recycling",
    "request_reason": "Request a Large Item Pick Up",
    "date_created": "2025-08-28T23:43:51.000",
    "date_modified": "2025-08-28T23:43:54.000",
    "request_status": "Pending",
    "responsible_agency": "Department of Sanitation",
    "final_address": "4708 Lafon Dr",
    "address_councildis": "E",
    "status": "Assigned to Contractor",
    "contractor": "Waste Pro",
    "rowid": "1222460",
    "final_x": "3701097.90634",
    "final_y": "553967.754456",
    "longitude": "-90.00536613232342",
    "latitude": "30.016609156535495",
    "geocoded_column": {
      "latitude": "30.016609156535495",
      "longitude": "-90.00536613232342"
    }
  },
  {
    "service_request": "2025-1222459",
    "request_type": "Streetlights",
    "request_reason": "Streetlight Outage/Malfunction",
    "date_created": "2025-08-28T23:40:39.000",
    "date_modified": "2025-08-28T23:40:41.000",
    "request_status": "Pending",
    "responsible_agency": "Department of Public Works",
    "final_address": "2626 Cleveland Ave",
    "address_councildis": "B",
    "status": "Pending",
    "rowid": "1222459",
    "final_x": "3675318.34011",
    "final_y": "534515.187973",
    "longitude": "-90.08748696847174",
    "latitude": "29.963917686793025",
    "geocoded_column": {
      "latitude": "29.963917686793025",
      "longitude": "-90.08748696847174"
    }
  },
  {
    "service_request": "2025-1222458",
    "request_type": "Property Maintenance",
    "request_reason": "Property Maintenance",
    "date_created": "2025-08-28T22:49:56.000",
    "date_modified": "2025-08-28T22:49:58.000",
    "request_status": "Pending",
    "responsible_agency": "Department of Code Enforcement",
    "final_address": "4800 Sandalwood St",
    "address_councildis": "E",
    "status": "Pending",
    "rowid": "1222458",
    "final_x": "3712129.78923",
    "final_y": "556398.981978",
    "longitude": "-89.9704190663958",
    "latitude": "30.02293791546936",
    "geocoded_column": {
      "latitude": "30.02293791546936",
      "longitude": "-89.9704190663958"
    }
  },
  {
    "service_request": "2025-1222457",
    "request_type": "Abandoned Vehicles",
    "request_reason": "Abandoned/Junk Vehicles",
    "date_created": "2025-08-28T22:34:40.000",
    "date_modified": "2025-08-28T22:34:42.000",
    "request_status": "Pending",
    "responsible_agency": "Department of Public Works",
    "final_address": "2235 Chartres St",
    "address_councildis": "C",
    "status": "Pending",
    "rowid": "1222457",
    "final_x": "3685476.43708",
    "final_y": "534568.367429",
    "longitude": "-90.05540683697222",
    "latitude": "29.963756311417814",
    "geocoded_column": {
      "latitude": "29.963756311417814",
      "longitude": "-90.05540683697222"
    }
  },
  {
    "service_request": "2025-1222456",
    "request_type": "Streetlights",
    "request_reason": "Streetlight Outage/Malfunction",
    "date_created": "2025-08-28T21:44:52.000",
    "date_modified": "2025-08-28T21:44:54.000",
    "request_status": "Pending",
    "responsible_agency": "Department of Public Works",
    "final_address": "714 First St",
    "address_councildis": "B",
    "status": "Pending",
    "rowid": "1222456",
    "final_x": "3678758.09454",
    "final_y": "520378.203064",
    "longitude": "-90.07711398160909",
    "latitude": "29.924942396120105",
    "geocoded_column": {
      "latitude": "29.924942396120105",
      "longitude": "-90.07711398160909"
    }
  },
  {
    "service_request": "2025-1222455",
    "request_type": "Streetlights",
    "request_reason": "New Streetlight Request",
    "date_created": "2025-08-28T21:42:21.000",
    "date_modified": "2025-08-28T21:42:23.000",
    "request_status": "Pending",
    "responsible_agency": "Department of Public Works",
    "final_address": "714 First St",
    "address_councildis": "B",
    "status": "Pending",
    "rowid": "1222455",
    "final_x": "3678758.09454",
    "final_y": "520378.203064",
    "longitude": "-90.07711398160909",
    "latitude": "29.924942396120105",
    "geocoded_column": {
      "latitude": "29.924942396120105",
      "longitude": "-90.07711398160909"
    }
  },
  {
    "service_request": "2025-1222454",
    "request_type": "Trash/Recycling",
    "request_reason": "Return Recycling Cart",
    "date_created": "2025-08-28T21:41:13.000",
    "date_modified": "2025-08-28T21:41:14.000",
    "request_status": "Pending",
    "responsible_agency": "Department of Sanitation",
    "final_address": "3033 Iberville St",
    "address_councildis": "B",
    "status": "Pending",
    "rowid": "1222454",
    "final_x": "3674424.80865",
    "final_y": "536399.133959",
    "longitude": "-90.09024411869336",
    "latitude": "29.969124585589622",
    "geocoded_column": {
      "latitude": "29.969124585589622",
      "longitude": "-90.09024411869336"
    }
  },
  {
    "service_request": "2025-1222453",
    "request_type": "Trash/Recycling",
    "request_reason": "Return Trash Cart",
    "date_created": "2025-08-28T21:38:41.000",
    "date_modified": "2025-08-28T21:38:44.000",
    "request_status": "Pending",
    "responsible_agency": "Department of Sanitation",
    "final_address": "714 First St",
    "address_councildis": "B",
    "status": "Assigned to Contractor",
    "contractor": "IV Waste",
    "rowid": "1222453",
    "final_x": "3678758.09454",
    "final_y": "520378.203064",
    "longitude": "-90.07711398160909",
    "latitude": "29.924942396120105",
    "geocoded_column": {
      "latitude": "29.924942396120105",
      "longitude": "-90.07711398160909"
    }
  },
  {
    "service_request": "2025-1222452",
    "request_type": "Trash/Recycling",
    "request_reason": "Request a Large Item Pick Up",
    "date_created": "2025-08-28T21:18:01.000",
    "date_modified": "2025-08-28T21:18:02.000",
    "request_status": "Pending",
    "responsible_agency": "Department of Sanitation",
    "final_address": "1412 S Saratoga St",
    "address_councildis": "B",
    "status": "Assigned to Contractor",
    "contractor": "IV Waste",
    "rowid": "1222452",
    "final_x": "3677669.49026",
    "final_y": "526717.774078",
    "longitude": "-90.08033151619547",
    "latitude": "29.942406910276013",
    "geocoded_column": {
      "latitude": "29.942406910276013",
      "longitude": "-90.08033151619547"
    }
  },
  {
    "service_request": "2025-1222451",
    "request_type": "Streetlights",
    "request_reason": "Streetlight Outage/Malfunction",
    "date_created": "2025-08-28T21:00:23.000",
    "date_modified": "2025-08-28T21:00:26.000",
    "request_status": "Pending",
    "responsible_agency": "Department of Public Works",
    "final_address": "9911 E Wheaton Cir",
    "address_councildis": "E",
    "status": "Pending",
    "rowid": "1222451",
    "final_x": "3709091.25393",
    "final_y": "562494.760799",
    "longitude": "-89.97979253865998",
    "latitude": "30.039797928403214",
    "geocoded_column": {
      "latitude": "30.039797928403214",
      "longitude": "-89.97979253865998"
    }
  },
  {
    "service_request": "2025-1222450",
    "request_type": "Streetlights",
    "request_reason": "Streetlight Outage/Malfunction",
    "date_created": "2025-08-28T20:56:10.000",
    "date_modified": "2025-08-28T20:56:12.000",
    "request_status": "Pending",
    "responsible_agency": "Department of Public Works",
    "final_address": "9911 E Wheaton Cir",
    "address_councildis": "E",
    "status": "Pending",
    "rowid": "1222450",
    "final_x": "3709091.25393",
    "final_y": "562494.760799",
    "longitude": "-89.97979253865998",
    "latitude": "30.039797928403214",
    "geocoded_column": {
      "latitude": "30.039797928403214",
      "longitude": "-89.97979253865998"
    }
  },
  {
    "service_request": "2025-1222449",
    "request_type": "Property Maintenance",
    "request_reason": "Property Maintenance",
    "date_created": "2025-08-28T20:48:41.000",
    "date_modified": "2025-08-28T20:48:43.000",
    "request_status": "Pending",
    "responsible_agency": "Department of Code Enforcement",
    "final_address": "5333 Laurel St",
    "address_councildis": "B",
    "status": "Pending",
    "rowid": "1222449",
    "final_x": "3667111.46445",
    "final_y": "517921.888182",
    "longitude": "-90.11396123675902",
    "latitude": "29.918534259774656",
    "geocoded_column": {
      "latitude": "29.918534259774656",
      "longitude": "-90.11396123675902"
    }
  },
  {
    "service_request": "2025-1222448",
    "request_type": "Trash/Recycling",
    "request_reason": "Illegal Dumping",
    "date_created": "2025-08-28T20:36:50.000",
    "date_modified": "2025-08-28T20:36:53.000",
    "request_status": "Pending",
    "responsible_agency": "Department of Sanitation",
    "final_address": "2763 Sage St",
    "address_councildis": "D",
    "status": "Pending",
    "rowid": "1222448",
    "final_x": "3688410.65187",
    "final_y": "545612.484752",
    "longitude": "-90.04574899784382",
    "latitude": "29.99403341551004",
    "geocoded_column": {
      "latitude": "29.99403341551004",
      "longitude": "-90.04574899784382"
    }
  },
  {
    "service_request": "2025-1222447",
    "request_type": "Traffic Signals",
    "request_reason": "Traffic Signal Malfunctioning or Damaged",
    "date_created": "2025-08-28T20:25:50.000",
    "date_modified": "2025-08-28T20:25:52.000",
    "request_status": "Pending",
    "responsible_agency": "Department of Public Works",
    "final_address": "1904 Poydras St",
    "address_councildis": "B",
    "status": "Pending",
    "rowid": "1222447",
    "final_x": "3676673.84801",
    "final_y": "530737.709314",
    "longitude": "-90.08333653067666",
    "latitude": "29.95349029636172",
    "geocoded_column": {
      "latitude": "29.95349029636172",
      "longitude": "-90.08333653067666"
    }
  },
  {
    "service_request": "2025-1222446",
    "request_type": "Streetlights",
    "request_reason": "Streetlight Outage/Malfunction",
    "date_created": "2025-08-28T20:17:32.000",
    "date_modified": "2025-08-28T20:17:34.000",
    "request_status": "Pending",
    "responsible_agency": "Department of Public Works",
    "final_address": "7400 Ebbtide Dr",
    "address_councildis": "E",
    "status": "Pending",
    "rowid": "1222446",
    "final_x": "3702413.76285",
    "final_y": "560723.844958",
    "longitude": "-90.00096040234146",
    "latitude": "30.035143799027175",
    "geocoded_column": {
      "latitude": "30.035143799027175",
      "longitude": "-90.00096040234146"
    }
  },
  {
    "service_request": "2025-1222445",
    "request_type": "Trash/Recycling",
    "request_reason": "Repair Trash Cart",
    "date_created": "2025-08-28T20:15:06.000",
    "date_modified": "2025-08-28T20:15:08.000",
    "request_status": "Pending",
    "responsible_agency": "Department of Sanitation",
    "final_address": "3127 State Street Dr",
    "address_councildis": "A",
    "status": "Assigned to Contractor",
    "contractor": "IV Waste",
    "rowid": "1222445",
    "final_x": "3667487.13716",
    "final_y": "527627.061759",
    "longitude": "-90.11244902835857",
    "latitude": "29.945209395358944",
    "geocoded_column": {
      "latitude": "29.945209395358944",
      "longitude": "-90.11244902835857"
    }
  },
  {
    "service_request": "2025-1222444",
    "request_type": "Trash/Recycling",
    "request_reason": "MIssed Recycling Pick-Up",
    "date_created": "2025-08-28T20:13:36.000",
    "date_modified": "2025-08-28T20:13:38.000",
    "request_status": "Pending",
    "responsible_agency": "Department of Sanitation",
    "final_address": "5221 Annunciation Street, New Orleans 70115",
    "address_councildis": "B",
    "status": "Assigned to Contractor",
    "contractor": "IV Waste",
    "rowid": "1222444",
    "final_x": "3667820.50081",
    "final_y": "517596.59647",
    "longitude": "-90.11173412318547",
    "latitude": "29.91761904334284",
    "geocoded_column": {
      "latitude": "29.91761904334284",
      "longitude": "-90.11173412318547"
    }
  },
  {
    "service_request": "2025-1222443",
    "request_type": "Trash/Recycling",
    "request_reason": "Request a Large Item Pick Up",
    "date_created": "2025-08-28T20:12:21.000",
    "date_modified": "2025-08-28T20:12:23.000",
    "request_status": "Pending",
    "responsible_agency": "Department of Sanitation",
    "final_address": "3127 State Street Dr",
    "address_councildis": "A",
    "status": "Assigned to Contractor",
    "contractor": "IV Waste",
    "rowid": "1222443",
    "final_x": "3667487.13716",
    "final_y": "527627.061759",
    "longitude": "-90.11244902835857",
    "latitude": "29.945209395358944",
    "geocoded_column": {
      "latitude": "29.945209395358944",
      "longitude": "-90.11244902835857"
    }
  },
  {
    "service_request": "2025-1222442",
    "request_type": "Roads and Streets",
    "request_reason": "Sidewalk Damaged or Missing",
    "date_created": "2025-08-28T20:07:26.000",
    "date_modified": "2025-08-28T20:07:28.000",
    "request_status": "Pending",
    "responsible_agency": "Department of Public Works",
    "final_address": "4657 Clara St",
    "address_councildis": "B",
    "status": "Pending",
    "rowid": "1222442",
    "final_x": "3669255.65582",
    "final_y": "525007.268605",
    "longitude": "-90.10695377125919",
    "latitude": "29.937953880608603",
    "geocoded_column": {
      "latitude": "29.937953880608603",
      "longitude": "-90.10695377125919"
    }
  },
  {
    "service_request": "2025-1222441",
    "request_type": "Trash/Recycling",
    "request_reason": "Request a Large Item Pick Up",
    "date_created": "2025-08-28T19:37:55.000",
    "date_modified": "2025-08-28T19:37:57.000",
    "request_status": "Pending",
    "responsible_agency": "Department of Sanitation",
    "final_address": "8140 Lomond Rd",
    "address_councildis": "E",
    "status": "Assigned to Contractor",
    "contractor": "Waste Pro",
    "rowid": "1222441",
    "final_x": "3702788.14449",
    "final_y": "561534.638559",
    "longitude": "-89.9997474838507",
    "latitude": "30.037361189155106",
    "geocoded_column": {
      "latitude": "30.037361189155106",
      "longitude": "-89.9997474838507"
    }
  },
  {
    "service_request": "2025-1222440",
    "request_type": "Trash/Recycling",
    "request_reason": "Request a Large Item Pick Up",
    "date_created": "2025-08-28T19:29:22.000",
    "date_modified": "2025-08-28T19:29:23.000",
    "request_status": "Pending",
    "responsible_agency": "Department of Sanitation",
    "final_address": "3221 Bienville Ave",
    "address_councildis": "B",
    "status": "Assigned to Contractor",
    "contractor": "IV Waste",
    "rowid": "1222440",
    "final_x": "3674228.73851",
    "final_y": "537031.838728",
    "longitude": "-90.09084165638977",
    "latitude": "29.970870156774232",
    "geocoded_column": {
      "latitude": "29.970870156774232",
      "longitude": "-90.09084165638977"
    }
  },
  {
    "service_request": "2025-1222439",
    "request_type": "Trash/Recycling",
    "request_reason": "Request a Large Item Pick Up",
    "date_created": "2025-08-28T19:26:05.000",
    "date_modified": "2025-08-28T19:26:07.000",
    "request_status": "Pending",
    "responsible_agency": "Department of Sanitation",
    "final_address": "7210 Cove Dr",
    "address_councildis": "E",
    "status": "Assigned to Contractor",
    "contractor": "Waste Pro",
    "rowid": "1222439",
    "final_x": "3700053.53424",
    "final_y": "558896.431836",
    "longitude": "-90.0084858298527",
    "latitude": "30.030194371207465",
    "geocoded_column": {
      "latitude": "30.030194371207465",
      "longitude": "-90.0084858298527"
    }
  },
  {
    "service_request": "2025-1222438",
    "request_type": "Trash/Recycling",
    "request_reason": "Missed Trash Pick-Up",
    "date_created": "2025-08-28T19:21:46.000",
    "date_modified": "2025-08-28T19:21:51.000",
    "request_status": "Pending",
    "responsible_agency": "Department of Sanitation",
    "final_address": "1334 Harrison Ave, New Orleans, Louisiana, 70122",
    "address_councildis": "D",
    "status": "Assigned to Contractor",
    "contractor": "IV Waste",
    "rowid": "1222438",
    "final_x": "3677564.20699",
    "final_y": "547528.803474",
    "longitude": "-90.07994519781218",
    "latitude": "29.999633289637494",
    "geocoded_column": {
      "latitude": "29.999633289637494",
      "longitude": "-90.07994519781218"
    }
  },
  {
    "service_request": "2025-1222437",
    "request_type": "Trash/Recycling",
    "request_reason": "Repair Trash Cart",
    "date_created": "2025-08-28T19:15:06.000",
    "date_modified": "2025-08-28T19:15:09.000",
    "request_status": "Pending",
    "responsible_agency": "Department of Sanitation",
    "final_address": "606 Hagan St",
    "address_councildis": "A",
    "status": "Assigned to Contractor",
    "contractor": "IV Waste",
    "rowid": "1222437",
    "final_x": "3674466.56769",
    "final_y": "538153.653065",
    "longitude": "-90.09005211958905",
    "latitude": "29.973947671719664",
    "geocoded_column": {
      "latitude": "29.973947671719664",
      "longitude": "-90.09005211958905"
    }
  },
  {
    "service_request": "2025-1222436",
    "request_type": "Trash/Recycling",
    "request_reason": "Missed Trash Pick-Up",
    "date_created": "2025-08-28T19:12:00.000",
    "date_modified": "2025-08-28T19:12:03.000",
    "request_status": "Pending",
    "responsible_agency": "Department of Sanitation",
    "final_address": "717 Soraparu St, New Orleans, Louisiana, 70130",
    "address_councildis": "B",
    "status": "Assigned to Contractor",
    "contractor": "IV Waste",
    "rowid": "1222436",
    "final_x": "3679070.61775",
    "final_y": "520598.305528",
    "longitude": "-90.07611982460998",
    "latitude": "29.925538181307875",
    "geocoded_column": {
      "latitude": "29.925538181307875",
      "longitude": "-90.07611982460998"
    }
  },
  {
    "service_request": "2025-1222435",
    "request_type": "Trash/Recycling",
    "request_reason": "Request a Large Item Pick Up",
    "date_created": "2025-08-28T19:02:29.000",
    "date_modified": "2025-08-28T19:02:30.000",
    "request_status": "Pending",
    "responsible_agency": "Department of Sanitation",
    "final_address": "925 N Dupre St",
    "address_councildis": "A",
    "status": "Assigned to Contractor",
    "contractor": "IV Waste",
    "rowid": "1222435",
    "final_x": "3676540.56302",
    "final_y": "538262.853513",
    "longitude": "-90.08349821099995",
    "latitude": "29.974185895269123",
    "geocoded_column": {
      "latitude": "29.974185895269123",
      "longitude": "-90.08349821099995"
    }
  },
  {
    "service_request": "2025-1222434",
    "request_type": "Abandoned Vehicles",
    "request_reason": "Abandoned/Junk Vehicles",
    "date_created": "2025-08-28T18:54:11.000",
    "date_modified": "2025-08-28T18:54:13.000",
    "request_status": "Pending",
    "responsible_agency": "Department of Public Works",
    "final_address": "3700 N Rampart St",
    "address_councildis": "C",
    "status": "Pending",
    "rowid": "1222434",
    "final_x": "3690875.87049",
    "final_y": "535021.831494",
    "longitude": "-90.03833983631587",
    "latitude": "29.964836493852683",
    "geocoded_column": {
      "latitude": "29.964836493852683",
      "longitude": "-90.03833983631587"
    }
  },
  {
    "service_request": "2025-1222433",
    "request_type": "Roads and Streets",
    "request_reason": "Pothole",
    "date_created": "2025-08-28T18:46:01.000",
    "date_modified": "2025-08-28T18:46:02.000",
    "request_status": "Pending",
    "responsible_agency": "Department of Public Works",
    "final_address": "1220 Felicity St",
    "address_councildis": "B",
    "status": "Pending",
    "rowid": "1222433",
    "final_x": "3679499.66703",
    "final_y": "523499.970939",
    "longitude": "-90.0746648322511",
    "latitude": "29.933503859077838",
    "geocoded_column": {
      "latitude": "29.933503859077838",
      "longitude": "-90.0746648322511"
    }
  },
  {
    "service_request": "2025-1222432",
    "request_type": "General Services",
    "request_reason": "General Service Request",
    "date_created": "2025-08-28T18:45:40.000",
    "date_modified": "2025-08-28T18:45:41.000",
    "request_status": "Pending",
    "responsible_agency": "Orleans Parish Communication District",
    "final_address": "4851 Friar Tuck Dr",
    "address_councildis": "E",
    "status": "Pending",
    "rowid": "1222432",
    "final_x": "3717769.04671",
    "final_y": "557581.736731",
    "longitude": "-89.95255546331352",
    "latitude": "30.02600437972448",
    "geocoded_column": {
      "latitude": "30.02600437972448",
      "longitude": "-89.95255546331352"
    }
  },
  {
    "service_request": "2025-1222431",
    "request_type": "Abandoned Vehicles",
    "request_reason": "Abandoned/Junk Vehicles",
    "date_created": "2025-08-28T18:43:24.000",
    "date_modified": "2025-08-28T18:43:26.000",
    "request_status": "Pending",
    "responsible_agency": "Department of Public Works",
    "final_address": "2816 Serantine St",
    "address_councildis": "D",
    "status": "Pending",
    "rowid": "1222431",
    "final_x": "3679690.92936",
    "final_y": "542445.932045",
    "longitude": "-90.0734033613124",
    "latitude": "29.985593046856984",
    "geocoded_column": {
      "latitude": "29.985593046856984",
      "longitude": "-90.0734033613124"
    }
  },
  {
    "service_request": "2025-1222430",
    "request_type": "Abandoned Vehicles",
    "request_reason": "Abandoned/Junk Vehicles",
    "date_created": "2025-08-28T18:41:31.000",
    "date_modified": "2025-08-28T18:41:33.000",
    "request_status": "Pending",
    "responsible_agency": "Department of Public Works",
    "final_address": "2816 Serantine St",
    "address_councildis": "D",
    "status": "Pending",
    "rowid": "1222430",
    "final_x": "3679690.92936",
    "final_y": "542445.932045",
    "longitude": "-90.0734033613124",
    "latitude": "29.985593046856984",
    "geocoded_column": {
      "latitude": "29.985593046856984",
      "longitude": "-90.0734033613124"
    }
  },
  {
    "service_request": "2025-1222429",
    "request_type": "Trash/Recycling",
    "request_reason": "Request a Large Item Pick Up",
    "date_created": "2025-08-28T18:41:00.000",
    "date_modified": "2025-08-28T18:41:02.000",
    "request_status": "Pending",
    "responsible_agency": "Department of Sanitation",
    "final_address": "13267 Curran Rd",
    "address_councildis": "E",
    "status": "Assigned to Contractor",
    "contractor": "Waste Pro",
    "rowid": "1222429",
    "final_x": "3716068.85452",
    "final_y": "570237.024743",
    "longitude": "-89.95744761732104",
    "latitude": "30.060857504111915",
    "geocoded_column": {
      "latitude": "30.060857504111915",
      "longitude": "-89.95744761732104"
    }
  },
  {
    "service_request": "2025-1222428",
    "request_type": "General Services",
    "request_reason": "General Service Request",
    "date_created": "2025-08-28T18:14:56.000",
    "date_modified": "2025-08-28T18:14:59.000",
    "request_status": "Pending",
    "responsible_agency": "Orleans Parish Communication District",
    "final_address": "1110 General Pershing St",
    "address_councildis": "B",
    "status": "Pending",
    "rowid": "1222428",
    "final_x": "3671317.34132",
    "final_y": "519654.714424",
    "longitude": "-90.1006266350525",
    "latitude": "29.923175241588424",
    "geocoded_column": {
      "latitude": "29.923175241588424",
      "longitude": "-90.1006266350525"
    }
  },
  {
    "service_request": "2025-1222427",
    "request_type": "Trash/Recycling",
    "request_reason": "Missed Trash Pick-Up",
    "date_created": "2025-08-28T18:06:12.000",
    "date_modified": "2025-08-28T18:06:13.000",
    "request_status": "Pending",
    "responsible_agency": "Department of Sanitation",
    "final_address": "715 Saint Roch Ave, New Orleans, Louisiana, 70117",
    "status": "Assigned to Contractor",
    "rowid": "1222427",
    "longitude": "0.0",
    "latitude": "0.0",
    "geocoded_column": {
      "latitude": "0.0",
      "longitude": "0.0"
    }
  },
  {
    "service_request": "2025-1222426",
    "request_type": "Trash/Recycling",
    "request_reason": "Request a Large Item Pick Up",
    "date_created": "2025-08-28T18:01:12.000",
    "date_modified": "2025-08-28T18:01:14.000",
    "request_status": "Pending",
    "responsible_agency": "Department of Sanitation",
    "final_address": "4524 Rosemont Pl",
    "address_councildis": "E",
    "status": "Assigned to Contractor",
    "contractor": "Waste Pro",
    "rowid": "1222426",
    "final_x": "3702746.81994",
    "final_y": "553713.533783",
    "longitude": "-90.00016565014923",
    "latitude": "30.015857498261596",
    "geocoded_column": {
      "latitude": "30.015857498261596",
      "longitude": "-90.00016565014923"
    }
  },
  {
    "service_request": "2025-1222424",
    "request_type": "Abandoned Vehicles",
    "request_reason": "Abandoned/Junk Vehicles",
    "date_created": "2025-08-28T17:58:56.000",
    "date_modified": "2025-08-28T17:59:00.000",
    "request_status": "Pending",
    "responsible_agency": "Department of Public Works",
    "final_address": "2824 Upperline St",
    "address_councildis": "B",
    "status": "Pending",
    "rowid": "1222424",
    "final_x": "3669166.55898",
    "final_y": "525177.213053",
    "longitude": "-90.10722931727288",
    "latitude": "29.93842379481495",
    "geocoded_column": {
      "latitude": "29.93842379481495",
      "longitude": "-90.10722931727288"
    }
  },
  {
    "service_request": "2025-1222423",
    "request_type": "Property Maintenance",
    "request_reason": "Property Maintenance",
    "date_created": "2025-08-28T17:57:16.000",
    "date_modified": "2025-08-28T17:57:18.000",
    "request_status": "Pending",
    "responsible_agency": "Department of Code Enforcement",
    "final_address": "5517 Woodlawn Pl",
    "address_councildis": "A",
    "status": "Pending",
    "rowid": "1222423",
    "final_x": "3667508.62906",
    "final_y": "544159.213006",
    "longitude": "-90.11182472921719",
    "latitude": "29.990666684982365",
    "geocoded_column": {
      "latitude": "29.990666684982365",
      "longitude": "-90.11182472921719"
    }
  },
  {
    "service_request": "2025-1222422",
    "request_type": "Property Maintenance",
    "request_reason": "Property Maintenance",
    "date_created": "2025-08-28T17:48:53.000",
    "date_modified": "2025-08-28T17:48:54.000",
    "request_status": "Pending",
    "responsible_agency": "Department of Code Enforcement",
    "final_address": "3213 Fern St",
    "address_councildis": "B",
    "status": "Pending",
    "rowid": "1222422",
    "final_x": "3667454.35565",
    "final_y": "533205.57114",
    "longitude": "-90.11236485076957",
    "latitude": "29.960549434906948",
    "geocoded_column": {
      "latitude": "29.960549434906948",
      "longitude": "-90.11236485076957"
    }
  },
  {
    "service_request": "2025-1222421",
    "request_type": "Property Maintenance",
    "request_reason": "Property Maintenance",
    "date_created": "2025-08-28T17:48:07.000",
    "date_modified": "2025-08-28T17:48:09.000",
    "request_status": "Pending",
    "responsible_agency": "Department of Code Enforcement",
    "final_address": "13058 Chateau Ct",
    "address_councildis": "E",
    "status": "Pending",
    "rowid": "1222421",
    "final_x": "3724028.05529",
    "final_y": "562100.924703",
    "longitude": "-89.93260351305409",
    "latitude": "30.038221430364153",
    "geocoded_column": {
      "latitude": "30.038221430364153",
      "longitude": "-89.93260351305409"
    }
  },
  {
    "service_request": "2025-1222420",
    "request_type": "Parks & Parkways",
    "request_reason": "Park Maintenance/Clean Up",
    "date_created": "2025-08-28T17:41:57.000",
    "date_modified": "2025-08-28T17:41:58.000",
    "request_status": "Pending",
    "responsible_agency": "Department of Parks & Parkway",
    "final_address": "529 S Galvez St",
    "address_councildis": "B",
    "status": "Pending",
    "rowid": "1222420",
    "final_x": "3675596.2468",
    "final_y": "532254.590467",
    "longitude": "-90.086687032129",
    "latitude": "29.957693492371817",
    "geocoded_column": {
      "latitude": "29.957693492371817",
      "longitude": "-90.086687032129"
    }
  },
  {
    "service_request": "2025-1222419",
    "request_type": "Street and Traffic Signs",
    "request_reason": "Additional Signage Request",
    "date_created": "2025-08-28T17:40:35.000",
    "date_modified": "2025-08-28T17:40:37.000",
    "request_status": "Pending",
    "responsible_agency": "Department of Public Works",
    "final_address": "5517 Woodlawn Pl",
    "address_councildis": "A",
    "status": "Pending",
    "rowid": "1222419",
    "final_x": "3667508.62906",
    "final_y": "544159.213006",
    "longitude": "-90.11182472921719",
    "latitude": "29.990666684982365",
    "geocoded_column": {
      "latitude": "29.990666684982365",
      "longitude": "-90.11182472921719"
    }
  },
  {
    "service_request": "2025-1222418",
    "request_type": "Roads and Streets",
    "request_reason": "Sidewalk Damaged or Missing",
    "date_created": "2025-08-28T17:39:22.000",
    "date_modified": "2025-08-28T17:39:24.000",
    "request_status": "Pending",
    "responsible_agency": "Department of Public Works",
    "final_address": "8123 Maple St",
    "address_councildis": "A",
    "status": "Pending",
    "rowid": "1222418",
    "final_x": "3660922.14957",
    "final_y": "527482.427135",
    "longitude": "-90.13318165379894",
    "latitude": "29.945002401404363",
    "geocoded_column": {
      "latitude": "29.945002401404363",
      "longitude": "-90.13318165379894"
    }
  },
  {
    "service_request": "2025-1222417",
    "request_type": "Streetlights",
    "request_reason": "Streetlight Outage/Malfunction",
    "date_created": "2025-08-28T17:35:12.000",
    "date_modified": "2025-08-28T17:35:15.000",
    "request_status": "Pending",
    "responsible_agency": "Department of Public Works",
    "final_address": "10 Tennyson Pl",
    "address_councildis": "C",
    "status": "Pending",
    "rowid": "1222417",
    "final_x": "3704784.35198",
    "final_y": "517460.99839",
    "longitude": "-89.99506578431738",
    "latitude": "29.9161108639139",
    "geocoded_column": {
      "latitude": "29.9161108639139",
      "longitude": "-89.99506578431738"
    }
  },
  {
    "service_request": "2025-1222416",
    "request_type": "Streetlights",
    "request_reason": "Streetlight Outage/Malfunction",
    "date_created": "2025-08-28T17:29:33.000",
    "date_modified": "2025-08-28T17:29:35.000",
    "request_status": "Pending",
    "responsible_agency": "Department of Public Works",
    "final_address": "5526 Wildair Dr",
    "address_councildis": "D",
    "status": "Pending",
    "rowid": "1222416",
    "final_x": "3681543.39644",
    "final_y": "553563.322967",
    "longitude": "-90.0671641482463",
    "latitude": "30.016105760619062",
    "geocoded_column": {
      "latitude": "30.016105760619062",
      "longitude": "-90.0671641482463"
    }
  },
  {
    "service_request": "2025-1222415",
    "request_type": "Property Maintenance",
    "request_reason": "Property Maintenance",
    "date_created": "2025-08-28T17:09:52.000",
    "date_modified": "2025-08-28T17:09:54.000",
    "request_status": "Pending",
    "responsible_agency": "Department of Code Enforcement",
    "final_address": "3135 College Ct",
    "address_councildis": "B",
    "status": "Pending",
    "rowid": "1222415",
    "final_x": "3668565.96615",
    "final_y": "531971.503363",
    "longitude": "-90.10889623863405",
    "latitude": "29.95712353897815",
    "geocoded_column": {
      "latitude": "29.95712353897815",
      "longitude": "-90.10889623863405"
    }
  },
  {
    "service_request": "2025-1222414",
    "request_type": "Property Maintenance",
    "request_reason": "Property Maintenance",
    "date_created": "2025-08-28T17:06:09.000",
    "date_modified": "2025-08-28T17:06:11.000",
    "request_status": "Pending",
    "responsible_agency": "Department of Code Enforcement",
    "final_address": "2415 Palmer Ave",
    "address_councildis": "A",
    "status": "Pending",
    "rowid": "1222414",
    "final_x": "3666423.63194",
    "final_y": "525659.551037",
    "longitude": "-90.11587286495433",
    "latitude": "29.93983048926382",
    "geocoded_column": {
      "latitude": "29.93983048926382",
      "longitude": "-90.11587286495433"
    }
  },
  {
    "service_request": "2025-1222413",
    "request_type": "Trash/Recycling",
    "request_reason": "Request a Large Item Pick Up",
    "date_created": "2025-08-28T16:58:49.000",
    "date_modified": "2025-08-28T16:58:52.000",
    "request_status": "Pending",
    "responsible_agency": "Department of Sanitation",
    "final_address": "4534 Constance St",
    "address_councildis": "B",
    "status": "Assigned to Contractor",
    "contractor": "IV Waste",
    "rowid": "1222413",
    "final_x": "3670423.42414",
    "final_y": "518284.321078",
    "longitude": "-90.10349482639383",
    "latitude": "29.919433507736606",
    "geocoded_column": {
      "latitude": "29.919433507736606",
      "longitude": "-90.10349482639383"
    }
  },
  {
    "service_request": "2025-1222412",
    "request_type": "Trash/Recycling",
    "request_reason": "Repair Trash Cart",
    "date_created": "2025-08-28T16:54:40.000",
    "date_modified": "2025-08-28T16:54:43.000",
    "request_status": "Pending",
    "responsible_agency": "Department of Sanitation",
    "final_address": "8820 Morrison Rd",
    "address_councildis": "E",
    "status": "Assigned to Contractor",
    "contractor": "Waste Pro",
    "rowid": "1222412",
    "final_x": "3705550.52747",
    "final_y": "561680.966751",
    "longitude": "-89.99101236653216",
    "latitude": "30.037674844397767",
    "geocoded_column": {
      "latitude": "30.037674844397767",
      "longitude": "-89.99101236653216"
    }
  },
  {
    "service_request": "2025-1222411",
    "request_type": "Road Striping",
    "request_reason": "Lane Striping or other Pavement Markings",
    "date_created": "2025-08-28T16:47:11.000",
    "date_modified": "2025-08-28T16:47:12.000",
    "request_status": "Pending",
    "responsible_agency": "Department of Public Works",
    "final_address": "1128 City Park Ave",
    "address_councildis": "A",
    "status": "Pending",
    "rowid": "1222411",
    "final_x": "3673266.73947",
    "final_y": "541458.925324",
    "longitude": "-90.09372852236545",
    "latitude": "29.983071784436344",
    "geocoded_column": {
      "latitude": "29.983071784436344",
      "longitude": "-90.09372852236545"
    }
  },
  {
    "service_request": "2025-1222410",
    "request_type": "Trash/Recycling",
    "request_reason": "MIssed Recycling Pick-Up",
    "date_created": "2025-08-28T16:46:46.000",
    "date_modified": "2025-08-28T16:46:47.000",
    "request_status": "Pending",
    "responsible_agency": "Department of Sanitation",
    "final_address": "2545 Jonquil St",
    "address_councildis": "D",
    "status": "Assigned to Contractor",
    "contractor": "IV Waste",
    "rowid": "1222410",
    "final_x": "3686688.9903",
    "final_y": "547223.970513",
    "longitude": "-90.0511305103122",
    "latitude": "29.99851750483605",
    "geocoded_column": {
      "latitude": "29.99851750483605",
      "longitude": "-90.0511305103122"
    }
  },
  {
    "service_request": "2025-1222409",
    "request_type": "Health Related Request",
    "request_reason": "Homeless Encampment Complaint",
    "date_created": "2025-08-28T16:45:32.000",
    "date_modified": "2025-08-28T16:45:34.000",
    "request_status": "Pending",
    "responsible_agency": "Office Of Homeless Services And Strategy",
    "final_address": "HOWARD AVE & E PONTCHARTRAIN EXPRESSWAY",
    "address_councildis": "B",
    "status": "Pending",
    "rowid": "1222409",
    "final_x": "3674043.9",
    "final_y": "531555.88",
    "longitude": "-90.0916128093346",
    "latitude": "29.955818619711458",
    "geocoded_column": {
      "latitude": "29.955818619711458",
      "longitude": "-90.0916128093346"
    }
  },
  {
    "service_request": "2025-1222408",
    "request_type": "Trash/Recycling",
    "request_reason": "Request a Large Item Pick Up",
    "date_created": "2025-08-28T16:43:50.000",
    "date_modified": "2025-08-28T16:45:20.000",
    "request_status": "Pending",
    "responsible_agency": "Department of Sanitation",
    "final_address": "1710 Marigny St",
    "address_councildis": "D",
    "status": "Assigned to Contractor",
    "contractor": "IV Waste",
    "rowid": "1222408",
    "final_x": "3685199.13052",
    "final_y": "538644.259273",
    "longitude": "-90.05613907453643",
    "latitude": "29.974972098267088",
    "geocoded_column": {
      "latitude": "29.974972098267088",
      "longitude": "-90.05613907453643"
    }
  },
  {
    "service_request": "2025-1222407",
    "request_type": "Traffic Signals",
    "request_reason": "Traffic Signal Malfunctioning or Damaged",
    "date_created": "2025-08-28T16:41:56.000",
    "date_modified": "2025-08-28T16:41:58.000",
    "request_status": "Pending",
    "responsible_agency": "Department of Public Works",
    "final_address": "ST BERNARD AVE & I 610 E",
    "address_councildis": "D",
    "status": "Pending",
    "rowid": "1222407",
    "final_x": "3678420.3",
    "final_y": "545069.28",
    "longitude": "-90.07732593505737",
    "latitude": "29.992844691153376",
    "geocoded_column": {
      "latitude": "29.992844691153376",
      "longitude": "-90.07732593505737"
    }
  },
  {
    "service_request": "2025-1222406",
    "request_type": "Abandoned Vehicles",
    "request_reason": "Abandoned/Junk Vehicles",
    "date_created": "2025-08-28T16:39:15.000",
    "date_modified": "2025-08-28T16:39:17.000",
    "request_status": "Pending",
    "responsible_agency": "Department of Public Works",
    "final_address": "5801 Abbey Dr",
    "address_councildis": "C",
    "status": "Pending",
    "rowid": "1222406",
    "final_x": "3705079.44081",
    "final_y": "520928.136761",
    "longitude": "-89.99400645953422",
    "latitude": "29.9256348127816",
    "geocoded_column": {
      "latitude": "29.9256348127816",
      "longitude": "-89.99400645953422"
    }
  },
  {
    "service_request": "2025-1222405",
    "request_type": "Abandoned Vehicles",
    "request_reason": "Abandoned/Junk Vehicles",
    "date_created": "2025-08-28T16:35:34.000",
    "date_modified": "2025-08-28T16:35:37.000",
    "request_status": "Pending",
    "responsible_agency": "Department of Public Works",
    "final_address": "5801 Abbey Dr",
    "address_councildis": "C",
    "status": "Pending",
    "rowid": "1222405",
    "final_x": "3705079.44081",
    "final_y": "520928.136761",
    "longitude": "-89.99400645953422",
    "latitude": "29.9256348127816",
    "geocoded_column": {
      "latitude": "29.9256348127816",
      "longitude": "-89.99400645953422"
    }
  },
  {
    "service_request": "2025-1222404",
    "request_type": "Trash/Recycling",
    "request_reason": "Replace Trash Cart",
    "date_created": "2025-08-28T16:34:09.000",
    "date_modified": "2025-08-28T16:34:11.000",
    "request_status": "Pending",
    "responsible_agency": "Department of Sanitation",
    "final_address": "1645 Soniat St",
    "address_councildis": "B",
    "status": "Assigned to Contractor",
    "contractor": "IV Waste",
    "rowid": "1222404",
    "final_x": "3668510.78727",
    "final_y": "521227.117433",
    "longitude": "-90.10943286497817",
    "latitude": "29.92758157421725",
    "geocoded_column": {
      "latitude": "29.92758157421725",
      "longitude": "-90.10943286497817"
    }
  },
  {
    "service_request": "2025-1222403",
    "request_type": "Healthy Homes",
    "request_reason": "Healthy Homes",
    "date_created": "2025-08-28T16:33:33.000",
    "date_modified": "2025-08-28T16:33:35.000",
    "request_status": "Pending",
    "responsible_agency": "Department of Code Enforcement",
    "final_address": "1419 Milan St Apt 203",
    "address_councildis": "B",
    "status": "Pending",
    "rowid": "1222403",
    "final_x": "3671710.10529",
    "final_y": "520611.648376",
    "longitude": "-90.09935429633512",
    "latitude": "29.92579487989252",
    "geocoded_column": {
      "latitude": "29.92579487989252",
      "longitude": "-90.09935429633512"
    }
  },
  {
    "service_request": "2025-1222402",
    "request_type": "Trash/Recycling",
    "request_reason": "Request a Large Item Pick Up",
    "date_created": "2025-08-28T16:32:15.000",
    "date_modified": "2025-08-28T16:32:17.000",
    "request_status": "Pending",
    "responsible_agency": "Department of Sanitation",
    "final_address": "924 N Dupre St",
    "address_councildis": "A",
    "status": "Assigned to Contractor",
    "contractor": "IV Waste",
    "rowid": "1222402",
    "final_x": "3676599.72936",
    "final_y": "538214.972361",
    "longitude": "-90.08331299954779",
    "latitude": "29.974052463834358",
    "geocoded_column": {
      "latitude": "29.974052463834358",
      "longitude": "-90.08331299954779"
    }
  },
  {
    "service_request": "2025-1222401",
    "request_type": "Trash/Recycling",
    "request_reason": "Replace Recycling Cart",
    "date_created": "2025-08-28T16:27:18.000",
    "date_modified": "2025-08-28T16:27:19.000",
    "request_status": "Pending",
    "responsible_agency": "Department of Sanitation",
    "final_address": "6051 Patton St",
    "address_councildis": "A",
    "status": "Pending",
    "rowid": "1222401",
    "final_x": "3664104.42516",
    "final_y": "518808.632311",
    "longitude": "-90.12342335617126",
    "latitude": "29.921060177259847",
    "geocoded_column": {
      "latitude": "29.921060177259847",
      "longitude": "-90.12342335617126"
    }
  },
  {
    "service_request": "2025-1222400",
    "request_type": "Trash/Recycling",
    "request_reason": "Request a Large Item Pick Up",
    "date_created": "2025-08-28T16:17:06.000",
    "date_modified": "2025-08-28T16:17:08.000",
    "request_status": "Pending",
    "responsible_agency": "Department of Sanitation",
    "final_address": "4820 N Roman St",
    "address_councildis": "E",
    "status": "Assigned to Contractor",
    "contractor": "Waste Pro",
    "rowid": "1222400",
    "final_x": "3695918.81251",
    "final_y": "537029.01972",
    "longitude": "-90.02234211166527",
    "latitude": "29.970197870086988",
    "geocoded_column": {
      "latitude": "29.970197870086988",
      "longitude": "-90.02234211166527"
    }
  },
  {
    "service_request": "2025-1222399",
    "request_type": "Trash/Recycling",
    "request_reason": "Replace Trash Cart",
    "date_created": "2025-08-28T16:16:32.000",
    "date_modified": "2025-08-28T16:16:34.000",
    "request_status": "Pending",
    "responsible_agency": "Department of Sanitation",
    "final_address": "7338 Prytania St",
    "address_councildis": "A",
    "status": "Assigned to Contractor",
    "contractor": "IV Waste",
    "rowid": "1222399",
    "final_x": "3661262.50522",
    "final_y": "522990.824955",
    "longitude": "-90.13225569083694",
    "latitude": "29.93264210951296",
    "geocoded_column": {
      "latitude": "29.93264210951296",
      "longitude": "-90.13225569083694"
    }
  },
  {
    "service_request": "2025-1222398",
    "request_type": "Trash/Recycling",
    "request_reason": "Request a Large Item Pick Up",
    "date_created": "2025-08-28T16:11:11.000",
    "date_modified": "2025-08-28T16:11:13.000",
    "request_status": "Pending",
    "responsible_agency": "Department of Sanitation",
    "final_address": "7324 Dogwood Dr",
    "address_councildis": "E",
    "status": "Assigned to Contractor",
    "contractor": "Waste Pro",
    "rowid": "1222398",
    "final_x": "3701507.15543",
    "final_y": "560149.335389",
    "longitude": "-90.00384647403304",
    "latitude": "30.033593076489577",
    "geocoded_column": {
      "latitude": "30.033593076489577",
      "longitude": "-90.00384647403304"
    }
  },
  {
    "service_request": "2025-1222397",
    "request_type": "Trash/Recycling",
    "request_reason": "Replace Trash Cart",
    "date_created": "2025-08-28T16:09:50.000",
    "date_modified": "2025-08-28T16:09:52.000",
    "request_status": "Pending",
    "responsible_agency": "Department of Sanitation",
    "final_address": "2202 Delachaise St. ",
    "address_councildis": "B",
    "status": "Assigned to Contractor",
    "contractor": "IV Waste",
    "rowid": "1222397",
    "final_x": "3672933.91124",
    "final_y": "523389.094331",
    "longitude": "-90.0953963777472",
    "latitude": "29.933395665124337",
    "geocoded_column": {
      "latitude": "29.933395665124337",
      "longitude": "-90.0953963777472"
    }
  },
  {
    "service_request": "2025-1222396",
    "request_type": "Streetlights",
    "request_reason": "Streetlight Outage/Malfunction",
    "date_created": "2025-08-28T16:03:06.000",
    "date_modified": "2025-08-28T16:03:07.000",
    "request_status": "Pending",
    "responsible_agency": "Department of Public Works",
    "final_address": "5201 Camp St",
    "address_councildis": "B",
    "status": "Pending",
    "rowid": "1222396",
    "final_x": "3668019.37709",
    "final_y": "519063.205239",
    "longitude": "-90.11105699890958",
    "latitude": "29.92164592426312",
    "geocoded_column": {
      "latitude": "29.92164592426312",
      "longitude": "-90.11105699890958"
    }
  },
  {
    "service_request": "2025-1222395",
    "request_type": "Property Maintenance",
    "request_reason": "Property Maintenance",
    "date_created": "2025-08-28T16:02:03.000",
    "date_modified": "2025-08-28T16:02:04.000",
    "request_status": "Pending",
    "responsible_agency": "Department of Code Enforcement",
    "final_address": "434 Powder St",
    "address_councildis": "C",
    "status": "Pending",
    "rowid": "1222395",
    "final_x": "3685709.63106",
    "final_y": "529773.125249",
    "longitude": "-90.05483939462775",
    "latitude": "29.950563888227",
    "geocoded_column": {
      "latitude": "29.950563888227",
      "longitude": "-90.05483939462775"
    }
  },
  {
    "service_request": "2025-1222394",
    "request_type": "Trash/Recycling",
    "request_reason": "Order Trash Cart",
    "date_created": "2025-08-28T15:59:30.000",
    "date_modified": "2025-08-28T15:59:31.000",
    "request_status": "Pending",
    "responsible_agency": "Department of Sanitation",
    "final_address": "1551 Shirley Dr",
    "address_councildis": "C",
    "status": "Assigned to Contractor",
    "contractor": "Richards Disposal",
    "rowid": "1222394",
    "final_x": "3692960.5112",
    "final_y": "524958.050365",
    "longitude": "-90.03211760482928",
    "latitude": "29.937099642389022",
    "geocoded_column": {
      "latitude": "29.937099642389022",
      "longitude": "-90.03211760482928"
    }
  },
  {
    "service_request": "2025-1222393",
    "request_type": "Roads and Streets",
    "request_reason": "Pothole",
    "date_created": "2025-08-28T15:46:51.000",
    "date_modified": "2025-08-28T15:46:53.000",
    "request_status": "Pending",
    "responsible_agency": "Department of Public Works",
    "final_address": "14701 Intracoastal Dr",
    "address_councildis": "E",
    "status": "Pending",
    "rowid": "1222393",
    "final_x": "3734993.34567",
    "final_y": "558609.914268",
    "longitude": "-89.89808916332846",
    "latitude": "30.02824948419",
    "geocoded_column": {
      "latitude": "30.02824948419",
      "longitude": "-89.89808916332846"
    }
  },
  {
    "service_request": "2025-1222392",
    "request_type": "Trash/Recycling",
    "request_reason": "Request a Large Item Pick Up",
    "date_created": "2025-08-28T15:45:20.000",
    "date_modified": "2025-08-28T15:45:22.000",
    "request_status": "Pending",
    "responsible_agency": "Department of Sanitation",
    "final_address": "2228 Halsey Ave",
    "address_councildis": "C",
    "status": "Assigned to Contractor",
    "contractor": "Richards Disposal",
    "rowid": "1222392",
    "final_x": "3697783.31408",
    "final_y": "522771.625082",
    "longitude": "-90.01697112307852",
    "latitude": "29.930936253041043",
    "geocoded_column": {
      "latitude": "29.930936253041043",
      "longitude": "-90.01697112307852"
    }
  },
  {
    "service_request": "2025-1222391",
    "request_type": "Roads and Streets",
    "request_reason": "Pothole",
    "date_created": "2025-08-28T15:36:05.000",
    "date_modified": "2025-08-28T15:36:07.000",
    "request_status": "Pending",
    "responsible_agency": "Department of Public Works",
    "final_address": "5500 BLK S Liberty St",
    "address_councildis": "A",
    "status": "Pending",
    "rowid": "1222391",
    "final_x": "3667277.56403",
    "final_y": "523412.503488",
    "longitude": "-90.11325240758947",
    "latitude": "29.93362685276487",
    "geocoded_column": {
      "latitude": "29.93362685276487",
      "longitude": "-90.11325240758947"
    }
  },
  {
    "service_request": "2025-1222390",
    "request_type": "Trash/Recycling",
    "request_reason": "Request a Large Item Pick Up",
    "date_created": "2025-08-28T15:33:46.000",
    "date_modified": "2025-08-28T15:33:49.000",
    "request_status": "Pending",
    "responsible_agency": "Department of Sanitation",
    "final_address": "6391 Eastover Dr",
    "address_councildis": "E",
    "status": "Assigned to Contractor",
    "contractor": "Waste Pro",
    "rowid": "1222390",
    "final_x": "3718334.99129",
    "final_y": "563527.49296",
    "longitude": "-89.95054044349781",
    "latitude": "30.042334042378123",
    "geocoded_column": {
      "latitude": "30.042334042378123",
      "longitude": "-89.95054044349781"
    }
  },
  {
    "service_request": "2025-1222389",
    "request_type": "Street and Traffic Signs",
    "request_reason": "Street Name Sign Damaged or Missing",
    "date_created": "2025-08-28T15:30:59.000",
    "date_modified": "2025-08-28T15:31:01.000",
    "request_status": "Pending",
    "responsible_agency": "Department of Public Works",
    "final_address": "MIRABEAU AVE & DUPLESSIS ST",
    "address_councildis": "D",
    "status": "Pending",
    "rowid": "1222389",
    "final_x": "3678156.0",
    "final_y": "550210.28",
    "longitude": "-90.07798289654741",
    "latitude": "30.006988583830722",
    "geocoded_column": {
      "latitude": "30.006988583830722",
      "longitude": "-90.07798289654741"
    }
  },
  {
    "service_request": "2025-1222388",
    "request_type": "Property Maintenance",
    "request_reason": "Property Maintenance",
    "date_created": "2025-08-28T15:26:15.000",
    "date_modified": "2025-08-28T15:39:05.000",
    "case_close_date": "2025-08-28T10:39:05.000",
    "request_status": "Closed",
    "responsible_agency": "Department of Code Enforcement",
    "final_address": "201 Baronne St",
    "address_councildis": "B",
    "status": "Wrong Agency",
    "rowid": "1222388",
    "final_x": "3680155.78946",
    "final_y": "530664.581762",
    "longitude": "-90.07234457860008",
    "latitude": "29.953184316362155",
    "geocoded_column": {
      "latitude": "29.953184316362155",
      "longitude": "-90.07234457860008"
    }
  },
  {
    "service_request": "2025-1222387",
    "request_type": "Streetlights",
    "request_reason": "Streetlight Outage/Malfunction",
    "date_created": "2025-08-28T15:21:44.000",
    "date_modified": "2025-08-28T15:21:46.000",
    "request_status": "Pending",
    "responsible_agency": "Department of Public Works",
    "final_address": "7520 Marquis St",
    "address_councildis": "E",
    "status": "Pending",
    "rowid": "1222387",
    "final_x": "3711639.9283",
    "final_y": "565622.312418",
    "longitude": "-89.97162056001491",
    "latitude": "30.04831440850575",
    "geocoded_column": {
      "latitude": "30.04831440850575",
      "longitude": "-89.97162056001491"
    }
  },
  {
    "service_request": "2025-1222386",
    "request_type": "Trash/Recycling",
    "request_reason": "Order Trash Cart",
    "date_created": "2025-08-28T15:16:55.000",
    "date_modified": "2025-08-28T15:16:57.000",
    "request_status": "Pending",
    "responsible_agency": "Department of Sanitation",
    "final_address": "8927 Fig St Apt B",
    "address_councildis": "A",
    "status": "Assigned to Contractor",
    "contractor": "IV Waste",
    "rowid": "1222386",
    "final_x": "3664080.42516",
    "final_y": "535238.361414",
    "longitude": "-90.12295128838325",
    "latitude": "29.966237364749063",
    "geocoded_column": {
      "latitude": "29.966237364749063",
      "longitude": "-90.12295128838325"
    }
  },
  {
    "service_request": "2025-1222385",
    "request_type": "Roads and Streets",
    "request_reason": "Pothole",
    "date_created": "2025-08-28T15:16:15.000",
    "date_modified": "2025-08-28T15:16:18.000",
    "request_status": "Pending",
    "responsible_agency": "Department of Public Works",
    "final_address": "8501 N Interstate 10 Service Rd",
    "address_councildis": "E",
    "status": "Pending",
    "rowid": "1222385",
    "final_x": "3704755.23332",
    "final_y": "559450.599453",
    "longitude": "-89.99360808006935",
    "latitude": "30.03156780215238",
    "geocoded_column": {
      "latitude": "30.03156780215238",
      "longitude": "-89.99360808006935"
    }
  },
  {
    "service_request": "2025-1222384",
    "request_type": "Trash/Recycling",
    "request_reason": "Request a Large Item Pick Up",
    "date_created": "2025-08-28T15:14:33.000",
    "date_modified": "2025-08-28T15:14:35.000",
    "request_status": "Pending",
    "responsible_agency": "Department of Sanitation",
    "final_address": "6138 Louisville St",
    "address_councildis": "A",
    "status": "Assigned to Contractor",
    "contractor": "IV Waste",
    "rowid": "1222384",
    "final_x": "3667738.01978",
    "final_y": "548310.01109",
    "longitude": "-90.11096026717355",
    "latitude": "30.00207322535214",
    "geocoded_column": {
      "latitude": "30.00207322535214",
      "longitude": "-90.11096026717355"
    }
  },
  {
    "service_request": "2025-1222383",
    "request_type": "Trash/Recycling",
    "request_reason": "Repair Recycling Cart",
    "date_created": "2025-08-28T15:13:36.000",
    "date_modified": "2025-08-28T15:13:38.000",
    "request_status": "Pending",
    "responsible_agency": "Department of Sanitation",
    "final_address": "6301 Perrier St",
    "address_councildis": "A",
    "status": "Pending",
    "rowid": "1222383",
    "final_x": "3663946.12531",
    "final_y": "521031.380857",
    "longitude": "-90.12384898059076",
    "latitude": "29.927176634958403",
    "geocoded_column": {
      "latitude": "29.927176634958403",
      "longitude": "-90.12384898059076"
    }
  },
  {
    "service_request": "2025-1222382",
    "request_type": "Trash/Recycling",
    "request_reason": "Repair Trash Cart",
    "date_created": "2025-08-28T15:10:31.000",
    "date_modified": "2025-08-28T15:10:33.000",
    "request_status": "Pending",
    "responsible_agency": "Department of Sanitation",
    "final_address": "2217 Desire St",
    "address_councildis": "D",
    "status": "Assigned to Contractor",
    "contractor": "IV Waste",
    "rowid": "1222382",
    "final_x": "3691296.42",
    "final_y": "539994.134923",
    "longitude": "-90.03683410536732",
    "latitude": "29.978495494017274",
    "geocoded_column": {
      "latitude": "29.978495494017274",
      "longitude": "-90.03683410536732"
    }
  },
  {
    "service_request": "2025-1222381",
    "request_type": "Parks & Parkways",
    "request_reason": "Request Tree Service (Right of Way/Public Property)",
    "date_created": "2025-08-28T15:07:24.000",
    "date_modified": "2025-08-28T15:09:54.000",
    "request_status": "Pending",
    "responsible_agency": "Department of Parks & Parkway",
    "final_address": "2302 Napoleon Ave",
    "address_councildis": "B",
    "status": "Pending",
    "rowid": "1222381",
    "final_x": "3670491.1602",
    "final_y": "523405.710907",
    "longitude": "-90.10310745503828",
    "latitude": "29.933513695581908",
    "geocoded_column": {
      "latitude": "29.933513695581908",
      "longitude": "-90.10310745503828"
    }
  },
  {
    "service_request": "2025-1222380",
    "request_type": "Parks & Parkways",
    "request_reason": "Request Tree Service (Right of Way/Public Property)",
    "date_created": "2025-08-28T15:05:12.000",
    "date_modified": "2025-08-28T15:05:14.000",
    "request_status": "Pending",
    "responsible_agency": "Department of Parks & Parkway",
    "final_address": "6026 Memphis St",
    "address_councildis": "A",
    "status": "Pending",
    "rowid": "1222380",
    "final_x": "3669116.93396",
    "final_y": "547447.849553",
    "longitude": "-90.10663326516743",
    "latitude": "29.999662060625905",
    "geocoded_column": {
      "latitude": "29.999662060625905",
      "longitude": "-90.10663326516743"
    }
  },
  {
    "service_request": "2025-1222379",
    "request_type": "General Services",
    "request_reason": "General Service Request",
    "date_created": "2025-08-28T15:03:38.000",
    "date_modified": "2025-08-28T15:39:44.000",
    "case_close_date": "2025-08-28T10:39:43.000",
    "request_status": "Closed",
    "responsible_agency": "Orleans Parish Communication District",
    "final_address": "431 Millaudon St",
    "address_councildis": "A",
    "status": "Question Answered.",
    "rowid": "1222379",
    "final_x": "3662120.93619",
    "final_y": "524787.752636",
    "longitude": "-90.12948608248979",
    "latitude": "29.937558323633443",
    "geocoded_column": {
      "latitude": "29.937558323633443",
      "longitude": "-90.12948608248979"
    }
  },
  {
    "service_request": "2025-1222378",
    "request_type": "Trash/Recycling",
    "request_reason": "Request a Large Item Pick Up",
    "date_created": "2025-08-28T14:59:20.000",
    "date_modified": "2025-08-28T14:59:22.000",
    "request_status": "Pending",
    "responsible_agency": "Department of Sanitation",
    "final_address": "7721 Henley St",
    "address_councildis": "E",
    "status": "Assigned to Contractor",
    "contractor": "Waste Pro",
    "rowid": "1222378",
    "final_x": "3696815.76227",
    "final_y": "559611.581789",
    "longitude": "-90.01869122249302",
    "latitude": "30.032263296443084",
    "geocoded_column": {
      "latitude": "30.032263296443084",
      "longitude": "-90.01869122249302"
    }
  },
  {
    "service_request": "2025-1222377",
    "request_type": "Property Maintenance",
    "request_reason": "Property Maintenance",
    "date_created": "2025-08-28T14:55:27.000",
    "date_modified": "2025-08-28T15:24:15.000",
    "case_close_date": "2025-08-28T10:24:15.000",
    "request_status": "Closed",
    "responsible_agency": "Department of Code Enforcement",
    "final_address": "1715 St Ann St",
    "address_councildis": "D",
    "status": "Referred to Code Enforcement",
    "rowid": "1222377",
    "final_x": "3679866.28706",
    "final_y": "535065.970182",
    "longitude": "-90.07310585101479",
    "latitude": "29.965295398842553",
    "geocoded_column": {
      "latitude": "29.965295398842553",
      "longitude": "-90.07310585101479"
    }
  },
  {
    "service_request": "2025-1222376",
    "request_type": "Trash/Recycling",
    "request_reason": "Return Trash Cart",
    "date_created": "2025-08-28T14:55:25.000",
    "date_modified": "2025-08-28T14:55:27.000",
    "request_status": "Pending",
    "responsible_agency": "Department of Sanitation",
    "final_address": "1830 Louisiana Ave",
    "address_councildis": "B",
    "status": "Assigned to Contractor",
    "contractor": "IV Waste",
    "rowid": "1222376",
    "final_x": "3673755.95028",
    "final_y": "522434.51129",
    "longitude": "-90.09283387008806",
    "latitude": "29.93074642524924",
    "geocoded_column": {
      "latitude": "29.93074642524924",
      "longitude": "-90.09283387008806"
    }
  },
  {
    "service_request": "2025-1222375",
    "request_type": "Trash/Recycling",
    "request_reason": "Request a Large Item Pick Up",
    "date_created": "2025-08-28T14:53:53.000",
    "date_modified": "2025-08-28T14:53:55.000",
    "request_status": "Pending",
    "responsible_agency": "Department of Sanitation",
    "final_address": "3123 Nashville Ave",
    "address_councildis": "A",
    "status": "Assigned to Contractor",
    "contractor": "IV Waste",
    "rowid": "1222375",
    "final_x": "3667888.72199",
    "final_y": "527329.695935",
    "longitude": "-90.11119110847129",
    "latitude": "29.9443799640894",
    "geocoded_column": {
      "latitude": "29.9443799640894",
      "longitude": "-90.11119110847129"
    }
  },
  {
    "service_request": "2025-1222374",
    "request_type": "Trash/Recycling",
    "request_reason": "Missed Trash Pick-Up",
    "date_created": "2025-08-28T14:52:45.000",
    "date_modified": "2025-08-28T15:17:14.000",
    "case_close_date": "2025-08-28T10:17:14.000",
    "request_status": "Closed",
    "responsible_agency": "Department of Sanitation",
    "final_address": "3123 Nashville Ave",
    "address_councildis": "A",
    "status": "Invalid Request",
    "contractor": "IV Waste",
    "contractor_action": "Invalid",
    "rowid": "1222374",
    "final_x": "3667888.72199",
    "final_y": "527329.695935",
    "longitude": "-90.11119110847129",
    "latitude": "29.9443799640894",
    "geocoded_column": {
      "latitude": "29.9443799640894",
      "longitude": "-90.11119110847129"
    }
  },
  {
    "service_request": "2025-1222373",
    "request_type": "Trash/Recycling",
    "request_reason": "Order Trash Cart",
    "date_created": "2025-08-28T14:52:22.000",
    "date_modified": "2025-08-28T14:52:24.000",
    "request_status": "Pending",
    "responsible_agency": "Department of Sanitation",
    "final_address": "8927 Fig St Apt A",
    "address_councildis": "A",
    "status": "Assigned to Contractor",
    "contractor": "IV Waste",
    "rowid": "1222373",
    "final_x": "3664090.6082",
    "final_y": "535230.95559",
    "longitude": "-90.12291937745887",
    "latitude": "29.966216705394835",
    "geocoded_column": {
      "latitude": "29.966216705394835",
      "longitude": "-90.12291937745887"
    }
  },
  {
    "service_request": "2025-1222372",
    "request_type": "Trash/Recycling",
    "request_reason": "Request a Large Item Pick Up",
    "date_created": "2025-08-28T14:50:44.000",
    "date_modified": "2025-08-28T14:50:46.000",
    "request_status": "Pending",
    "responsible_agency": "Department of Sanitation",
    "final_address": "2315 Royal St",
    "address_councildis": "C",
    "status": "Assigned to Contractor",
    "contractor": "IV Waste",
    "rowid": "1222372",
    "final_x": "3685677.40886",
    "final_y": "534942.104966",
    "longitude": "-90.05475901975637",
    "latitude": "29.96477779575864",
    "geocoded_column": {
      "latitude": "29.96477779575864",
      "longitude": "-90.05475901975637"
    }
  },
  {
    "service_request": "2025-1222371",
    "request_type": "General Services",
    "request_reason": "General Service Request",
    "date_created": "2025-08-28T14:49:50.000",
    "date_modified": "2025-08-28T15:41:45.000",
    "case_close_date": "2025-08-28T10:41:44.000",
    "request_status": "Closed",
    "responsible_agency": "Orleans Parish Communication District",
    "final_address": "5422 Garfield St",
    "address_councildis": "A",
    "status": "Duplicate Request",
    "rowid": "1222371",
    "final_x": "3667065.84148",
    "final_y": "521022.423801",
    "longitude": "-90.11400110021505",
    "latitude": "29.927061090503997",
    "geocoded_column": {
      "latitude": "29.927061090503997",
      "longitude": "-90.11400110021505"
    }
  },
  {
    "service_request": "2025-1222370",
    "request_type": "Safety & Permits",
    "request_reason": "Zoning Enforcement",
    "date_created": "2025-08-28T14:49:48.000",
    "date_modified": "2025-08-28T15:58:14.000",
    "case_close_date": "2025-08-28T10:42:38.000",
    "request_status": "Pending",
    "responsible_agency": "Safety and Permits",
    "final_address": "5422 Garfield St",
    "address_councildis": "A",
    "status": "Pending",
    "rowid": "1222370",
    "final_x": "3667065.84148",
    "final_y": "521022.423801",
    "longitude": "-90.11400110021505",
    "latitude": "29.927061090503997",
    "geocoded_column": {
      "latitude": "29.927061090503997",
      "longitude": "-90.11400110021505"
    }
  },
  {
    "service_request": "2025-1222369",
    "request_type": "Trash/Recycling",
    "request_reason": "Replace Recycling Cart",
    "date_created": "2025-08-28T14:49:43.000",
    "date_modified": "2025-08-28T14:49:45.000",
    "request_status": "Pending",
    "responsible_agency": "Department of Sanitation",
    "final_address": "3343 Roger Williams St",
    "address_councildis": "D",
    "status": "Pending",
    "rowid": "1222369",
    "final_x": "3677269.47138",
    "final_y": "544045.698382",
    "longitude": "-90.08099653831157",
    "latitude": "29.990064835779496",
    "geocoded_column": {
      "latitude": "29.990064835779496",
      "longitude": "-90.08099653831157"
    }
  },
  {
    "service_request": "2025-1222368",
    "request_type": "Trash/Recycling",
    "request_reason": "Order Trash Cart",
    "date_created": "2025-08-28T14:49:31.000",
    "date_modified": "2025-08-28T14:49:33.000",
    "request_status": "Pending",
    "responsible_agency": "Department of Sanitation",
    "final_address": "4648 Lafon Dr",
    "address_councildis": "E",
    "status": "Assigned to Contractor",
    "contractor": "Waste Pro",
    "rowid": "1222368",
    "final_x": "3701120.12868",
    "final_y": "553727.447767",
    "longitude": "-90.00530471953822",
    "latitude": "30.01594769647007",
    "geocoded_column": {
      "latitude": "30.01594769647007",
      "longitude": "-90.00530471953822"
    }
  },
  {
    "service_request": "2025-1222367",
    "request_type": "Streetlights",
    "request_reason": "Streetlight Outage/Malfunction",
    "date_created": "2025-08-28T14:48:15.000",
    "date_modified": "2025-08-28T14:48:16.000",
    "request_status": "Pending",
    "responsible_agency": "Department of Public Works",
    "final_address": "716 St Ferdinand St",
    "address_councildis": "C",
    "status": "Pending",
    "rowid": "1222367",
    "final_x": "3687337.59478",
    "final_y": "534962.933894",
    "longitude": "-90.04951553888021",
    "latitude": "29.964784026198743",
    "geocoded_column": {
      "latitude": "29.964784026198743",
      "longitude": "-90.04951553888021"
    }
  },
  {
    "service_request": "2025-1222366",
    "request_type": "Parks & Parkways",
    "request_reason": "Request Tree Service (Right of Way/Public Property)",
    "date_created": "2025-08-28T14:47:32.000",
    "date_modified": "2025-08-28T14:47:34.000",
    "request_status": "Pending",
    "responsible_agency": "Department of Parks & Parkway",
    "final_address": "3610 Dauphine St",
    "address_councildis": "C",
    "status": "Pending",
    "rowid": "1222366",
    "final_x": "3690529.57488",
    "final_y": "534383.060229",
    "longitude": "-90.03945618978605",
    "latitude": "29.96309085330096",
    "geocoded_column": {
      "latitude": "29.96309085330096",
      "longitude": "-90.03945618978605"
    }
  },
  {
    "service_request": "2025-1222365",
    "request_type": "Trash/Recycling",
    "request_reason": "Request a Large Item Pick Up",
    "date_created": "2025-08-28T14:45:50.000",
    "date_modified": "2025-08-28T14:45:52.000",
    "request_status": "Pending",
    "responsible_agency": "Department of Sanitation",
    "final_address": "4648 Lafon Dr",
    "address_councildis": "E",
    "status": "Assigned to Contractor",
    "contractor": "Waste Pro",
    "rowid": "1222365",
    "final_x": "3701120.12868",
    "final_y": "553727.447767",
    "longitude": "-90.00530471953822",
    "latitude": "30.01594769647007",
    "geocoded_column": {
      "latitude": "30.01594769647007",
      "longitude": "-90.00530471953822"
    }
  },
  {
    "service_request": "2025-1222364",
    "request_type": "Trash/Recycling",
    "request_reason": "Request a Large Item Pick Up",
    "date_created": "2025-08-28T14:42:30.000",
    "date_modified": "2025-08-28T14:42:32.000",
    "request_status": "Pending",
    "responsible_agency": "Department of Sanitation",
    "final_address": "1311 S Gayoso St",
    "address_councildis": "B",
    "status": "Assigned to Contractor",
    "contractor": "IV Waste",
    "rowid": "1222364",
    "final_x": "3671000.4962",
    "final_y": "531198.921474",
    "longitude": "-90.10123495736056",
    "latitude": "29.954927436514144",
    "geocoded_column": {
      "latitude": "29.954927436514144",
      "longitude": "-90.10123495736056"
    }
  },
  {
    "service_request": "2025-1222363",
    "request_type": "Trash/Recycling",
    "request_reason": "Repair Trash Cart",
    "date_created": "2025-08-28T14:37:46.000",
    "date_modified": "2025-08-28T14:59:23.000",
    "request_status": "Pending",
    "responsible_agency": "Department of Sanitation",
    "final_address": "4549 Danneel St",
    "address_councildis": "B",
    "status": "Assigned to Contractor",
    "contractor": "IV Waste",
    "rowid": "1222363",
    "final_x": "3669987.74823",
    "final_y": "522255.919098",
    "longitude": "-90.1047356230178",
    "latitude": "29.930366988954045",
    "geocoded_column": {
      "latitude": "29.930366988954045",
      "longitude": "-90.1047356230178"
    }
  },
  {
    "service_request": "2025-1222362",
    "request_type": "Abandoned Vehicles",
    "request_reason": "Abandoned/Junk Vehicles",
    "date_created": "2025-08-28T14:36:54.000",
    "date_modified": "2025-08-28T14:36:57.000",
    "request_status": "Pending",
    "responsible_agency": "Department of Public Works",
    "final_address": "3034 Toledano St",
    "address_councildis": "B",
    "status": "Pending",
    "rowid": "1222362",
    "final_x": "3672270.0747",
    "final_y": "527008.336254",
    "longitude": "-90.09736883061737",
    "latitude": "29.943367107828642",
    "geocoded_column": {
      "latitude": "29.943367107828642",
      "longitude": "-90.09736883061737"
    }
  },
  {
    "service_request": "2025-1222361",
    "request_type": "Trash/Recycling",
    "request_reason": "Missed Trash Pick-Up",
    "date_created": "2025-08-28T14:34:32.000",
    "date_modified": "2025-08-28T15:09:44.000",
    "case_close_date": "2025-08-28T10:09:43.000",
    "request_status": "Closed",
    "responsible_agency": "Department of Sanitation",
    "final_address": "2534 Elder St",
    "address_councildis": "D",
    "status": "Invalid Request",
    "contractor": "IV Waste",
    "contractor_action": "Invalid",
    "rowid": "1222361",
    "final_x": "3686905.25711",
    "final_y": "545719.224464",
    "longitude": "-90.05050054269783",
    "latitude": "29.99437333894701",
    "geocoded_column": {
      "latitude": "29.99437333894701",
      "longitude": "-90.05050054269783"
    }
  },
  {
    "service_request": "2025-1222360",
    "request_type": "Trash/Recycling",
    "request_reason": "Request a Large Item Pick Up",
    "date_created": "2025-08-28T14:33:37.000",
    "date_modified": "2025-08-28T14:33:39.000",
    "request_status": "Pending",
    "responsible_agency": "Department of Sanitation",
    "final_address": "8833 Willow St",
    "address_councildis": "A",
    "status": "Assigned to Contractor",
    "contractor": "IV Waste",
    "rowid": "1222360",
    "final_x": "3660413.98547",
    "final_y": "530787.89805",
    "longitude": "-90.13467691861848",
    "latitude": "29.954106015192476",
    "geocoded_column": {
      "latitude": "29.954106015192476",
      "longitude": "-90.13467691861848"
    }
  },
  {
    "service_request": "2025-1222359",
    "request_type": "Safety & Permits",
    "request_reason": "Licenses & Permits",
    "date_created": "2025-08-28T14:33:16.000",
    "date_modified": "2025-08-28T14:33:18.000",
    "request_status": "Pending",
    "responsible_agency": "Safety and Permits",
    "final_address": "41 Stilt St",
    "address_councildis": "D",
    "status": "Pending",
    "rowid": "1222359",
    "final_x": "3673501.52904",
    "final_y": "557308.542171",
    "longitude": "-90.09244479678645",
    "latitude": "30.026645658177287",
    "geocoded_column": {
      "latitude": "30.026645658177287",
      "longitude": "-90.09244479678645"
    }
  },
  {
    "service_request": "2025-1222358",
    "request_type": "Trash/Recycling",
    "request_reason": "Request a Large Item Pick Up",
    "date_created": "2025-08-28T14:31:34.000",
    "date_modified": "2025-08-28T14:31:36.000",
    "request_status": "Pending",
    "responsible_agency": "Department of Sanitation",
    "final_address": "4703 Rosemont Pl",
    "address_councildis": "E",
    "status": "Assigned to Contractor",
    "contractor": "Waste Pro",
    "rowid": "1222358",
    "final_x": "3702795.81828",
    "final_y": "554648.91292",
    "longitude": "-89.99997644837131",
    "latitude": "30.018427865368288",
    "geocoded_column": {
      "latitude": "30.018427865368288",
      "longitude": "-89.99997644837131"
    }
  },
  {
    "service_request": "2025-1222357",
    "request_type": "Abandoned Vehicles",
    "request_reason": "Abandoned/Junk Vehicles",
    "date_created": "2025-08-28T14:28:54.000",
    "date_modified": "2025-08-28T14:50:47.000",
    "request_status": "Pending",
    "responsible_agency": "Department of Public Works",
    "final_address": "1100 BLK N Robertson St",
    "address_councildis": "C",
    "status": "Pending",
    "rowid": "1222357",
    "final_x": "3681106.06492",
    "final_y": "535726.209831",
    "longitude": "-90.06916769366771",
    "latitude": "29.96707328048501",
    "geocoded_column": {
      "latitude": "29.96707328048501",
      "longitude": "-90.06916769366771"
    }
  },
  {
    "service_request": "2025-1222356",
    "request_type": "Abandoned Vehicles",
    "request_reason": "Abandoned/Junk Vehicles",
    "date_created": "2025-08-28T14:27:39.000",
    "date_modified": "2025-08-28T14:27:41.000",
    "request_status": "Pending",
    "responsible_agency": "Department of Public Works",
    "final_address": "1100 BLK Columbus St",
    "address_councildis": "C",
    "status": "Pending",
    "rowid": "1222356",
    "final_x": "3683080.54325",
    "final_y": "535899.746886",
    "longitude": "-90.06292620998163",
    "latitude": "29.9674904020089",
    "geocoded_column": {
      "latitude": "29.9674904020089",
      "longitude": "-90.06292620998163"
    }
  },
  {
    "service_request": "2025-1222355",
    "request_type": "Trash/Recycling",
    "request_reason": "Request a Large Item Pick Up",
    "date_created": "2025-08-28T14:21:22.000",
    "date_modified": "2025-08-28T14:21:24.000",
    "request_status": "Pending",
    "responsible_agency": "Department of Sanitation",
    "final_address": "1701 Rivertree Ct",
    "address_councildis": "C",
    "status": "Assigned to Contractor",
    "contractor": "Richards Disposal",
    "rowid": "1222355",
    "final_x": "3701390.02557",
    "final_y": "524465.858108",
    "longitude": "-90.00552332927309",
    "latitude": "29.93548038073748",
    "geocoded_column": {
      "latitude": "29.93548038073748",
      "longitude": "-90.00552332927309"
    }
  },
  {
    "service_request": "2025-1222354",
    "request_type": "Trash/Recycling",
    "request_reason": "Order Recycling Cart",
    "date_created": "2025-08-28T14:16:31.000",
    "date_modified": "2025-08-28T14:16:33.000",
    "request_status": "Pending",
    "responsible_agency": "Department of Sanitation",
    "final_address": "1207 N Robertson St",
    "address_councildis": "D",
    "status": "Pending",
    "rowid": "1222354",
    "final_x": "3681264.63727",
    "final_y": "535998.089799",
    "longitude": "-90.06865744506572",
    "latitude": "29.96781604559466",
    "geocoded_column": {
      "latitude": "29.96781604559466",
      "longitude": "-90.06865744506572"
    }
  },
  {
    "service_request": "2025-1222353",
    "request_type": "Trash/Recycling",
    "request_reason": "Order Trash Cart",
    "date_created": "2025-08-28T14:15:15.000",
    "date_modified": "2025-08-28T14:15:17.000",
    "request_status": "Pending",
    "responsible_agency": "Department of Sanitation",
    "final_address": "1207 N Robertson St",
    "address_councildis": "D",
    "status": "Assigned to Contractor",
    "contractor": "IV Waste",
    "rowid": "1222353",
    "final_x": "3681264.63727",
    "final_y": "535998.089799",
    "longitude": "-90.06865744506572",
    "latitude": "29.96781604559466",
    "geocoded_column": {
      "latitude": "29.96781604559466",
      "longitude": "-90.06865744506572"
    }
  },
  {
    "service_request": "2025-1222352",
    "request_type": "Abandoned Vehicles",
    "request_reason": "Abandoned/Junk Vehicles",
    "date_created": "2025-08-28T14:05:36.000",
    "date_modified": "2025-08-28T14:05:39.000",
    "request_status": "Pending",
    "responsible_agency": "Department of Public Works",
    "final_address": "1710 Napoleon Ave",
    "address_councildis": "B",
    "status": "Pending",
    "rowid": "1222352",
    "final_x": "3670708.60577",
    "final_y": "521322.631097",
    "longitude": "-90.1024916297813",
    "latitude": "29.92777947343328",
    "geocoded_column": {
      "latitude": "29.92777947343328",
      "longitude": "-90.1024916297813"
    }
  },
  {
    "service_request": "2025-1222351",
    "request_type": "Trash/Recycling",
    "request_reason": "Replace Trash Cart",
    "date_created": "2025-08-28T14:05:27.000",
    "date_modified": "2025-08-28T14:05:55.000",
    "request_status": "Pending",
    "responsible_agency": "Department of Sanitation",
    "final_address": "2823 Dryades St",
    "address_councildis": "B",
    "status": "Assigned to Contractor",
    "contractor": "IV Waste",
    "rowid": "1222351",
    "final_x": "3675121.1083",
    "final_y": "523346.359867",
    "longitude": "-90.0884929833102",
    "latitude": "29.93321300350696",
    "geocoded_column": {
      "latitude": "29.93321300350696",
      "longitude": "-90.0884929833102"
    }
  },
  {
    "service_request": "2025-1222350",
    "request_type": "Trash/Recycling",
    "request_reason": "Request a Large Item Pick Up",
    "date_created": "2025-08-28T14:03:46.000",
    "date_modified": "2025-08-28T14:03:49.000",
    "request_status": "Pending",
    "responsible_agency": "Department of Sanitation",
    "final_address": "6911 Manchester St",
    "address_councildis": "E",
    "status": "Assigned to Contractor",
    "contractor": "Waste Pro",
    "rowid": "1222350",
    "final_x": "3698700.83069",
    "final_y": "560109.602013",
    "longitude": "-90.01271617062565",
    "latitude": "30.03357305699327",
    "geocoded_column": {
      "latitude": "30.03357305699327",
      "longitude": "-90.01271617062565"
    }
  },
  {
    "service_request": "2025-1222349",
    "request_type": "Property Maintenance",
    "request_reason": "Property Maintenance",
    "date_created": "2025-08-28T14:02:30.000",
    "date_modified": "2025-08-28T14:02:31.000",
    "request_status": "Pending",
    "responsible_agency": "Department of Code Enforcement",
    "final_address": "1217 Marigny St",
    "address_councildis": "C",
    "status": "Pending",
    "rowid": "1222349",
    "final_x": "3685406.43221",
    "final_y": "536864.146376",
    "longitude": "-90.05554705830127",
    "latitude": "29.970071053947187",
    "geocoded_column": {
      "latitude": "29.970071053947187",
      "longitude": "-90.05554705830127"
    }
  },
  {
    "service_request": "2025-1222348",
    "request_type": "Trash/Recycling",
    "request_reason": "Repair Trash Cart",
    "date_created": "2025-08-28T14:01:59.000",
    "date_modified": "2025-08-28T14:02:41.000",
    "request_status": "Pending",
    "responsible_agency": "Department of Sanitation",
    "final_address": "1484 Steeple Chase Ln",
    "address_councildis": "C",
    "status": "Assigned to Contractor",
    "contractor": "Richards Disposal",
    "rowid": "1222348",
    "final_x": "3700054.16541",
    "final_y": "525745.083325",
    "longitude": "-90.00969396981085",
    "latitude": "29.93904030214355",
    "geocoded_column": {
      "latitude": "29.93904030214355",
      "longitude": "-90.00969396981085"
    }
  },
  {
    "service_request": "2025-1222347",
    "request_type": "Trash/Recycling",
    "request_reason": "Repair Trash Cart",
    "date_created": "2025-08-28T14:00:53.000",
    "date_modified": "2025-08-28T14:00:57.000",
    "request_status": "Pending",
    "responsible_agency": "Department of Sanitation",
    "final_address": "11325 Willow Dr",
    "address_councildis": "C",
    "status": "Assigned to Contractor",
    "contractor": "Richards Disposal",
    "rowid": "1222347",
    "final_x": "3726082.39091",
    "final_y": "514587.118387",
    "longitude": "-89.92795303854481",
    "latitude": "29.907507584353173",
    "geocoded_column": {
      "latitude": "29.907507584353173",
      "longitude": "-89.92795303854481"
    }
  },
  {
    "service_request": "2025-1222346",
    "request_type": "Trash/Recycling",
    "request_reason": "Request a Large Item Pick Up",
    "date_created": "2025-08-28T13:58:32.000",
    "date_modified": "2025-08-28T13:58:34.000",
    "request_status": "Pending",
    "responsible_agency": "Department of Sanitation",
    "final_address": "531 S Pierce St",
    "address_councildis": "A",
    "status": "Assigned to Contractor",
    "contractor": "IV Waste",
    "rowid": "1222346",
    "final_x": "3670260.28839",
    "final_y": "536583.126727",
    "longitude": "-90.10338976826979",
    "latitude": "29.96975407557143",
    "geocoded_column": {
      "latitude": "29.96975407557143",
      "longitude": "-90.10338976826979"
    }
  },
  {
    "service_request": "2025-1222345",
    "request_type": "Abandoned Vehicles",
    "request_reason": "Abandoned/Junk Vehicles",
    "date_created": "2025-08-28T13:57:51.000",
    "date_modified": "2025-08-28T13:57:53.000",
    "request_status": "Pending",
    "responsible_agency": "Department of Public Works",
    "final_address": "4113 General Ogden St",
    "address_councildis": "A",
    "status": "Pending",
    "rowid": "1222345",
    "final_x": "3666919.43623",
    "final_y": "537954.618249",
    "longitude": "-90.11389442735626",
    "latitude": "29.973623401657704",
    "geocoded_column": {
      "latitude": "29.973623401657704",
      "longitude": "-90.11389442735626"
    }
  },
  {
    "service_request": "2025-1222344",
    "request_type": "Parks & Parkways",
    "request_reason": "Request Tree Service (Right of Way/Public Property)",
    "date_created": "2025-08-28T13:55:39.000",
    "date_modified": "2025-08-28T13:55:40.000",
    "request_status": "Pending",
    "responsible_agency": "Department of Parks & Parkway",
    "final_address": "2111 Allen St",
    "address_councildis": "D",
    "status": "Pending",
    "rowid": "1222344",
    "final_x": "3682505.92008",
    "final_y": "539917.175178",
    "longitude": "-90.06460040112466",
    "latitude": "29.97855444197899",
    "geocoded_column": {
      "latitude": "29.97855444197899",
      "longitude": "-90.06460040112466"
    }
  },
  {
    "service_request": "2025-1222343",
    "request_type": "Streetlights",
    "request_reason": "Streetlight Outage/Malfunction",
    "date_created": "2025-08-28T13:55:21.000",
    "date_modified": "2025-08-28T13:55:23.000",
    "request_status": "Pending",
    "responsible_agency": "Department of Public Works",
    "final_address": "GENERAL DE GAULLE DR & WOODLAND HWY & WOODLAND DR & WOODLAND BRIDGE",
    "address_councildis": "C",
    "status": "Pending",
    "rowid": "1222343",
    "final_x": "3705400.3",
    "final_y": "514971.88",
    "longitude": "-89.99321351264551",
    "latitude": "29.90924684950023",
    "geocoded_column": {
      "latitude": "29.90924684950023",
      "longitude": "-89.99321351264551"
    }
  },
  {
    "service_request": "2025-1222342",
    "request_type": "Abandoned Vehicles",
    "request_reason": "Abandoned/Junk Vehicles",
    "date_created": "2025-08-28T13:53:14.000",
    "date_modified": "2025-08-28T13:59:09.000",
    "request_status": "Pending",
    "responsible_agency": "Department of Public Works",
    "final_address": "1315 Terry St",
    "address_councildis": "C",
    "status": "Pending",
    "rowid": "1222342",
    "final_x": "3696907.63095",
    "final_y": "526404.478718",
    "longitude": "-90.01960403206289",
    "latitude": "29.940952980211236",
    "geocoded_column": {
      "latitude": "29.940952980211236",
      "longitude": "-90.01960403206289"
    }
  },
  {
    "service_request": "2025-1222341",
    "request_type": "Trash/Recycling",
    "request_reason": "Request a Large Item Pick Up",
    "date_created": "2025-08-28T13:51:37.000",
    "date_modified": "2025-08-28T13:51:39.000",
    "request_status": "Pending",
    "responsible_agency": "Department of Sanitation",
    "final_address": "1003 Jourdan Ave",
    "address_councildis": "E",
    "status": "Assigned to Contractor",
    "contractor": "Waste Pro",
    "rowid": "1222341",
    "final_x": "3694977.12707",
    "final_y": "534104.147525",
    "longitude": "-90.02542147442885",
    "latitude": "29.96218510048322",
    "geocoded_column": {
      "latitude": "29.96218510048322",
      "longitude": "-90.02542147442885"
    }
  },
  {
    "service_request": "2025-1222340",
    "request_type": "Streetlights",
    "request_reason": "Streetlight Outage/Malfunction",
    "date_created": "2025-08-28T13:48:23.000",
    "date_modified": "2025-08-28T13:48:26.000",
    "request_status": "Pending",
    "responsible_agency": "Department of Public Works",
    "final_address": "1017 Dufossat St",
    "address_councildis": "B",
    "status": "Pending",
    "rowid": "1222340",
    "final_x": "3668146.15796",
    "final_y": "519143.010743",
    "longitude": "-90.11065411694987",
    "latitude": "29.921861644987967",
    "geocoded_column": {
      "latitude": "29.921861644987967",
      "longitude": "-90.11065411694987"
    }
  },
  {
    "service_request": "2025-1222339",
    "request_type": "Trash/Recycling",
    "request_reason": "Repair Trash Cart",
    "date_created": "2025-08-28T13:47:17.000",
    "date_modified": "2025-08-28T13:47:21.000",
    "request_status": "Pending",
    "responsible_agency": "Department of Sanitation",
    "final_address": "4828 Constance St",
    "address_councildis": "B",
    "status": "Assigned to Contractor",
    "contractor": "IV Waste",
    "rowid": "1222339",
    "final_x": "3669388.68097",
    "final_y": "518212.740918",
    "longitude": "-90.1067634206452",
    "latitude": "29.91926718219931",
    "geocoded_column": {
      "latitude": "29.91926718219931",
      "longitude": "-90.1067634206452"
    }
  },
  {
    "service_request": "2025-1222338",
    "request_type": "Trash/Recycling",
    "request_reason": "Illegal Dumping",
    "date_created": "2025-08-28T13:47:12.000",
    "date_modified": "2025-08-28T13:47:14.000",
    "request_status": "Pending",
    "responsible_agency": "Department of Sanitation",
    "final_address": "4811 Redwood St",
    "address_councildis": "E",
    "status": "Pending",
    "rowid": "1222338",
    "final_x": "3712526.34354",
    "final_y": "556506.096282",
    "longitude": "-89.96916202760025",
    "latitude": "30.02321946222862",
    "geocoded_column": {
      "latitude": "30.02321946222862",
      "longitude": "-89.96916202760025"
    }
  },
  {
    "service_request": "2025-1222337",
    "request_type": "Trash/Recycling",
    "request_reason": "Replace Trash Cart",
    "date_created": "2025-08-28T13:44:53.000",
    "date_modified": "2025-08-28T13:44:55.000",
    "request_status": "Pending",
    "responsible_agency": "Department of Sanitation",
    "final_address": "3227 Delachaise St",
    "address_councildis": "B",
    "status": "Assigned to Contractor",
    "contractor": "IV Waste",
    "rowid": "1222337",
    "final_x": "3671651.25351",
    "final_y": "526993.61587",
    "longitude": "-90.0993231125931",
    "latitude": "29.94334497093345",
    "geocoded_column": {
      "latitude": "29.94334497093345",
      "longitude": "-90.0993231125931"
    }
  },
  {
    "service_request": "2025-1222336",
    "request_type": "Trash/Recycling",
    "request_reason": "Repair Trash Cart",
    "date_created": "2025-08-28T13:43:17.000",
    "date_modified": "2025-08-28T13:43:20.000",
    "request_status": "Pending",
    "responsible_agency": "Department of Sanitation",
    "final_address": "3225 Delachaise St",
    "address_councildis": "B",
    "status": "Assigned to Contractor",
    "contractor": "IV Waste",
    "rowid": "1222336",
    "final_x": "3671655.63643",
    "final_y": "526980.805758",
    "longitude": "-90.09930971013792",
    "latitude": "29.94330961751604",
    "geocoded_column": {
      "latitude": "29.94330961751604",
      "longitude": "-90.09930971013792"
    }
  },
  {
    "service_request": "2025-1222335",
    "request_type": "Trash/Recycling",
    "request_reason": "Illegal Dumping",
    "date_created": "2025-08-28T13:39:55.000",
    "date_modified": "2025-08-28T13:39:57.000",
    "request_status": "Pending",
    "responsible_agency": "Department of Sanitation",
    "final_address": "1429 Dearmas St",
    "address_councildis": "C",
    "status": "Pending",
    "rowid": "1222335",
    "final_x": "3689953.42812",
    "final_y": "527069.251838",
    "longitude": "-90.0415359671295",
    "latitude": "29.9429982819503",
    "geocoded_column": {
      "latitude": "29.9429982819503",
      "longitude": "-90.0415359671295"
    }
  },
  {
    "service_request": "2025-1222334",
    "request_type": "Roads and Streets",
    "request_reason": "Pothole",
    "date_created": "2025-08-28T13:38:25.000",
    "date_modified": "2025-08-28T13:38:27.000",
    "request_status": "Pending",
    "responsible_agency": "Department of Public Works",
    "final_address": "2035 Nashville Ave",
    "address_councildis": "A",
    "status": "Pending",
    "rowid": "1222334",
    "final_x": "3666714.74554",
    "final_y": "523512.618107",
    "longitude": "-90.1150258425022",
    "latitude": "29.933918602413893",
    "geocoded_column": {
      "latitude": "29.933918602413893",
      "longitude": "-90.1150258425022"
    }
  },
  {
    "service_request": "2025-1222333",
    "request_type": "Streetlights",
    "request_reason": "Streetlight Outage/Malfunction",
    "date_created": "2025-08-28T13:32:28.000",
    "date_modified": "2025-08-28T13:32:29.000",
    "request_status": "Pending",
    "responsible_agency": "Department of Public Works",
    "final_address": "7453 Bullard Ave",
    "address_councildis": "E",
    "status": "Pending",
    "rowid": "1222333",
    "final_x": "3713531.63045",
    "final_y": "567007.437988",
    "longitude": "-89.96558949396862",
    "latitude": "30.052060990432924",
    "geocoded_column": {
      "latitude": "30.052060990432924",
      "longitude": "-89.96558949396862"
    }
  },
  {
    "service_request": "2025-1222332",
    "request_type": "Trash/Recycling",
    "request_reason": "Request a Large Item Pick Up",
    "date_created": "2025-08-28T13:28:13.000",
    "date_modified": "2025-08-28T13:28:15.000",
    "request_status": "Pending",
    "responsible_agency": "Department of Sanitation",
    "final_address": "4828 Eastview Dr",
    "address_councildis": "E",
    "status": "Assigned to Contractor",
    "contractor": "Waste Pro",
    "rowid": "1222332",
    "final_x": "3705005.74039",
    "final_y": "555897.578905",
    "longitude": "-89.99294781156699",
    "latitude": "30.0217903210717",
    "geocoded_column": {
      "latitude": "30.0217903210717",
      "longitude": "-89.99294781156699"
    }
  },
  {
    "service_request": "2025-1222331",
    "request_type": "Streetlights",
    "request_reason": "Streetlight Outage/Malfunction",
    "date_created": "2025-08-28T13:27:10.000",
    "date_modified": "2025-08-28T13:27:12.000",
    "request_status": "Pending",
    "responsible_agency": "Department of Public Works",
    "final_address": "600 Bouny St",
    "address_councildis": "C",
    "status": "Pending",
    "rowid": "1222331",
    "final_x": "3686391.24412",
    "final_y": "529423.848193",
    "longitude": "-90.05269954281188",
    "latitude": "29.94958256604924",
    "geocoded_column": {
      "latitude": "29.94958256604924",
      "longitude": "-90.05269954281188"
    }
  },
  {
    "service_request": "2025-1222330",
    "request_type": "Abandoned Vehicles",
    "request_reason": "Abandoned/Junk Vehicles",
    "date_created": "2025-08-28T13:26:35.000",
    "date_modified": "2025-08-28T13:26:36.000",
    "request_status": "Pending",
    "responsible_agency": "Department of Public Works",
    "final_address": "4219 Palmyra St",
    "address_councildis": "A",
    "status": "Pending",
    "rowid": "1222330",
    "final_x": "3670031.15662",
    "final_y": "538252.860937",
    "longitude": "-90.10405681774195",
    "latitude": "29.97435204427322",
    "geocoded_column": {
      "latitude": "29.97435204427322",
      "longitude": "-90.10405681774195"
    }
  },
  {
    "service_request": "2025-1222329",
    "request_type": "Trash/Recycling",
    "request_reason": "Order Recycling Cart",
    "date_created": "2025-08-28T13:25:41.000",
    "date_modified": "2025-08-28T13:25:54.000",
    "request_status": "Pending",
    "responsible_agency": "Department of Sanitation",
    "final_address": "600 Bouny St",
    "address_councildis": "C",
    "status": "Pending",
    "rowid": "1222329",
    "final_x": "3686391.24412",
    "final_y": "529423.848193",
    "longitude": "-90.05269954281188",
    "latitude": "29.94958256604924",
    "geocoded_column": {
      "latitude": "29.94958256604924",
      "longitude": "-90.05269954281188"
    }
  },
  {
    "service_request": "2025-1222328",
    "request_type": "Roads and Streets",
    "request_reason": "Sidewalk Damaged or Missing",
    "date_created": "2025-08-28T13:24:41.000",
    "date_modified": "2025-08-28T13:24:43.000",
    "request_status": "Pending",
    "responsible_agency": "Department of Public Works",
    "final_address": "4302 Canal St",
    "address_councildis": "A",
    "status": "Pending",
    "rowid": "1222328",
    "final_x": "3670150.24142",
    "final_y": "538925.904202",
    "longitude": "-90.10365790721514",
    "latitude": "29.97619917273304",
    "geocoded_column": {
      "latitude": "29.97619917273304",
      "longitude": "-90.10365790721514"
    }
  },
  {
    "service_request": "2025-1222327",
    "request_type": "Property Maintenance",
    "request_reason": "Property Maintenance",
    "date_created": "2025-08-28T13:21:45.000",
    "date_modified": "2025-08-28T13:21:47.000",
    "request_status": "Pending",
    "responsible_agency": "Department of Code Enforcement",
    "final_address": "3420 Caesar Dr",
    "address_councildis": "C",
    "status": "Pending",
    "rowid": "1222327",
    "final_x": "3696763.97136",
    "final_y": "524175.043004",
    "longitude": "-90.02013825625824",
    "latitude": "29.934827330369657",
    "geocoded_column": {
      "latitude": "29.934827330369657",
      "longitude": "-90.02013825625824"
    }
  },
  {
    "service_request": "2025-1222326",
    "request_type": "Trash/Recycling",
    "request_reason": "Missed Trash Pick-Up",
    "date_created": "2025-08-28T13:20:44.000",
    "date_modified": "2025-08-28T14:12:23.000",
    "case_close_date": "2025-08-28T09:12:21.000",
    "request_status": "Closed",
    "responsible_agency": "Department of Sanitation",
    "final_address": "719 Amelia St",
    "address_councildis": "B",
    "status": "Invalid Request",
    "contractor": "IV Waste",
    "contractor_action": "Invalid",
    "rowid": "1222326",
    "final_x": "3673991.65684",
    "final_y": "517913.063606",
    "longitude": "-90.09224437768499",
    "latitude": "29.918306878632688",
    "geocoded_column": {
      "latitude": "29.918306878632688",
      "longitude": "-90.09224437768499"
    }
  },
  {
    "service_request": "2025-1222325",
    "request_type": "Street and Traffic Signs",
    "request_reason": "Stop Sign Missing or Damaged",
    "date_created": "2025-08-28T13:13:34.000",
    "date_modified": "2025-08-28T13:13:36.000",
    "request_status": "Pending",
    "responsible_agency": "Department of Public Works",
    "final_address": "0 BLK Clubhouse Dr",
    "address_councildis": "C",
    "status": "Pending",
    "rowid": "1222325",
    "final_x": "3717792.36064",
    "final_y": "514188.605925",
    "longitude": "-89.95413220673389",
    "latitude": "29.906688793342312",
    "geocoded_column": {
      "latitude": "29.906688793342312",
      "longitude": "-89.95413220673389"
    }
  },
  {
    "service_request": "2025-1222324",
    "request_type": "Streetlights",
    "request_reason": "Streetlight Outage/Malfunction",
    "date_created": "2025-08-28T13:13:12.000",
    "date_modified": "2025-08-28T13:13:14.000",
    "request_status": "Pending",
    "responsible_agency": "Department of Public Works",
    "final_address": "829 St Peter St",
    "address_councildis": "C",
    "status": "Pending",
    "rowid": "1222324",
    "final_x": "3682082.43074",
    "final_y": "532820.242756",
    "longitude": "-90.0661858130514",
    "latitude": "29.95905321112858",
    "geocoded_column": {
      "latitude": "29.95905321112858",
      "longitude": "-90.0661858130514"
    }
  },
  {
    "service_request": "2025-1222323",
    "request_type": "Roads and Streets",
    "request_reason": "Pothole",
    "date_created": "2025-08-28T13:10:19.000",
    "date_modified": "2025-08-28T13:10:21.000",
    "request_status": "Pending",
    "responsible_agency": "Department of Public Works",
    "final_address": "0 BLK Clubhouse Dr",
    "address_councildis": "C",
    "status": "Pending",
    "rowid": "1222323",
    "final_x": "3717792.36064",
    "final_y": "514188.605925",
    "longitude": "-89.95413220673389",
    "latitude": "29.906688793342312",
    "geocoded_column": {
      "latitude": "29.906688793342312",
      "longitude": "-89.95413220673389"
    }
  },
  {
    "service_request": "2025-1222322",
    "request_type": "Abandoned Vehicles",
    "request_reason": "Abandoned/Junk Vehicles",
    "date_created": "2025-08-28T13:03:55.000",
    "date_modified": "2025-08-28T13:03:56.000",
    "request_status": "Pending",
    "responsible_agency": "Department of Public Works",
    "final_address": "4000 BLK N Rampart St",
    "address_councildis": "C",
    "status": "Pending",
    "rowid": "1222322",
    "final_x": "3691843.69928",
    "final_y": "534831.169955",
    "longitude": "-90.0352903280392",
    "latitude": "29.964282130102717",
    "geocoded_column": {
      "latitude": "29.964282130102717",
      "longitude": "-90.0352903280392"
    }
  },
  {
    "service_request": "2025-1222321",
    "request_type": "Trash/Recycling",
    "request_reason": "Order Recycling Cart",
    "date_created": "2025-08-28T13:03:37.000",
    "date_modified": "2025-08-28T13:03:40.000",
    "request_status": "Pending",
    "responsible_agency": "Department of Sanitation",
    "final_address": "7421 Crestmont Rd",
    "address_councildis": "E",
    "status": "Pending",
    "rowid": "1222321",
    "final_x": "3699961.52656",
    "final_y": "559744.857821",
    "longitude": "-90.0087455801671",
    "latitude": "30.032530139598407",
    "geocoded_column": {
      "latitude": "30.032530139598407",
      "longitude": "-90.0087455801671"
    }
  },